{"region": {"center": {"longitude": -71.07124328613281, "latitude": 42.34784169448538}}, "businesses": [{"rating": 5.0, "transactions": [], "image_url": "https://s3-media1.fl.yelpcdn.com/bphoto/6iup3jlLQGGuqYR0kttalg/o.jpg", "phone": "+16179832007", "id": "asap-lock-and-key-jamaica-plain-8", "distance": 5931.8115884399995, "location": {"display_address": ["Jamaica Plain, MA 02130"], "state": "MA", "address2": "", "address1": "", "zip_code": "02130", "city": "Jamaica Plain", "country": "US", "address3": ""}, "url": "https://www.yelp.com/biz/asap-lock-and-key-jamaica-plain-8?adjust_creative=gBcvfFpabk3CnzmXKdYe3w&utm_campaign=yelp_api_v3&utm_medium=api_v3_business_search&utm_source=gBcvfFpabk3CnzmXKdYe3w", "categories": [{"alias": "locksmiths", "title": "Keys & Locksmiths"}], "display_phone": "(617) 983-2007", "is_closed": false, "name": "ASAP Lock & Key", "review_count": 16, "coordinates": {"longitude": -71.114539, "latitude": 42.3051691}}, {"rating": 5.0, "transactions": [], "image_url": "https://s3-media1.fl.yelpcdn.com/bphoto/v9szcqFoR3mx-pZKMAd9cQ/o.jpg", "phone": "+16175365466", "id": "boston-city-ride-boston", "distance": 1293.387290104, "location": {"display_address": ["101 Arch St", "Ste 1950", "Boston, MA 02110"], "state": "MA", "address2": "Ste 1950", "address1": "101 Arch St", "zip_code": "02110", "city": "Boston", "country": "US", "address3": ""}, "url": "https://www.yelp.com/biz/boston-city-ride-boston?adjust_creative=gBcvfFpabk3CnzmXKdYe3w&utm_campaign=yelp_api_v3&utm_medium=api_v3_business_search&utm_source=gBcvfFpabk3CnzmXKdYe3w", "categories": [{"alias": "limos", "title": "Limos"}, {"alias": "towncarservice", "title": "Town Car Service"}, {"alias": "airport_shuttles", "title": "Airport Shuttles"}], "display_phone": "(617) 536-5466", "is_closed": false, "name": "Boston City Ride", "review_count": 1, "coordinates": {"longitude": -71.0588044, "latitude": 42.3549739}}, {"rating": 5.0, "transactions": [], "image_url": "https://s3-media1.fl.yelpcdn.com/bphoto/DB20qZMsP4LnE2DoxDZv2A/o.jpg", "phone": "+16179638981", "id": "kodachris-realty-boston", "distance": 1859.75491334, "location": {"display_address": ["35 India St", "Fl 3", "Boston, MA 02110"], "state": "MA", "address2": "Fl 3", "address1": "35 India St", "zip_code": "02110", "city": "Boston", "country": "US", "address3": ""}, "url": "https://www.yelp.com/biz/kodachris-realty-boston?adjust_creative=gBcvfFpabk3CnzmXKdYe3w&utm_campaign=yelp_api_v3&utm_medium=api_v3_business_search&utm_source=gBcvfFpabk3CnzmXKdYe3w", "categories": [{"alias": "realestatesvcs", "title": "Real Estate Services"}], "display_phone": "(617) 963-8981", "is_closed": false, "name": "Kodachris Realty", "review_count": 1, "coordinates": {"longitude": -71.05314, "latitude": 42.35823}}, {"rating": 3.5, "transactions": [], "image_url": "https://s3-media3.fl.yelpcdn.com/bphoto/DmNcHn39oT_eEp8Fj53nvQ/o.jpg", "phone": "+16177839393", "id": "mcdonalds-brighton-2", "distance": 6975.781434136, "location": {"display_address": ["1750 Soldiers Field Rd", "Brighton, MA 02135"], "state": "MA", "address2": "", "address1": "1750 Soldiers Field Rd", "zip_code": "02135", "city": "Brighton", "country": "US", "address3": ""}, "url": "https://www.yelp.com/biz/mcdonalds-brighton-2?adjust_creative=gBcvfFpabk3CnzmXKdYe3w&utm_campaign=yelp_api_v3&utm_medium=api_v3_business_search&utm_source=gBcvfFpabk3CnzmXKdYe3w", "categories": [{"alias": "hotdogs", "title": "Fast Food"}, {"alias": "burgers", "title": "Burgers"}], "display_phone": "(617) 783-9393", "is_closed": false, "name": "McDonald's", "price": "$", "review_count": 32, "coordinates": {"longitude": -71.154865, "latitude": 42.358665}}, {"rating": 5.0, "transactions": [], "image_url": "https://s3-media3.fl.yelpcdn.com/bphoto/En6WVBF7F_stX_gAQo6DTw/o.jpg", "phone": "+17819568405", "id": "poetry-moving-cambridge", "distance": 7579.892425589999, "location": {"display_address": ["Cambridge, MA 02140"], "state": "MA", "address2": null, "address1": "", "zip_code": "02140", "city": "Cambridge", "country": "US", "address3": ""}, "url": "https://www.yelp.com/biz/poetry-moving-cambridge?adjust_creative=gBcvfFpabk3CnzmXKdYe3w&utm_campaign=yelp_api_v3&utm_medium=api_v3_business_search&utm_source=gBcvfFpabk3CnzmXKdYe3w", "categories": [{"alias": "movers", "title": "Movers"}], "display_phone": "(781) 956-8405", "is_closed": false, "name": "Poetry Moving", "review_count": 52, "coordinates": {"longitude": -71.1331939697266, "latitude": 42.3933143615723}}, {"rating": 1.0, "transactions": [], "image_url": "", "phone": "+16172049268", "id": "laz-parking-boston-8", "distance": 1411.480015568, "location": {"display_address": ["33 Arch St", "Boston, MA 02110"], "state": "MA", "address2": "", "address1": "33 Arch St", "zip_code": "02110", "city": "Boston", "country": "US", "address3": ""}, "url": "https://www.yelp.com/biz/laz-parking-boston-8?adjust_creative=gBcvfFpabk3CnzmXKdYe3w&utm_campaign=yelp_api_v3&utm_medium=api_v3_business_search&utm_source=gBcvfFpabk3CnzmXKdYe3w", "categories": [{"alias": "parking", "title": "Parking"}], "display_phone": "(617) 204-9268", "is_closed": false, "name": "LAZ Parking", "review_count": 1, "coordinates": {"longitude": -71.0579834, "latitude": 42.356041}}, {"rating": 5.0, "transactions": [], "image_url": "https://s3-media3.fl.yelpcdn.com/bphoto/kHotKzePKanVQGYnNm5mew/o.jpg", "phone": "+19788440552", "id": "tfmo-catering-boston-2", "distance": 2367.871992474, "location": {"display_address": ["5 N Hudson St", "Boston, MA 02113"], "state": "MA", "address2": null, "address1": "5 N Hudson St", "zip_code": "02113", "city": "Boston", "country": "US", "address3": ""}, "url": "https://www.yelp.com/biz/tfmo-catering-boston-2?adjust_creative=gBcvfFpabk3CnzmXKdYe3w&utm_campaign=yelp_api_v3&utm_medium=api_v3_business_search&utm_source=gBcvfFpabk3CnzmXKdYe3w", "categories": [{"alias": "catering", "title": "Caterers"}], "display_phone": "(978) 844-0552", "is_closed": false, "name": "TFMO Catering", "review_count": 1, "coordinates": {"longitude": -71.0549768, "latitude": 42.3654231}}, {"rating": 5.0, "transactions": [], "image_url": "", "phone": "+17742225757", "id": "boston-executive-car-service-boston-7", "distance": 886.1893957061999, "location": {"display_address": ["Boston, MA 02108"], "state": "MA", "address2": null, "address1": "", "zip_code": "02108", "city": "Boston", "country": "US", "address3": null}, "url": "https://www.yelp.com/biz/boston-executive-car-service-boston-7?adjust_creative=gBcvfFpabk3CnzmXKdYe3w&utm_campaign=yelp_api_v3&utm_medium=api_v3_business_search&utm_source=gBcvfFpabk3CnzmXKdYe3w", "categories": [{"alias": "limos", "title": "Limos"}, {"alias": "airport_shuttles", "title": "Airport Shuttles"}], "display_phone": "(774) 222-5757", "is_closed": false, "name": "Boston Executive Car Service", "review_count": 1, "coordinates": {"longitude": -71.0643844604492, "latitude": 42.3573684692383}}, {"rating": 5.0, "transactions": [], "image_url": "https://s3-media1.fl.yelpcdn.com/bphoto/iuEaR5QwFox28FwuYIriEw/o.jpg", "phone": "+16173387400", "id": "law-office-of-christopher-earley-boston", "distance": 1444.0402629149999, "location": {"display_address": ["44 School St", "Ste 300", "Boston, MA 02108"], "state": "MA", "address2": "Ste 300", "address1": "44 School St", "zip_code": "02108", "city": "Boston", "country": "US", "address3": ""}, "url": "https://www.yelp.com/biz/law-office-of-christopher-earley-boston?adjust_creative=gBcvfFpabk3CnzmXKdYe3w&utm_campaign=yelp_api_v3&utm_medium=api_v3_business_search&utm_source=gBcvfFpabk3CnzmXKdYe3w", "categories": [{"alias": "personal_injury", "title": "Personal Injury Law"}, {"alias": "workerscomplaw", "title": "Workers Compensation Law"}], "display_phone": "(617) 338-7400", "is_closed": false, "name": "Law Office of Christopher Earley", "review_count": 1, "coordinates": {"longitude": -71.0596758, "latitude": 42.3576189}}, {"rating": 5.0, "transactions": [], "image_url": "https://s3-media3.fl.yelpcdn.com/bphoto/TuCbYfpmjMrl_cCseQcBxQ/o.jpg", "phone": "+15085596727", "id": "excellence-corporate-transportation-services-boston", "distance": 2005.1322282299998, "location": {"display_address": ["1250 Boylston St", "Boston, MA 02302"], "state": "MA", "address2": null, "address1": "1250 Boylston St", "zip_code": "02302", "city": "Boston", "country": "US", "address3": null}, "url": "https://www.yelp.com/biz/excellence-corporate-transportation-services-boston?adjust_creative=gBcvfFpabk3CnzmXKdYe3w&utm_campaign=yelp_api_v3&utm_medium=api_v3_business_search&utm_source=gBcvfFpabk3CnzmXKdYe3w", "categories": [{"alias": "limos", "title": "Limos"}], "display_phone": "(508) 559-6727", "is_closed": false, "name": "Excellence Corporate Transportation Services", "review_count": 1, "coordinates": {"longitude": -71.0953216552734, "latitude": 42.3449478149414}}, {"rating": 1.0, "transactions": [], "image_url": "https://s3-media2.fl.yelpcdn.com/bphoto/8cEHG9cqvAoSbcHAQ3rcuw/o.jpg", "phone": "+18662229148", "id": "sunnys-worldwide-chauffeured-transportation-boston", "distance": 994.9859778743999, "location": {"display_address": ["Boston, MA 02111"], "state": "MA", "address2": null, "address1": null, "zip_code": "02111", "city": "Boston", "country": "US", "address3": ""}, "url": "https://www.yelp.com/biz/sunnys-worldwide-chauffeured-transportation-boston?adjust_creative=gBcvfFpabk3CnzmXKdYe3w&utm_campaign=yelp_api_v3&utm_medium=api_v3_business_search&utm_source=gBcvfFpabk3CnzmXKdYe3w", "categories": [{"alias": "airport_shuttles", "title": "Airport Shuttles"}, {"alias": "limos", "title": "Limos"}], "display_phone": "(866) 222-9148", "is_closed": false, "name": "Sunny's Worldwide Chauffeured Transportation", "review_count": 2, "coordinates": {"longitude": -71.06077, "latitude": 42.35176}}, {"rating": 5.0, "transactions": [], "image_url": "https://s3-media4.fl.yelpcdn.com/bphoto/LOuv6BGMGnvO1tBNeBoYMw/o.jpg", "phone": "+16179136800", "id": "magnificent-transportation-boston", "distance": 1542.997613911, "location": {"display_address": ["Boston, MA 02108"], "state": "MA", "address2": "", "address1": null, "zip_code": "02108", "city": "Boston", "country": "US", "address3": ""}, "url": "https://www.yelp.com/biz/magnificent-transportation-boston?adjust_creative=gBcvfFpabk3CnzmXKdYe3w&utm_campaign=yelp_api_v3&utm_medium=api_v3_business_search&utm_source=gBcvfFpabk3CnzmXKdYe3w", "categories": [{"alias": "limos", "title": "Limos"}, {"alias": "airport_shuttles", "title": "Airport Shuttles"}], "display_phone": "(617) 913-6800", "is_closed": false, "name": "Magnificent Transportation", "review_count": 1, "coordinates": {"longitude": -71.060658, "latitude": 42.359305}}, {"rating": 1.0, "transactions": [], "image_url": "", "phone": "+16177654443", "id": "617-snow-removal-corporation-boston", "distance": 1819.7906559219998, "location": {"display_address": ["92 State St", "Boston, MA 02109"], "state": "MA", "address2": null, "address1": "92 State St", "zip_code": "02109", "city": "Boston", "country": "US", "address3": ""}, "url": "https://www.yelp.com/biz/617-snow-removal-corporation-boston?adjust_creative=gBcvfFpabk3CnzmXKdYe3w&utm_campaign=yelp_api_v3&utm_medium=api_v3_business_search&utm_source=gBcvfFpabk3CnzmXKdYe3w", "categories": [{"alias": "snowremoval", "title": "Snow Removal"}], "display_phone": "(617) 765-4443", "is_closed": false, "name": "617 Snow Removal Corporation", "review_count": 1, "coordinates": {"longitude": -71.0553207, "latitude": 42.3592415}}, {"rating": 2.0, "transactions": [], "image_url": "https://s3-media2.fl.yelpcdn.com/bphoto/9z4126hTe9alJsyEOugjTw/o.jpg", "phone": "+16175694545", "id": "park-shuttle-and-fly-boston-2", "distance": 6493.932163416001, "location": {"display_address": ["320 William F McClellan Hwy", "Boston, MA 02128"], "state": "MA", "address2": "", "address1": "320 William F McClellan Hwy", "zip_code": "02128", "city": "Boston", "country": "US", "address3": ""}, "url": "https://www.yelp.com/biz/park-shuttle-and-fly-boston-2?adjust_creative=gBcvfFpabk3CnzmXKdYe3w&utm_campaign=yelp_api_v3&utm_medium=api_v3_business_search&utm_source=gBcvfFpabk3CnzmXKdYe3w", "categories": [{"alias": "parking", "title": "Parking"}], "display_phone": "(617) 569-4545", "is_closed": false, "name": "Park Shuttle & Fly", "review_count": 32, "coordinates": {"longitude": -71.0148392, "latitude": 42.3901978}}, {"rating": 5.0, "transactions": [], "image_url": "https://s3-media1.fl.yelpcdn.com/bphoto/s6qa5OfjSgkzrQFDNwQwKg/o.jpg", "phone": "+18778703649", "id": "fenway-ticket-king-boston-2", "distance": 2134.836019926, "location": {"display_address": ["4 Yawkey Way", "Boston, MA 02215"], "state": "MA", "address2": "", "address1": "4 Yawkey Way", "zip_code": "02215", "city": "Boston", "country": "US", "address3": ""}, "url": "https://www.yelp.com/biz/fenway-ticket-king-boston-2?adjust_creative=gBcvfFpabk3CnzmXKdYe3w&utm_campaign=yelp_api_v3&utm_medium=api_v3_business_search&utm_source=gBcvfFpabk3CnzmXKdYe3w", "categories": [{"alias": "ticketsales", "title": "Ticket Sales"}], "display_phone": "(877) 870-3649", "is_closed": false, "name": "Fenway Ticket King", "review_count": 1, "coordinates": {"longitude": -71.097162, "latitude": 42.3465398}}, {"rating": 5.0, "transactions": [], "image_url": "https://s3-media2.fl.yelpcdn.com/bphoto/_XQjbxEdpKyQvoo0p7nA_w/o.jpg", "phone": "+16036821847", "id": "chris-mckenna-commonwealth-standard-realty-advisors-boston", "distance": 2218.121457068, "location": {"display_address": ["330 W 2nd St", "Boston, MA 02127"], "state": "MA", "address2": "", "address1": "330 W 2nd St", "zip_code": "02127", "city": "Boston", "country": "US", "address3": ""}, "url": "https://www.yelp.com/biz/chris-mckenna-commonwealth-standard-realty-advisors-boston?adjust_creative=gBcvfFpabk3CnzmXKdYe3w&utm_campaign=yelp_api_v3&utm_medium=api_v3_business_search&utm_source=gBcvfFpabk3CnzmXKdYe3w", "categories": [{"alias": "realestateagents", "title": "Real Estate Agents"}], "display_phone": "(603) 682-1847", "is_closed": false, "name": "Chris McKenna - Commonwealth Standard Realty Advisors", "review_count": 2, "coordinates": {"longitude": -71.0471768, "latitude": 42.3388098}}, {"rating": 4.0, "transactions": [], "image_url": "https://s3-media2.fl.yelpcdn.com/bphoto/Z6Ku54dl3X2naKJpp3-xsQ/o.jpg", "phone": "+16174991919", "id": "boston-airport-express-medford", "distance": 1864.2889069219998, "location": {"display_address": ["30 Linden St", "Medford, MA 02155"], "state": "MA", "address2": "", "address1": "30 Linden St", "zip_code": "02155", "city": "Medford", "country": "US", "address3": ""}, "url": "https://www.yelp.com/biz/boston-airport-express-medford?adjust_creative=gBcvfFpabk3CnzmXKdYe3w&utm_campaign=yelp_api_v3&utm_medium=api_v3_business_search&utm_source=gBcvfFpabk3CnzmXKdYe3w", "categories": [{"alias": "airport_shuttles", "title": "Airport Shuttles"}, {"alias": "taxis", "title": "Taxis"}], "display_phone": "(617) 499-1919", "is_closed": false, "name": "Boston Airport Express", "review_count": 29, "coordinates": {"longitude": -71.05277, "latitude": 42.3575793}}, {"rating": 2.0, "transactions": ["delivery", "pickup"], "image_url": "https://s3-media2.fl.yelpcdn.com/bphoto/61yB5reOOksIWVBYzaicfQ/o.jpg", "phone": "+16176614555", "id": "cafe-dilara-cambridge", "distance": 3011.9195606979997, "location": {"display_address": ["645 Cambridge St", "Cambridge, MA 02141"], "state": "MA", "address2": null, "address1": "645 Cambridge St", "zip_code": "02141", "city": "Cambridge", "country": "US", "address3": ""}, "url": "https://www.yelp.com/biz/cafe-dilara-cambridge?adjust_creative=gBcvfFpabk3CnzmXKdYe3w&utm_campaign=yelp_api_v3&utm_medium=api_v3_business_search&utm_source=gBcvfFpabk3CnzmXKdYe3w", "categories": [{"alias": "italian", "title": "Italian"}, {"alias": "pizza", "title": "Pizza"}, {"alias": "mediterranean", "title": "Mediterranean"}], "display_phone": "(617) 661-4555", "is_closed": false, "name": "Cafe Dilara", "price": "$", "review_count": 67, "coordinates": {"longitude": -71.087016, "latitude": 42.372297}}, {"rating": 3.5, "transactions": [], "image_url": "https://s3-media3.fl.yelpcdn.com/bphoto/ow4pW9k9ixkdqnVSBNs1Kw/o.jpg", "phone": "+16173238400", "id": "napper-tandys-roslindale", "distance": 8161.035560299999, "location": {"display_address": ["4195 Washington St", "Roslindale, MA 02131"], "state": "MA", "address2": "", "address1": "4195 Washington St", "zip_code": "02131", "city": "Roslindale", "country": "US", "address3": ""}, "url": "https://www.yelp.com/biz/napper-tandys-roslindale?adjust_creative=gBcvfFpabk3CnzmXKdYe3w&utm_campaign=yelp_api_v3&utm_medium=api_v3_business_search&utm_source=gBcvfFpabk3CnzmXKdYe3w", "categories": [{"alias": "irish", "title": "Irish"}, {"alias": "bars", "title": "Bars"}, {"alias": "burgers", "title": "Burgers"}], "display_phone": "(617) 323-8400", "is_closed": false, "name": "Napper Tandy's", "price": "$$", "review_count": 44, "coordinates": {"longitude": -71.1274527377906, "latitude": 42.2873506034849}}, {"rating": 1.0, "transactions": [], "image_url": "https://s3-media2.fl.yelpcdn.com/bphoto/iO4yZfEsiV9i6KSXyc6kPw/o.jpg", "phone": "+16178728704", "id": "greater-boston-plumbing-and-heating-boston", "distance": 2408.2043059499997, "location": {"display_address": ["Boston, MA 02110"], "state": "MA", "address2": null, "address1": "", "zip_code": "02110", "city": "Boston", "country": "US", "address3": ""}, "url": "https://www.yelp.com/biz/greater-boston-plumbing-and-heating-boston?adjust_creative=gBcvfFpabk3CnzmXKdYe3w&utm_campaign=yelp_api_v3&utm_medium=api_v3_business_search&utm_source=gBcvfFpabk3CnzmXKdYe3w", "categories": [{"alias": "plumbing", "title": "Plumbing"}, {"alias": "hvac", "title": "Heating & Air Conditioning/HVAC"}], "display_phone": "(617) 872-8704", "is_closed": false, "name": "Greater Boston Plumbing & Heating", "review_count": 2, "coordinates": {"longitude": -71.0531616210938, "latitude": 42.3572883605957}}, {"rating": 5.0, "transactions": [], "image_url": "https://s3-media4.fl.yelpcdn.com/bphoto/OjtdwoK8OcX6DZ1IK5BzZg/o.jpg", "phone": "+16177870101", "id": "o-sheas-towing-service-allston", "distance": 5381.374178128, "location": {"display_address": ["15 Speedway Ave", "Allston, MA 02134"], "state": "MA", "address2": null, "address1": "15 Speedway Ave", "zip_code": "02134", "city": "Allston", "country": "US", "address3": ""}, "url": "https://www.yelp.com/biz/o-sheas-towing-service-allston?adjust_creative=gBcvfFpabk3CnzmXKdYe3w&utm_campaign=yelp_api_v3&utm_medium=api_v3_business_search&utm_source=gBcvfFpabk3CnzmXKdYe3w", "categories": [{"alias": "towing", "title": "Towing"}], "display_phone": "(617) 787-0101", "is_closed": false, "name": "O' Shea's Towing Service", "review_count": 13, "coordinates": {"longitude": -71.132996, "latitude": 42.36396}}, {"rating": 4.5, "transactions": [], "image_url": "https://s3-media1.fl.yelpcdn.com/bphoto/BfPMBPWOR7gQtqgNAYt5bQ/o.jpg", "phone": "+16177128196", "id": "the-two-brothers-moving-company-somerville-14", "distance": 4526.518519568, "location": {"display_address": ["43A Cross St", "Somerville, MA 02145"], "state": "MA", "address2": null, "address1": "43A Cross St", "zip_code": "02145", "city": "Somerville", "country": "US", "address3": null}, "url": "https://www.yelp.com/biz/the-two-brothers-moving-company-somerville-14?adjust_creative=gBcvfFpabk3CnzmXKdYe3w&utm_campaign=yelp_api_v3&utm_medium=api_v3_business_search&utm_source=gBcvfFpabk3CnzmXKdYe3w", "categories": [{"alias": "movers", "title": "Movers"}], "display_phone": "(617) 712-8196", "is_closed": false, "name": "The Two Brothers Moving Company", "review_count": 21, "coordinates": {"longitude": -71.0873885080219, "latitude": 42.3867654641662}}, {"rating": 1.0, "transactions": [], "image_url": "", "phone": "+16174210125", "id": "lansdowne-garage-boston", "distance": 2135.4895729, "location": {"display_address": ["49 Lansdowne St", "Boston, MA 02215"], "state": "MA", "address2": "", "address1": "49 Lansdowne St", "zip_code": "02215", "city": "Boston", "country": "US", "address3": ""}, "url": "https://www.yelp.com/biz/lansdowne-garage-boston?adjust_creative=gBcvfFpabk3CnzmXKdYe3w&utm_campaign=yelp_api_v3&utm_medium=api_v3_business_search&utm_source=gBcvfFpabk3CnzmXKdYe3w", "categories": [{"alias": "parking", "title": "Parking"}], "display_phone": "(617) 421-0125", "is_closed": false, "name": "Lansdowne Garage", "review_count": 1, "coordinates": {"longitude": -71.0971374511719, "latitude": 42.3474006652832}}, {"rating": 4.0, "transactions": [], "image_url": "https://s3-media1.fl.yelpcdn.com/bphoto/p0CE-OJUQbc5stXCUsO-RA/o.jpg", "phone": "+16175472222", "id": "cabbies-cab-cambridge", "distance": 4960.2261544620005, "location": {"display_address": ["Cambridge, MA 02138"], "state": "MA", "address2": "", "address1": "", "zip_code": "02138", "city": "Cambridge", "country": "US", "address3": ""}, "url": "https://www.yelp.com/biz/cabbies-cab-cambridge?adjust_creative=gBcvfFpabk3CnzmXKdYe3w&utm_campaign=yelp_api_v3&utm_medium=api_v3_business_search&utm_source=gBcvfFpabk3CnzmXKdYe3w", "categories": [{"alias": "taxis", "title": "Taxis"}, {"alias": "airport_shuttles", "title": "Airport Shuttles"}], "display_phone": "(617) 547-2222", "is_closed": false, "name": "Cabbie's Cab", "review_count": 78, "coordinates": {"longitude": -71.1165618896484, "latitude": 42.3773146139445}}, {"rating": 2.0, "transactions": ["delivery", "pickup"], "image_url": "https://s3-media1.fl.yelpcdn.com/bphoto/p1VEXvY33I9RXUH0LUlLHQ/o.jpg", "phone": "+16174975555", "id": "chicago-pizza-cambridge", "distance": 2625.348367866, "location": {"display_address": ["239 Massachusetts Ave", "Cambridge, MA 02139"], "state": "MA", "address2": "", "address1": "239 Massachusetts Ave", "zip_code": "02139", "city": "Cambridge", "country": "US", "address3": ""}, "url": "https://www.yelp.com/biz/chicago-pizza-cambridge?adjust_creative=gBcvfFpabk3CnzmXKdYe3w&utm_campaign=yelp_api_v3&utm_medium=api_v3_business_search&utm_source=gBcvfFpabk3CnzmXKdYe3w", "categories": [{"alias": "pizza", "title": "Pizza"}, {"alias": "sandwiches", "title": "Sandwiches"}], "display_phone": "(617) 497-5555", "is_closed": false, "name": "Chicago Pizza", "price": "$", "review_count": 120, "coordinates": {"longitude": -71.097049, "latitude": 42.361768}}, {"rating": 5.0, "transactions": [], "image_url": "https://s3-media3.fl.yelpcdn.com/bphoto/x70r1epHavthQa5TLAnlYQ/o.jpg", "phone": "+17812496262", "id": "jonahs-twisters-boston", "distance": 2387.0801091099997, "location": {"display_address": ["Boston, MA 02215"], "state": "MA", "address2": null, "address1": "", "zip_code": "02215", "city": "Boston", "country": "US", "address3": ""}, "url": "https://www.yelp.com/biz/jonahs-twisters-boston?adjust_creative=gBcvfFpabk3CnzmXKdYe3w&utm_campaign=yelp_api_v3&utm_medium=api_v3_business_search&utm_source=gBcvfFpabk3CnzmXKdYe3w", "categories": [{"alias": "eventplanning", "title": "Party & Event Planning"}], "display_phone": "(781) 249-6262", "is_closed": false, "name": "Jonah's Twisters", "review_count": 1, "coordinates": {"longitude": -71.1020126342773, "latitude": 42.3475456237793}}, {"rating": 5.0, "transactions": [], "image_url": "", "phone": "+16172497683", "id": "quick-boston-home-service-boston", "distance": 2671.48186924, "location": {"display_address": ["253 Roxbury St", "Boston, MA 02119"], "state": "MA", "address2": null, "address1": "253 Roxbury St", "zip_code": "02119", "city": "Boston", "country": "US", "address3": ""}, "url": "https://www.yelp.com/biz/quick-boston-home-service-boston?adjust_creative=gBcvfFpabk3CnzmXKdYe3w&utm_campaign=yelp_api_v3&utm_medium=api_v3_business_search&utm_source=gBcvfFpabk3CnzmXKdYe3w", "categories": [{"alias": "homeappliancerepair", "title": "Appliances & Repair"}], "display_phone": "(617) 249-7683", "is_closed": false, "name": "Quick Boston Home Service", "review_count": 4, "coordinates": {"longitude": -71.0933956503868, "latitude": 42.3302069306374}}, {"rating": 4.0, "transactions": [], "image_url": "https://s3-media2.fl.yelpcdn.com/bphoto/cX1l4FmN-5tSqNqJAfbXVw/o.jpg", "phone": "+17812865610", "id": "peters-super-beef-revere", "distance": 9264.40872034, "location": {"display_address": ["1485 N Shore Rd", "Revere, MA 02151"], "state": "MA", "address2": "", "address1": "1485 N Shore Rd", "zip_code": "02151", "city": "Revere", "country": "US", "address3": ""}, "url": "https://www.yelp.com/biz/peters-super-beef-revere?adjust_creative=gBcvfFpabk3CnzmXKdYe3w&utm_campaign=yelp_api_v3&utm_medium=api_v3_business_search&utm_source=gBcvfFpabk3CnzmXKdYe3w", "categories": [{"alias": "sandwiches", "title": "Sandwiches"}], "display_phone": "(781) 286-5610", "is_closed": false, "name": "Peter's Super Beef", "price": "$", "review_count": 43, "coordinates": {"longitude": -70.9936094284058, "latitude": 42.4082803373975}}, {"rating": 5.0, "transactions": [], "image_url": "https://s3-media3.fl.yelpcdn.com/bphoto/cm44P__qvqdZA5DYAun28g/o.jpg", "phone": "+16178727078", "id": "adam-rice-boston", "distance": 2362.717437388, "location": {"display_address": ["Boston, MA 02215"], "state": "MA", "address2": "", "address1": "", "zip_code": "02215", "city": "Boston", "country": "US", "address3": ""}, "url": "https://www.yelp.com/biz/adam-rice-boston?adjust_creative=gBcvfFpabk3CnzmXKdYe3w&utm_campaign=yelp_api_v3&utm_medium=api_v3_business_search&utm_source=gBcvfFpabk3CnzmXKdYe3w", "categories": [{"alias": "theater", "title": "Performing Arts"}], "display_phone": "(617) 872-7078", "is_closed": false, "name": "Adam Rice", "review_count": 2, "coordinates": {"longitude": -71.0999876925903, "latitude": 42.347554664952}}, {"rating": 2.5, "transactions": ["delivery", "pickup"], "image_url": "https://s3-media2.fl.yelpcdn.com/bphoto/fDlTRrmcyBBc_PVWO6zK-A/o.jpg", "phone": "+16172777662", "id": "natalies-pizzeria-allston-20", "distance": 5178.007354083999, "location": {"display_address": ["1312 Commonwealth Ave", "Allston, MA 02134"], "state": "MA", "address2": null, "address1": "1312 Commonwealth Ave", "zip_code": "02134", "city": "Allston", "country": "US", "address3": ""}, "url": "https://www.yelp.com/biz/natalies-pizzeria-allston-20?adjust_creative=gBcvfFpabk3CnzmXKdYe3w&utm_campaign=yelp_api_v3&utm_medium=api_v3_business_search&utm_source=gBcvfFpabk3CnzmXKdYe3w", "categories": [{"alias": "pizza", "title": "Pizza"}], "display_phone": "(617) 277-7662", "is_closed": false, "name": "Natalie's Pizzeria", "price": "$$", "review_count": 99, "coordinates": {"longitude": -71.1344066262245, "latitude": 42.3483882844448}}, {"rating": 5.0, "transactions": [], "image_url": "https://s3-media3.fl.yelpcdn.com/bphoto/Ubiv9KoFf2Pao0Yz9JbFdQ/o.jpg", "phone": "+16178339707", "id": "for-the-love-of-jobe-pet-services-brookline-2", "distance": 6104.366310712, "location": {"display_address": ["30 Kilsyth Rd", "Brookline, MA 02445"], "state": "MA", "address2": "", "address1": "30 Kilsyth Rd", "zip_code": "02445", "city": "Brookline", "country": "US", "address3": ""}, "url": "https://www.yelp.com/biz/for-the-love-of-jobe-pet-services-brookline-2?adjust_creative=gBcvfFpabk3CnzmXKdYe3w&utm_campaign=yelp_api_v3&utm_medium=api_v3_business_search&utm_source=gBcvfFpabk3CnzmXKdYe3w", "categories": [{"alias": "dogwalkers", "title": "Dog Walkers"}, {"alias": "pet_sitting", "title": "Pet Boarding/Pet Sitting"}, {"alias": "pet_training", "title": "Pet Training"}], "display_phone": "(617) 833-9707", "is_closed": false, "name": "For the Love of Jobe Pet Services", "review_count": 20, "coordinates": {"longitude": -71.1444266, "latitude": 42.3384578}}, {"rating": 5.0, "transactions": [], "image_url": "https://s3-media4.fl.yelpcdn.com/bphoto/0r7c-pb2Bs-kHKn1ThQorg/o.jpg", "phone": "+16172720842", "id": "santana-properties-team-keller-williams-cambridge-cambridge", "distance": 3950.714370308, "location": {"display_address": ["955 Massachusetts Ave", "Ste 100", "Cambridge, MA 02139"], "state": "MA", "address2": "Ste 100", "address1": "955 Massachusetts Ave", "zip_code": "02139", "city": "Cambridge", "country": "US", "address3": ""}, "url": "https://www.yelp.com/biz/santana-properties-team-keller-williams-cambridge-cambridge?adjust_creative=gBcvfFpabk3CnzmXKdYe3w&utm_campaign=yelp_api_v3&utm_medium=api_v3_business_search&utm_source=gBcvfFpabk3CnzmXKdYe3w", "categories": [{"alias": "realestatesvcs", "title": "Real Estate Services"}], "display_phone": "(617) 272-0842", "is_closed": false, "name": "Santana Properties Team - Keller Williams Cambridge", "review_count": 8, "coordinates": {"longitude": -71.1098251342773, "latitude": 42.3691558837891}}, {"rating": 1.0, "transactions": [], "image_url": "https://s3-media2.fl.yelpcdn.com/bphoto/-Nldug_aO7Fb6PcL46xd8A/o.jpg", "phone": "+16179736760", "id": "60-state-street-garage-boston", "distance": 2614.3324355659997, "location": {"display_address": ["60 State St", "Boston, MA 02109"], "state": "MA", "address2": null, "address1": "60 State St", "zip_code": "02109", "city": "Boston", "country": "US", "address3": ""}, "url": "https://www.yelp.com/biz/60-state-street-garage-boston?adjust_creative=gBcvfFpabk3CnzmXKdYe3w&utm_campaign=yelp_api_v3&utm_medium=api_v3_business_search&utm_source=gBcvfFpabk3CnzmXKdYe3w", "categories": [{"alias": "parking", "title": "Parking"}], "display_phone": "(617) 973-6760", "is_closed": false, "name": "60 State Street Garage", "review_count": 2, "coordinates": {"longitude": -71.0563965, "latitude": 42.3593712}}, {"rating": 4.5, "transactions": ["delivery"], "image_url": "https://s3-media3.fl.yelpcdn.com/bphoto/UJifxYMb_h9ryS_yNDmwTw/o.jpg", "phone": "+18006170683", "id": "happyspeedy-allston-3", "distance": 5429.540275922, "location": {"display_address": ["30 Penniman Rd", "Allston, MA 02134"], "state": "MA", "address2": null, "address1": "30 Penniman Rd", "zip_code": "02134", "city": "Allston", "country": "US", "address3": ""}, "url": "https://www.yelp.com/biz/happyspeedy-allston-3?adjust_creative=gBcvfFpabk3CnzmXKdYe3w&utm_campaign=yelp_api_v3&utm_medium=api_v3_business_search&utm_source=gBcvfFpabk3CnzmXKdYe3w", "categories": [{"alias": "grocery", "title": "Grocery"}], "display_phone": "(800) 617-0683", "is_closed": false, "name": "HappySpeedy", "price": "$", "review_count": 22, "coordinates": {"longitude": -71.1365181, "latitude": 42.3553952}}, {"rating": 3.5, "transactions": [], "image_url": "https://s3-media4.fl.yelpcdn.com/bphoto/HvmuA-0UpHx40yYuNxIgGg/o.jpg", "phone": "+17816299558", "id": "ac-roofing-boston", "distance": 3218.749523488, "location": {"display_address": ["Boston, MA 02119"], "state": "MA", "address2": null, "address1": "", "zip_code": "02119", "city": "Boston", "country": "US", "address3": ""}, "url": "https://www.yelp.com/biz/ac-roofing-boston?adjust_creative=gBcvfFpabk3CnzmXKdYe3w&utm_campaign=yelp_api_v3&utm_medium=api_v3_business_search&utm_source=gBcvfFpabk3CnzmXKdYe3w", "categories": [{"alias": "roofing", "title": "Roofing"}], "display_phone": "(781) 629-9558", "is_closed": false, "name": "AC Roofing", "review_count": 2, "coordinates": {"longitude": -71.0884036, "latitude": 42.3218236}}, {"rating": 3.5, "transactions": [], "image_url": "https://s3-media2.fl.yelpcdn.com/bphoto/U4D5QqQTfRrZpEVbr6SARQ/o.jpg", "phone": "+16174946600", "id": "boston-marriott-cambridge-cambridge", "distance": 2067.5551472159996, "location": {"display_address": ["50 Broadway", "Cambridge, MA 02142"], "state": "MA", "address2": "", "address1": "50 Broadway", "zip_code": "02142", "city": "Cambridge", "country": "US", "address3": ""}, "url": "https://www.yelp.com/biz/boston-marriott-cambridge-cambridge?adjust_creative=gBcvfFpabk3CnzmXKdYe3w&utm_campaign=yelp_api_v3&utm_medium=api_v3_business_search&utm_source=gBcvfFpabk3CnzmXKdYe3w", "categories": [{"alias": "hotels", "title": "Hotels"}, {"alias": "venues", "title": "Venues & Event Spaces"}], "display_phone": "(617) 494-6600", "is_closed": false, "name": "Boston Marriott Cambridge", "price": "$$$", "review_count": 102, "coordinates": {"longitude": -71.0857614553093, "latitude": 42.363030349061}}, {"rating": 3.5, "transactions": [], "image_url": "https://s3-media2.fl.yelpcdn.com/bphoto/SnNQIoyRZl6l2VDvJbxKTw/o.jpg", "phone": "+16176255000", "id": "green-cab-and-yellow-cab-somerville", "distance": 3625.4937932199996, "location": {"display_address": ["600 Windsor Pl", "Somerville, MA 02143"], "state": "MA", "address2": null, "address1": "600 Windsor Pl", "zip_code": "02143", "city": "Somerville", "country": "US", "address3": ""}, "url": "https://www.yelp.com/biz/green-cab-and-yellow-cab-somerville?adjust_creative=gBcvfFpabk3CnzmXKdYe3w&utm_campaign=yelp_api_v3&utm_medium=api_v3_business_search&utm_source=gBcvfFpabk3CnzmXKdYe3w", "categories": [{"alias": "taxis", "title": "Taxis"}], "display_phone": "(617) 625-5000", "is_closed": false, "name": "Green Cab & Yellow Cab", "review_count": 161, "coordinates": {"longitude": -71.0932089, "latitude": 42.3761232}}, {"rating": 2.5, "transactions": ["delivery", "pickup"], "image_url": "https://s3-media2.fl.yelpcdn.com/bphoto/28DPybtpkt-HewEZmLgPMg/o.jpg", "phone": "+16177877992", "id": "pizza-days-allston", "distance": 4913.46307928, "location": {"display_address": ["111 Brighton Ave", "Allston, MA 02134"], "state": "MA", "address2": "", "address1": "111 Brighton Ave", "zip_code": "02134", "city": "Allston", "country": "US", "address3": ""}, "url": "https://www.yelp.com/biz/pizza-days-allston?adjust_creative=gBcvfFpabk3CnzmXKdYe3w&utm_campaign=yelp_api_v3&utm_medium=api_v3_business_search&utm_source=gBcvfFpabk3CnzmXKdYe3w", "categories": [{"alias": "pizza", "title": "Pizza"}], "display_phone": "(617) 787-7992", "is_closed": false, "name": "Pizza Days", "price": "$$", "review_count": 126, "coordinates": {"longitude": -71.1305862, "latitude": 42.3529695}}, {"rating": 3.5, "transactions": ["delivery", "pickup"], "image_url": "https://s3-media4.fl.yelpcdn.com/bphoto/D7ak1UpG8AXr1h8x5IXd7A/o.jpg", "phone": "+16179033630", "id": "wok-n-talk-brighton", "distance": 7525.879434642, "location": {"display_address": ["525 Washington St", "Brighton, MA 02135"], "state": "MA", "address2": null, "address1": "525 Washington St", "zip_code": "02135", "city": "Brighton", "country": "US", "address3": ""}, "url": "https://www.yelp.com/biz/wok-n-talk-brighton?adjust_creative=gBcvfFpabk3CnzmXKdYe3w&utm_campaign=yelp_api_v3&utm_medium=api_v3_business_search&utm_source=gBcvfFpabk3CnzmXKdYe3w", "categories": [{"alias": "chinese", "title": "Chinese"}, {"alias": "asianfusion", "title": "Asian Fusion"}], "display_phone": "(617) 903-3630", "is_closed": false, "name": "Wok n Talk", "price": "$$", "review_count": 30, "coordinates": {"longitude": -71.162887, "latitude": 42.349205}}, {"rating": 5.0, "transactions": [], "image_url": "https://s3-media2.fl.yelpcdn.com/bphoto/GTACrbzzRUppiBv_PynAtA/o.jpg", "phone": "+16173120013", "id": "jose-allende-jazz-latin-classical-guitar-somerville", "distance": 4380.057314188, "location": {"display_address": ["Somerville, MA 02143"], "state": "MA", "address2": null, "address1": null, "zip_code": "02143", "city": "Somerville", "country": "US", "address3": ""}, "url": "https://www.yelp.com/biz/jose-allende-jazz-latin-classical-guitar-somerville?adjust_creative=gBcvfFpabk3CnzmXKdYe3w&utm_campaign=yelp_api_v3&utm_medium=api_v3_business_search&utm_source=gBcvfFpabk3CnzmXKdYe3w", "categories": [{"alias": "musicians", "title": "Musicians"}, {"alias": "musicalinstrumentsandteachers", "title": "Musical Instruments & Teachers"}], "display_phone": "(617) 312-0013", "is_closed": false, "name": "Jose Allende: Jazz-Latin-Classical Guitar", "price": "$$", "review_count": 18, "coordinates": {"longitude": -71.095588684082, "latitude": 42.3829612731934}}, {"rating": 5.0, "transactions": [], "image_url": "https://s3-media2.fl.yelpcdn.com/bphoto/QlwxYufrKu_t8lIh2yJP9w/o.jpg", "phone": "+17817861887", "id": "shamona-small-makeup-boston", "distance": 3242.768922988, "location": {"display_address": ["Boston, MA 02127"], "state": "MA", "address2": null, "address1": null, "zip_code": "02127", "city": "Boston", "country": "US", "address3": ""}, "url": "https://www.yelp.com/biz/shamona-small-makeup-boston?adjust_creative=gBcvfFpabk3CnzmXKdYe3w&utm_campaign=yelp_api_v3&utm_medium=api_v3_business_search&utm_source=gBcvfFpabk3CnzmXKdYe3w", "categories": [{"alias": "makeupartists", "title": "Makeup Artists"}], "display_phone": "(781) 786-1887", "is_closed": false, "name": "Shamona Small Makeup", "review_count": 2, "coordinates": {"longitude": -71.05054, "latitude": 42.33302}}, {"rating": 3.0, "transactions": [], "image_url": "", "phone": "+17816988397", "id": "g-a-dacey-plumbing-and-heating-boston", "distance": 3242.768922988, "location": {"display_address": ["Boston, MA 02127"], "state": "MA", "address2": "", "address1": "", "zip_code": "02127", "city": "Boston", "country": "US", "address3": ""}, "url": "https://www.yelp.com/biz/g-a-dacey-plumbing-and-heating-boston?adjust_creative=gBcvfFpabk3CnzmXKdYe3w&utm_campaign=yelp_api_v3&utm_medium=api_v3_business_search&utm_source=gBcvfFpabk3CnzmXKdYe3w", "categories": [{"alias": "plumbing", "title": "Plumbing"}, {"alias": "hvac", "title": "Heating & Air Conditioning/HVAC"}], "display_phone": "(781) 698-8397", "is_closed": false, "name": "G A Dacey Plumbing and Heating", "review_count": 2, "coordinates": {"longitude": -71.0393753051758, "latitude": 42.3355293273926}}, {"rating": 2.0, "transactions": [], "image_url": "https://s3-media2.fl.yelpcdn.com/bphoto/L6fjKOxGgySXDjgp8CB8Xw/o.jpg", "phone": "+16177202006", "id": "pi-alley-parking-boston", "distance": 6497.16066039, "location": {"display_address": ["275 Washington St", "Boston, MA 02108"], "state": "MA", "address2": "", "address1": "275 Washington St", "zip_code": "02108", "city": "Boston", "country": "US", "address3": ""}, "url": "https://www.yelp.com/biz/pi-alley-parking-boston?adjust_creative=gBcvfFpabk3CnzmXKdYe3w&utm_campaign=yelp_api_v3&utm_medium=api_v3_business_search&utm_source=gBcvfFpabk3CnzmXKdYe3w", "categories": [{"alias": "parking", "title": "Parking"}], "display_phone": "(617) 720-2006", "is_closed": false, "name": "Pi Alley Parking", "review_count": 13, "coordinates": {"longitude": -71.058342, "latitude": 42.3578415}}, {"rating": 5.0, "transactions": [], "image_url": "https://s3-media3.fl.yelpcdn.com/bphoto/X3WhB5ZuotkTwcTLw39F1w/o.jpg", "phone": "+16174889549", "id": "signal-real-estate-braintree-2", "distance": 14083.63689592, "location": {"display_address": ["25 Braintree Hill Park", "Ste 200", "Braintree, MA 02184"], "state": "MA", "address2": "Ste 200", "address1": "25 Braintree Hill Park", "zip_code": "02184", "city": "Braintree", "country": "US", "address3": ""}, "url": "https://www.yelp.com/biz/signal-real-estate-braintree-2?adjust_creative=gBcvfFpabk3CnzmXKdYe3w&utm_campaign=yelp_api_v3&utm_medium=api_v3_business_search&utm_source=gBcvfFpabk3CnzmXKdYe3w", "categories": [{"alias": "realestateagents", "title": "Real Estate Agents"}, {"alias": "propertymgmt", "title": "Property Management"}], "display_phone": "(617) 488-9549", "is_closed": false, "name": "Signal Real Estate", "review_count": 9, "coordinates": {"longitude": -71.0273711, "latitude": 42.2254126}}, {"rating": 5.0, "transactions": ["pickup"], "image_url": "https://s3-media1.fl.yelpcdn.com/bphoto/44hPpLq-AyikJ3LhsiYCFw/o.jpg", "phone": "+16174185728", "id": "la-gran-manzana-east-boston", "distance": 4049.8913962139995, "location": {"display_address": ["22 Central Sq", "East Boston, MA 02128"], "state": "MA", "address2": "", "address1": "22 Central Sq", "zip_code": "02128", "city": "East Boston", "country": "US", "address3": ""}, "url": "https://www.yelp.com/biz/la-gran-manzana-east-boston?adjust_creative=gBcvfFpabk3CnzmXKdYe3w&utm_campaign=yelp_api_v3&utm_medium=api_v3_business_search&utm_source=gBcvfFpabk3CnzmXKdYe3w", "categories": [{"alias": "steak", "title": "Steakhouses"}, {"alias": "brazilian", "title": "Brazilian"}, {"alias": "juicebars", "title": "Juice Bars & Smoothies"}], "display_phone": "(617) 418-5728", "is_closed": false, "name": "La Gran Manzana", "price": "$$", "review_count": 5, "coordinates": {"longitude": -71.0386, "latitude": 42.37518}}, {"rating": 5.0, "transactions": [], "image_url": "https://s3-media3.fl.yelpcdn.com/bphoto/-VRIn_S1shzWBq7Fkj_bAA/o.jpg", "phone": "+16176696112", "id": "tatyana-a-sothebys-international-realty-brookline", "distance": 4025.80585284, "location": {"display_address": ["1290A Beacon St", "Brookline, MA 02446"], "state": "MA", "address2": "", "address1": "1290A Beacon St", "zip_code": "02446", "city": "Brookline", "country": "US", "address3": ""}, "url": "https://www.yelp.com/biz/tatyana-a-sothebys-international-realty-brookline?adjust_creative=gBcvfFpabk3CnzmXKdYe3w&utm_campaign=yelp_api_v3&utm_medium=api_v3_business_search&utm_source=gBcvfFpabk3CnzmXKdYe3w", "categories": [{"alias": "realestateagents", "title": "Real Estate Agents"}], "display_phone": "(617) 669-6112", "is_closed": false, "name": "Tatyana A. - Sotheby's International Realty", "review_count": 10, "coordinates": {"longitude": -71.1197625, "latitude": 42.3428816}}, {"rating": 3.0, "transactions": ["delivery", "pickup"], "image_url": "https://s3-media2.fl.yelpcdn.com/bphoto/faWMR6sOsbsNrVHE7XDp3Q/o.jpg", "phone": "+16172778277", "id": "milano-pizza-and-pasta-brighton", "distance": 5870.205892306, "location": {"display_address": ["60 Washington St", "Brighton, MA 02135"], "state": "MA", "address2": "", "address1": "60 Washington St", "zip_code": "02135", "city": "Brighton", "country": "US", "address3": ""}, "url": "https://www.yelp.com/biz/milano-pizza-and-pasta-brighton?adjust_creative=gBcvfFpabk3CnzmXKdYe3w&utm_campaign=yelp_api_v3&utm_medium=api_v3_business_search&utm_source=gBcvfFpabk3CnzmXKdYe3w", "categories": [{"alias": "pizza", "title": "Pizza"}], "display_phone": "(617) 277-8277", "is_closed": false, "name": "Milano Pizza & Pasta", "price": "$$", "review_count": 37, "coordinates": {"longitude": -71.1424866, "latitude": 42.3432083}}, {"rating": 5.0, "transactions": [], "image_url": "https://s3-media2.fl.yelpcdn.com/bphoto/dMcTuILt1FJFAWOeucCnhg/o.jpg", "phone": "+16172420025", "id": "coldwell-banker-residential-brokerage-boston-14", "distance": 3389.264246376, "location": {"display_address": ["2 Thompson Sq", "Boston, MA 02129"], "state": "MA", "address2": "", "address1": "2 Thompson Sq", "zip_code": "02129", "city": "Boston", "country": "US", "address3": ""}, "url": "https://www.yelp.com/biz/coldwell-banker-residential-brokerage-boston-14?adjust_creative=gBcvfFpabk3CnzmXKdYe3w&utm_campaign=yelp_api_v3&utm_medium=api_v3_business_search&utm_source=gBcvfFpabk3CnzmXKdYe3w", "categories": [{"alias": "realestatesvcs", "title": "Real Estate Services"}], "display_phone": "(617) 242-0025", "is_closed": false, "name": "Coldwell Banker Residential Brokerage", "review_count": 1, "coordinates": {"longitude": -71.0543221, "latitude": 42.3756408}}, {"rating": 4.0, "transactions": [], "image_url": "https://s3-media2.fl.yelpcdn.com/bphoto/pTWH8_ge6xvo1vlefJZ17w/o.jpg", "phone": "+16176211999", "id": "fairfield-inn-and-suites-boston-cambridge-cambridge", "distance": 2886.7001949119995, "location": {"display_address": ["215 Monsignor O'Brein Hwy", "Cambridge, MA 02141"], "state": "MA", "address2": "", "address1": "215 Monsignor O'Brein Hwy", "zip_code": "02141", "city": "Cambridge", "country": "US", "address3": ""}, "url": "https://www.yelp.com/biz/fairfield-inn-and-suites-boston-cambridge-cambridge?adjust_creative=gBcvfFpabk3CnzmXKdYe3w&utm_campaign=yelp_api_v3&utm_medium=api_v3_business_search&utm_source=gBcvfFpabk3CnzmXKdYe3w", "categories": [{"alias": "hotels", "title": "Hotels"}], "display_phone": "(617) 621-1999", "is_closed": false, "name": "Fairfield Inn & Suites Boston/Cambridge", "price": "$$", "review_count": 23, "coordinates": {"longitude": -71.0795399, "latitude": 42.3727221}}, {"rating": 3.5, "transactions": [], "image_url": "https://s3-media2.fl.yelpcdn.com/bphoto/IdIWvZRmxzDTvFcT0ODIeQ/o.jpg", "phone": "+16172960922", "id": "p-and-r-ice-cream-mattapan", "distance": 7751.765431437999, "location": {"display_address": ["1284 Blue Hill Ave", "Mattapan, MA 02126"], "state": "MA", "address2": "", "address1": "1284 Blue Hill Ave", "zip_code": "02126", "city": "Mattapan", "country": "US", "address3": ""}, "url": "https://www.yelp.com/biz/p-and-r-ice-cream-mattapan?adjust_creative=gBcvfFpabk3CnzmXKdYe3w&utm_campaign=yelp_api_v3&utm_medium=api_v3_business_search&utm_source=gBcvfFpabk3CnzmXKdYe3w", "categories": [{"alias": "icecream", "title": "Ice Cream & Frozen Yogurt"}, {"alias": "caribbean", "title": "Caribbean"}], "display_phone": "(617) 296-0922", "is_closed": false, "name": "P & R Ice Cream", "price": "$", "review_count": 19, "coordinates": {"longitude": -71.0927237570286, "latitude": 42.2799564152956}}], "total": 1239}