{"region": {"center": {"longitude": -71.07124328613281, "latitude": 42.34784169448538}}, "businesses": [{"rating": 3.0, "transactions": [], "image_url": "https://s3-media3.fl.yelpcdn.com/bphoto/MI1tbkyob0kPeMQ_r9NA0Q/o.jpg", "phone": "+16036826997", "id": "dk-limousine-service-boston", "distance": 977.5147253399999, "location": {"display_address": ["Boston, MA 02111"], "state": "MA", "address2": "", "address1": "", "zip_code": "02111", "city": "Boston", "country": "US", "address3": ""}, "url": "https://www.yelp.com/biz/dk-limousine-service-boston?adjust_creative=gBcvfFpabk3CnzmXKdYe3w&utm_campaign=yelp_api_v3&utm_medium=api_v3_business_search&utm_source=gBcvfFpabk3CnzmXKdYe3w", "categories": [{"alias": "limos", "title": "Limos"}], "display_phone": "(603) 682-6997", "is_closed": false, "name": "DK Limousine Service", "review_count": 2, "coordinates": {"longitude": -71.060348361377, "latitude": 42.3513701532276}}, {"rating": 5.0, "transactions": [], "image_url": "https://s3-media3.fl.yelpcdn.com/bphoto/6voUNH2PJ846DvUlvN0jgQ/o.jpg", "phone": "+18572372434", "id": "n-and-p-masonry-boston-2", "distance": 5667.92167128, "location": {"display_address": ["79 Chard St", "Boston, MA 02189"], "state": "MA", "address2": "", "address1": "79 Chard St", "zip_code": "02189", "city": "Boston", "country": "US", "address3": ""}, "url": "https://www.yelp.com/biz/n-and-p-masonry-boston-2?adjust_creative=gBcvfFpabk3CnzmXKdYe3w&utm_campaign=yelp_api_v3&utm_medium=api_v3_business_search&utm_source=gBcvfFpabk3CnzmXKdYe3w", "categories": [{"alias": "masonry_concrete", "title": "Masonry/Concrete"}], "display_phone": "(857) 237-2434", "is_closed": false, "name": "N & P Masonry", "review_count": 5, "coordinates": {"longitude": -71.120491, "latitude": 42.3121678}}, {"rating": 4.5, "transactions": [], "image_url": "https://s3-media3.fl.yelpcdn.com/bphoto/iVoW0Xo0q85tkzLMDpDZ4w/o.jpg", "phone": "+18446287577", "id": "dreamteamdrive-boston", "distance": 1755.078450786, "location": {"display_address": ["1 City Hall Sq", "Boston, MA 02201"], "state": "MA", "address2": null, "address1": "1 City Hall Sq", "zip_code": "02201", "city": "Boston", "country": "US", "address3": ""}, "url": "https://www.yelp.com/biz/dreamteamdrive-boston?adjust_creative=gBcvfFpabk3CnzmXKdYe3w&utm_campaign=yelp_api_v3&utm_medium=api_v3_business_search&utm_source=gBcvfFpabk3CnzmXKdYe3w", "categories": [{"alias": "airport_shuttles", "title": "Airport Shuttles"}, {"alias": "limos", "title": "Limos"}, {"alias": "towncarservice", "title": "Town Car Service"}], "display_phone": "(844) 628-7577", "is_closed": false, "name": "DreamTeamDrive", "review_count": 2, "coordinates": {"longitude": -71.0579986572266, "latitude": 42.3603324890137}}, {"rating": 5.0, "transactions": [], "image_url": "https://s3-media3.fl.yelpcdn.com/bphoto/5_x_ukiLNn2_9KnD86TYag/o.jpg", "phone": "+16172368998", "id": "ippolito-snow-services-boston-2", "distance": 1347.9376396779999, "location": {"display_address": ["Boston, MA 02228"], "state": "MA", "address2": "", "address1": "", "zip_code": "02228", "city": "Boston", "country": "US", "address3": ""}, "url": "https://www.yelp.com/biz/ippolito-snow-services-boston-2?adjust_creative=gBcvfFpabk3CnzmXKdYe3w&utm_campaign=yelp_api_v3&utm_medium=api_v3_business_search&utm_source=gBcvfFpabk3CnzmXKdYe3w", "categories": [{"alias": "snowremoval", "title": "Snow Removal"}], "display_phone": "(617) 236-8998", "is_closed": false, "name": "Ippolito Snow Services", "review_count": 2, "coordinates": {"longitude": -71.060278, "latitude": 42.358333}}, {"rating": 3.5, "transactions": [], "image_url": "https://s3-media2.fl.yelpcdn.com/bphoto/FSYe-VD-ngwkQeERGAqsJg/o.jpg", "phone": "+18572031075", "id": "boston-executive-limo-service-boston-3", "distance": 1776.0890282219998, "location": {"display_address": ["207 Massachusetts Ave", "Boston, MA 02115"], "state": "MA", "address2": null, "address1": "207 Massachusetts Ave", "zip_code": "02115", "city": "Boston", "country": "US", "address3": ""}, "url": "https://www.yelp.com/biz/boston-executive-limo-service-boston-3?adjust_creative=gBcvfFpabk3CnzmXKdYe3w&utm_campaign=yelp_api_v3&utm_medium=api_v3_business_search&utm_source=gBcvfFpabk3CnzmXKdYe3w", "categories": [{"alias": "towncarservice", "title": "Town Car Service"}], "display_phone": "(857) 203-1075", "is_closed": false, "name": "Boston Executive Limo Service", "review_count": 3, "coordinates": {"longitude": -71.0901896074097, "latitude": 42.3401577706872}}, {"rating": 2.0, "transactions": [], "image_url": "https://s3-media2.fl.yelpcdn.com/bphoto/z6FemcksyXs0VwkLFKmFWw/o.jpg", "phone": "+16172674684", "id": "star-market-boston-9", "distance": 2446.8043258499997, "location": {"display_address": ["33 Kilmarnock St", "Boston, MA 02215"], "state": "MA", "address2": "", "address1": "33 Kilmarnock St", "zip_code": "02215", "city": "Boston", "country": "US", "address3": ""}, "url": "https://www.yelp.com/biz/star-market-boston-9?adjust_creative=gBcvfFpabk3CnzmXKdYe3w&utm_campaign=yelp_api_v3&utm_medium=api_v3_business_search&utm_source=gBcvfFpabk3CnzmXKdYe3w", "categories": [{"alias": "grocery", "title": "Grocery"}], "display_phone": "(617) 267-4684", "is_closed": false, "name": "Star Market", "price": "$", "review_count": 19, "coordinates": {"longitude": -71.0999496, "latitude": 42.3434848}}, {"rating": 4.0, "transactions": ["delivery"], "image_url": "https://s3-media3.fl.yelpcdn.com/bphoto/FHsbmmJCzTaY546qu40tfw/o.jpg", "phone": "+16179033110", "id": "the-avenue-allston", "distance": 5019.843028224, "location": {"display_address": ["1249 Commonwealth Ave", "Allston, MA 02134"], "state": "MA", "address2": "", "address1": "1249 Commonwealth Ave", "zip_code": "02134", "city": "Allston", "country": "US", "address3": ""}, "url": "https://www.yelp.com/biz/the-avenue-allston?adjust_creative=gBcvfFpabk3CnzmXKdYe3w&utm_campaign=yelp_api_v3&utm_medium=api_v3_business_search&utm_source=gBcvfFpabk3CnzmXKdYe3w", "categories": [{"alias": "bars", "title": "Bars"}, {"alias": "burgers", "title": "Burgers"}, {"alias": "sandwiches", "title": "Sandwiches"}], "display_phone": "(617) 903-3110", "is_closed": false, "name": "The Avenue", "price": "$", "review_count": 289, "coordinates": {"longitude": -71.132208, "latitude": 42.350647}}, {"rating": 4.0, "transactions": [], "image_url": "https://s3-media2.fl.yelpcdn.com/bphoto/JvSFHBmsY0GM2AvVAudIkA/o.jpg", "phone": "+16175249677", "id": "galway-house-jamaica-plain", "distance": 5384.7872664, "location": {"display_address": ["710 Centre St", "Jamaica Plain, MA 02130"], "state": "MA", "address2": "", "address1": "710 Centre St", "zip_code": "02130", "city": "Jamaica Plain", "country": "US", "address3": ""}, "url": "https://www.yelp.com/biz/galway-house-jamaica-plain?adjust_creative=gBcvfFpabk3CnzmXKdYe3w&utm_campaign=yelp_api_v3&utm_medium=api_v3_business_search&utm_source=gBcvfFpabk3CnzmXKdYe3w", "categories": [{"alias": "bars", "title": "Bars"}, {"alias": "seafood", "title": "Seafood"}, {"alias": "tradamerican", "title": "American (Traditional)"}], "display_phone": "(617) 524-9677", "is_closed": false, "name": "Galway House", "price": "$$", "review_count": 166, "coordinates": {"longitude": -71.114338487506, "latitude": 42.311373891743}}, {"rating": 5.0, "transactions": [], "image_url": "https://s3-media1.fl.yelpcdn.com/bphoto/NRgFQbmW46ebKibV3Bwq0Q/o.jpg", "phone": "+16037038363", "id": "lp-photography-boston-8", "distance": 886.1893957061999, "location": {"display_address": ["Boston, MA 02108"], "state": "MA", "address2": null, "address1": "", "zip_code": "02108", "city": "Boston", "country": "US", "address3": ""}, "url": "https://www.yelp.com/biz/lp-photography-boston-8?adjust_creative=gBcvfFpabk3CnzmXKdYe3w&utm_campaign=yelp_api_v3&utm_medium=api_v3_business_search&utm_source=gBcvfFpabk3CnzmXKdYe3w", "categories": [{"alias": "sessionphotography", "title": "Session Photography"}], "display_phone": "(603) 703-8363", "is_closed": false, "name": "Lp Photography", "review_count": 1, "coordinates": {"longitude": -71.0654220581055, "latitude": 42.3566818237305}}, {"rating": 5.0, "transactions": [], "image_url": "https://s3-media2.fl.yelpcdn.com/bphoto/y-ot2XaUsrL-B5h8pEE2Zg/o.jpg", "phone": "+14135639309", "id": "the-griffin-team-boston", "distance": 1956.83754417, "location": {"display_address": ["55 Causeway St", "Boston, MA 02114"], "state": "MA", "address2": null, "address1": "55 Causeway St", "zip_code": "02114", "city": "Boston", "country": "US", "address3": null}, "url": "https://www.yelp.com/biz/the-griffin-team-boston?adjust_creative=gBcvfFpabk3CnzmXKdYe3w&utm_campaign=yelp_api_v3&utm_medium=api_v3_business_search&utm_source=gBcvfFpabk3CnzmXKdYe3w", "categories": [{"alias": "realestatesvcs", "title": "Real Estate Services"}], "display_phone": "(413) 563-9309", "is_closed": false, "name": "The Griffin Team", "review_count": 4, "coordinates": {"longitude": -71.062919, "latitude": 42.364326}}, {"rating": 5.0, "transactions": [], "image_url": "https://s3-media2.fl.yelpcdn.com/bphoto/5g1JB6oS3CN-KfqBbfUNug/o.jpg", "phone": "", "id": "lamberts-fruitstand-boston-4", "distance": 627.416004928, "location": {"display_address": ["2 Boylston St", "Boston, MA 02116"], "state": "MA", "address2": "", "address1": "2 Boylston St", "zip_code": "02116", "city": "Boston", "country": "US", "address3": ""}, "url": "https://www.yelp.com/biz/lamberts-fruitstand-boston-4?adjust_creative=gBcvfFpabk3CnzmXKdYe3w&utm_campaign=yelp_api_v3&utm_medium=api_v3_business_search&utm_source=gBcvfFpabk3CnzmXKdYe3w", "categories": [{"alias": "markets", "title": "Fruits & Veggies"}, {"alias": "grocery", "title": "Grocery"}, {"alias": "localservices", "title": "Local Services"}], "display_phone": "", "is_closed": false, "name": "Lambert's Fruitstand", "review_count": 1, "coordinates": {"longitude": -71.066162, "latitude": 42.352055}}, {"rating": 5.0, "transactions": [], "image_url": "https://s3-media3.fl.yelpcdn.com/bphoto/SBPF3KIOcP9Lzo_stIRoJQ/o.jpg", "phone": "+12033001188", "id": "pura-vida-holistic-health-coaching-boston-4", "distance": 680.1798905415999, "location": {"display_address": ["168 Newbury St", "Boston, MA 02116"], "state": "MA", "address2": "", "address1": "168 Newbury St", "zip_code": "02116", "city": "Boston", "country": "US", "address3": ""}, "url": "https://www.yelp.com/biz/pura-vida-holistic-health-coaching-boston-4?adjust_creative=gBcvfFpabk3CnzmXKdYe3w&utm_campaign=yelp_api_v3&utm_medium=api_v3_business_search&utm_source=gBcvfFpabk3CnzmXKdYe3w", "categories": [{"alias": "nutritionists", "title": "Nutritionists"}, {"alias": "healthtrainers", "title": "Trainers"}], "display_phone": "(203) 300-1188", "is_closed": false, "name": "Pura Vida Holistic Health Coaching", "review_count": 1, "coordinates": {"longitude": -71.0787601, "latitude": 42.3504073}}, {"rating": 5.0, "transactions": [], "image_url": "https://s3-media2.fl.yelpcdn.com/bphoto/5Ym2jA4gBfiUN45kaESrwA/o.jpg", "phone": "+15107717125", "id": "xu-liu-photography-boston", "distance": 1607.916216902, "location": {"display_address": ["Boston, MA 02118"], "state": "MA", "address2": null, "address1": null, "zip_code": "02118", "city": "Boston", "country": "US", "address3": ""}, "url": "https://www.yelp.com/biz/xu-liu-photography-boston?adjust_creative=gBcvfFpabk3CnzmXKdYe3w&utm_campaign=yelp_api_v3&utm_medium=api_v3_business_search&utm_source=gBcvfFpabk3CnzmXKdYe3w", "categories": [{"alias": "photographers", "title": "Photographers"}], "display_phone": "(510) 771-7125", "is_closed": false, "name": "Xu Liu Photography", "review_count": 3, "coordinates": {"longitude": -71.0808759826172, "latitude": 42.3352588517524}}, {"rating": 3.5, "transactions": [], "image_url": "https://s3-media4.fl.yelpcdn.com/bphoto/0ojz7rvvK1bu0tDlcvNOYw/o.jpg", "phone": "+16177319880", "id": "josephs-sub-shop-and-pizza-jamaica-plain", "distance": 3809.1568239079998, "location": {"display_address": ["8 S Huntington Ave", "Jamaica Plain, MA 02130"], "state": "MA", "address2": "", "address1": "8 S Huntington Ave", "zip_code": "02130", "city": "Jamaica Plain", "country": "US", "address3": ""}, "url": "https://www.yelp.com/biz/josephs-sub-shop-and-pizza-jamaica-plain?adjust_creative=gBcvfFpabk3CnzmXKdYe3w&utm_campaign=yelp_api_v3&utm_medium=api_v3_business_search&utm_source=gBcvfFpabk3CnzmXKdYe3w", "categories": [{"alias": "pizza", "title": "Pizza"}], "display_phone": "(617) 731-9880", "is_closed": false, "name": "Joseph's Sub Shop and Pizza", "price": "$", "review_count": 74, "coordinates": {"longitude": -71.1120557785034, "latitude": 42.3316067349465}}, {"rating": 5.0, "transactions": [], "image_url": "https://s3-media2.fl.yelpcdn.com/bphoto/93megahZTRNp7d8p6RcnAw/o.jpg", "phone": "+16179068777", "id": "speedy-repairz-boston-3", "distance": 1705.831842116, "location": {"display_address": ["Boston, MA 02116"], "state": "MA", "address2": null, "address1": "", "zip_code": "02116", "city": "Boston", "country": "US", "address3": null}, "url": "https://www.yelp.com/biz/speedy-repairz-boston-3?adjust_creative=gBcvfFpabk3CnzmXKdYe3w&utm_campaign=yelp_api_v3&utm_medium=api_v3_business_search&utm_source=gBcvfFpabk3CnzmXKdYe3w", "categories": [{"alias": "electronicsrepair", "title": "Electronics Repair"}, {"alias": "mobilephonerepair", "title": "Mobile Phone Repair"}], "display_phone": "(617) 906-8777", "is_closed": false, "name": "Speedy Repairz", "review_count": 1, "coordinates": {"longitude": -71.05682, "latitude": 42.35888}}, {"rating": 5.0, "transactions": [], "image_url": "https://s3-media1.fl.yelpcdn.com/bphoto/Y0ID54iVFeHwRKE2JuOr9Q/o.jpg", "phone": "+16177223000", "id": "shriners-hospitals-for-children-boston", "distance": 1736.1104476779997, "location": {"display_address": ["51 Blossom Street", "Boston, MA 02114"], "state": "MA", "address2": "", "address1": "51 Blossom Street", "zip_code": "02114", "city": "Boston", "country": "US", "address3": ""}, "url": "https://www.yelp.com/biz/shriners-hospitals-for-children-boston?adjust_creative=gBcvfFpabk3CnzmXKdYe3w&utm_campaign=yelp_api_v3&utm_medium=api_v3_business_search&utm_source=gBcvfFpabk3CnzmXKdYe3w", "categories": [{"alias": "hospitals", "title": "Hospitals"}, {"alias": "physicians", "title": "Doctors"}, {"alias": "medcenters", "title": "Medical Centers"}], "display_phone": "(617) 722-3000", "is_closed": false, "name": "Shriners Hospitals for Children", "review_count": 1, "coordinates": {"longitude": -71.0664443969727, "latitude": 42.3630561828613}}, {"rating": 4.0, "transactions": [], "image_url": "https://s3-media3.fl.yelpcdn.com/bphoto/9FB_cyZWSppRNxjSxprCtg/o.jpg", "phone": "+16172542424", "id": "article-24-brighton", "distance": 6041.787446679999, "location": {"display_address": ["458 Western Ave", "Brighton, MA 02135"], "state": "MA", "address2": "", "address1": "458 Western Ave", "zip_code": "02135", "city": "Brighton", "country": "US", "address3": null}, "url": "https://www.yelp.com/biz/article-24-brighton?adjust_creative=gBcvfFpabk3CnzmXKdYe3w&utm_campaign=yelp_api_v3&utm_medium=api_v3_business_search&utm_source=gBcvfFpabk3CnzmXKdYe3w", "categories": [{"alias": "bars", "title": "Bars"}, {"alias": "newamerican", "title": "American (New)"}, {"alias": "sandwiches", "title": "Sandwiches"}], "display_phone": "(617) 254-2424", "is_closed": false, "name": "Article 24", "price": "$$", "review_count": 117, "coordinates": {"longitude": -71.14219, "latitude": 42.3619}}, {"rating": 5.0, "transactions": [], "image_url": "https://s3-media4.fl.yelpcdn.com/bphoto/ZvJwm2eREwoF0_9UChLygw/o.jpg", "phone": "+17814390809", "id": "paint-the-moon-blue-boston", "distance": 1916.844157698, "location": {"display_address": ["Boston, MA 02110"], "state": "MA", "address2": null, "address1": "", "zip_code": "02110", "city": "Boston", "country": "US", "address3": ""}, "url": "https://www.yelp.com/biz/paint-the-moon-blue-boston?adjust_creative=gBcvfFpabk3CnzmXKdYe3w&utm_campaign=yelp_api_v3&utm_medium=api_v3_business_search&utm_source=gBcvfFpabk3CnzmXKdYe3w", "categories": [{"alias": "eventplanning", "title": "Party & Event Planning"}], "display_phone": "(781) 439-0809", "is_closed": false, "name": "Paint the Moon Blue", "review_count": 1, "coordinates": {"longitude": -71.0626602172852, "latitude": 42.3638713067662}}, {"rating": 5.0, "transactions": [], "image_url": "https://s3-media2.fl.yelpcdn.com/bphoto/Hxe-KW3fWWa5mwSUcr-OKQ/o.jpg", "phone": "+18572659952", "id": "north-shore-car-service-boston", "distance": 2565.8959686519997, "location": {"display_address": ["1 South Station", "Boston, MA 02110"], "state": "MA", "address2": null, "address1": "1 South Station", "zip_code": "02110", "city": "Boston", "country": "US", "address3": null}, "url": "https://www.yelp.com/biz/north-shore-car-service-boston?adjust_creative=gBcvfFpabk3CnzmXKdYe3w&utm_campaign=yelp_api_v3&utm_medium=api_v3_business_search&utm_source=gBcvfFpabk3CnzmXKdYe3w", "categories": [{"alias": "towncarservice", "title": "Town Car Service"}], "display_phone": "(857) 265-9952", "is_closed": false, "name": "North Shore Car Service", "review_count": 1, "coordinates": {"longitude": -71.0946838, "latitude": 42.3325983}}, {"rating": 4.0, "transactions": [], "image_url": "https://s3-media2.fl.yelpcdn.com/bphoto/CrARxPDV1iH9kLszf2SvSQ/o.jpg", "phone": "+16177389990", "id": "harrys-bar-and-grill-brighton", "distance": 5643.73087707, "location": {"display_address": ["1430 Commonwealth Ave", "Brighton, MA 02135"], "state": "MA", "address2": null, "address1": "1430 Commonwealth Ave", "zip_code": "02135", "city": "Brighton", "country": "US", "address3": ""}, "url": "https://www.yelp.com/biz/harrys-bar-and-grill-brighton?adjust_creative=gBcvfFpabk3CnzmXKdYe3w&utm_campaign=yelp_api_v3&utm_medium=api_v3_business_search&utm_source=gBcvfFpabk3CnzmXKdYe3w", "categories": [{"alias": "bars", "title": "Bars"}, {"alias": "tradamerican", "title": "American (Traditional)"}], "display_phone": "(617) 738-9990", "is_closed": false, "name": "Harry's Bar & Grill", "price": "$$", "review_count": 275, "coordinates": {"longitude": -71.1399161799289, "latitude": 42.3483007201325}}, {"rating": 3.5, "transactions": [], "image_url": "https://s3-media2.fl.yelpcdn.com/bphoto/YyoEMqdxZzXO_ST2bFjZMw/o.jpg", "phone": "+16172695200", "id": "telegraph-hill-south-boston", "distance": 2323.427332496, "location": {"display_address": ["289 Dorchester St", "South Boston, MA 02127"], "state": "MA", "address2": "", "address1": "289 Dorchester St", "zip_code": "02127", "city": "South Boston", "country": "US", "address3": ""}, "url": "https://www.yelp.com/biz/telegraph-hill-south-boston?adjust_creative=gBcvfFpabk3CnzmXKdYe3w&utm_campaign=yelp_api_v3&utm_medium=api_v3_business_search&utm_source=gBcvfFpabk3CnzmXKdYe3w", "categories": [{"alias": "newamerican", "title": "American (New)"}, {"alias": "bars", "title": "Bars"}], "display_phone": "(617) 269-5200", "is_closed": false, "name": "Telegraph Hill", "price": "$$", "review_count": 88, "coordinates": {"longitude": -71.0527496, "latitude": 42.3320198}}, {"rating": 5.0, "transactions": [], "image_url": "https://s3-media3.fl.yelpcdn.com/bphoto/gfljNVYmlGT1ooV9Rng-QA/o.jpg", "phone": "+16175232288", "id": "simmons-agency-boston", "distance": 1846.208615758, "location": {"display_address": ["190 High St", "Fl 2", "Boston, MA 02110"], "state": "MA", "address2": "Fl 2", "address1": "190 High St", "zip_code": "02110", "city": "Boston", "country": "US", "address3": ""}, "url": "https://www.yelp.com/biz/simmons-agency-boston?adjust_creative=gBcvfFpabk3CnzmXKdYe3w&utm_campaign=yelp_api_v3&utm_medium=api_v3_business_search&utm_source=gBcvfFpabk3CnzmXKdYe3w", "categories": [{"alias": "privateinvestigation", "title": "Private Investigation"}], "display_phone": "(617) 523-2288", "is_closed": false, "name": "Simmons Agency", "review_count": 1, "coordinates": {"longitude": -71.0522537231445, "latitude": 42.3567161560059}}, {"rating": 4.0, "transactions": [], "image_url": "https://s3-media3.fl.yelpcdn.com/bphoto/a09tzEdM1L54hvs3hRAcoA/o.jpg", "phone": "+16173968752", "id": "fairsted-kitchen-brookline", "distance": 5655.498853951999, "location": {"display_address": ["1704 Beacon St", "Brookline, MA 02445"], "state": "MA", "address2": "", "address1": "1704 Beacon St", "zip_code": "02445", "city": "Brookline", "country": "US", "address3": ""}, "url": "https://www.yelp.com/biz/fairsted-kitchen-brookline?adjust_creative=gBcvfFpabk3CnzmXKdYe3w&utm_campaign=yelp_api_v3&utm_medium=api_v3_business_search&utm_source=gBcvfFpabk3CnzmXKdYe3w", "categories": [{"alias": "newamerican", "title": "American (New)"}], "display_phone": "(617) 396-8752", "is_closed": false, "name": "Fairsted Kitchen", "price": "$$$", "review_count": 147, "coordinates": {"longitude": -71.1389219823213, "latitude": 42.3386546512441}}, {"rating": 2.5, "transactions": [], "image_url": "https://s3-media4.fl.yelpcdn.com/bphoto/YzWof174W_TwtJZ5LbDoCA/o.jpg", "phone": "+16173695026", "id": "copley-place-central-garage-boston", "distance": 579.3886644288, "location": {"display_address": ["2 Copley Pl", "Boston, MA 02116"], "state": "MA", "address2": "", "address1": "2 Copley Pl", "zip_code": "02116", "city": "Boston", "country": "US", "address3": ""}, "url": "https://www.yelp.com/biz/copley-place-central-garage-boston?adjust_creative=gBcvfFpabk3CnzmXKdYe3w&utm_campaign=yelp_api_v3&utm_medium=api_v3_business_search&utm_source=gBcvfFpabk3CnzmXKdYe3w", "categories": [{"alias": "parking", "title": "Parking"}], "display_phone": "(617) 369-5026", "is_closed": false, "name": "Copley Place Central Garage", "review_count": 7, "coordinates": {"longitude": -71.0782572627068, "latitude": 42.3472970450625}}, {"rating": 5.0, "transactions": [], "image_url": "https://s3-media1.fl.yelpcdn.com/bphoto/mJsdGvZo-TSfTt6yeDMFCQ/o.jpg", "phone": "+16175640466", "id": "rakhlin-law-boston", "distance": 2388.240121382, "location": {"display_address": ["220-230 Commercial St", "Ste 19", "Boston, MA 02109"], "state": "MA", "address2": "Ste 19", "address1": "220-230 Commercial St", "zip_code": "02109", "city": "Boston", "country": "US", "address3": ""}, "url": "https://www.yelp.com/biz/rakhlin-law-boston?adjust_creative=gBcvfFpabk3CnzmXKdYe3w&utm_campaign=yelp_api_v3&utm_medium=api_v3_business_search&utm_source=gBcvfFpabk3CnzmXKdYe3w", "categories": [{"alias": "lawyers", "title": "Lawyers"}], "display_phone": "(617) 564-0466", "is_closed": false, "name": "Rakhlin Law", "review_count": 2, "coordinates": {"longitude": -71.051597, "latitude": 42.36362}}, {"rating": 2.0, "transactions": [], "image_url": "https://s3-media3.fl.yelpcdn.com/bphoto/6K9yBFPng4c-i_R2P4YVDw/o.jpg", "phone": "", "id": "shell-gas-station-boston", "distance": 1204.24980992, "location": {"display_address": ["584 Columbus Ave", "Boston, MA 02118"], "state": "MA", "address2": "", "address1": "584 Columbus Ave", "zip_code": "02118", "city": "Boston", "country": "US", "address3": ""}, "url": "https://www.yelp.com/biz/shell-gas-station-boston?adjust_creative=gBcvfFpabk3CnzmXKdYe3w&utm_campaign=yelp_api_v3&utm_medium=api_v3_business_search&utm_source=gBcvfFpabk3CnzmXKdYe3w", "categories": [{"alias": "servicestations", "title": "Gas & Service Stations"}, {"alias": "convenience", "title": "Convenience Stores"}], "display_phone": "", "is_closed": false, "name": "Shell Gas Station", "price": "$$$", "review_count": 10, "coordinates": {"longitude": -71.0817718505859, "latitude": 42.3402938842773}}, {"rating": 5.0, "transactions": [], "image_url": "https://s3-media4.fl.yelpcdn.com/bphoto/QC4QLBS7mSzV4fecN26iMQ/o.jpg", "phone": "+16172368371", "id": "alltown-market-boston", "distance": 2830.241168098, "location": {"display_address": ["510 Park Dr", "Boston, MA 02215"], "state": "MA", "address2": "", "address1": "510 Park Dr", "zip_code": "02215", "city": "Boston", "country": "US", "address3": ""}, "url": "https://www.yelp.com/biz/alltown-market-boston?adjust_creative=gBcvfFpabk3CnzmXKdYe3w&utm_campaign=yelp_api_v3&utm_medium=api_v3_business_search&utm_source=gBcvfFpabk3CnzmXKdYe3w", "categories": [{"alias": "convenience", "title": "Convenience Stores"}], "display_phone": "(617) 236-8371", "is_closed": false, "name": "Alltown Market", "review_count": 1, "coordinates": {"longitude": -71.1056734621525, "latitude": 42.3476788401604}}, {"rating": 3.5, "transactions": [], "image_url": "https://s3-media3.fl.yelpcdn.com/bphoto/PWv5xVZBaa1SmgPBVfk4FA/o.jpg", "phone": "+16177832071", "id": "the-common-ground-allston", "distance": 5053.88765032, "location": {"display_address": ["85 Harvard Ave", "Allston, MA 02134"], "state": "MA", "address2": "", "address1": "85 Harvard Ave", "zip_code": "02134", "city": "Allston", "country": "US", "address3": ""}, "url": "https://www.yelp.com/biz/the-common-ground-allston?adjust_creative=gBcvfFpabk3CnzmXKdYe3w&utm_campaign=yelp_api_v3&utm_medium=api_v3_business_search&utm_source=gBcvfFpabk3CnzmXKdYe3w", "categories": [{"alias": "tradamerican", "title": "American (Traditional)"}, {"alias": "gastropubs", "title": "Gastropubs"}], "display_phone": "(617) 783-2071", "is_closed": false, "name": "The Common Ground", "price": "$$", "review_count": 291, "coordinates": {"longitude": -71.132264, "latitude": 42.353513}}, {"rating": 5.0, "transactions": [], "image_url": "https://s3-media2.fl.yelpcdn.com/bphoto/8MPinWQH1GAb5rpLd4PDuw/o.jpg", "phone": "+13392340676", "id": "beyond-the-brush-boston-4", "distance": 3242.768922988, "location": {"display_address": ["Boston, MA 02127"], "state": "MA", "address2": "", "address1": "", "zip_code": "02127", "city": "Boston", "country": "US", "address3": null}, "url": "https://www.yelp.com/biz/beyond-the-brush-boston-4?adjust_creative=gBcvfFpabk3CnzmXKdYe3w&utm_campaign=yelp_api_v3&utm_medium=api_v3_business_search&utm_source=gBcvfFpabk3CnzmXKdYe3w", "categories": [{"alias": "contractors", "title": "Contractors"}, {"alias": "painters", "title": "Painters"}, {"alias": "carpenters", "title": "Carpenters"}], "display_phone": "(339) 234-0676", "is_closed": false, "name": "Beyond the Brush", "review_count": 5, "coordinates": {"longitude": -71.05054, "latitude": 42.33302}}, {"rating": 5.0, "transactions": [], "image_url": "https://s3-media2.fl.yelpcdn.com/bphoto/r5dURYnPehGp62IpbL18fQ/o.jpg", "phone": "+18579399218", "id": "emerald-isle-nursing-agency-boston-4", "distance": 3180.386076568, "location": {"display_address": ["552 E Eighth St", "Boston, MA 02127"], "state": "MA", "address2": "", "address1": "552 E Eighth St", "zip_code": "02127", "city": "Boston", "country": "US", "address3": ""}, "url": "https://www.yelp.com/biz/emerald-isle-nursing-agency-boston-4?adjust_creative=gBcvfFpabk3CnzmXKdYe3w&utm_campaign=yelp_api_v3&utm_medium=api_v3_business_search&utm_source=gBcvfFpabk3CnzmXKdYe3w", "categories": [{"alias": "homehealthcare", "title": "Home Health Care"}], "display_phone": "(857) 939-9218", "is_closed": false, "name": "Emerald Isle Nursing Agency", "review_count": 2, "coordinates": {"longitude": -71.039438, "latitude": 42.3315551}}, {"rating": 3.5, "transactions": [], "image_url": "https://s3-media4.fl.yelpcdn.com/bphoto/9r6HljM3ZB_CUyMb9vc86g/o.jpg", "phone": "+16177827433", "id": "sheesha-lounge-allston", "distance": 5226.036175175999, "location": {"display_address": ["417 Cambridge St", "Allston, MA 02134"], "state": "MA", "address2": "", "address1": "417 Cambridge St", "zip_code": "02134", "city": "Allston", "country": "US", "address3": ""}, "url": "https://www.yelp.com/biz/sheesha-lounge-allston?adjust_creative=gBcvfFpabk3CnzmXKdYe3w&utm_campaign=yelp_api_v3&utm_medium=api_v3_business_search&utm_source=gBcvfFpabk3CnzmXKdYe3w", "categories": [{"alias": "hookah_bars", "title": "Hookah Bars"}, {"alias": "lounges", "title": "Lounges"}, {"alias": "tobaccoshops", "title": "Tobacco Shops"}], "display_phone": "(617) 782-7433", "is_closed": false, "name": "Sheesha Lounge", "price": "$$", "review_count": 83, "coordinates": {"longitude": -71.13423, "latitude": 42.35516}}, {"rating": 3.5, "transactions": [], "image_url": "https://s3-media1.fl.yelpcdn.com/bphoto/Nh8zy1xl8LzHBVH-dzLyTA/o.jpg", "phone": "+16176618010", "id": "noir-cambridge", "distance": 5039.253921699999, "location": {"display_address": ["1 Bennett St", "Cambridge, MA 02138"], "state": "MA", "address2": "", "address1": "1 Bennett St", "zip_code": "02138", "city": "Cambridge", "country": "US", "address3": ""}, "url": "https://www.yelp.com/biz/noir-cambridge?adjust_creative=gBcvfFpabk3CnzmXKdYe3w&utm_campaign=yelp_api_v3&utm_medium=api_v3_business_search&utm_source=gBcvfFpabk3CnzmXKdYe3w", "categories": [{"alias": "salad", "title": "Salad"}, {"alias": "cocktailbars", "title": "Cocktail Bars"}, {"alias": "sandwiches", "title": "Sandwiches"}], "display_phone": "(617) 661-8010", "is_closed": false, "name": "Noir", "price": "$$", "review_count": 229, "coordinates": {"longitude": -71.1219383776188, "latitude": 42.3723605275154}}, {"rating": 4.5, "transactions": [], "image_url": "https://s3-media2.fl.yelpcdn.com/bphoto/Qfqy7s3guGaexmlBetzGwA/o.jpg", "phone": "+16178495717", "id": "car-service-boston-boston-5", "distance": 3138.996426712, "location": {"display_address": ["61 Waverly St", "Boston, MA 02119"], "state": "MA", "address2": null, "address1": "61 Waverly St", "zip_code": "02119", "city": "Boston", "country": "US", "address3": ""}, "url": "https://www.yelp.com/biz/car-service-boston-boston-5?adjust_creative=gBcvfFpabk3CnzmXKdYe3w&utm_campaign=yelp_api_v3&utm_medium=api_v3_business_search&utm_source=gBcvfFpabk3CnzmXKdYe3w", "categories": [{"alias": "limos", "title": "Limos"}, {"alias": "airport_shuttles", "title": "Airport Shuttles"}], "display_phone": "(617) 849-5717", "is_closed": false, "name": "Car Service Boston", "review_count": 3, "coordinates": {"longitude": -71.079294, "latitude": 42.3202489}}, {"rating": 2.5, "transactions": [], "image_url": "https://s3-media4.fl.yelpcdn.com/bphoto/b14jn5fcjkwcGjytWmWQtw/o.jpg", "phone": "+16174390328", "id": "laz-parking-garage-boston", "distance": 1996.62928034, "location": {"display_address": ["Rowes Wharf Garage", "30 Rowes Wharf", "Boston, MA 02110"], "state": "MA", "address2": "", "address1": "Rowes Wharf Garage", "zip_code": "02110", "city": "Boston", "country": "US", "address3": "30 Rowes Wharf"}, "url": "https://www.yelp.com/biz/laz-parking-garage-boston?adjust_creative=gBcvfFpabk3CnzmXKdYe3w&utm_campaign=yelp_api_v3&utm_medium=api_v3_business_search&utm_source=gBcvfFpabk3CnzmXKdYe3w", "categories": [{"alias": "parking", "title": "Parking"}], "display_phone": "(617) 439-0328", "is_closed": false, "name": "Laz Parking Garage", "review_count": 6, "coordinates": {"longitude": -71.05033, "latitude": 42.3569699}}, {"rating": 5.0, "transactions": [], "image_url": "https://s3-media2.fl.yelpcdn.com/bphoto/iKufd0ijcdnztUeauqOGBQ/o.jpg", "phone": "+19785529688", "id": "asap-moving-and-storage-boston", "distance": 3994.4155152060002, "location": {"display_address": ["50 Terminal St", "Bldg 2", "Boston, MA 02129"], "state": "MA", "address2": "Bldg 2", "address1": "50 Terminal St", "zip_code": "02129", "city": "Boston", "country": "US", "address3": null}, "url": "https://www.yelp.com/biz/asap-moving-and-storage-boston?adjust_creative=gBcvfFpabk3CnzmXKdYe3w&utm_campaign=yelp_api_v3&utm_medium=api_v3_business_search&utm_source=gBcvfFpabk3CnzmXKdYe3w", "categories": [{"alias": "movers", "title": "Movers"}, {"alias": "selfstorage", "title": "Self Storage"}, {"alias": "homestaging", "title": "Home Staging"}], "display_phone": "(978) 552-9688", "is_closed": false, "name": "ASAP Moving & Storage", "review_count": 1, "coordinates": {"longitude": -71.0602462291718, "latitude": 42.3828338296797}}, {"rating": 5.0, "transactions": [], "image_url": "https://s3-media2.fl.yelpcdn.com/bphoto/9tc1jCK9fVYmn_ocB6jkRg/o.jpg", "phone": "+16178489610", "id": "renoviso-boston-3", "distance": 10445.626138982, "location": {"display_address": ["2 S Market St", "Faneuil Hall Marketplace", "Boston, MA 02109"], "state": "MA", "address2": "", "address1": "2 S Market St", "zip_code": "02109", "city": "Boston", "country": "US", "address3": "Faneuil Hall Marketplace"}, "url": "https://www.yelp.com/biz/renoviso-boston-3?adjust_creative=gBcvfFpabk3CnzmXKdYe3w&utm_campaign=yelp_api_v3&utm_medium=api_v3_business_search&utm_source=gBcvfFpabk3CnzmXKdYe3w", "categories": [{"alias": "windowsinstallation", "title": "Windows Installation"}, {"alias": "doorsales", "title": "Door Sales/Installation"}, {"alias": "roofing", "title": "Roofing"}], "display_phone": "(617) 848-9610", "is_closed": false, "name": "Renoviso", "review_count": 13, "coordinates": {"longitude": -71.1921085847413, "latitude": 42.3188334197274}}, {"rating": 5.0, "transactions": [], "image_url": "https://s3-media3.fl.yelpcdn.com/bphoto/2WvvhYjyyPM4y8BkoDGJ6A/o.jpg", "phone": "+18573661701", "id": "j-n-j-yard-work-boston", "distance": 6758.09502464, "location": {"display_address": ["21 Walton St", "Boston, MA 02124"], "state": "MA", "address2": null, "address1": "21 Walton St", "zip_code": "02124", "city": "Boston", "country": "US", "address3": ""}, "url": "https://www.yelp.com/biz/j-n-j-yard-work-boston?adjust_creative=gBcvfFpabk3CnzmXKdYe3w&utm_campaign=yelp_api_v3&utm_medium=api_v3_business_search&utm_source=gBcvfFpabk3CnzmXKdYe3w", "categories": [{"alias": "treeservices", "title": "Tree Services"}, {"alias": "landscaping", "title": "Landscaping"}, {"alias": "propertymgmt", "title": "Property Management"}], "display_phone": "(857) 366-1701", "is_closed": false, "name": "J n' J Yard Work", "review_count": 2, "coordinates": {"longitude": -71.0701751708984, "latitude": 42.2870712280273}}, {"rating": 5.0, "transactions": [], "image_url": "https://s3-media3.fl.yelpcdn.com/bphoto/yiuARNDhytGP_NZb3LnolA/o.jpg", "phone": "+16172990062", "id": "rachel-tine-photography-boston", "distance": 3938.6448031099994, "location": {"display_address": ["50 Terminal St", "Bld 2, Ste 719", "Boston, MA 02129"], "state": "MA", "address2": "Bld 2, Ste 719", "address1": "50 Terminal St", "zip_code": "02129", "city": "Boston", "country": "US", "address3": ""}, "url": "https://www.yelp.com/biz/rachel-tine-photography-boston?adjust_creative=gBcvfFpabk3CnzmXKdYe3w&utm_campaign=yelp_api_v3&utm_medium=api_v3_business_search&utm_source=gBcvfFpabk3CnzmXKdYe3w", "categories": [{"alias": "sessionphotography", "title": "Session Photography"}, {"alias": "eventphotography", "title": "Event Photography"}], "display_phone": "(617) 299-0062", "is_closed": false, "name": "Rachel Tine Photography", "review_count": 5, "coordinates": {"longitude": -71.0605165, "latitude": 42.3823675}}, {"rating": 5.0, "transactions": [], "image_url": "https://s3-media2.fl.yelpcdn.com/bphoto/m-Pvllt0YIvs6a7BK6_maQ/o.jpg", "phone": "+17815575005", "id": "flagship-coach-worldwide-boston", "distance": 3242.768922988, "location": {"display_address": ["Boston, MA 02127"], "state": "MA", "address2": "", "address1": "", "zip_code": "02127", "city": "Boston", "country": "US", "address3": ""}, "url": "https://www.yelp.com/biz/flagship-coach-worldwide-boston?adjust_creative=gBcvfFpabk3CnzmXKdYe3w&utm_campaign=yelp_api_v3&utm_medium=api_v3_business_search&utm_source=gBcvfFpabk3CnzmXKdYe3w", "categories": [{"alias": "limos", "title": "Limos"}], "display_phone": "(781) 557-5005", "is_closed": false, "name": "Flagship Coach Worldwide", "review_count": 1, "coordinates": {"longitude": -71.05054, "latitude": 42.33302}}, {"rating": 5.0, "transactions": [], "image_url": "https://s3-media2.fl.yelpcdn.com/bphoto/FBB67QAh8EzFqj_Ej19ulw/o.jpg", "phone": "+15083331310", "id": "fun-party-pixels-boston", "distance": 1697.979389454, "location": {"display_address": ["Boston, MA"], "state": "MA", "address2": "", "address1": "", "zip_code": "", "city": "Boston", "country": "US", "address3": null}, "url": "https://www.yelp.com/biz/fun-party-pixels-boston?adjust_creative=gBcvfFpabk3CnzmXKdYe3w&utm_campaign=yelp_api_v3&utm_medium=api_v3_business_search&utm_source=gBcvfFpabk3CnzmXKdYe3w", "categories": [{"alias": "photoboothrentals", "title": "Photo Booth Rentals"}], "display_phone": "(508) 333-1310", "is_closed": false, "name": "Fun Party Pixels", "review_count": 2, "coordinates": {"longitude": -71.05675, "latitude": 42.35866}}, {"rating": 4.0, "transactions": [], "image_url": "https://s3-media1.fl.yelpcdn.com/bphoto/hMXihNCKFRCMD6Vzxz1GLA/o.jpg", "phone": "+16175249038", "id": "midway-cafe-jamaica-plain", "distance": 5506.62798379, "location": {"display_address": ["3496 Washington St", "Jamaica Plain, MA 02130"], "state": "MA", "address2": "", "address1": "3496 Washington St", "zip_code": "02130", "city": "Jamaica Plain", "country": "US", "address3": ""}, "url": "https://www.yelp.com/biz/midway-cafe-jamaica-plain?adjust_creative=gBcvfFpabk3CnzmXKdYe3w&utm_campaign=yelp_api_v3&utm_medium=api_v3_business_search&utm_source=gBcvfFpabk3CnzmXKdYe3w", "categories": [{"alias": "musicvenues", "title": "Music Venues"}, {"alias": "bars", "title": "Bars"}, {"alias": "karaoke", "title": "Karaoke"}], "display_phone": "(617) 524-9038", "is_closed": false, "name": "Midway Cafe", "price": "$", "review_count": 67, "coordinates": {"longitude": -71.1075658, "latitude": 42.3061329}}, {"rating": 4.5, "transactions": [], "image_url": "https://s3-media2.fl.yelpcdn.com/bphoto/R122Kv1xM8ReAXZ_5D17uw/o.jpg", "phone": "+16178688000", "id": "kimpton-hotel-marlowe-cambridge", "distance": 2159.8997201519996, "location": {"display_address": ["25 Edwin H Land Blvd", "Cambridge, MA 02141"], "state": "MA", "address2": "", "address1": "25 Edwin H Land Blvd", "zip_code": "02141", "city": "Cambridge", "country": "US", "address3": ""}, "url": "https://www.yelp.com/biz/kimpton-hotel-marlowe-cambridge?adjust_creative=gBcvfFpabk3CnzmXKdYe3w&utm_campaign=yelp_api_v3&utm_medium=api_v3_business_search&utm_source=gBcvfFpabk3CnzmXKdYe3w", "categories": [{"alias": "hotels", "title": "Hotels"}, {"alias": "venues", "title": "Venues & Event Spaces"}, {"alias": "wedding_planning", "title": "Wedding Planning"}], "display_phone": "(617) 868-8000", "is_closed": false, "name": "Kimpton Hotel Marlowe", "price": "$$$", "review_count": 227, "coordinates": {"longitude": -71.075234413147, "latitude": 42.3670421573529}}, {"rating": 3.0, "transactions": ["delivery"], "image_url": "https://s3-media2.fl.yelpcdn.com/bphoto/1OkQ_mrLGIHKrw6wAn24Jw/o.jpg", "phone": "+16177828100", "id": "tavern-in-the-square-allston-3", "distance": 5081.808733716, "location": {"display_address": ["161 Brighton Ave", "Allston, MA 02134"], "state": "MA", "address2": "", "address1": "161 Brighton Ave", "zip_code": "02134", "city": "Allston", "country": "US", "address3": ""}, "url": "https://www.yelp.com/biz/tavern-in-the-square-allston-3?adjust_creative=gBcvfFpabk3CnzmXKdYe3w&utm_campaign=yelp_api_v3&utm_medium=api_v3_business_search&utm_source=gBcvfFpabk3CnzmXKdYe3w", "categories": [{"alias": "newamerican", "title": "American (New)"}, {"alias": "sportsbars", "title": "Sports Bars"}, {"alias": "sandwiches", "title": "Sandwiches"}], "display_phone": "(617) 782-8100", "is_closed": false, "name": "Tavern in the Square", "price": "$$", "review_count": 372, "coordinates": {"longitude": -71.1323637, "latitude": 42.3531627}}, {"rating": 2.5, "transactions": [], "image_url": "https://s3-media1.fl.yelpcdn.com/bphoto/S2z6ZBPYfL_7vGGr7YW0sA/o.jpg", "phone": "+16172879200", "id": "comfort-inn-boston", "distance": 6446.295538481999, "location": {"display_address": ["900 Morrissey Blvd", "Boston, MA 02122"], "state": "MA", "address2": "", "address1": "900 Morrissey Blvd", "zip_code": "02122", "city": "Boston", "country": "US", "address3": ""}, "url": "https://www.yelp.com/biz/comfort-inn-boston?adjust_creative=gBcvfFpabk3CnzmXKdYe3w&utm_campaign=yelp_api_v3&utm_medium=api_v3_business_search&utm_source=gBcvfFpabk3CnzmXKdYe3w", "categories": [{"alias": "hotels", "title": "Hotels"}], "display_phone": "(617) 287-9200", "is_closed": false, "name": "Comfort Inn", "price": "$$", "review_count": 31, "coordinates": {"longitude": -71.047135, "latitude": 42.292679}}, {"rating": 5.0, "transactions": [], "image_url": "https://s3-media1.fl.yelpcdn.com/bphoto/g-jQdPvj71s3JkItApVIHQ/o.jpg", "phone": "+17742225683", "id": "final-wing-boston", "distance": 4607.56134142, "location": {"display_address": ["39 Brighton Ave", "Boston, MA 02134"], "state": "MA", "address2": null, "address1": "39 Brighton Ave", "zip_code": "02134", "city": "Boston", "country": "US", "address3": ""}, "url": "https://www.yelp.com/biz/final-wing-boston?adjust_creative=gBcvfFpabk3CnzmXKdYe3w&utm_campaign=yelp_api_v3&utm_medium=api_v3_business_search&utm_source=gBcvfFpabk3CnzmXKdYe3w", "categories": [{"alias": "lifecoach", "title": "Life Coach"}, {"alias": "matchmakers", "title": "Matchmakers"}], "display_phone": "(774) 222-5683", "is_closed": false, "name": "Final Wing", "review_count": 1, "coordinates": {"longitude": -71.12723, "latitude": 42.35277}}, {"rating": 5.0, "transactions": [], "image_url": "", "phone": "+16175611517", "id": "dunkin-donuts-boston-158", "distance": 4173.6789322019995, "location": {"display_address": ["500 Terminal Way", "Terminal E", "Boston, MA 02129"], "state": "MA", "address2": "", "address1": "500 Terminal Way", "zip_code": "02129", "city": "Boston", "country": "US", "address3": "Terminal E"}, "url": "https://www.yelp.com/biz/dunkin-donuts-boston-158?adjust_creative=gBcvfFpabk3CnzmXKdYe3w&utm_campaign=yelp_api_v3&utm_medium=api_v3_business_search&utm_source=gBcvfFpabk3CnzmXKdYe3w", "categories": [{"alias": "donuts", "title": "Donuts"}], "display_phone": "(617) 561-1517", "is_closed": false, "name": "Dunkin Donuts", "review_count": 1, "coordinates": {"longitude": -71.054864265244, "latitude": 42.383373290154}}, {"rating": 3.5, "transactions": ["pickup"], "image_url": "https://s3-media2.fl.yelpcdn.com/bphoto/uv2oSSrldwiDbiiWfri2Kg/o.jpg", "phone": "+16179451986", "id": "el-jefes-taqueria-cambridge", "distance": 4830.392328094, "location": {"display_address": ["83 Mt Auburn St", "Cambridge, MA 02138"], "state": "MA", "address2": null, "address1": "83 Mt Auburn St", "zip_code": "02138", "city": "Cambridge", "country": "US", "address3": ""}, "url": "https://www.yelp.com/biz/el-jefes-taqueria-cambridge?adjust_creative=gBcvfFpabk3CnzmXKdYe3w&utm_campaign=yelp_api_v3&utm_medium=api_v3_business_search&utm_source=gBcvfFpabk3CnzmXKdYe3w", "categories": [{"alias": "mexican", "title": "Mexican"}], "display_phone": "(617) 945-1986", "is_closed": false, "name": "El Jefe's Taqueria", "price": "$", "review_count": 75, "coordinates": {"longitude": -71.1195074, "latitude": 42.3724666}}, {"rating": 3.0, "transactions": ["delivery", "pickup"], "image_url": "https://s3-media3.fl.yelpcdn.com/bphoto/Aj5YfbQOTvhMfDzkmk0E5A/o.jpg", "phone": "+16172697587", "id": "mcgoos-pizza-south-boston", "distance": 2491.698635424, "location": {"display_address": ["479 W Broadway", "South Boston, MA 02127"], "state": "MA", "address2": "", "address1": "479 W Broadway", "zip_code": "02127", "city": "South Boston", "country": "US", "address3": ""}, "url": "https://www.yelp.com/biz/mcgoos-pizza-south-boston?adjust_creative=gBcvfFpabk3CnzmXKdYe3w&utm_campaign=yelp_api_v3&utm_medium=api_v3_business_search&utm_source=gBcvfFpabk3CnzmXKdYe3w", "categories": [{"alias": "pizza", "title": "Pizza"}, {"alias": "salad", "title": "Salad"}, {"alias": "sandwiches", "title": "Sandwiches"}], "display_phone": "(617) 269-7587", "is_closed": false, "name": "McGoo's Pizza", "price": "$", "review_count": 42, "coordinates": {"longitude": -71.04601, "latitude": 42.33546}}, {"rating": 5.0, "transactions": [], "image_url": "https://s3-media2.fl.yelpcdn.com/bphoto/znt_0DDupe6fP5IwWTgRhA/o.jpg", "phone": "+19084997626", "id": "the-spunky-baker-boston", "distance": 7513.847526, "location": {"display_address": ["Boston, MA 02135"], "state": "MA", "address2": "", "address1": "", "zip_code": "02135", "city": "Boston", "country": "US", "address3": ""}, "url": "https://www.yelp.com/biz/the-spunky-baker-boston?adjust_creative=gBcvfFpabk3CnzmXKdYe3w&utm_campaign=yelp_api_v3&utm_medium=api_v3_business_search&utm_source=gBcvfFpabk3CnzmXKdYe3w", "categories": [{"alias": "customcakes", "title": "Custom Cakes"}], "display_phone": "(908) 499-7626", "is_closed": false, "name": "The Spunky Baker", "review_count": 3, "coordinates": {"longitude": -71.1626541423279, "latitude": 42.3463582295364}}, {"rating": 3.0, "transactions": [], "image_url": "https://s3-media2.fl.yelpcdn.com/bphoto/INo4v0CWj-WyjKLo9Q5Sow/o.jpg", "phone": "+16176710596", "id": "fu-kin-fixit-boston", "distance": 2432.15852718, "location": {"display_address": ["607 Boylston St", "Boston, MA 02116"], "state": "MA", "address2": null, "address1": "607 Boylston St", "zip_code": "02116", "city": "Boston", "country": "US", "address3": ""}, "url": "https://www.yelp.com/biz/fu-kin-fixit-boston?adjust_creative=gBcvfFpabk3CnzmXKdYe3w&utm_campaign=yelp_api_v3&utm_medium=api_v3_business_search&utm_source=gBcvfFpabk3CnzmXKdYe3w", "categories": [{"alias": "handyman", "title": "Handyman"}], "display_phone": "(617) 671-0596", "is_closed": false, "name": "Fu\u00a2kin Fixit", "review_count": 9, "coordinates": {"longitude": -71.0655324718751, "latitude": 42.3693038584846}}], "total": 1239}