{"region": {"center": {"longitude": -71.07124328613281, "latitude": 42.34784169448538}}, "businesses": [{"rating": 2.5, "transactions": [], "image_url": "https://s3-media3.fl.yelpcdn.com/bphoto/raClOwwkfkEa1SGuBsng_A/o.jpg", "phone": "+16172964000", "id": "carney-hospital-dorchester-center", "distance": 7836.5387034099995, "location": {"display_address": ["2100 Dorchester Ave", "Dorchester Center, MA 02124"], "state": "MA", "address2": "", "address1": "2100 Dorchester Ave", "zip_code": "02124", "city": "Dorchester Center", "country": "US", "address3": ""}, "url": "https://www.yelp.com/biz/carney-hospital-dorchester-center?adjust_creative=gBcvfFpabk3CnzmXKdYe3w&utm_campaign=yelp_api_v3&utm_medium=api_v3_business_search&utm_source=gBcvfFpabk3CnzmXKdYe3w", "categories": [{"alias": "hospitals", "title": "Hospitals"}, {"alias": "diagnosticimaging", "title": "Diagnostic Imaging"}, {"alias": "emergencyrooms", "title": "Emergency Rooms"}], "display_phone": "(617) 296-4000", "is_closed": false, "name": "Carney Hospital", "review_count": 26, "coordinates": {"longitude": -71.0651473999023, "latitude": 42.2773895263672}}, {"rating": 5.0, "transactions": [], "image_url": "https://s3-media4.fl.yelpcdn.com/bphoto/v5l_7Q17Sy4k6GqDiW4Eiw/o.jpg", "phone": "+16172325950", "id": "feinberg-and-alban-brookline-2", "distance": 3101.1869146199997, "location": {"display_address": ["1051 Beacon St", "Brookline, MA 02446"], "state": "MA", "address2": "", "address1": "1051 Beacon St", "zip_code": "02446", "city": "Brookline", "country": "US", "address3": ""}, "url": "https://www.yelp.com/biz/feinberg-and-alban-brookline-2?adjust_creative=gBcvfFpabk3CnzmXKdYe3w&utm_campaign=yelp_api_v3&utm_medium=api_v3_business_search&utm_source=gBcvfFpabk3CnzmXKdYe3w", "categories": [{"alias": "personal_injury", "title": "Personal Injury Law"}, {"alias": "realestatelawyers", "title": "Real Estate Law"}, {"alias": "estateplanning", "title": "Estate Planning Law"}], "display_phone": "(617) 232-5950", "is_closed": false, "name": "Feinberg & Alban", "review_count": 2, "coordinates": {"longitude": -71.1088151, "latitude": 42.3452723}}, {"rating": 1.5, "transactions": [], "image_url": "https://s3-media2.fl.yelpcdn.com/bphoto/hoHm1W2EA5GIBQryrCmf3A/o.jpg", "phone": "+16174925566", "id": "star-market-cambridge-3", "distance": 6056.144046952, "location": {"display_address": ["49 White St", "Cambridge, MA 02140"], "state": "MA", "address2": "", "address1": "49 White St", "zip_code": "02140", "city": "Cambridge", "country": "US", "address3": ""}, "url": "https://www.yelp.com/biz/star-market-cambridge-3?adjust_creative=gBcvfFpabk3CnzmXKdYe3w&utm_campaign=yelp_api_v3&utm_medium=api_v3_business_search&utm_source=gBcvfFpabk3CnzmXKdYe3w", "categories": [{"alias": "grocery", "title": "Grocery"}], "display_phone": "(617) 492-5566", "is_closed": false, "name": "Star Market", "price": "$$", "review_count": 22, "coordinates": {"longitude": -71.1177553, "latitude": 42.3893762}}, {"rating": 5.0, "transactions": [], "image_url": "https://s3-media1.fl.yelpcdn.com/bphoto/xBljsnchWZISqM6KfzFIBw/o.jpg", "phone": "+16174427777", "id": "lenox-martell-jamaica-plain", "distance": 3427.0138910199994, "location": {"display_address": ["89 Heath St", "Jamaica Plain, MA 02130"], "state": "MA", "address2": "", "address1": "89 Heath St", "zip_code": "02130", "city": "Jamaica Plain", "country": "US", "address3": ""}, "url": "https://www.yelp.com/biz/lenox-martell-jamaica-plain?adjust_creative=gBcvfFpabk3CnzmXKdYe3w&utm_campaign=yelp_api_v3&utm_medium=api_v3_business_search&utm_source=gBcvfFpabk3CnzmXKdYe3w", "categories": [{"alias": "beer_and_wine", "title": "Beer, Wine & Spirits"}], "display_phone": "(617) 442-7777", "is_closed": false, "name": "Lenox-Martell", "review_count": 1, "coordinates": {"longitude": -71.101493, "latitude": 42.326633}}, {"rating": 5.0, "transactions": [], "image_url": "https://s3-media2.fl.yelpcdn.com/bphoto/-Ptm7zh-bTp-ekKz4y4OnA/o.jpg", "phone": "+18285071752", "id": "nick-mescia-lembu-real-estate-cambridge", "distance": 3174.899836508, "location": {"display_address": ["22 Pearl St", "Ste 4", "Cambridge, MA 02139"], "state": "MA", "address2": "Ste 4", "address1": "22 Pearl St", "zip_code": "02139", "city": "Cambridge", "country": "US", "address3": ""}, "url": "https://www.yelp.com/biz/nick-mescia-lembu-real-estate-cambridge?adjust_creative=gBcvfFpabk3CnzmXKdYe3w&utm_campaign=yelp_api_v3&utm_medium=api_v3_business_search&utm_source=gBcvfFpabk3CnzmXKdYe3w", "categories": [{"alias": "realestateagents", "title": "Real Estate Agents"}], "display_phone": "(828) 507-1752", "is_closed": false, "name": "Nick Mescia - Lembu Real Estate", "review_count": 2, "coordinates": {"longitude": -71.1029086, "latitude": 42.3642074}}, {"rating": 4.5, "transactions": [], "image_url": "https://s3-media2.fl.yelpcdn.com/bphoto/kEM8ZyB0qL5P6vd1crKFUQ/o.jpg", "phone": "+16175933762", "id": "parkway-cab-inc-roslindale", "distance": 8358.63917687, "location": {"display_address": ["Roslindale, MA 02131"], "state": "MA", "address2": null, "address1": "", "zip_code": "02131", "city": "Roslindale", "country": "US", "address3": ""}, "url": "https://www.yelp.com/biz/parkway-cab-inc-roslindale?adjust_creative=gBcvfFpabk3CnzmXKdYe3w&utm_campaign=yelp_api_v3&utm_medium=api_v3_business_search&utm_source=gBcvfFpabk3CnzmXKdYe3w", "categories": [{"alias": "airport_shuttles", "title": "Airport Shuttles"}, {"alias": "taxis", "title": "Taxis"}], "display_phone": "(617) 593-3762", "is_closed": false, "name": "Parkway Cab Inc", "review_count": 5, "coordinates": {"longitude": -71.126876, "latitude": 42.284929}}, {"rating": 5.0, "transactions": [], "image_url": "https://s3-media1.fl.yelpcdn.com/bphoto/aSyJHoZrATH-WnTT2cSB-w/o.jpg", "phone": "+15085302500", "id": "garage-door-service-charlestown", "distance": 3269.4638502380003, "location": {"display_address": ["242 Main St", "Charlestown, MA 02129"], "state": "MA", "address2": "", "address1": "242 Main St", "zip_code": "02129", "city": "Charlestown", "country": "US", "address3": ""}, "url": "https://www.yelp.com/biz/garage-door-service-charlestown?adjust_creative=gBcvfFpabk3CnzmXKdYe3w&utm_campaign=yelp_api_v3&utm_medium=api_v3_business_search&utm_source=gBcvfFpabk3CnzmXKdYe3w", "categories": [{"alias": "garage_door_services", "title": "Garage Door Services"}], "display_phone": "(508) 530-2500", "is_closed": false, "name": "Garage Door Service", "review_count": 1, "coordinates": {"longitude": -71.0666612, "latitude": 42.3770297}}, {"rating": 1.0, "transactions": [], "image_url": "https://s3-media3.fl.yelpcdn.com/bphoto/qA7Ie3VHJkK1GELIO0OuWQ/o.jpg", "phone": "+16174018138", "id": "somerville-secure-locksmiths-somerville", "distance": 3156.675026612, "location": {"display_address": ["14 McGrath Hwy", "Ste 121", "Somerville, MA 02143"], "state": "MA", "address2": "Ste 121", "address1": "14 McGrath Hwy", "zip_code": "02143", "city": "Somerville", "country": "US", "address3": ""}, "url": "https://www.yelp.com/biz/somerville-secure-locksmiths-somerville?adjust_creative=gBcvfFpabk3CnzmXKdYe3w&utm_campaign=yelp_api_v3&utm_medium=api_v3_business_search&utm_source=gBcvfFpabk3CnzmXKdYe3w", "categories": [{"alias": "locksmiths", "title": "Keys & Locksmiths"}], "display_phone": "(617) 401-8138", "is_closed": false, "name": "Somerville Secure Locksmiths", "review_count": 1, "coordinates": {"longitude": -71.0851344, "latitude": 42.3749697}}, {"rating": 4.0, "transactions": [], "image_url": "https://s3-media3.fl.yelpcdn.com/bphoto/C-ASD4pM75R1mmjFEYpKZg/o.jpg", "phone": "+17813977663", "id": "branon-and-son-flat-roofing-and-construction-charlestown", "distance": 3681.5707627179995, "location": {"display_address": ["19 Auburn St", "Charlestown, MA 02129"], "state": "MA", "address2": "", "address1": "19 Auburn St", "zip_code": "02129", "city": "Charlestown", "country": "US", "address3": ""}, "url": "https://www.yelp.com/biz/branon-and-son-flat-roofing-and-construction-charlestown?adjust_creative=gBcvfFpabk3CnzmXKdYe3w&utm_campaign=yelp_api_v3&utm_medium=api_v3_business_search&utm_source=gBcvfFpabk3CnzmXKdYe3w", "categories": [{"alias": "roofing", "title": "Roofing"}, {"alias": "gutterservices", "title": "Gutter Services"}, {"alias": "decksrailing", "title": "Decks & Railing"}], "display_phone": "(781) 397-7663", "is_closed": false, "name": "Branon & Son Flat Roofing and Construction Co.", "review_count": 1, "coordinates": {"longitude": -71.0692719, "latitude": 42.3809194}}, {"rating": 1.0, "transactions": [], "image_url": "https://s3-media1.fl.yelpcdn.com/bphoto/VfyqL_JIe-b1qqn7c-ogvA/o.jpg", "phone": "+16177184000", "id": "cambridge-taxi-cambridge-3", "distance": 3203.760130728, "location": {"display_address": ["873 Cambridge St", "Cambridge, MA 02141"], "state": "MA", "address2": "", "address1": "873 Cambridge St", "zip_code": "02141", "city": "Cambridge", "country": "US", "address3": ""}, "url": "https://www.yelp.com/biz/cambridge-taxi-cambridge-3?adjust_creative=gBcvfFpabk3CnzmXKdYe3w&utm_campaign=yelp_api_v3&utm_medium=api_v3_business_search&utm_source=gBcvfFpabk3CnzmXKdYe3w", "categories": [{"alias": "taxis", "title": "Taxis"}], "display_phone": "(617) 718-4000", "is_closed": false, "name": "Cambridge Taxi", "review_count": 1, "coordinates": {"longitude": -71.0913712531328, "latitude": 42.372549623251}}, {"rating": 5.0, "transactions": [], "image_url": "https://s3-media3.fl.yelpcdn.com/bphoto/gCILP08i_Bq5E4Vx1xBvHQ/o.jpg", "phone": "+16178990205", "id": "city-black-cars-medford-2", "distance": 8590.101053964, "location": {"display_address": ["0 Governors Ave", "Ste B2", "Medford, MA 02155"], "state": "MA", "address2": "Ste B2", "address1": "0 Governors Ave", "zip_code": "02155", "city": "Medford", "country": "US", "address3": null}, "url": "https://www.yelp.com/biz/city-black-cars-medford-2?adjust_creative=gBcvfFpabk3CnzmXKdYe3w&utm_campaign=yelp_api_v3&utm_medium=api_v3_business_search&utm_source=gBcvfFpabk3CnzmXKdYe3w", "categories": [{"alias": "airport_shuttles", "title": "Airport Shuttles"}, {"alias": "limos", "title": "Limos"}, {"alias": "taxis", "title": "Taxis"}], "display_phone": "(617) 899-0205", "is_closed": false, "name": "City Black Cars", "review_count": 1, "coordinates": {"longitude": -71.11075, "latitude": 42.42179}}, {"rating": 5.0, "transactions": [], "image_url": "https://s3-media3.fl.yelpcdn.com/bphoto/T49ALJTRBH3-S_TpUIuyow/o.jpg", "phone": "+16178494940", "id": "als-livery-service-west-roxbury-4", "distance": 10669.589457279999, "location": {"display_address": ["West Roxbury, MA 02132"], "state": "MA", "address2": null, "address1": "", "zip_code": "02132", "city": "West Roxbury", "country": "US", "address3": ""}, "url": "https://www.yelp.com/biz/als-livery-service-west-roxbury-4?adjust_creative=gBcvfFpabk3CnzmXKdYe3w&utm_campaign=yelp_api_v3&utm_medium=api_v3_business_search&utm_source=gBcvfFpabk3CnzmXKdYe3w", "categories": [{"alias": "limos", "title": "Limos"}], "display_phone": "(617) 849-4940", "is_closed": false, "name": "Al's Livery Service", "review_count": 7, "coordinates": {"longitude": -71.1598434448242, "latitude": 42.2806777954102}}, {"rating": 5.0, "transactions": [], "image_url": "https://s3-media4.fl.yelpcdn.com/bphoto/gMEBiBcOOpIBvhfK2V_6Vw/o.jpg", "phone": "+15082733150", "id": "c-and-r-landscaping-and-snow-removal-west-roxbury", "distance": 8525.458211382, "location": {"display_address": ["West Roxbury, MA 02131"], "state": "MA", "address2": null, "address1": null, "zip_code": "02131", "city": "West Roxbury", "country": "US", "address3": ""}, "url": "https://www.yelp.com/biz/c-and-r-landscaping-and-snow-removal-west-roxbury?adjust_creative=gBcvfFpabk3CnzmXKdYe3w&utm_campaign=yelp_api_v3&utm_medium=api_v3_business_search&utm_source=gBcvfFpabk3CnzmXKdYe3w", "categories": [{"alias": "snowremoval", "title": "Snow Removal"}, {"alias": "landscaping", "title": "Landscaping"}], "display_phone": "(508) 273-3150", "is_closed": false, "name": "C and R Landscaping and Snow Removal", "review_count": 2, "coordinates": {"longitude": -71.144249, "latitude": 42.2812386}}, {"rating": 5.0, "transactions": [], "image_url": "https://s3-media1.fl.yelpcdn.com/bphoto/ngy-U8ePDvUxgxBgezA5fw/o.jpg", "phone": "+16179536203", "id": "blue-nile-livery-charlestown-2", "distance": 3495.97571936, "location": {"display_address": ["Charlestown, MA 02129"], "state": "MA", "address2": "", "address1": "", "zip_code": "02129", "city": "Charlestown", "country": "US", "address3": ""}, "url": "https://www.yelp.com/biz/blue-nile-livery-charlestown-2?adjust_creative=gBcvfFpabk3CnzmXKdYe3w&utm_campaign=yelp_api_v3&utm_medium=api_v3_business_search&utm_source=gBcvfFpabk3CnzmXKdYe3w", "categories": [{"alias": "limos", "title": "Limos"}, {"alias": "airport_shuttles", "title": "Airport Shuttles"}], "display_phone": "(617) 953-6203", "is_closed": false, "name": "Blue Nile Livery", "review_count": 2, "coordinates": {"longitude": -71.0639114379883, "latitude": 42.3790168762207}}, {"rating": 5.0, "transactions": [], "image_url": "", "phone": "+16173274295", "id": "regan-painting-corporation-roslindale", "distance": 8508.716730164, "location": {"display_address": ["79 Belgrade Ave", "Roslindale, MA 02131"], "state": "MA", "address2": "", "address1": "79 Belgrade Ave", "zip_code": "02131", "city": "Roslindale", "country": "US", "address3": ""}, "url": "https://www.yelp.com/biz/regan-painting-corporation-roslindale?adjust_creative=gBcvfFpabk3CnzmXKdYe3w&utm_campaign=yelp_api_v3&utm_medium=api_v3_business_search&utm_source=gBcvfFpabk3CnzmXKdYe3w", "categories": [{"alias": "painters", "title": "Painters"}, {"alias": "gutterservices", "title": "Gutter Services"}], "display_phone": "(617) 327-4295", "is_closed": false, "name": "Regan Painting Corporation", "review_count": 1, "coordinates": {"longitude": -71.1332702636719, "latitude": 42.2865905761719}}, {"rating": 5.0, "transactions": [], "image_url": "https://s3-media1.fl.yelpcdn.com/bphoto/ikhKaWh31tDMWkX55ZXlVQ/o.jpg", "phone": "+16179132203", "id": "lauren-holleran-gibson-sothebys-cambridge", "distance": 4060.7756845020003, "location": {"display_address": ["1008 Massachusetts Ave", "Cambridge, MA 02138"], "state": "MA", "address2": "", "address1": "1008 Massachusetts Ave", "zip_code": "02138", "city": "Cambridge", "country": "US", "address3": ""}, "url": "https://www.yelp.com/biz/lauren-holleran-gibson-sothebys-cambridge?adjust_creative=gBcvfFpabk3CnzmXKdYe3w&utm_campaign=yelp_api_v3&utm_medium=api_v3_business_search&utm_source=gBcvfFpabk3CnzmXKdYe3w", "categories": [{"alias": "realestateagents", "title": "Real Estate Agents"}], "display_phone": "(617) 913-2203", "is_closed": false, "name": "Lauren Holleran - Gibson Sotheby's", "review_count": 1, "coordinates": {"longitude": -71.1112825947759, "latitude": 42.3692525306199}}, {"rating": 2.5, "transactions": [], "image_url": "https://s3-media1.fl.yelpcdn.com/bphoto/Qn12YPMLcn31XCdjMSWyTA/o.jpg", "phone": "+17813950808", "id": "export-enterprises-medford", "distance": 7933.939178889999, "location": {"display_address": ["50 Mystic Ave", "Medford, MA 02155"], "state": "MA", "address2": "", "address1": "50 Mystic Ave", "zip_code": "02155", "city": "Medford", "country": "US", "address3": ""}, "url": "https://www.yelp.com/biz/export-enterprises-medford?adjust_creative=gBcvfFpabk3CnzmXKdYe3w&utm_campaign=yelp_api_v3&utm_medium=api_v3_business_search&utm_source=gBcvfFpabk3CnzmXKdYe3w", "categories": [{"alias": "towing", "title": "Towing"}], "display_phone": "(781) 395-0808", "is_closed": false, "name": "Export Enterprises", "review_count": 8, "coordinates": {"longitude": -71.1083543, "latitude": 42.4137191}}, {"rating": 2.0, "transactions": [], "image_url": "https://s3-media1.fl.yelpcdn.com/bphoto/D65MSytjtsN75ljPGUoV8w/o.jpg", "phone": "+16173816860", "id": "citgo-everett", "distance": 5340.836190999999, "location": {"display_address": ["38 Broadway", "Everett, MA 02149"], "state": "MA", "address2": "", "address1": null, "zip_code": "02149", "city": "Everett", "country": "US", "address3": "38 Broadway"}, "url": "https://www.yelp.com/biz/citgo-everett?adjust_creative=gBcvfFpabk3CnzmXKdYe3w&utm_campaign=yelp_api_v3&utm_medium=api_v3_business_search&utm_source=gBcvfFpabk3CnzmXKdYe3w", "categories": [{"alias": "servicestations", "title": "Gas & Service Stations"}], "display_phone": "(617) 381-6860", "is_closed": false, "name": "Citgo", "review_count": 4, "coordinates": {"longitude": -71.06641, "latitude": 42.39588}}, {"rating": 5.0, "transactions": [], "image_url": "https://s3-media1.fl.yelpcdn.com/bphoto/McRzM8EKH88lBtCnFs0Tuw/o.jpg", "phone": "+18572048448", "id": "james-roche-at-red-tree-real-estate-brookline", "distance": 4172.5124825699995, "location": {"display_address": ["193 Harvard St", "Brookline, MA 02446"], "state": "MA", "address2": null, "address1": "193 Harvard St", "zip_code": "02446", "city": "Brookline", "country": "US", "address3": ""}, "url": "https://www.yelp.com/biz/james-roche-at-red-tree-real-estate-brookline?adjust_creative=gBcvfFpabk3CnzmXKdYe3w&utm_campaign=yelp_api_v3&utm_medium=api_v3_business_search&utm_source=gBcvfFpabk3CnzmXKdYe3w", "categories": [{"alias": "realestateagents", "title": "Real Estate Agents"}], "display_phone": "(857) 204-8448", "is_closed": false, "name": "James Roche At Red Tree Real Estate", "review_count": 1, "coordinates": {"longitude": -71.1208438, "latitude": 42.3393867}}, {"rating": 1.0, "transactions": [], "image_url": "https://s3-media2.fl.yelpcdn.com/bphoto/6h-0_lu2wPuPHj1Qlhb3GA/o.jpg", "phone": "+18004633339", "id": "fedex-ship-center-east-boston", "distance": 4229.376580262, "location": {"display_address": ["142 Harborside Dr", "East Boston, MA 02128"], "state": "MA", "address2": "", "address1": "142 Harborside Dr", "zip_code": "02128", "city": "East Boston", "country": "US", "address3": ""}, "url": "https://www.yelp.com/biz/fedex-ship-center-east-boston?adjust_creative=gBcvfFpabk3CnzmXKdYe3w&utm_campaign=yelp_api_v3&utm_medium=api_v3_business_search&utm_source=gBcvfFpabk3CnzmXKdYe3w", "categories": [{"alias": "shipping_centers", "title": "Shipping Centers"}, {"alias": "couriers", "title": "Couriers & Delivery Services"}, {"alias": "copyshops", "title": "Printing Services"}], "display_phone": "(800) 463-3339", "is_closed": false, "name": "FedEx Ship Center", "review_count": 1, "coordinates": {"longitude": -71.0217189788818, "latitude": 42.3582030126289}}, {"rating": 5.0, "transactions": [], "image_url": "https://s3-media1.fl.yelpcdn.com/bphoto/RtboCUgDoJaG4N_GOnJW7w/o.jpg", "phone": "+18447464949", "id": "homewiz-belmont-2", "distance": 8851.300154644, "location": {"display_address": ["83 Concord Ave", "Belmont, MA 02478"], "state": "MA", "address2": null, "address1": "83 Concord Ave", "zip_code": "02478", "city": "Belmont", "country": "US", "address3": null}, "url": "https://www.yelp.com/biz/homewiz-belmont-2?adjust_creative=gBcvfFpabk3CnzmXKdYe3w&utm_campaign=yelp_api_v3&utm_medium=api_v3_business_search&utm_source=gBcvfFpabk3CnzmXKdYe3w", "categories": [{"alias": "electricians", "title": "Electricians"}, {"alias": "hvac", "title": "Heating & Air Conditioning/HVAC"}], "display_phone": "(844) 746-4949", "is_closed": false, "name": "HomeWiz", "review_count": 3, "coordinates": {"longitude": -71.1609612, "latitude": 42.3917813}}, {"rating": 2.5, "transactions": [], "image_url": "https://s3-media1.fl.yelpcdn.com/bphoto/wEeCWzoP9AGmx4RyGXKbGg/o.jpg", "phone": "+17817183694", "id": "mvs-limousine-somerville-2", "distance": 4150.069592534, "location": {"display_address": ["4 Bow St", "Somerville, MA 02143"], "state": "MA", "address2": "", "address1": "4 Bow St", "zip_code": "02143", "city": "Somerville", "country": "US", "address3": ""}, "url": "https://www.yelp.com/biz/mvs-limousine-somerville-2?adjust_creative=gBcvfFpabk3CnzmXKdYe3w&utm_campaign=yelp_api_v3&utm_medium=api_v3_business_search&utm_source=gBcvfFpabk3CnzmXKdYe3w", "categories": [{"alias": "limos", "title": "Limos"}, {"alias": "airport_shuttles", "title": "Airport Shuttles"}], "display_phone": "(781) 718-3694", "is_closed": false, "name": "MVS Limousine", "review_count": 3, "coordinates": {"longitude": -71.0969758, "latitude": 42.3804003}}, {"rating": 4.0, "transactions": [], "image_url": "https://s3-media1.fl.yelpcdn.com/bphoto/Qi0uws4hjYkJ5SkObDuXug/o.jpg", "phone": "+18578290750", "id": "cj-auto-and-tow-waltham", "distance": 14222.76433892, "location": {"display_address": ["55 Pond St", "Unit 8A", "Waltham, MA 02452"], "state": "MA", "address2": "Unit 8A", "address1": "55 Pond St", "zip_code": "02452", "city": "Waltham", "country": "US", "address3": ""}, "url": "https://www.yelp.com/biz/cj-auto-and-tow-waltham?adjust_creative=gBcvfFpabk3CnzmXKdYe3w&utm_campaign=yelp_api_v3&utm_medium=api_v3_business_search&utm_source=gBcvfFpabk3CnzmXKdYe3w", "categories": [{"alias": "towing", "title": "Towing"}, {"alias": "autorepair", "title": "Auto Repair"}], "display_phone": "(857) 829-0750", "is_closed": false, "name": "CJ Auto & Tow", "review_count": 31, "coordinates": {"longitude": -71.2386879404755, "latitude": 42.380309331625}}, {"rating": 5.0, "transactions": [], "image_url": "https://s3-media3.fl.yelpcdn.com/bphoto/NKQE-HY3CwDmGd8-h7GlHA/o.jpg", "phone": "+16177450044", "id": "ladybug-pest-control-services-quincy", "distance": 9064.492643124, "location": {"display_address": ["44 Billings Rd", "Ste B", "Quincy, MA 02171"], "state": "MA", "address2": "Ste B", "address1": "44 Billings Rd", "zip_code": "02171", "city": "Quincy", "country": "US", "address3": ""}, "url": "https://www.yelp.com/biz/ladybug-pest-control-services-quincy?adjust_creative=gBcvfFpabk3CnzmXKdYe3w&utm_campaign=yelp_api_v3&utm_medium=api_v3_business_search&utm_source=gBcvfFpabk3CnzmXKdYe3w", "categories": [{"alias": "pest_control", "title": "Pest Control"}], "display_phone": "(617) 745-0044", "is_closed": false, "name": "Ladybug Pest Control Services", "review_count": 3, "coordinates": {"longitude": -71.0251882, "latitude": 42.2737808}}, {"rating": 5.0, "transactions": [], "image_url": "https://s3-media4.fl.yelpcdn.com/bphoto/-_4E88DL4OlbVm7qycjiGA/o.jpg", "phone": "+16179660627", "id": "vsupport-belmont", "distance": 8976.086768903999, "location": {"display_address": ["18 Trapelo Rd", "Belmont, MA 02478"], "state": "MA", "address2": "", "address1": "18 Trapelo Rd", "zip_code": "02478", "city": "Belmont", "country": "US", "address3": null}, "url": "https://www.yelp.com/biz/vsupport-belmont?adjust_creative=gBcvfFpabk3CnzmXKdYe3w&utm_campaign=yelp_api_v3&utm_medium=api_v3_business_search&utm_source=gBcvfFpabk3CnzmXKdYe3w", "categories": [{"alias": "mobilephonerepair", "title": "Mobile Phone Repair"}], "display_phone": "(617) 966-0627", "is_closed": false, "name": "VSupport", "review_count": 2, "coordinates": {"longitude": -71.17207, "latitude": 42.37896}}, {"rating": 4.0, "transactions": [], "image_url": "https://s3-media4.fl.yelpcdn.com/bphoto/X5yLkGlWc4hWEnZkWA4GiQ/o.jpg", "phone": "+18002286894", "id": "lti-transportation-everett", "distance": 5345.983825924, "location": {"display_address": ["35 Bow St", "Everett, MA 02149"], "state": "MA", "address2": "", "address1": "35 Bow St", "zip_code": "02149", "city": "Everett", "country": "US", "address3": ""}, "url": "https://www.yelp.com/biz/lti-transportation-everett?adjust_creative=gBcvfFpabk3CnzmXKdYe3w&utm_campaign=yelp_api_v3&utm_medium=api_v3_business_search&utm_source=gBcvfFpabk3CnzmXKdYe3w", "categories": [{"alias": "limos", "title": "Limos"}], "display_phone": "(800) 228-6894", "is_closed": false, "name": "LTI Transportation", "review_count": 3, "coordinates": {"longitude": -71.065323, "latitude": 42.395721}}, {"rating": 1.5, "transactions": [], "image_url": "https://s3-media3.fl.yelpcdn.com/bphoto/s7AuaEwrJj0eN48C8_2oTQ/o.jpg", "phone": "+16178416485", "id": "cambridge-locksmith-cambridge-2", "distance": 5074.017114106, "location": {"display_address": ["49B Brattle St", "Cambridge, MA 02138"], "state": "MA", "address2": null, "address1": "49B Brattle St", "zip_code": "02138", "city": "Cambridge", "country": "US", "address3": null}, "url": "https://www.yelp.com/biz/cambridge-locksmith-cambridge-2?adjust_creative=gBcvfFpabk3CnzmXKdYe3w&utm_campaign=yelp_api_v3&utm_medium=api_v3_business_search&utm_source=gBcvfFpabk3CnzmXKdYe3w", "categories": [{"alias": "locksmiths", "title": "Keys & Locksmiths"}], "display_phone": "(617) 841-6485", "is_closed": false, "name": "Cambridge Locksmith", "review_count": 3, "coordinates": {"longitude": -71.1216105, "latitude": 42.3742462}}, {"rating": 1.0, "transactions": [], "image_url": "https://s3-media3.fl.yelpcdn.com/bphoto/UDMWlTczy42LkXaI_Q17sw/o.jpg", "phone": "+17818536690", "id": "wendys-revere-2", "distance": 9859.17813683, "location": {"display_address": ["39 Squire Rd", "Revere, MA 02151"], "state": "MA", "address2": "", "address1": "39 Squire Rd", "zip_code": "02151", "city": "Revere", "country": "US", "address3": ""}, "url": "https://www.yelp.com/biz/wendys-revere-2?adjust_creative=gBcvfFpabk3CnzmXKdYe3w&utm_campaign=yelp_api_v3&utm_medium=api_v3_business_search&utm_source=gBcvfFpabk3CnzmXKdYe3w", "categories": [{"alias": "burgers", "title": "Burgers"}, {"alias": "hotdogs", "title": "Fast Food"}], "display_phone": "(781) 853-6690", "is_closed": false, "name": "Wendy's", "price": "$", "review_count": 5, "coordinates": {"longitude": -71.0058114830955, "latitude": 42.4221815330528}}, {"rating": 5.0, "transactions": [], "image_url": "https://s3-media3.fl.yelpcdn.com/bphoto/QvDLOw-iOlYYWw2lRbhRmA/o.jpg", "phone": "+16173120764", "id": "bri-grady-robert-paul-properties-cambridge", "distance": 4484.242123372, "location": {"display_address": ["19 Arrow St", "Cambridge, MA 02138"], "state": "MA", "address2": "", "address1": "19 Arrow St", "zip_code": "02138", "city": "Cambridge", "country": "US", "address3": ""}, "url": "https://www.yelp.com/biz/bri-grady-robert-paul-properties-cambridge?adjust_creative=gBcvfFpabk3CnzmXKdYe3w&utm_campaign=yelp_api_v3&utm_medium=api_v3_business_search&utm_source=gBcvfFpabk3CnzmXKdYe3w", "categories": [{"alias": "realestateagents", "title": "Real Estate Agents"}], "display_phone": "(617) 312-0764", "is_closed": false, "name": "Bri Grady - Robert Paul Properties", "review_count": 1, "coordinates": {"longitude": -71.1154589, "latitude": 42.3714874}}, {"rating": 5.0, "transactions": [], "image_url": "", "phone": "+18572501352", "id": "mr-nice-painting-services-revere", "distance": 9037.078179959999, "location": {"display_address": ["22 Shirley Ave", "Ste 3", "Revere, MA 02151"], "state": "MA", "address2": "Ste 3", "address1": "22 Shirley Ave", "zip_code": "02151", "city": "Revere", "country": "US", "address3": null}, "url": "https://www.yelp.com/biz/mr-nice-painting-services-revere?adjust_creative=gBcvfFpabk3CnzmXKdYe3w&utm_campaign=yelp_api_v3&utm_medium=api_v3_business_search&utm_source=gBcvfFpabk3CnzmXKdYe3w", "categories": [{"alias": "painters", "title": "Painters"}, {"alias": "drywall", "title": "Drywall Installation & Repair"}, {"alias": "pressurewashers", "title": "Pressure Washers"}], "display_phone": "(857) 250-1352", "is_closed": false, "name": "Mr. Nice Painting Services", "review_count": 1, "coordinates": {"longitude": -70.9994506835938, "latitude": 42.4094276428223}}, {"rating": 5.0, "transactions": [], "image_url": "https://s3-media3.fl.yelpcdn.com/bphoto/6a7ytSBWWH72arx2z9lWjw/o.jpg", "phone": "+16172598423", "id": "djq-design-medford", "distance": 8356.53657416, "location": {"display_address": ["Medford, MA 02155"], "state": "MA", "address2": null, "address1": null, "zip_code": "02155", "city": "Medford", "country": "US", "address3": ""}, "url": "https://www.yelp.com/biz/djq-design-medford?adjust_creative=gBcvfFpabk3CnzmXKdYe3w&utm_campaign=yelp_api_v3&utm_medium=api_v3_business_search&utm_source=gBcvfFpabk3CnzmXKdYe3w", "categories": [{"alias": "web_design", "title": "Web Design"}], "display_phone": "(617) 259-8423", "is_closed": false, "name": "DJQ Design", "review_count": 1, "coordinates": {"longitude": -71.1108169555664, "latitude": 42.424991607666}}, {"rating": 2.0, "transactions": [], "image_url": "https://s3-media2.fl.yelpcdn.com/bphoto/u3xpAR5_-57B50AH11Ptkg/o.jpg", "phone": "", "id": "craft-my-wedding-somerville", "distance": 5458.863255392, "location": {"display_address": ["191 Highland Ave", "Somerville, MA 02143"], "state": "MA", "address2": "", "address1": "191 Highland Ave", "zip_code": "02143", "city": "Somerville", "country": "US", "address3": ""}, "url": "https://www.yelp.com/biz/craft-my-wedding-somerville?adjust_creative=gBcvfFpabk3CnzmXKdYe3w&utm_campaign=yelp_api_v3&utm_medium=api_v3_business_search&utm_source=gBcvfFpabk3CnzmXKdYe3w", "categories": [{"alias": "eventservices", "title": "Event Planning & Services"}], "display_phone": "", "is_closed": false, "name": "Craft My Wedding", "review_count": 1, "coordinates": {"longitude": -71.10593, "latitude": 42.3898}}, {"rating": 1.0, "transactions": [], "image_url": "https://s3-media4.fl.yelpcdn.com/bphoto/8BcrCTqTm5ws9R7X1Vy5gA/o.jpg", "phone": "+16179879211", "id": "brookline-locksmith-brookline", "distance": 4923.92539862, "location": {"display_address": ["131 Cypress St", "Brookline, MA 02445"], "state": "MA", "address2": null, "address1": "131 Cypress St", "zip_code": "02445", "city": "Brookline", "country": "US", "address3": null}, "url": "https://www.yelp.com/biz/brookline-locksmith-brookline?adjust_creative=gBcvfFpabk3CnzmXKdYe3w&utm_campaign=yelp_api_v3&utm_medium=api_v3_business_search&utm_source=gBcvfFpabk3CnzmXKdYe3w", "categories": [{"alias": "locksmiths", "title": "Keys & Locksmiths"}], "display_phone": "(617) 987-9211", "is_closed": false, "name": "Brookline Locksmith", "review_count": 2, "coordinates": {"longitude": -71.1262893676758, "latitude": 42.3302536010742}}, {"rating": 1.0, "transactions": [], "image_url": "https://s3-media3.fl.yelpcdn.com/bphoto/lLqufU4iEzV4JAvpu3dAhw/o.jpg", "phone": "+16175224400", "id": "arbour-health-system-jamaica-plain", "distance": 4907.970884662, "location": {"display_address": ["49 Robinwood Ave", "Jamaica Plain, MA 02130"], "state": "MA", "address2": "", "address1": "49 Robinwood Ave", "zip_code": "02130", "city": "Jamaica Plain", "country": "US", "address3": ""}, "url": "https://www.yelp.com/biz/arbour-health-system-jamaica-plain?adjust_creative=gBcvfFpabk3CnzmXKdYe3w&utm_campaign=yelp_api_v3&utm_medium=api_v3_business_search&utm_source=gBcvfFpabk3CnzmXKdYe3w", "categories": [{"alias": "medcenters", "title": "Medical Centers"}], "display_phone": "(617) 522-4400", "is_closed": false, "name": "Arbour Health System", "review_count": 3, "coordinates": {"longitude": -71.112266, "latitude": 42.315773}}, {"rating": 3.5, "transactions": [], "image_url": "https://s3-media1.fl.yelpcdn.com/bphoto/Ts26TPsAsHYYjzkqXxl7Kg/o.jpg", "phone": "+16173324588", "id": "bakers-best-catering-needham", "distance": 13848.46243238, "location": {"display_address": ["150 Gould St", "Needham, MA 02494"], "state": "MA", "address2": null, "address1": "150 Gould St", "zip_code": "02494", "city": "Needham", "country": "US", "address3": ""}, "url": "https://www.yelp.com/biz/bakers-best-catering-needham?adjust_creative=gBcvfFpabk3CnzmXKdYe3w&utm_campaign=yelp_api_v3&utm_medium=api_v3_business_search&utm_source=gBcvfFpabk3CnzmXKdYe3w", "categories": [{"alias": "catering", "title": "Caterers"}], "display_phone": "(617) 332-4588", "is_closed": false, "name": "Bakers' Best Catering", "review_count": 76, "coordinates": {"longitude": -71.2293090820312, "latitude": 42.3047828674316}}, {"rating": 3.0, "transactions": [], "image_url": "https://s3-media2.fl.yelpcdn.com/bphoto/Ap5uvtThxYiHNz-63UFhtQ/o.jpg", "phone": "+16177318500", "id": "goddard-house-brookline-2", "distance": 4987.027298152, "location": {"display_address": ["165 Chestnut St", "Brookline, MA 02445"], "state": "MA", "address2": "", "address1": "165 Chestnut St", "zip_code": "02445", "city": "Brookline", "country": "US", "address3": ""}, "url": "https://www.yelp.com/biz/goddard-house-brookline-2?adjust_creative=gBcvfFpabk3CnzmXKdYe3w&utm_campaign=yelp_api_v3&utm_medium=api_v3_business_search&utm_source=gBcvfFpabk3CnzmXKdYe3w", "categories": [{"alias": "assistedliving", "title": "Assisted Living Facilities"}], "display_phone": "(617) 731-8500", "is_closed": false, "name": "Goddard House", "review_count": 1, "coordinates": {"longitude": -71.123, "latitude": 42.32361}}, {"rating": 3.0, "transactions": [], "image_url": "https://s3-media1.fl.yelpcdn.com/bphoto/hUDRUS1dc3aJNt1UT8G96A/o.jpg", "phone": "+16178586841", "id": "russell-defense-firm-brighton", "distance": 6595.438387104, "location": {"display_address": ["309 Washington St", "Brighton, MA 02135"], "state": "MA", "address2": "", "address1": "309 Washington St", "zip_code": "02135", "city": "Brighton", "country": "US", "address3": ""}, "url": "https://www.yelp.com/biz/russell-defense-firm-brighton?adjust_creative=gBcvfFpabk3CnzmXKdYe3w&utm_campaign=yelp_api_v3&utm_medium=api_v3_business_search&utm_source=gBcvfFpabk3CnzmXKdYe3w", "categories": [{"alias": "criminaldefense", "title": "Criminal Defense Law"}, {"alias": "duilawyers", "title": "DUI Law"}], "display_phone": "(617) 858-6841", "is_closed": false, "name": "Russell Defense Firm", "review_count": 1, "coordinates": {"longitude": -71.1514795672131, "latitude": 42.3490954246918}}, {"rating": 5.0, "transactions": [], "image_url": "https://s3-media4.fl.yelpcdn.com/bphoto/WgFwbQ6JQfeVfBbIFTCApg/o.jpg", "phone": "+16176697459", "id": "bujeti-limousine-service-malden", "distance": 8600.08926174, "location": {"display_address": ["Malden, MA 02148"], "state": "MA", "address2": "", "address1": "", "zip_code": "02148", "city": "Malden", "country": "US", "address3": ""}, "url": "https://www.yelp.com/biz/bujeti-limousine-service-malden?adjust_creative=gBcvfFpabk3CnzmXKdYe3w&utm_campaign=yelp_api_v3&utm_medium=api_v3_business_search&utm_source=gBcvfFpabk3CnzmXKdYe3w", "categories": [{"alias": "limos", "title": "Limos"}], "display_phone": "(617) 669-7459", "is_closed": false, "name": "Bujeti Limousine Service", "review_count": 1, "coordinates": {"longitude": -71.07353, "latitude": 42.4266}}, {"rating": 4.0, "transactions": ["delivery"], "image_url": "https://s3-media1.fl.yelpcdn.com/bphoto/ktBjxiXCO5oJnpCLiqnsOA/o.jpg", "phone": "+18554007833", "id": "gobrands-boston-watertown", "distance": 9521.244900279999, "location": {"display_address": ["Watertown, MA 02472"], "state": "MA", "address2": null, "address1": "", "zip_code": "02472", "city": "Watertown", "country": "US", "address3": null}, "url": "https://www.yelp.com/biz/gobrands-boston-watertown?adjust_creative=gBcvfFpabk3CnzmXKdYe3w&utm_campaign=yelp_api_v3&utm_medium=api_v3_business_search&utm_source=gBcvfFpabk3CnzmXKdYe3w", "categories": [{"alias": "fooddeliveryservices", "title": "Food Delivery Services"}], "display_phone": "(855) 400-7833", "is_closed": false, "name": "goBrands Boston", "price": "$$", "review_count": 12, "coordinates": {"longitude": -71.1839828491211, "latitude": 42.3704719543457}}, {"rating": 3.5, "transactions": [], "image_url": "", "phone": "+16173255697", "id": "speedway-west-roxbury", "distance": 9400.614728438, "location": {"display_address": ["1779 Centre St", "West Roxbury, MA 02132"], "state": "MA", "address2": "", "address1": "1779 Centre St", "zip_code": "02132", "city": "West Roxbury", "country": "US", "address3": ""}, "url": "https://www.yelp.com/biz/speedway-west-roxbury?adjust_creative=gBcvfFpabk3CnzmXKdYe3w&utm_campaign=yelp_api_v3&utm_medium=api_v3_business_search&utm_source=gBcvfFpabk3CnzmXKdYe3w", "categories": [{"alias": "servicestations", "title": "Gas & Service Stations"}, {"alias": "convenience", "title": "Convenience Stores"}], "display_phone": "(617) 325-5697", "is_closed": false, "name": "Speedway", "review_count": 4, "coordinates": {"longitude": -71.151652, "latitude": 42.287737}}, {"rating": 5.0, "transactions": [], "image_url": "https://s3-media2.fl.yelpcdn.com/bphoto/KVSgn9WLKg6SUEaa5MCs0w/o.jpg", "phone": "+16175997435", "id": "locked-in-n-out-alrington-3", "distance": 11295.001512039998, "location": {"display_address": ["Alrington, MA 02476"], "state": "MA", "address2": null, "address1": null, "zip_code": "02476", "city": "Alrington", "country": "US", "address3": null}, "url": "https://www.yelp.com/biz/locked-in-n-out-alrington-3?adjust_creative=gBcvfFpabk3CnzmXKdYe3w&utm_campaign=yelp_api_v3&utm_medium=api_v3_business_search&utm_source=gBcvfFpabk3CnzmXKdYe3w", "categories": [{"alias": "locksmiths", "title": "Keys & Locksmiths"}], "display_phone": "(617) 599-7435", "is_closed": false, "name": "Locked In n Out", "review_count": 5, "coordinates": {"longitude": -71.1717199, "latitude": 42.41651}}, {"rating": 1.0, "transactions": [], "image_url": "https://s3-media2.fl.yelpcdn.com/bphoto/2ZAGRsnt8JXjChtT-g88ag/o.jpg", "phone": "+16072882437", "id": "butcher-box-cambridge", "distance": 4948.736593399999, "location": {"display_address": ["12 Eliot St", "Cambridge, MA 02138"], "state": "MA", "address2": "", "address1": "12 Eliot St", "zip_code": "02138", "city": "Cambridge", "country": "US", "address3": null}, "url": "https://www.yelp.com/biz/butcher-box-cambridge?adjust_creative=gBcvfFpabk3CnzmXKdYe3w&utm_campaign=yelp_api_v3&utm_medium=api_v3_business_search&utm_source=gBcvfFpabk3CnzmXKdYe3w", "categories": [{"alias": "butcher", "title": "Butcher"}], "display_phone": "(607) 288-2437", "is_closed": false, "name": "Butcher Box", "review_count": 3, "coordinates": {"longitude": -71.1216199, "latitude": 42.37235}}, {"rating": 3.0, "transactions": [], "image_url": "https://s3-media3.fl.yelpcdn.com/bphoto/TeD4jQJAUmivVmyrtlbRVg/o.jpg", "phone": "+16174997777", "id": "logan-airport-express-east-boston", "distance": 5204.955108648, "location": {"display_address": ["2 Neptune Rd", "East Boston, MA 02128"], "state": "MA", "address2": null, "address1": "2 Neptune Rd", "zip_code": "02128", "city": "East Boston", "country": "US", "address3": ""}, "url": "https://www.yelp.com/biz/logan-airport-express-east-boston?adjust_creative=gBcvfFpabk3CnzmXKdYe3w&utm_campaign=yelp_api_v3&utm_medium=api_v3_business_search&utm_source=gBcvfFpabk3CnzmXKdYe3w", "categories": [{"alias": "airport_shuttles", "title": "Airport Shuttles"}, {"alias": "taxis", "title": "Taxis"}], "display_phone": "(617) 499-7777", "is_closed": false, "name": "Logan Airport Express", "review_count": 3, "coordinates": {"longitude": -71.0253906, "latitude": 42.3803291}}, {"rating": 3.5, "transactions": [], "image_url": "https://s3-media3.fl.yelpcdn.com/bphoto/A-nvsciHHZ3kSLAAGq6llg/o.jpg", "phone": "+16173897500", "id": "govall-cleaning-inc-everett-4", "distance": 6768.5407677779995, "location": {"display_address": ["459 Broadway", "Everett, MA 02149"], "state": "MA", "address2": null, "address1": "459 Broadway", "zip_code": "02149", "city": "Everett", "country": "US", "address3": ""}, "url": "https://www.yelp.com/biz/govall-cleaning-inc-everett-4?adjust_creative=gBcvfFpabk3CnzmXKdYe3w&utm_campaign=yelp_api_v3&utm_medium=api_v3_business_search&utm_source=gBcvfFpabk3CnzmXKdYe3w", "categories": [{"alias": "homecleaning", "title": "Home Cleaning"}, {"alias": "carpet_cleaning", "title": "Carpet Cleaning"}, {"alias": "contractors", "title": "Contractors"}], "display_phone": "(617) 389-7500", "is_closed": false, "name": "Govall Cleaning Inc", "review_count": 4, "coordinates": {"longitude": -71.05461, "latitude": 42.4074}}, {"rating": 1.0, "transactions": [], "image_url": "", "phone": "+18572395343", "id": "sunrise-locksmith-cambridge", "distance": 4916.76785897, "location": {"display_address": ["99 Mount Auburn St", "Cambridge, MA 02138"], "state": "MA", "address2": "", "address1": "99 Mount Auburn St", "zip_code": "02138", "city": "Cambridge", "country": "US", "address3": ""}, "url": "https://www.yelp.com/biz/sunrise-locksmith-cambridge?adjust_creative=gBcvfFpabk3CnzmXKdYe3w&utm_campaign=yelp_api_v3&utm_medium=api_v3_business_search&utm_source=gBcvfFpabk3CnzmXKdYe3w", "categories": [{"alias": "locksmiths", "title": "Keys & Locksmiths"}], "display_phone": "(857) 239-5343", "is_closed": false, "name": "Sunrise Locksmith", "review_count": 1, "coordinates": {"longitude": -71.120529, "latitude": 42.372921}}, {"rating": 2.0, "transactions": [], "image_url": "", "phone": "+17813951700", "id": "medford-square-mobil-medford", "distance": 8114.260093199999, "location": {"display_address": ["1 Mystic Ave", "Medford, MA 02155"], "state": "MA", "address2": "", "address1": "1 Mystic Ave", "zip_code": "02155", "city": "Medford", "country": "US", "address3": ""}, "url": "https://www.yelp.com/biz/medford-square-mobil-medford?adjust_creative=gBcvfFpabk3CnzmXKdYe3w&utm_campaign=yelp_api_v3&utm_medium=api_v3_business_search&utm_source=gBcvfFpabk3CnzmXKdYe3w", "categories": [{"alias": "servicestations", "title": "Gas & Service Stations"}, {"alias": "convenience", "title": "Convenience Stores"}], "display_phone": "(781) 395-1700", "is_closed": false, "name": "Medford Square Mobil", "price": "$$$$", "review_count": 7, "coordinates": {"longitude": -71.1103209, "latitude": 42.4148624}}, {"rating": 4.5, "transactions": [], "image_url": "https://s3-media1.fl.yelpcdn.com/bphoto/FIaxTvMjc0oqTmDUgIEl2w/o.jpg", "phone": "+16174354988", "id": "you-name-it-we-junk-it-newton-4", "distance": 10581.29623686, "location": {"display_address": ["15 Jasset St", "Newton, MA 02458"], "state": "MA", "address2": "", "address1": "15 Jasset St", "zip_code": "02458", "city": "Newton", "country": "US", "address3": ""}, "url": "https://www.yelp.com/biz/you-name-it-we-junk-it-newton-4?adjust_creative=gBcvfFpabk3CnzmXKdYe3w&utm_campaign=yelp_api_v3&utm_medium=api_v3_business_search&utm_source=gBcvfFpabk3CnzmXKdYe3w", "categories": [{"alias": "junkremovalandhauling", "title": "Junk Removal & Hauling"}, {"alias": "demolitionservices", "title": "Demolition Services"}], "display_phone": "(617) 435-4988", "is_closed": false, "name": "You Name It We Junk It", "review_count": 3, "coordinates": {"longitude": -71.19812, "latitude": 42.3641999}}, {"rating": 1.0, "transactions": [], "image_url": "https://s3-media4.fl.yelpcdn.com/bphoto/1NxPzUrhzUo8HilGTi3KGg/o.jpg", "phone": "+16178400443", "id": "julies-livery-east-boston", "distance": 3642.57693732, "location": {"display_address": ["East Boston, MA 02128"], "state": "MA", "address2": "", "address1": "", "zip_code": "02128", "city": "East Boston", "country": "US", "address3": ""}, "url": "https://www.yelp.com/biz/julies-livery-east-boston?adjust_creative=gBcvfFpabk3CnzmXKdYe3w&utm_campaign=yelp_api_v3&utm_medium=api_v3_business_search&utm_source=gBcvfFpabk3CnzmXKdYe3w", "categories": [{"alias": "taxis", "title": "Taxis"}], "display_phone": "(617) 840-0443", "is_closed": false, "name": "Julies Livery", "review_count": 1, "coordinates": {"longitude": -71.02882, "latitude": 42.37846}}, {"rating": 5.0, "transactions": [], "image_url": "https://s3-media2.fl.yelpcdn.com/bphoto/opYlkWreBlUitTtIOA1KNQ/o.jpg", "phone": "+16175673777", "id": "servpro-of-east-boston-chelsea-and-charlestown-revere-3", "distance": 9806.861873044, "location": {"display_address": ["349 Broadway", "Ste 105", "Revere, MA 02151"], "state": "MA", "address2": "Ste 105", "address1": "349 Broadway", "zip_code": "02151", "city": "Revere", "country": "US", "address3": ""}, "url": "https://www.yelp.com/biz/servpro-of-east-boston-chelsea-and-charlestown-revere-3?adjust_creative=gBcvfFpabk3CnzmXKdYe3w&utm_campaign=yelp_api_v3&utm_medium=api_v3_business_search&utm_source=gBcvfFpabk3CnzmXKdYe3w", "categories": [{"alias": "damagerestoration", "title": "Damage Restoration"}], "display_phone": "(617) 567-3777", "is_closed": false, "name": "SERVPRO of East Boston Chelsea & Charlestown", "review_count": 4, "coordinates": {"longitude": -71.0193574079345, "latitude": 42.427275077294}}, {"rating": 4.0, "transactions": [], "image_url": "https://s3-media1.fl.yelpcdn.com/bphoto/3eI048Fke07h9zZbq03OpA/o.jpg", "phone": "+16173285742", "id": "speedway-quincy", "distance": 8479.704675182, "location": {"display_address": ["238 Hancock St", "Quincy, MA 02171"], "state": "MA", "address2": "", "address1": "238 Hancock St", "zip_code": "02171", "city": "Quincy", "country": "US", "address3": null}, "url": "https://www.yelp.com/biz/speedway-quincy?adjust_creative=gBcvfFpabk3CnzmXKdYe3w&utm_campaign=yelp_api_v3&utm_medium=api_v3_business_search&utm_source=gBcvfFpabk3CnzmXKdYe3w", "categories": [{"alias": "servicestations", "title": "Gas & Service Stations"}], "display_phone": "(617) 328-5742", "is_closed": false, "name": "Speedway", "review_count": 1, "coordinates": {"longitude": -71.0303982719779, "latitude": 42.2778212847587}}], "total": 1239}