{"region": {"center": {"longitude": -71.07124328613281, "latitude": 42.33911144166868}}, "businesses": [{"rating": 2.5, "transactions": [], "image_url": "https://s3-media4.fl.yelpcdn.com/bphoto/fDDPpnLa6rRnyfNa_8x7LQ/o.jpg", "phone": "+16173270805", "id": "7-eleven-west-roxbury", "distance": 9308.560641372, "location": {"display_address": ["1710 Centre St", "West Roxbury, MA 02132"], "state": "MA", "address2": "", "address1": "1710 Centre St", "zip_code": "02132", "city": "West Roxbury", "country": "US", "address3": ""}, "url": "https://www.yelp.com/biz/7-eleven-west-roxbury?adjust_creative=gBcvfFpabk3CnzmXKdYe3w&utm_campaign=yelp_api_v3&utm_medium=api_v3_business_search&utm_source=gBcvfFpabk3CnzmXKdYe3w", "categories": [{"alias": "convenience", "title": "Convenience Stores"}], "display_phone": "(617) 327-0805", "is_closed": false, "name": "7-Eleven", "price": "$", "review_count": 6, "coordinates": {"longitude": -71.14888, "latitude": 42.286941}}, {"rating": 5.0, "transactions": [], "image_url": "https://s3-media3.fl.yelpcdn.com/bphoto/BhsbT7doJpr_avPy9SxNvw/o.jpg", "phone": "+15088476527", "id": "ctw-plumbing-and-heating-brighton", "distance": 7515.747673737999, "location": {"display_address": ["Brighton, MA 02135"], "state": "MA", "address2": "", "address1": "", "zip_code": "02135", "city": "Brighton", "country": "US", "address3": ""}, "url": "https://www.yelp.com/biz/ctw-plumbing-and-heating-brighton?adjust_creative=gBcvfFpabk3CnzmXKdYe3w&utm_campaign=yelp_api_v3&utm_medium=api_v3_business_search&utm_source=gBcvfFpabk3CnzmXKdYe3w", "categories": [{"alias": "plumbing", "title": "Plumbing"}, {"alias": "hvac", "title": "Heating & Air Conditioning/HVAC"}], "display_phone": "(508) 847-6527", "is_closed": false, "name": "CTW Plumbing And Heating", "review_count": 1, "coordinates": {"longitude": -71.15328, "latitude": 42.34964}}, {"rating": 5.0, "transactions": [], "image_url": "https://s3-media1.fl.yelpcdn.com/bphoto/TvR3xe6VtANadtHIkhzHUw/o.jpg", "phone": "+16179345625", "id": "lock-a-lock-chestnut-hill-2", "distance": 8041.31595303, "location": {"display_address": ["Chestnut Hill, MA 02467"], "state": "MA", "address2": null, "address1": null, "zip_code": "02467", "city": "Chestnut Hill", "country": "US", "address3": ""}, "url": "https://www.yelp.com/biz/lock-a-lock-chestnut-hill-2?adjust_creative=gBcvfFpabk3CnzmXKdYe3w&utm_campaign=yelp_api_v3&utm_medium=api_v3_business_search&utm_source=gBcvfFpabk3CnzmXKdYe3w", "categories": [{"alias": "locksmiths", "title": "Keys & Locksmiths"}], "display_phone": "(617) 934-5625", "is_closed": false, "name": "Lock a Lock", "review_count": 3, "coordinates": {"longitude": -71.166187, "latitude": 42.3303798}}, {"rating": 5.0, "transactions": [], "image_url": "https://s3-media1.fl.yelpcdn.com/bphoto/4n_BCCR_Z8dNLwPr5TTqew/o.jpg", "phone": "+16174725888", "id": "hamel-funeral-care-and-cremation-service-of-massachusetts-quincy-2", "distance": 11684.150223816, "location": {"display_address": ["26 Adams St", "Quincy, MA 02169"], "state": "MA", "address2": "", "address1": "26 Adams St", "zip_code": "02169", "city": "Quincy", "country": "US", "address3": ""}, "url": "https://www.yelp.com/biz/hamel-funeral-care-and-cremation-service-of-massachusetts-quincy-2?adjust_creative=gBcvfFpabk3CnzmXKdYe3w&utm_campaign=yelp_api_v3&utm_medium=api_v3_business_search&utm_source=gBcvfFpabk3CnzmXKdYe3w", "categories": [{"alias": "funeralservices", "title": "Funeral Services & Cemeteries"}], "display_phone": "(617) 472-5888", "is_closed": false, "name": "Hamel Funeral Care & Cremation Service of Massachusetts", "review_count": 5, "coordinates": {"longitude": -71.0064236819744, "latitude": 42.2544137388468}}, {"rating": 5.0, "transactions": [], "image_url": "https://s3-media3.fl.yelpcdn.com/bphoto/iQTjh4nF_j4Yti5Ma3SwnQ/o.jpg", "phone": "+16176973767", "id": "m-and-m-livery-service-dedham", "distance": 13238.21036042, "location": {"display_address": ["140 Milton St", "Dedham, MA 02026"], "state": "MA", "address2": null, "address1": "140 Milton St", "zip_code": "02026", "city": "Dedham", "country": "US", "address3": ""}, "url": "https://www.yelp.com/biz/m-and-m-livery-service-dedham?adjust_creative=gBcvfFpabk3CnzmXKdYe3w&utm_campaign=yelp_api_v3&utm_medium=api_v3_business_search&utm_source=gBcvfFpabk3CnzmXKdYe3w", "categories": [{"alias": "taxis", "title": "Taxis"}, {"alias": "limos", "title": "Limos"}, {"alias": "airport_shuttles", "title": "Airport Shuttles"}], "display_phone": "(617) 697-3767", "is_closed": false, "name": "M & M Livery Service", "review_count": 2, "coordinates": {"longitude": -71.150229, "latitude": 42.2440927}}, {"rating": 3.5, "transactions": [], "image_url": "https://s3-media2.fl.yelpcdn.com/bphoto/8xoQPGt1Dbr7x9F-vlDNIA/o.jpg", "phone": "+16177923350", "id": "mcfarland-air-conditioning-services-everett", "distance": 8185.1814539239995, "location": {"display_address": ["9 Falmouth St", "Everett, MA 02149"], "state": "MA", "address2": null, "address1": "9 Falmouth St", "zip_code": "02149", "city": "Everett", "country": "US", "address3": ""}, "url": "https://www.yelp.com/biz/mcfarland-air-conditioning-services-everett?adjust_creative=gBcvfFpabk3CnzmXKdYe3w&utm_campaign=yelp_api_v3&utm_medium=api_v3_business_search&utm_source=gBcvfFpabk3CnzmXKdYe3w", "categories": [{"alias": "hvac", "title": "Heating & Air Conditioning/HVAC"}, {"alias": "waterheaterinstallrepair", "title": "Water Heater Installation/Repair"}], "display_phone": "(617) 792-3350", "is_closed": false, "name": "Mcfarland Air Conditioning Services", "review_count": 3, "coordinates": {"longitude": -71.0527338, "latitude": 42.4201732}}, {"rating": 5.0, "transactions": [], "image_url": "https://s3-media3.fl.yelpcdn.com/bphoto/Ph-O6uuqYQ29G6_nRN6yJw/o.jpg", "phone": "+16174750423", "id": "introductions-by-diana-cambridge-2", "distance": 8139.8904420399995, "location": {"display_address": ["160 Cambridge Park Dr", "Cambridge, MA 02140"], "state": "MA", "address2": null, "address1": "160 Cambridge Park Dr", "zip_code": "02140", "city": "Cambridge", "country": "US", "address3": ""}, "url": "https://www.yelp.com/biz/introductions-by-diana-cambridge-2?adjust_creative=gBcvfFpabk3CnzmXKdYe3w&utm_campaign=yelp_api_v3&utm_medium=api_v3_business_search&utm_source=gBcvfFpabk3CnzmXKdYe3w", "categories": [{"alias": "matchmakers", "title": "Matchmakers"}], "display_phone": "(617) 475-0423", "is_closed": false, "name": "Introductions By Diana", "review_count": 1, "coordinates": {"longitude": -71.14743, "latitude": 42.39493}}, {"rating": 2.0, "transactions": [], "image_url": "https://s3-media2.fl.yelpcdn.com/bphoto/BZ3FDuZngvFV70n7YOHgZQ/o.jpg", "phone": "+16175869847", "id": "a-and-a-sons-towing-and-repair-revere", "distance": 8289.45445494, "location": {"display_address": ["315 Park Ave", "Revere, MA 02151"], "state": "MA", "address2": null, "address1": "315 Park Ave", "zip_code": "02151", "city": "Revere", "country": "US", "address3": ""}, "url": "https://www.yelp.com/biz/a-and-a-sons-towing-and-repair-revere?adjust_creative=gBcvfFpabk3CnzmXKdYe3w&utm_campaign=yelp_api_v3&utm_medium=api_v3_business_search&utm_source=gBcvfFpabk3CnzmXKdYe3w", "categories": [{"alias": "towing", "title": "Towing"}, {"alias": "autorepair", "title": "Auto Repair"}, {"alias": "autoinsurance", "title": "Auto Insurance"}], "display_phone": "(617) 586-9847", "is_closed": false, "name": "A & A Sons Towing & Repair", "review_count": 5, "coordinates": {"longitude": -71.0208002, "latitude": 42.4124114}}, {"rating": 2.0, "transactions": [], "image_url": "https://s3-media2.fl.yelpcdn.com/bphoto/lB_em6y4P9i2lfeAoDw8uw/o.jpg", "phone": "+16173893422", "id": "vlanar-transportation-everett", "distance": 7929.4113008, "location": {"display_address": ["422 Ferry St", "Everett, MA 02149"], "state": "MA", "address2": "", "address1": "422 Ferry St", "zip_code": "02149", "city": "Everett", "country": "US", "address3": ""}, "url": "https://www.yelp.com/biz/vlanar-transportation-everett?adjust_creative=gBcvfFpabk3CnzmXKdYe3w&utm_campaign=yelp_api_v3&utm_medium=api_v3_business_search&utm_source=gBcvfFpabk3CnzmXKdYe3w", "categories": [{"alias": "limos", "title": "Limos"}], "display_phone": "(617) 389-3422", "is_closed": false, "name": "Vlanar Transportation", "review_count": 5, "coordinates": {"longitude": -71.0498276, "latitude": 42.4173767}}, {"rating": 1.0, "transactions": [], "image_url": "", "phone": "+16179424112", "id": "roslindale-plumbing-heating-and-cooling-roslindale", "distance": 7892.385215419999, "location": {"display_address": ["200 Florence St", "Roslindale, MA 02131"], "state": "MA", "address2": "", "address1": "200 Florence St", "zip_code": "02131", "city": "Roslindale", "country": "US", "address3": ""}, "url": "https://www.yelp.com/biz/roslindale-plumbing-heating-and-cooling-roslindale?adjust_creative=gBcvfFpabk3CnzmXKdYe3w&utm_campaign=yelp_api_v3&utm_medium=api_v3_business_search&utm_source=gBcvfFpabk3CnzmXKdYe3w", "categories": [{"alias": "plumbing", "title": "Plumbing"}, {"alias": "hvac", "title": "Heating & Air Conditioning/HVAC"}], "display_phone": "(617) 942-4112", "is_closed": false, "name": "Roslindale Plumbing Heating and Cooling", "review_count": 1, "coordinates": {"longitude": -71.120689, "latitude": 42.287006}}, {"rating": 3.0, "transactions": [], "image_url": "https://s3-media3.fl.yelpcdn.com/bphoto/lWG5w-oaJXZg04LbDDXXqQ/o.jpg", "phone": "+17813955000", "id": "medford-cab-medford-2", "distance": 8167.8350218, "location": {"display_address": ["125 Main", "Medford, MA 02155"], "state": "MA", "address2": "", "address1": "125 Main", "zip_code": "02155", "city": "Medford", "country": "US", "address3": ""}, "url": "https://www.yelp.com/biz/medford-cab-medford-2?adjust_creative=gBcvfFpabk3CnzmXKdYe3w&utm_campaign=yelp_api_v3&utm_medium=api_v3_business_search&utm_source=gBcvfFpabk3CnzmXKdYe3w", "categories": [{"alias": "taxis", "title": "Taxis"}], "display_phone": "(781) 395-5000", "is_closed": false, "name": "Medford Cab", "review_count": 2, "coordinates": {"longitude": -71.1106261610985, "latitude": 42.415247708559}}, {"rating": 1.0, "transactions": [], "image_url": "https://s3-media2.fl.yelpcdn.com/bphoto/fZnU0qbaWYVBgnFDGXn8TA/o.jpg", "phone": "+16172217717", "id": "brighton-towing-and-wrecker-service-brighton", "distance": 7515.747673737999, "location": {"display_address": ["Brighton, MA"], "state": "MA", "address2": null, "address1": null, "zip_code": "", "city": "Brighton", "country": "US", "address3": ""}, "url": "https://www.yelp.com/biz/brighton-towing-and-wrecker-service-brighton?adjust_creative=gBcvfFpabk3CnzmXKdYe3w&utm_campaign=yelp_api_v3&utm_medium=api_v3_business_search&utm_source=gBcvfFpabk3CnzmXKdYe3w", "categories": [{"alias": "towing", "title": "Towing"}], "display_phone": "(617) 221-7717", "is_closed": false, "name": "Brighton Towing & Wrecker Service", "review_count": 1, "coordinates": {"longitude": -71.15328, "latitude": 42.34964}}, {"rating": 1.0, "transactions": [], "image_url": "", "phone": "+16177455000", "id": "granite-telecommunications-quincy", "distance": 8270.15203098, "location": {"display_address": ["100 Newport Ave Ext", "Quincy, MA 02171"], "state": "MA", "address2": "", "address1": "100 Newport Ave Ext", "zip_code": "02171", "city": "Quincy", "country": "US", "address3": ""}, "url": "https://www.yelp.com/biz/granite-telecommunications-quincy?adjust_creative=gBcvfFpabk3CnzmXKdYe3w&utm_campaign=yelp_api_v3&utm_medium=api_v3_business_search&utm_source=gBcvfFpabk3CnzmXKdYe3w", "categories": [{"alias": "telecommunications", "title": "Telecommunications"}], "display_phone": "(617) 745-5000", "is_closed": false, "name": "Granite Telecommunications", "review_count": 2, "coordinates": {"longitude": -71.03403, "latitude": 42.2782}}, {"rating": 4.0, "transactions": [], "image_url": "https://s3-media1.fl.yelpcdn.com/bphoto/yBHVbbrMLOLi-3wwS5ZpWg/o.jpg", "phone": "+17814079800", "id": "gassco-heating-and-cooling-dedham", "distance": 13153.77633732, "location": {"display_address": ["23 River St", "Dedham, MA 02026"], "state": "MA", "address2": "", "address1": "23 River St", "zip_code": "02026", "city": "Dedham", "country": "US", "address3": ""}, "url": "https://www.yelp.com/biz/gassco-heating-and-cooling-dedham?adjust_creative=gBcvfFpabk3CnzmXKdYe3w&utm_campaign=yelp_api_v3&utm_medium=api_v3_business_search&utm_source=gBcvfFpabk3CnzmXKdYe3w", "categories": [{"alias": "hvac", "title": "Heating & Air Conditioning/HVAC"}], "display_phone": "(781) 407-9800", "is_closed": false, "name": "Gassco Heating and Cooling", "review_count": 8, "coordinates": {"longitude": -71.14486, "latitude": 42.24274}}, {"rating": 5.0, "transactions": [], "image_url": "", "phone": "+16173543131", "id": "crimson-foot-and-ankle-cambridge", "distance": 8191.821751698, "location": {"display_address": ["725 Concord Ave", "Ste 3600", "Cambridge, MA 02138"], "state": "MA", "address2": "Ste 3600", "address1": "725 Concord Ave", "zip_code": "02138", "city": "Cambridge", "country": "US", "address3": null}, "url": "https://www.yelp.com/biz/crimson-foot-and-ankle-cambridge?adjust_creative=gBcvfFpabk3CnzmXKdYe3w&utm_campaign=yelp_api_v3&utm_medium=api_v3_business_search&utm_source=gBcvfFpabk3CnzmXKdYe3w", "categories": [{"alias": "podiatrists", "title": "Podiatrists"}], "display_phone": "(617) 354-3131", "is_closed": false, "name": "Crimson Foot and Ankle", "review_count": 1, "coordinates": {"longitude": -71.1521099, "latitude": 42.39094}}, {"rating": 1.0, "transactions": [], "image_url": "https://s3-media1.fl.yelpcdn.com/bphoto/lqloPJl34yB0vnEmoKbiJQ/o.jpg", "phone": "+17812864444", "id": "revere-airport-taxi-and-transportation-revere", "distance": 8496.604998257999, "location": {"display_address": ["420 Broadway", "Revere, MA 02151"], "state": "MA", "address2": null, "address1": "420 Broadway", "zip_code": "02151", "city": "Revere", "country": "US", "address3": null}, "url": "https://www.yelp.com/biz/revere-airport-taxi-and-transportation-revere?adjust_creative=gBcvfFpabk3CnzmXKdYe3w&utm_campaign=yelp_api_v3&utm_medium=api_v3_business_search&utm_source=gBcvfFpabk3CnzmXKdYe3w", "categories": [{"alias": "taxis", "title": "Taxis"}, {"alias": "airport_shuttles", "title": "Airport Shuttles"}], "display_phone": "(781) 286-4444", "is_closed": false, "name": "Revere Airport  Taxi & Transportation", "review_count": 1, "coordinates": {"longitude": -71.0121307, "latitude": 42.4107094}}, {"rating": 5.0, "transactions": [], "image_url": "https://s3-media1.fl.yelpcdn.com/bphoto/iTqHBzedSVMOG_Ic6GNwSQ/o.jpg", "phone": "+17816003626", "id": "painting-and-cleaning-revere", "distance": 8376.121115422, "location": {"display_address": ["4 Sprague St", "Revere, MA 02151"], "state": "MA", "address2": "", "address1": "4 Sprague St", "zip_code": "02151", "city": "Revere", "country": "US", "address3": ""}, "url": "https://www.yelp.com/biz/painting-and-cleaning-revere?adjust_creative=gBcvfFpabk3CnzmXKdYe3w&utm_campaign=yelp_api_v3&utm_medium=api_v3_business_search&utm_source=gBcvfFpabk3CnzmXKdYe3w", "categories": [{"alias": "officecleaning", "title": "Office Cleaning"}, {"alias": "painters", "title": "Painters"}, {"alias": "homecleaning", "title": "Home Cleaning"}], "display_phone": "(781) 600-3626", "is_closed": false, "name": "Painting And Cleaning", "review_count": 1, "coordinates": {"longitude": -71.0123779, "latitude": 42.4094506}}, {"rating": 3.0, "transactions": [], "image_url": "https://s3-media3.fl.yelpcdn.com/bphoto/-OdR0StcPXgNz0dT8I2X9Q/o.jpg", "phone": "+17744172892", "id": "logan-taxi-service-winthrop", "distance": 8379.32965658, "location": {"display_address": ["Winthrop, MA 02152"], "state": "MA", "address2": null, "address1": "", "zip_code": "02152", "city": "Winthrop", "country": "US", "address3": ""}, "url": "https://www.yelp.com/biz/logan-taxi-service-winthrop?adjust_creative=gBcvfFpabk3CnzmXKdYe3w&utm_campaign=yelp_api_v3&utm_medium=api_v3_business_search&utm_source=gBcvfFpabk3CnzmXKdYe3w", "categories": [{"alias": "taxis", "title": "Taxis"}, {"alias": "airport_shuttles", "title": "Airport Shuttles"}], "display_phone": "(774) 417-2892", "is_closed": false, "name": "Logan Taxi Service", "review_count": 2, "coordinates": {"longitude": -70.9773330688477, "latitude": 42.372989654541}}, {"rating": 5.0, "transactions": [], "image_url": "https://s3-media1.fl.yelpcdn.com/bphoto/jKDbZFP0cYNtmSgcsLRmRw/o.jpg", "phone": "+19783974100", "id": "five-star-livery-service-roslindale", "distance": 8546.643563141999, "location": {"display_address": ["40 Congreve St", "Roslindale, MA 02131"], "state": "MA", "address2": "", "address1": "40 Congreve St", "zip_code": "02131", "city": "Roslindale", "country": "US", "address3": ""}, "url": "https://www.yelp.com/biz/five-star-livery-service-roslindale?adjust_creative=gBcvfFpabk3CnzmXKdYe3w&utm_campaign=yelp_api_v3&utm_medium=api_v3_business_search&utm_source=gBcvfFpabk3CnzmXKdYe3w", "categories": [{"alias": "airport_shuttles", "title": "Airport Shuttles"}, {"alias": "taxis", "title": "Taxis"}, {"alias": "limos", "title": "Limos"}], "display_phone": "(978) 397-4100", "is_closed": false, "name": "Five Star Livery Service", "review_count": 1, "coordinates": {"longitude": -71.138275, "latitude": 42.289096}}, {"rating": 1.0, "transactions": [], "image_url": "https://s3-media2.fl.yelpcdn.com/bphoto/oIQDL2Yvf-8Duf8UQJXZOw/o.jpg", "phone": "+16173545559", "id": "airport-cab-of-arlington-arlington", "distance": 8544.16872009, "location": {"display_address": ["65 Sunnyside Ave", "Arlington, MA 02474"], "state": "MA", "address2": "", "address1": "65 Sunnyside Ave", "zip_code": "02474", "city": "Arlington", "country": "US", "address3": ""}, "url": "https://www.yelp.com/biz/airport-cab-of-arlington-arlington?adjust_creative=gBcvfFpabk3CnzmXKdYe3w&utm_campaign=yelp_api_v3&utm_medium=api_v3_business_search&utm_source=gBcvfFpabk3CnzmXKdYe3w", "categories": [{"alias": "taxis", "title": "Taxis"}], "display_phone": "(617) 354-5559", "is_closed": false, "name": "Airport Cab of Arlington", "review_count": 2, "coordinates": {"longitude": -71.132881, "latitude": 42.409752}}, {"rating": 5.0, "transactions": [], "image_url": "https://s3-media2.fl.yelpcdn.com/bphoto/G_HhxnevMnpO9TX52jL1JA/o.jpg", "phone": "+18578882476", "id": "varlez-cleaning-and-services-winthrop", "distance": 8379.32965658, "location": {"display_address": ["Winthrop, MA 02152"], "state": "MA", "address2": null, "address1": "", "zip_code": "02152", "city": "Winthrop", "country": "US", "address3": ""}, "url": "https://www.yelp.com/biz/varlez-cleaning-and-services-winthrop?adjust_creative=gBcvfFpabk3CnzmXKdYe3w&utm_campaign=yelp_api_v3&utm_medium=api_v3_business_search&utm_source=gBcvfFpabk3CnzmXKdYe3w", "categories": [{"alias": "windowwashing", "title": "Window Washing"}, {"alias": "officecleaning", "title": "Office Cleaning"}, {"alias": "carpet_cleaning", "title": "Carpet Cleaning"}], "display_phone": "(857) 888-2476", "is_closed": false, "name": "Varlez Cleaning & Services", "review_count": 1, "coordinates": {"longitude": -70.9773330688477, "latitude": 42.372989654541}}, {"rating": 5.0, "transactions": [], "image_url": "https://s3-media2.fl.yelpcdn.com/bphoto/-ZqCDrD-LDWgrt2pJeC1qQ/o.jpg", "phone": "+17813337999", "id": "lucky-seven-hardwood-floors-medford", "distance": 8600.23893036, "location": {"display_address": ["70 Orchard St", "Medford, MA 02155"], "state": "MA", "address2": "", "address1": "70 Orchard St", "zip_code": "02155", "city": "Medford", "country": "US", "address3": ""}, "url": "https://www.yelp.com/biz/lucky-seven-hardwood-floors-medford?adjust_creative=gBcvfFpabk3CnzmXKdYe3w&utm_campaign=yelp_api_v3&utm_medium=api_v3_business_search&utm_source=gBcvfFpabk3CnzmXKdYe3w", "categories": [{"alias": "flooring", "title": "Flooring"}], "display_phone": "(781) 333-7999", "is_closed": false, "name": "Lucky Seven Hardwood Floors", "review_count": 1, "coordinates": {"longitude": -71.1241302490234, "latitude": 42.4146118164062}}, {"rating": 1.0, "transactions": [], "image_url": "https://s3-media1.fl.yelpcdn.com/bphoto/LL0Sn5Ur8_N5EC4hlTXyBQ/o.jpg", "phone": "+16173270211", "id": "benchmark-elevator-co-inc-roslindale", "distance": 8478.88664766, "location": {"display_address": ["20 Fletcher St", "Roslindale, MA 02131"], "state": "MA", "address2": "", "address1": "20 Fletcher St", "zip_code": "02131", "city": "Roslindale", "country": "US", "address3": ""}, "url": "https://www.yelp.com/biz/benchmark-elevator-co-inc-roslindale?adjust_creative=gBcvfFpabk3CnzmXKdYe3w&utm_campaign=yelp_api_v3&utm_medium=api_v3_business_search&utm_source=gBcvfFpabk3CnzmXKdYe3w", "categories": [{"alias": "contractors", "title": "Contractors"}], "display_phone": "(617) 327-0211", "is_closed": false, "name": "Benchmark Elevator Co Inc", "review_count": 1, "coordinates": {"longitude": -71.13655, "latitude": 42.288829}}, {"rating": 4.0, "transactions": [], "image_url": "https://s3-media4.fl.yelpcdn.com/bphoto/n4tS-hFFyF0IAbKKvheHQg/o.jpg", "phone": "+18664725858", "id": "ultra-safe-pest-management-inc-canton", "distance": 20417.672439899998, "location": {"display_address": ["75 Arlington St", "Boston, MA 02116"], "state": "MA", "address2": "", "address1": "75 Arlington St", "zip_code": "02116", "city": "Boston", "country": "US", "address3": null}, "url": "https://www.yelp.com/biz/ultra-safe-pest-management-inc-canton?adjust_creative=gBcvfFpabk3CnzmXKdYe3w&utm_campaign=yelp_api_v3&utm_medium=api_v3_business_search&utm_source=gBcvfFpabk3CnzmXKdYe3w", "categories": [{"alias": "pest_control", "title": "Pest Control"}], "display_phone": "(866) 472-5858", "is_closed": false, "name": "Ultra Safe Pest Management", "review_count": 9, "coordinates": {"longitude": -71.111, "latitude": 42.1665942}}, {"rating": 5.0, "transactions": [], "image_url": "https://s3-media2.fl.yelpcdn.com/bphoto/NeT0Eb5D2cWCvPMxYj2E5Q/o.jpg", "phone": "+16175845928", "id": "curtains-plus-custom-blinds-winthrop", "distance": 8379.32965658, "location": {"display_address": ["Winthrop, MA 02152"], "state": "MA", "address2": "", "address1": "", "zip_code": "02152", "city": "Winthrop", "country": "US", "address3": ""}, "url": "https://www.yelp.com/biz/curtains-plus-custom-blinds-winthrop?adjust_creative=gBcvfFpabk3CnzmXKdYe3w&utm_campaign=yelp_api_v3&utm_medium=api_v3_business_search&utm_source=gBcvfFpabk3CnzmXKdYe3w", "categories": [{"alias": "windowsinstallation", "title": "Windows Installation"}, {"alias": "blinds", "title": "Shades & Blinds"}], "display_phone": "(617) 584-5928", "is_closed": false, "name": "Curtains Plus Custom Blinds", "review_count": 3, "coordinates": {"longitude": -70.9773330688477, "latitude": 42.372989654541}}, {"rating": 4.0, "transactions": [], "image_url": "https://s3-media1.fl.yelpcdn.com/bphoto/13QbcDltGmRJuXs7tq3O-g/o.jpg", "phone": "+18572512509", "id": "paul-foukas-plumbing-and-heating-lynn", "distance": 15260.74196806, "location": {"display_address": ["40 Spencer St", "Lynn, MA 01905"], "state": "MA", "address2": null, "address1": "40 Spencer St", "zip_code": "01905", "city": "Lynn", "country": "US", "address3": ""}, "url": "https://www.yelp.com/biz/paul-foukas-plumbing-and-heating-lynn?adjust_creative=gBcvfFpabk3CnzmXKdYe3w&utm_campaign=yelp_api_v3&utm_medium=api_v3_business_search&utm_source=gBcvfFpabk3CnzmXKdYe3w", "categories": [{"alias": "plumbing", "title": "Plumbing"}, {"alias": "hvac", "title": "Heating & Air Conditioning/HVAC"}], "display_phone": "(857) 251-2509", "is_closed": false, "name": "Paul Foukas Plumbing & Heating", "review_count": 14, "coordinates": {"longitude": -70.96879, "latitude": 42.46235}}, {"rating": 2.0, "transactions": [], "image_url": "https://s3-media4.fl.yelpcdn.com/bphoto/VcphB6hCW67dp9ZdLNl3nA/o.jpg", "phone": "+16179659999", "id": "negoshians-towing-and-service-newton", "distance": 12052.410667996, "location": {"display_address": ["38 Ramsdell St", "Newton, MA 02461"], "state": "MA", "address2": "", "address1": "38 Ramsdell St", "zip_code": "02461", "city": "Newton", "country": "US", "address3": ""}, "url": "https://www.yelp.com/biz/negoshians-towing-and-service-newton?adjust_creative=gBcvfFpabk3CnzmXKdYe3w&utm_campaign=yelp_api_v3&utm_medium=api_v3_business_search&utm_source=gBcvfFpabk3CnzmXKdYe3w", "categories": [{"alias": "towing", "title": "Towing"}], "display_phone": "(617) 965-9999", "is_closed": false, "name": "Negoshian's Towing & Service", "review_count": 19, "coordinates": {"longitude": -71.2123276, "latitude": 42.3183294}}, {"rating": 1.0, "transactions": [], "image_url": "https://s3-media2.fl.yelpcdn.com/bphoto/v06rP-WqIYEu4u6stKnsVg/o.jpg", "phone": "+18558444388", "id": "directv-medford-2", "distance": 8356.53657416, "location": {"display_address": ["Medford, MA 02155"], "state": "MA", "address2": "", "address1": "", "zip_code": "02155", "city": "Medford", "country": "US", "address3": ""}, "url": "https://www.yelp.com/biz/directv-medford-2?adjust_creative=gBcvfFpabk3CnzmXKdYe3w&utm_campaign=yelp_api_v3&utm_medium=api_v3_business_search&utm_source=gBcvfFpabk3CnzmXKdYe3w", "categories": [{"alias": "televisionserviceproviders", "title": "Television Service Providers"}, {"alias": "isps", "title": "Internet Service Providers"}], "display_phone": "(855) 844-4388", "is_closed": false, "name": "DIRECTV", "review_count": 2, "coordinates": {"longitude": -71.1078262329102, "latitude": 42.4230613708496}}, {"rating": 5.0, "transactions": [], "image_url": "https://s3-media4.fl.yelpcdn.com/bphoto/Sx2Y9N5X38kMfUJuBA-NBA/o.jpg", "phone": "+19785094142", "id": "a-hand-at-home-medford-2", "distance": 8356.53657416, "location": {"display_address": ["Medford, MA 02155"], "state": "MA", "address2": null, "address1": "", "zip_code": "02155", "city": "Medford", "country": "US", "address3": ""}, "url": "https://www.yelp.com/biz/a-hand-at-home-medford-2?adjust_creative=gBcvfFpabk3CnzmXKdYe3w&utm_campaign=yelp_api_v3&utm_medium=api_v3_business_search&utm_source=gBcvfFpabk3CnzmXKdYe3w", "categories": [{"alias": "doulas", "title": "Doulas"}, {"alias": "prenatal", "title": "Prenatal/Perinatal Care"}], "display_phone": "(978) 509-4142", "is_closed": false, "name": "A Hand at Home", "review_count": 1, "coordinates": {"longitude": -71.10608, "latitude": 42.41943}}, {"rating": 3.5, "transactions": [], "image_url": "https://s3-media4.fl.yelpcdn.com/bphoto/6aGgi0NvlMHkHqUb8ridDw/o.jpg", "phone": "+18002532656", "id": "clean-joe-saugus-3", "distance": 12493.411027099999, "location": {"display_address": ["390 Lincoln Ave", "Saugus, MA 01906"], "state": "MA", "address2": "", "address1": "390 Lincoln Ave", "zip_code": "01906", "city": "Saugus", "country": "US", "address3": ""}, "url": "https://www.yelp.com/biz/clean-joe-saugus-3?adjust_creative=gBcvfFpabk3CnzmXKdYe3w&utm_campaign=yelp_api_v3&utm_medium=api_v3_business_search&utm_source=gBcvfFpabk3CnzmXKdYe3w", "categories": [{"alias": "homecleaning", "title": "Home Cleaning"}, {"alias": "damagerestoration", "title": "Damage Restoration"}, {"alias": "carpet_cleaning", "title": "Carpet Cleaning"}], "display_phone": "(800) 253-2656", "is_closed": false, "name": "Clean Joe", "review_count": 8, "coordinates": {"longitude": -71.0057310014963, "latitude": 42.4496524035931}}, {"rating": 1.0, "transactions": [], "image_url": "https://s3-media1.fl.yelpcdn.com/bphoto/Cb9sgM6D1VSw1XFggud_7A/o.jpg", "phone": "+17816489530", "id": "park-avenue-health-center-arlington-2", "distance": 9184.95077652, "location": {"display_address": ["146 Park Ave", "Arlington, MA 02476"], "state": "MA", "address2": "", "address1": "146 Park Ave", "zip_code": "02476", "city": "Arlington", "country": "US", "address3": ""}, "url": "https://www.yelp.com/biz/park-avenue-health-center-arlington-2?adjust_creative=gBcvfFpabk3CnzmXKdYe3w&utm_campaign=yelp_api_v3&utm_medium=api_v3_business_search&utm_source=gBcvfFpabk3CnzmXKdYe3w", "categories": [{"alias": "rehabilitation_center", "title": "Rehabilitation Center"}, {"alias": "hospice", "title": "Hospice"}, {"alias": "physicaltherapy", "title": "Physical Therapy"}], "display_phone": "(781) 648-9530", "is_closed": false, "name": "Park Avenue Health Center", "review_count": 1, "coordinates": {"longitude": -71.1521354121982, "latitude": 42.4048690620313}}, {"rating": 5.0, "transactions": [], "image_url": "https://s3-media3.fl.yelpcdn.com/bphoto/hOceDpGUmgy7wzFgwWS3jQ/o.jpg", "phone": "+18572000126", "id": "rr-veteran-contracting-quincy", "distance": 12372.643900424, "location": {"display_address": ["Quincy, MA 02169"], "state": "MA", "address2": null, "address1": "", "zip_code": "02169", "city": "Quincy", "country": "US", "address3": ""}, "url": "https://www.yelp.com/biz/rr-veteran-contracting-quincy?adjust_creative=gBcvfFpabk3CnzmXKdYe3w&utm_campaign=yelp_api_v3&utm_medium=api_v3_business_search&utm_source=gBcvfFpabk3CnzmXKdYe3w", "categories": [{"alias": "contractors", "title": "Contractors"}, {"alias": "handyman", "title": "Handyman"}, {"alias": "carpenters", "title": "Carpenters"}], "display_phone": "(857) 200-0126", "is_closed": false, "name": "RR Veteran Contracting", "review_count": 1, "coordinates": {"longitude": -71.00366, "latitude": 42.25113}}, {"rating": 1.0, "transactions": [], "image_url": "https://s3-media1.fl.yelpcdn.com/bphoto/m8mwb1NfOVV_42lpCu-Sjw/o.jpg", "phone": "+17818663067", "id": "leg-car-services-malden", "distance": 9058.065100098, "location": {"display_address": ["Malden, MA 02148"], "state": "MA", "address2": "", "address1": "", "zip_code": "02148", "city": "Malden", "country": "US", "address3": ""}, "url": "https://www.yelp.com/biz/leg-car-services-malden?adjust_creative=gBcvfFpabk3CnzmXKdYe3w&utm_campaign=yelp_api_v3&utm_medium=api_v3_business_search&utm_source=gBcvfFpabk3CnzmXKdYe3w", "categories": [{"alias": "taxis", "title": "Taxis"}, {"alias": "limos", "title": "Limos"}], "display_phone": "(781) 866-3067", "is_closed": false, "name": "Leg Car Services", "review_count": 1, "coordinates": {"longitude": -71.062871, "latitude": 42.42907}}, {"rating": 5.0, "transactions": [], "image_url": "https://s3-media3.fl.yelpcdn.com/bphoto/KQSB6hWGMNrrAxCnSCSdWA/o.jpg", "phone": "+16176073398", "id": "mold-removal-boston-chestnut-hill", "distance": 9279.46087736, "location": {"display_address": ["56 Moody St", "Chestnut Hill, MA 02467"], "state": "MA", "address2": null, "address1": "56 Moody St", "zip_code": "02467", "city": "Chestnut Hill", "country": "US", "address3": ""}, "url": "https://www.yelp.com/biz/mold-removal-boston-chestnut-hill?adjust_creative=gBcvfFpabk3CnzmXKdYe3w&utm_campaign=yelp_api_v3&utm_medium=api_v3_business_search&utm_source=gBcvfFpabk3CnzmXKdYe3w", "categories": [{"alias": "damagerestoration", "title": "Damage Restoration"}], "display_phone": "(617) 607-3398", "is_closed": false, "name": "Mold Removal Boston", "review_count": 1, "coordinates": {"longitude": -71.1784668, "latitude": 42.3213615}}, {"rating": 5.0, "transactions": [], "image_url": "", "phone": "+17816410292", "id": "rogers-and-hutchins-funeral-home-arlington", "distance": 9178.1786738, "location": {"display_address": ["292 Massachusetts Ave", "Arlington, MA 02474"], "state": "MA", "address2": null, "address1": "292 Massachusetts Ave", "zip_code": "02474", "city": "Arlington", "country": "US", "address3": null}, "url": "https://www.yelp.com/biz/rogers-and-hutchins-funeral-home-arlington?adjust_creative=gBcvfFpabk3CnzmXKdYe3w&utm_campaign=yelp_api_v3&utm_medium=api_v3_business_search&utm_source=gBcvfFpabk3CnzmXKdYe3w", "categories": [{"alias": "funeralservices", "title": "Funeral Services & Cemeteries"}], "display_phone": "(781) 641-0292", "is_closed": false, "name": "Rogers And Hutchins Funeral Home", "review_count": 1, "coordinates": {"longitude": -71.146347, "latitude": 42.408959}}, {"rating": 5.0, "transactions": [], "image_url": "https://s3-media1.fl.yelpcdn.com/bphoto/-E0q98VzA95a8qpAfpiogA/o.jpg", "phone": "+17815885417", "id": "brians-plumbing-malden-2", "distance": 8600.08926174, "location": {"display_address": ["Malden, MA 02148"], "state": "MA", "address2": "", "address1": "", "zip_code": "02148", "city": "Malden", "country": "US", "address3": ""}, "url": "https://www.yelp.com/biz/brians-plumbing-malden-2?adjust_creative=gBcvfFpabk3CnzmXKdYe3w&utm_campaign=yelp_api_v3&utm_medium=api_v3_business_search&utm_source=gBcvfFpabk3CnzmXKdYe3w", "categories": [{"alias": "hvac", "title": "Heating & Air Conditioning/HVAC"}, {"alias": "plumbing", "title": "Plumbing"}, {"alias": "waterheaterinstallrepair", "title": "Water Heater Installation/Repair"}], "display_phone": "(781) 588-5417", "is_closed": false, "name": "Brian's Plumbing", "review_count": 2, "coordinates": {"longitude": -71.07353, "latitude": 42.4266}}, {"rating": 1.0, "transactions": [], "image_url": "https://s3-media3.fl.yelpcdn.com/bphoto/mgzCPDfqIblAjNbQmK9KFA/o.jpg", "phone": "+16176073397", "id": "avishay-carpet-and-floor-cleaners-brighton", "distance": 9398.479134258, "location": {"display_address": ["121 B Tremont St", "Brighton, MA 02135"], "state": "MA", "address2": "", "address1": "121 B Tremont St", "zip_code": "02135", "city": "Brighton", "country": "US", "address3": ""}, "url": "https://www.yelp.com/biz/avishay-carpet-and-floor-cleaners-brighton?adjust_creative=gBcvfFpabk3CnzmXKdYe3w&utm_campaign=yelp_api_v3&utm_medium=api_v3_business_search&utm_source=gBcvfFpabk3CnzmXKdYe3w", "categories": [{"alias": "homecleaning", "title": "Home Cleaning"}, {"alias": "carpet_cleaning", "title": "Carpet Cleaning"}], "display_phone": "(617) 607-3397", "is_closed": false, "name": "Avishay Carpet & Floor Cleaners", "review_count": 2, "coordinates": {"longitude": -71.1790195, "latitude": 42.3196148}}, {"rating": 5.0, "transactions": [], "image_url": "https://s3-media3.fl.yelpcdn.com/bphoto/0ZlpvoVQGLCpZA646uXnow/o.jpg", "phone": "+17817182273", "id": "daniel-e-cadotte-plumbing-and-heating-medford", "distance": 9389.743153936, "location": {"display_address": ["Medford, MA 02155"], "state": "MA", "address2": "", "address1": "", "zip_code": "02155", "city": "Medford", "country": "US", "address3": ""}, "url": "https://www.yelp.com/biz/daniel-e-cadotte-plumbing-and-heating-medford?adjust_creative=gBcvfFpabk3CnzmXKdYe3w&utm_campaign=yelp_api_v3&utm_medium=api_v3_business_search&utm_source=gBcvfFpabk3CnzmXKdYe3w", "categories": [{"alias": "plumbing", "title": "Plumbing"}], "display_phone": "(781) 718-2273", "is_closed": false, "name": "Daniel E. Cadotte Plumbing & Heating", "review_count": 2, "coordinates": {"longitude": -71.1092012, "latitude": 42.4274971}}, {"rating": 5.0, "transactions": [], "image_url": "https://s3-media4.fl.yelpcdn.com/bphoto/RkAiAij-iLC90TVMZ3_4Fw/o.jpg", "phone": "+17815074131", "id": "kod-restoration-and-construction-medford-2", "distance": 9389.743153936, "location": {"display_address": ["Medford, MA 02155"], "state": "MA", "address2": "", "address1": "", "zip_code": "02155", "city": "Medford", "country": "US", "address3": ""}, "url": "https://www.yelp.com/biz/kod-restoration-and-construction-medford-2?adjust_creative=gBcvfFpabk3CnzmXKdYe3w&utm_campaign=yelp_api_v3&utm_medium=api_v3_business_search&utm_source=gBcvfFpabk3CnzmXKdYe3w", "categories": [{"alias": "contractors", "title": "Contractors"}, {"alias": "plumbing", "title": "Plumbing"}], "display_phone": "(781) 507-4131", "is_closed": false, "name": "KOD Restoration and Construction", "review_count": 1, "coordinates": {"longitude": -71.1092012, "latitude": 42.4274971}}, {"rating": 5.0, "transactions": [], "image_url": "https://s3-media1.fl.yelpcdn.com/bphoto/4_Y1469tCv1NjXgA3Rlxtg/o.jpg", "phone": "+17815479272", "id": "clark-plumbing-and-heating-solutions-waltham-3", "distance": 15196.61781576, "location": {"display_address": ["8 Rosemont Ave", "Waltham, MA 02451"], "state": "MA", "address2": null, "address1": "8 Rosemont Ave", "zip_code": "02451", "city": "Waltham", "country": "US", "address3": ""}, "url": "https://www.yelp.com/biz/clark-plumbing-and-heating-solutions-waltham-3?adjust_creative=gBcvfFpabk3CnzmXKdYe3w&utm_campaign=yelp_api_v3&utm_medium=api_v3_business_search&utm_source=gBcvfFpabk3CnzmXKdYe3w", "categories": [{"alias": "plumbing", "title": "Plumbing"}, {"alias": "hvac", "title": "Heating & Air Conditioning/HVAC"}, {"alias": "waterheaterinstallrepair", "title": "Water Heater Installation/Repair"}], "display_phone": "(781) 547-9272", "is_closed": false, "name": "Clark Plumbing & Heating Solutions", "review_count": 6, "coordinates": {"longitude": -71.24213, "latitude": 42.39996}}, {"rating": 4.5, "transactions": [], "image_url": "https://s3-media3.fl.yelpcdn.com/bphoto/zVE0QGNRf_zNuQ-Ab-LZ0g/o.jpg", "phone": "+17812519744", "id": "hercules-c-and-g-drain-dedham-2", "distance": 14909.395687279997, "location": {"display_address": ["182 Bonham Rd", "Dedham, MA 02026"], "state": "MA", "address2": "", "address1": "182 Bonham Rd", "zip_code": "02026", "city": "Dedham", "country": "US", "address3": ""}, "url": "https://www.yelp.com/biz/hercules-c-and-g-drain-dedham-2?adjust_creative=gBcvfFpabk3CnzmXKdYe3w&utm_campaign=yelp_api_v3&utm_medium=api_v3_business_search&utm_source=gBcvfFpabk3CnzmXKdYe3w", "categories": [{"alias": "plumbing", "title": "Plumbing"}], "display_phone": "(781) 251-9744", "is_closed": false, "name": "Hercules C & G Drain", "review_count": 13, "coordinates": {"longitude": -71.147819519043, "latitude": 42.2263145446777}}, {"rating": 5.0, "transactions": [], "image_url": "https://s3-media1.fl.yelpcdn.com/bphoto/zgnHp-7h8BE-MeHUVUj-vw/o.jpg", "phone": "+16176422900", "id": "privateer-courier-co-arlington-2", "distance": 9537.958861784, "location": {"display_address": ["33 Beacon St", "Arlington, MA 02474"], "state": "MA", "address2": null, "address1": "33 Beacon St", "zip_code": "02474", "city": "Arlington", "country": "US", "address3": ""}, "url": "https://www.yelp.com/biz/privateer-courier-co-arlington-2?adjust_creative=gBcvfFpabk3CnzmXKdYe3w&utm_campaign=yelp_api_v3&utm_medium=api_v3_business_search&utm_source=gBcvfFpabk3CnzmXKdYe3w", "categories": [{"alias": "couriers", "title": "Couriers & Delivery Services"}], "display_phone": "(617) 642-2900", "is_closed": false, "name": "Privateer Courier Co", "review_count": 1, "coordinates": {"longitude": -71.1437, "latitude": 42.41475}}, {"rating": 5.0, "transactions": [], "image_url": "", "phone": "+18448898860", "id": "glennalds-limo-revere", "distance": 9499.23234776, "location": {"display_address": ["28 Dawes St", "Revere, MA 02151"], "state": "MA", "address2": null, "address1": "28 Dawes St", "zip_code": "02151", "city": "Revere", "country": "US", "address3": ""}, "url": "https://www.yelp.com/biz/glennalds-limo-revere?adjust_creative=gBcvfFpabk3CnzmXKdYe3w&utm_campaign=yelp_api_v3&utm_medium=api_v3_business_search&utm_source=gBcvfFpabk3CnzmXKdYe3w", "categories": [{"alias": "limos", "title": "Limos"}], "display_phone": "(844) 889-8860", "is_closed": false, "name": "Glennald's Limo", "review_count": 1, "coordinates": {"longitude": -71.00995, "latitude": 42.42027}}, {"rating": 1.0, "transactions": [], "image_url": "https://s3-media1.fl.yelpcdn.com/bphoto/qLBdlzw-RWv0pvB7-SQ2mQ/o.jpg", "phone": "+16173722585", "id": "walshs-plumbing-and-heating-corp-west-roxbury-2", "distance": 9798.989625499999, "location": {"display_address": ["267 Park St", "Ste 2", "West Roxbury, MA 02132"], "state": "MA", "address2": "Ste 2", "address1": "267 Park St", "zip_code": "02132", "city": "West Roxbury", "country": "US", "address3": ""}, "url": "https://www.yelp.com/biz/walshs-plumbing-and-heating-corp-west-roxbury-2?adjust_creative=gBcvfFpabk3CnzmXKdYe3w&utm_campaign=yelp_api_v3&utm_medium=api_v3_business_search&utm_source=gBcvfFpabk3CnzmXKdYe3w", "categories": [{"alias": "plumbing", "title": "Plumbing"}, {"alias": "hvac", "title": "Heating & Air Conditioning/HVAC"}, {"alias": "damagerestoration", "title": "Damage Restoration"}], "display_phone": "(617) 372-2585", "is_closed": false, "name": "Walsh's Plumbing & Heating Corp", "review_count": 2, "coordinates": {"longitude": -71.14921, "latitude": 42.28098}}, {"rating": 5.0, "transactions": [], "image_url": "https://s3-media1.fl.yelpcdn.com/bphoto/QbxfvK5HiXa8PgkWS11pyw/o.jpg", "phone": "+17742288971", "id": "priority-1-paving-dedham", "distance": 15615.496830959999, "location": {"display_address": ["72 Pacella Dr", "Dedham, MA 02026"], "state": "MA", "address2": null, "address1": "72 Pacella Dr", "zip_code": "02026", "city": "Dedham", "country": "US", "address3": ""}, "url": "https://www.yelp.com/biz/priority-1-paving-dedham?adjust_creative=gBcvfFpabk3CnzmXKdYe3w&utm_campaign=yelp_api_v3&utm_medium=api_v3_business_search&utm_source=gBcvfFpabk3CnzmXKdYe3w", "categories": [{"alias": "masonry_concrete", "title": "Masonry/Concrete"}], "display_phone": "(774) 228-8971", "is_closed": false, "name": "Priority 1 Paving", "review_count": 13, "coordinates": {"longitude": -71.186438, "latitude": 42.236217}}, {"rating": 1.0, "transactions": [], "image_url": "https://s3-media3.fl.yelpcdn.com/bphoto/-ZwFfvQWmj5gUoCMT8Ixdg/o.jpg", "phone": "+17812894200", "id": "logan-valet-and-fly-revere", "distance": 9957.567873607999, "location": {"display_address": ["Revere, MA 02151"], "state": "MA", "address2": "", "address1": null, "zip_code": "02151", "city": "Revere", "country": "US", "address3": ""}, "url": "https://www.yelp.com/biz/logan-valet-and-fly-revere?adjust_creative=gBcvfFpabk3CnzmXKdYe3w&utm_campaign=yelp_api_v3&utm_medium=api_v3_business_search&utm_source=gBcvfFpabk3CnzmXKdYe3w", "categories": [{"alias": "valetservices", "title": "Valet Services"}], "display_phone": "(781) 289-4200", "is_closed": false, "name": "Logan Valet and Fly", "review_count": 7, "coordinates": {"longitude": -71.0021239868164, "latitude": 42.4214145402831}}, {"rating": 5.0, "transactions": [], "image_url": "https://s3-media1.fl.yelpcdn.com/bphoto/gJImTzhDD_s-QByBz2K1KQ/o.jpg", "phone": "+17815590220", "id": "firstlight-homecare-of-west-suburban-boston-needham", "distance": 13028.29609752, "location": {"display_address": ["109 Highland Ave", "Ste B-3", "Needham, MA 02494"], "state": "MA", "address2": "Ste B-3", "address1": "109 Highland Ave", "zip_code": "02494", "city": "Needham", "country": "US", "address3": ""}, "url": "https://www.yelp.com/biz/firstlight-homecare-of-west-suburban-boston-needham?adjust_creative=gBcvfFpabk3CnzmXKdYe3w&utm_campaign=yelp_api_v3&utm_medium=api_v3_business_search&utm_source=gBcvfFpabk3CnzmXKdYe3w", "categories": [{"alias": "homehealthcare", "title": "Home Health Care"}, {"alias": "hospice", "title": "Hospice"}], "display_phone": "(781) 559-0220", "is_closed": false, "name": "Firstlight Homecare of West Suburban Boston", "review_count": 2, "coordinates": {"longitude": -71.21901, "latitude": 42.30516}}, {"rating": 5.0, "transactions": [], "image_url": "https://s3-media1.fl.yelpcdn.com/bphoto/neOo62cKjtVI4fyiQvZCTw/o.jpg", "phone": "+17813166978", "id": "peter-vitale-electric-north-waltham", "distance": 13089.07765064, "location": {"display_address": ["North Waltham, MA 02455"], "state": "MA", "address2": "", "address1": "", "zip_code": "02455", "city": "North Waltham", "country": "US", "address3": ""}, "url": "https://www.yelp.com/biz/peter-vitale-electric-north-waltham?adjust_creative=gBcvfFpabk3CnzmXKdYe3w&utm_campaign=yelp_api_v3&utm_medium=api_v3_business_search&utm_source=gBcvfFpabk3CnzmXKdYe3w", "categories": [{"alias": "electricians", "title": "Electricians"}, {"alias": "fireprotection", "title": "Fire Protection Services"}], "display_phone": "(781) 316-6978", "is_closed": false, "name": "Peter Vitale Electric", "review_count": 4, "coordinates": {"longitude": -71.2531661987305, "latitude": 42.4157829284668}}, {"rating": 5.0, "transactions": [], "image_url": "https://s3-media3.fl.yelpcdn.com/bphoto/0x7adsQlvKCCLKn-H1fWqA/o.jpg", "phone": "+17812412941", "id": "84-entertainment-rockland", "distance": 13119.75488972, "location": {"display_address": ["Rockland, MA 02108"], "state": "MA", "address2": "", "address1": "", "zip_code": "02108", "city": "Rockland", "country": "US", "address3": ""}, "url": "https://www.yelp.com/biz/84-entertainment-rockland?adjust_creative=gBcvfFpabk3CnzmXKdYe3w&utm_campaign=yelp_api_v3&utm_medium=api_v3_business_search&utm_source=gBcvfFpabk3CnzmXKdYe3w", "categories": [{"alias": "djs", "title": "DJs"}], "display_phone": "(781) 241-2941", "is_closed": false, "name": "84 Entertainment", "review_count": 1, "coordinates": {"longitude": -70.9152374267578, "latitude": 42.128978729248}}, {"rating": 4.0, "transactions": [], "image_url": "https://s3-media1.fl.yelpcdn.com/bphoto/lhWKf9U0P5N44BqrhH3IbA/o.jpg", "phone": "+17819334304", "id": "drains-by-james-inc-wilmington", "distance": 16356.34845326, "location": {"display_address": ["190 R Main St", "Ste 6", "Wilmington, MA 01887"], "state": "MA", "address2": "Ste 6", "address1": "190 R Main St", "zip_code": "01887", "city": "Wilmington", "country": "US", "address3": ""}, "url": "https://www.yelp.com/biz/drains-by-james-inc-wilmington?adjust_creative=gBcvfFpabk3CnzmXKdYe3w&utm_campaign=yelp_api_v3&utm_medium=api_v3_business_search&utm_source=gBcvfFpabk3CnzmXKdYe3w", "categories": [{"alias": "plumbing", "title": "Plumbing"}], "display_phone": "(781) 933-4304", "is_closed": false, "name": "Drains By James, Inc.", "review_count": 7, "coordinates": {"longitude": -71.1522674560547, "latitude": 42.4822255700259}}], "total": 1239}