{"region": {"center": {"longitude": -71.07124328613281, "latitude": 42.34784169448538}}, "businesses": [{"rating": 5.0, "transactions": [], "image_url": "https://s3-media1.fl.yelpcdn.com/bphoto/6vUrF9vFKFSZNglfDEsNoA/o.jpg", "phone": "+13399330785", "id": "emmi-sorokin-mens-fashion-stylist-boston", "distance": 1564.961966698, "location": {"display_address": ["Boston, MA 02101"], "state": "MA", "address2": "", "address1": "", "zip_code": "02101", "city": "Boston", "country": "US", "address3": ""}, "url": "https://www.yelp.com/biz/emmi-sorokin-mens-fashion-stylist-boston?adjust_creative=gBcvfFpabk3CnzmXKdYe3w&utm_campaign=yelp_api_v3&utm_medium=api_v3_business_search&utm_source=gBcvfFpabk3CnzmXKdYe3w", "categories": [{"alias": "personal_shopping", "title": "Personal Shopping"}], "display_phone": "(339) 933-0785", "is_closed": false, "name": "Emmi Sorokin Men's Fashion Stylist", "price": "$$", "review_count": 8, "coordinates": {"longitude": -71.0567499, "latitude": 42.35866}}, {"rating": 2.0, "transactions": [], "image_url": "https://s3-media4.fl.yelpcdn.com/bphoto/qQH0_KSfM61KstJoafUfTQ/o.jpg", "phone": "+16172361890", "id": "our-house-east-boston", "distance": 1480.1660674056, "location": {"display_address": ["52 Gainsborough St", "Boston, MA 02115"], "state": "MA", "address2": "", "address1": "52 Gainsborough St", "zip_code": "02115", "city": "Boston", "country": "US", "address3": ""}, "url": "https://www.yelp.com/biz/our-house-east-boston?adjust_creative=gBcvfFpabk3CnzmXKdYe3w&utm_campaign=yelp_api_v3&utm_medium=api_v3_business_search&utm_source=gBcvfFpabk3CnzmXKdYe3w", "categories": [{"alias": "pubs", "title": "Pubs"}, {"alias": "tradamerican", "title": "American (Traditional)"}], "display_phone": "(617) 236-1890", "is_closed": false, "name": "Our House East", "price": "$$", "review_count": 83, "coordinates": {"longitude": -71.0872650146484, "latitude": 42.3417015075684}}, {"rating": 4.0, "transactions": [], "image_url": "https://s3-media1.fl.yelpcdn.com/bphoto/KLay4yO_TcVRLMH4a1NbJg/o.jpg", "phone": "+16175681234", "id": "hyatt-regency-boston-harbor-boston", "distance": 3817.9360954759995, "location": {"display_address": ["101 Harborside Dr", "Boston, MA 02128"], "state": "MA", "address2": "", "address1": "101 Harborside Dr", "zip_code": "02128", "city": "Boston", "country": "US", "address3": ""}, "url": "https://www.yelp.com/biz/hyatt-regency-boston-harbor-boston?adjust_creative=gBcvfFpabk3CnzmXKdYe3w&utm_campaign=yelp_api_v3&utm_medium=api_v3_business_search&utm_source=gBcvfFpabk3CnzmXKdYe3w", "categories": [{"alias": "hotels", "title": "Hotels"}], "display_phone": "(617) 568-1234", "is_closed": false, "name": "Hyatt Regency Boston Harbor", "price": "$$$", "review_count": 145, "coordinates": {"longitude": -71.0259399, "latitude": 42.3599031}}, {"rating": 3.5, "transactions": [], "image_url": "https://s3-media1.fl.yelpcdn.com/bphoto/SIbJhVHYgTvIiCMNzXR_Og/o.jpg", "phone": "+16172365800", "id": "boston-marriott-copley-place-boston", "distance": 644.8589974519999, "location": {"display_address": ["110 Huntington Ave", "Boston, MA 02116"], "state": "MA", "address2": "", "address1": "110 Huntington Ave", "zip_code": "02116", "city": "Boston", "country": "US", "address3": ""}, "url": "https://www.yelp.com/biz/boston-marriott-copley-place-boston?adjust_creative=gBcvfFpabk3CnzmXKdYe3w&utm_campaign=yelp_api_v3&utm_medium=api_v3_business_search&utm_source=gBcvfFpabk3CnzmXKdYe3w", "categories": [{"alias": "hotels", "title": "Hotels"}, {"alias": "venues", "title": "Venues & Event Spaces"}], "display_phone": "(617) 236-5800", "is_closed": false, "name": "Boston Marriott Copley Place", "price": "$$$", "review_count": 226, "coordinates": {"longitude": -71.078952, "latitude": 42.346747}}, {"rating": 3.5, "transactions": [], "image_url": "https://s3-media1.fl.yelpcdn.com/bphoto/PwArn0yRKFwImPk_YqdeUw/o.jpg", "phone": "+16172175090", "id": "spa-intercontinental-boston", "distance": 1714.238551474, "location": {"display_address": ["510 Atlantic Ave", "Boston, MA 02210"], "state": "MA", "address2": "", "address1": "510 Atlantic Ave", "zip_code": "02210", "city": "Boston", "country": "US", "address3": ""}, "url": "https://www.yelp.com/biz/spa-intercontinental-boston?adjust_creative=gBcvfFpabk3CnzmXKdYe3w&utm_campaign=yelp_api_v3&utm_medium=api_v3_business_search&utm_source=gBcvfFpabk3CnzmXKdYe3w", "categories": [{"alias": "skincare", "title": "Skin Care"}, {"alias": "massage", "title": "Massage"}, {"alias": "othersalons", "title": "Nail Salons"}], "display_phone": "(617) 217-5090", "is_closed": false, "name": "SPA InterContinental", "price": "$$$", "review_count": 72, "coordinates": {"longitude": -71.0525047, "latitude": 42.3540195}}, {"rating": 4.5, "transactions": [], "image_url": "https://s3-media4.fl.yelpcdn.com/bphoto/Qv5QiZ7Rs4KZOSFRsaIJGw/o.jpg", "phone": "+16172868800", "id": "go-boston-carpet-boston", "distance": 1680.1866873479999, "location": {"display_address": ["225 Franklin St", "Boston, MA 02135"], "state": "MA", "address2": null, "address1": "225 Franklin St", "zip_code": "02135", "city": "Boston", "country": "US", "address3": ""}, "url": "https://www.yelp.com/biz/go-boston-carpet-boston?adjust_creative=gBcvfFpabk3CnzmXKdYe3w&utm_campaign=yelp_api_v3&utm_medium=api_v3_business_search&utm_source=gBcvfFpabk3CnzmXKdYe3w", "categories": [{"alias": "carpet_cleaning", "title": "Carpet Cleaning"}, {"alias": "carpetinstallation", "title": "Carpet Installation"}], "display_phone": "(617) 286-8800", "is_closed": false, "name": "Go Boston Carpet", "review_count": 24, "coordinates": {"longitude": -71.054054, "latitude": 42.356025}}, {"rating": 2.5, "transactions": [], "image_url": "https://s3-media3.fl.yelpcdn.com/bphoto/7Of0_GP270UhljtKJymBJQ/o.jpg", "phone": "+16172922600", "id": "centerfolds-boston-2", "distance": 772.7070270071999, "location": {"display_address": ["12 Lagrange St", "Boston, MA 02116"], "state": "MA", "address2": "", "address1": "12 Lagrange St", "zip_code": "02116", "city": "Boston", "country": "US", "address3": ""}, "url": "https://www.yelp.com/biz/centerfolds-boston-2?adjust_creative=gBcvfFpabk3CnzmXKdYe3w&utm_campaign=yelp_api_v3&utm_medium=api_v3_business_search&utm_source=gBcvfFpabk3CnzmXKdYe3w", "categories": [{"alias": "adultentertainment", "title": "Adult Entertainment"}, {"alias": "bars", "title": "Bars"}], "display_phone": "(617) 292-2600", "is_closed": false, "name": "Centerfolds", "price": "$$$", "review_count": 51, "coordinates": {"longitude": -71.063346862793, "latitude": 42.3516144646197}}, {"rating": 3.5, "transactions": [], "image_url": "https://s3-media3.fl.yelpcdn.com/bphoto/vBJdUVTU3mFju1qa5OuVvQ/o.jpg", "phone": "+16175227400", "id": "mspca-angell-boston", "distance": 4260.84352248, "location": {"display_address": ["350 S Huntington Ave", "Boston, MA 02130"], "state": "MA", "address2": "", "address1": "350 S Huntington Ave", "zip_code": "02130", "city": "Boston", "country": "US", "address3": ""}, "url": "https://www.yelp.com/biz/mspca-angell-boston?adjust_creative=gBcvfFpabk3CnzmXKdYe3w&utm_campaign=yelp_api_v3&utm_medium=api_v3_business_search&utm_source=gBcvfFpabk3CnzmXKdYe3w", "categories": [{"alias": "vet", "title": "Veterinarians"}, {"alias": "animalshelters", "title": "Animal Shelters"}, {"alias": "petadoption", "title": "Pet Adoption"}], "display_phone": "(617) 522-7400", "is_closed": false, "name": "MSPCA Angell", "review_count": 389, "coordinates": {"longitude": -71.1104472142738, "latitude": 42.3227771391299}}, {"rating": 5.0, "transactions": [], "image_url": "https://s3-media3.fl.yelpcdn.com/bphoto/hyuJM9nSoj5ucH1FT_6SmQ/o.jpg", "phone": "+18572847196", "id": "britt-ryan-boston", "distance": 1139.718333666, "location": {"display_address": ["291 Newbury St", "Boston, MA 02115"], "state": "MA", "address2": null, "address1": "291 Newbury St", "zip_code": "02115", "city": "Boston", "country": "US", "address3": null}, "url": "https://www.yelp.com/biz/britt-ryan-boston?adjust_creative=gBcvfFpabk3CnzmXKdYe3w&utm_campaign=yelp_api_v3&utm_medium=api_v3_business_search&utm_source=gBcvfFpabk3CnzmXKdYe3w", "categories": [{"alias": "womenscloth", "title": "Women's Clothing"}], "display_phone": "(857) 284-7196", "is_closed": false, "name": "Britt Ryan", "price": "$$$", "review_count": 8, "coordinates": {"longitude": -71.0849991, "latitude": 42.3491707}}, {"rating": 3.5, "transactions": [], "image_url": "https://s3-media4.fl.yelpcdn.com/bphoto/z6_aAhY7OrCad3cGlw1tNg/o.jpg", "phone": "+16173576400", "id": "club-quarters-boston-boston", "distance": 1476.377777606, "location": {"display_address": ["161 Devonshire St", "Boston, MA 02110"], "state": "MA", "address2": "", "address1": "161 Devonshire St", "zip_code": "02110", "city": "Boston", "country": "US", "address3": ""}, "url": "https://www.yelp.com/biz/club-quarters-boston-boston?adjust_creative=gBcvfFpabk3CnzmXKdYe3w&utm_campaign=yelp_api_v3&utm_medium=api_v3_business_search&utm_source=gBcvfFpabk3CnzmXKdYe3w", "categories": [{"alias": "hotels", "title": "Hotels"}], "display_phone": "(617) 357-6400", "is_closed": false, "name": "Club Quarters - Boston", "price": "$$", "review_count": 125, "coordinates": {"longitude": -71.0573843121529, "latitude": 42.356211617589}}, {"rating": 3.0, "transactions": [], "image_url": "https://s3-media3.fl.yelpcdn.com/bphoto/yqlvqVP7GiYdikno3M9dsA/o.jpg", "phone": "+16175693100", "id": "great-chef-chinese-food-day-square-boston", "distance": 5006.091700726, "location": {"display_address": ["390 Chelsea St", "Boston, MA 02128"], "state": "MA", "address2": "", "address1": "390 Chelsea St", "zip_code": "02128", "city": "Boston", "country": "US", "address3": ""}, "url": "https://www.yelp.com/biz/great-chef-chinese-food-day-square-boston?adjust_creative=gBcvfFpabk3CnzmXKdYe3w&utm_campaign=yelp_api_v3&utm_medium=api_v3_business_search&utm_source=gBcvfFpabk3CnzmXKdYe3w", "categories": [{"alias": "chinese", "title": "Chinese"}, {"alias": "seafood", "title": "Seafood"}, {"alias": "soup", "title": "Soup"}], "display_phone": "(617) 569-3100", "is_closed": false, "name": "Great Chef Chinese Food Day Square", "price": "$$", "review_count": 33, "coordinates": {"longitude": -71.02792, "latitude": 42.37955}}, {"rating": 4.5, "transactions": [], "image_url": "https://s3-media2.fl.yelpcdn.com/bphoto/zWyxCu4iiLiD7tsbILxLnA/o.jpg", "phone": "+16172674600", "id": "boston-luxe-real-estate-boston-3", "distance": 303.3044723142, "location": {"display_address": ["75 Arlington St", "Ste 500", "Boston, MA 02116"], "state": "MA", "address2": "Ste 500", "address1": "75 Arlington St", "zip_code": "02116", "city": "Boston", "country": "US", "address3": ""}, "url": "https://www.yelp.com/biz/boston-luxe-real-estate-boston-3?adjust_creative=gBcvfFpabk3CnzmXKdYe3w&utm_campaign=yelp_api_v3&utm_medium=api_v3_business_search&utm_source=gBcvfFpabk3CnzmXKdYe3w", "categories": [{"alias": "realestatesvcs", "title": "Real Estate Services"}, {"alias": "realestateagents", "title": "Real Estate Agents"}], "display_phone": "(617) 267-4600", "is_closed": false, "name": "Boston Luxe Real Estate", "review_count": 11, "coordinates": {"longitude": -71.070443, "latitude": 42.3505077}}, {"rating": 3.5, "transactions": [], "image_url": "https://s3-media4.fl.yelpcdn.com/bphoto/fvnB82x7zgJQHfjUm_jB9w/o.jpg", "phone": "+16174823450", "id": "chandler-inn-hotel-boston", "distance": 114.75186437119999, "location": {"display_address": ["26 Chandler St", "Boston, MA 02116"], "state": "MA", "address2": "", "address1": "26 Chandler St", "zip_code": "02116", "city": "Boston", "country": "US", "address3": ""}, "url": "https://www.yelp.com/biz/chandler-inn-hotel-boston?adjust_creative=gBcvfFpabk3CnzmXKdYe3w&utm_campaign=yelp_api_v3&utm_medium=api_v3_business_search&utm_source=gBcvfFpabk3CnzmXKdYe3w", "categories": [{"alias": "hotels", "title": "Hotels"}], "display_phone": "(617) 482-3450", "is_closed": false, "name": "Chandler Inn Hotel", "price": "$$", "review_count": 64, "coordinates": {"longitude": -71.0703125, "latitude": 42.3469772}}, {"rating": 3.5, "transactions": [], "image_url": "https://s3-media2.fl.yelpcdn.com/bphoto/SubJKj5FN9I5C71WtMx2Mg/o.jpg", "phone": "+16173728156", "id": "walgreens-boston-11", "distance": 1469.949268976, "location": {"display_address": ["24 School St", "Boston, MA 02110"], "state": "MA", "address2": "", "address1": "24 School St", "zip_code": "02110", "city": "Boston", "country": "US", "address3": ""}, "url": "https://www.yelp.com/biz/walgreens-boston-11?adjust_creative=gBcvfFpabk3CnzmXKdYe3w&utm_campaign=yelp_api_v3&utm_medium=api_v3_business_search&utm_source=gBcvfFpabk3CnzmXKdYe3w", "categories": [{"alias": "drugstores", "title": "Drugstores"}, {"alias": "convenience", "title": "Convenience Stores"}], "display_phone": "(617) 372-8156", "is_closed": false, "name": "Walgreens", "price": "$$", "review_count": 82, "coordinates": {"longitude": -71.0588066423679, "latitude": 42.3573463701277}}, {"rating": 3.5, "transactions": [], "image_url": "https://s3-media4.fl.yelpcdn.com/bphoto/kovjbxYiJOZv8_h_EDdTEw/o.jpg", "phone": "+16179542098", "id": "boston-common-garage-boston", "distance": 734.6998557764, "location": {"display_address": ["0 Charles St", "Boston, MA 02108"], "state": "MA", "address2": "", "address1": "0 Charles St", "zip_code": "02108", "city": "Boston", "country": "US", "address3": ""}, "url": "https://www.yelp.com/biz/boston-common-garage-boston?adjust_creative=gBcvfFpabk3CnzmXKdYe3w&utm_campaign=yelp_api_v3&utm_medium=api_v3_business_search&utm_source=gBcvfFpabk3CnzmXKdYe3w", "categories": [{"alias": "parking", "title": "Parking"}], "display_phone": "(617) 954-2098", "is_closed": false, "name": "Boston Common Garage", "review_count": 38, "coordinates": {"longitude": -71.068036996831, "latitude": 42.354010005244}}, {"rating": 5.0, "transactions": [], "image_url": "https://s3-media2.fl.yelpcdn.com/bphoto/YClWfPpGX76lzhn91569Dg/o.jpg", "phone": "+18572044487", "id": "jarige-photography-boston", "distance": 4848.858217122, "location": {"display_address": ["Boston, MA 02128"], "state": "MA", "address2": "", "address1": "", "zip_code": "02128", "city": "Boston", "country": "US", "address3": ""}, "url": "https://www.yelp.com/biz/jarige-photography-boston?adjust_creative=gBcvfFpabk3CnzmXKdYe3w&utm_campaign=yelp_api_v3&utm_medium=api_v3_business_search&utm_source=gBcvfFpabk3CnzmXKdYe3w", "categories": [{"alias": "eventphotography", "title": "Event Photography"}, {"alias": "sessionphotography", "title": "Session Photography"}], "display_phone": "(857) 204-4487", "is_closed": false, "name": "Jarige Photography", "review_count": 12, "coordinates": {"longitude": -71.0150146484375, "latitude": 42.3732109069824}}, {"rating": 2.5, "transactions": [], "image_url": "", "phone": "+16177204344", "id": "adams-pizza-and-convenience-store-boston", "distance": 2767.669063294, "location": {"display_address": ["120 Blackstone St", "Boston, MA 02109"], "state": "MA", "address2": "", "address1": "120 Blackstone St", "zip_code": "02109", "city": "Boston", "country": "US", "address3": ""}, "url": "https://www.yelp.com/biz/adams-pizza-and-convenience-store-boston?adjust_creative=gBcvfFpabk3CnzmXKdYe3w&utm_campaign=yelp_api_v3&utm_medium=api_v3_business_search&utm_source=gBcvfFpabk3CnzmXKdYe3w", "categories": [{"alias": "pizza", "title": "Pizza"}], "display_phone": "(617) 720-4344", "is_closed": false, "name": "Adam's Pizza & Convenience Store", "price": "$$", "review_count": 11, "coordinates": {"longitude": -71.0566641390324, "latitude": 42.3618690669537}}, {"rating": 2.5, "transactions": [], "image_url": "https://s3-media2.fl.yelpcdn.com/bphoto/ufayNqunfvqMefg-RZXONQ/o.jpg", "phone": "+16175693400", "id": "canton-eatery-boston", "distance": 4299.860844242, "location": {"display_address": ["339 Meridian St", "Boston, MA 02128"], "state": "MA", "address2": "", "address1": "339 Meridian St", "zip_code": "02128", "city": "Boston", "country": "US", "address3": ""}, "url": "https://www.yelp.com/biz/canton-eatery-boston?adjust_creative=gBcvfFpabk3CnzmXKdYe3w&utm_campaign=yelp_api_v3&utm_medium=api_v3_business_search&utm_source=gBcvfFpabk3CnzmXKdYe3w", "categories": [{"alias": "chinese", "title": "Chinese"}], "display_phone": "(617) 569-3400", "is_closed": false, "name": "Canton Eatery", "price": "$$", "review_count": 41, "coordinates": {"longitude": -71.0389862060547, "latitude": 42.3783073425293}}, {"rating": 3.5, "transactions": [], "image_url": "https://s3-media1.fl.yelpcdn.com/bphoto/aL9P-n-ABc9m_i2cQFnauA/o.jpg", "phone": "", "id": "broadside-tavern-boston", "distance": 1855.6808691299998, "location": {"display_address": ["99 Broad St", "Boston, MA 02110"], "state": "MA", "address2": "", "address1": "99 Broad St", "zip_code": "02110", "city": "Boston", "country": "US", "address3": ""}, "url": "https://www.yelp.com/biz/broadside-tavern-boston?adjust_creative=gBcvfFpabk3CnzmXKdYe3w&utm_campaign=yelp_api_v3&utm_medium=api_v3_business_search&utm_source=gBcvfFpabk3CnzmXKdYe3w", "categories": [{"alias": "beerbar", "title": "Beer Bar"}, {"alias": "irish", "title": "Irish"}], "display_phone": "", "is_closed": false, "name": "Broadside Tavern", "price": "$$", "review_count": 16, "coordinates": {"longitude": -71.0526079684496, "latitude": 42.3572672489902}}, {"rating": 4.5, "transactions": [], "image_url": "https://s3-media1.fl.yelpcdn.com/bphoto/ijDZ_PgE9kx-tOuVSG7eIA/o.jpg", "phone": "+16173835229", "id": "envision-hotel-boston-longwood-boston", "distance": 3879.293792316, "location": {"display_address": ["81 South Huntington Ave", "Boston, MA 02130"], "state": "MA", "address2": null, "address1": "81 South Huntington Ave", "zip_code": "02130", "city": "Boston", "country": "US", "address3": ""}, "url": "https://www.yelp.com/biz/envision-hotel-boston-longwood-boston?adjust_creative=gBcvfFpabk3CnzmXKdYe3w&utm_campaign=yelp_api_v3&utm_medium=api_v3_business_search&utm_source=gBcvfFpabk3CnzmXKdYe3w", "categories": [{"alias": "hotels", "title": "Hotels"}], "display_phone": "(617) 383-5229", "is_closed": false, "name": "enVision Hotel Boston-Longwood", "price": "$$", "review_count": 29, "coordinates": {"longitude": -71.111692, "latitude": 42.32987}}, {"rating": 3.0, "transactions": [], "image_url": "https://s3-media4.fl.yelpcdn.com/bphoto/YPVgdNc1we8sAUiituvvUw/o.jpg", "phone": "+16172361100", "id": "hilton-boston-back-bay-boston", "distance": 1180.0834776779998, "location": {"display_address": ["40 Dalton St", "Boston, MA 02115"], "state": "MA", "address2": "", "address1": "40 Dalton St", "zip_code": "02115", "city": "Boston", "country": "US", "address3": ""}, "url": "https://www.yelp.com/biz/hilton-boston-back-bay-boston?adjust_creative=gBcvfFpabk3CnzmXKdYe3w&utm_campaign=yelp_api_v3&utm_medium=api_v3_business_search&utm_source=gBcvfFpabk3CnzmXKdYe3w", "categories": [{"alias": "hotels", "title": "Hotels"}], "display_phone": "(617) 236-1100", "is_closed": false, "name": "Hilton Boston Back Bay", "price": "$$$", "review_count": 167, "coordinates": {"longitude": -71.08528, "latitude": 42.34644}}, {"rating": 3.0, "transactions": [], "image_url": "https://s3-media2.fl.yelpcdn.com/bphoto/FQqycdAkL0jz3sQq2tI5ig/o.jpg", "phone": "+16179567900", "id": "doubletree-by-hilton-hotel-boston-downtown-boston", "distance": 585.3254070349999, "location": {"display_address": ["821 Washington St", "Boston, MA 02111"], "state": "MA", "address2": "", "address1": "821 Washington St", "zip_code": "02111", "city": "Boston", "country": "US", "address3": ""}, "url": "https://www.yelp.com/biz/doubletree-by-hilton-hotel-boston-downtown-boston?adjust_creative=gBcvfFpabk3CnzmXKdYe3w&utm_campaign=yelp_api_v3&utm_medium=api_v3_business_search&utm_source=gBcvfFpabk3CnzmXKdYe3w", "categories": [{"alias": "hotels", "title": "Hotels"}], "display_phone": "(617) 956-7900", "is_closed": false, "name": "DoubleTree by Hilton Hotel Boston-Downtown", "price": "$$", "review_count": 149, "coordinates": {"longitude": -71.0642749180911, "latitude": 42.3489423843679}}, {"rating": 2.5, "transactions": ["delivery", "pickup"], "image_url": "https://s3-media1.fl.yelpcdn.com/bphoto/JSVFvqlRaOc0gPxpNl38rg/o.jpg", "phone": "+16175690300", "id": "chinese-dragon-boston-3", "distance": 4984.9708835, "location": {"display_address": ["380 Chelsea St", "Boston, MA 02128"], "state": "MA", "address2": "", "address1": "380 Chelsea St", "zip_code": "02128", "city": "Boston", "country": "US", "address3": ""}, "url": "https://www.yelp.com/biz/chinese-dragon-boston-3?adjust_creative=gBcvfFpabk3CnzmXKdYe3w&utm_campaign=yelp_api_v3&utm_medium=api_v3_business_search&utm_source=gBcvfFpabk3CnzmXKdYe3w", "categories": [{"alias": "chinese", "title": "Chinese"}], "display_phone": "(617) 569-0300", "is_closed": false, "name": "Chinese Dragon", "price": "$$", "review_count": 49, "coordinates": {"longitude": -71.0280838012695, "latitude": 42.3793716430664}}, {"rating": 4.0, "transactions": [], "image_url": "https://s3-media3.fl.yelpcdn.com/bphoto/Q3Rh5gEJtT8-lJSjuJVyyQ/o.jpg", "phone": "+16172624500", "id": "boston-proper-real-estate-boston-3", "distance": 1028.5440803949998, "location": {"display_address": ["49 Gloucester St", "Boston, MA 02116"], "state": "MA", "address2": "", "address1": "49 Gloucester St", "zip_code": "02116", "city": "Boston", "country": "US", "address3": ""}, "url": "https://www.yelp.com/biz/boston-proper-real-estate-boston-3?adjust_creative=gBcvfFpabk3CnzmXKdYe3w&utm_campaign=yelp_api_v3&utm_medium=api_v3_business_search&utm_source=gBcvfFpabk3CnzmXKdYe3w", "categories": [{"alias": "realestateagents", "title": "Real Estate Agents"}], "display_phone": "(617) 262-4500", "is_closed": false, "name": "Boston Proper Real Estate", "review_count": 12, "coordinates": {"longitude": -71.083698, "latitude": 42.348783}}, {"rating": 5.0, "transactions": [], "image_url": "https://s3-media3.fl.yelpcdn.com/bphoto/j-ZTXvTRzGUPEG0VFmlS5A/o.jpg", "phone": "+16176574529", "id": "the-law-office-of-dakota-d-martin-boston-5", "distance": 1859.75491334, "location": {"display_address": ["35 India St", "Ste 300", "Boston, MA 02110"], "state": "MA", "address2": "Ste 300", "address1": "35 India St", "zip_code": "02110", "city": "Boston", "country": "US", "address3": ""}, "url": "https://www.yelp.com/biz/the-law-office-of-dakota-d-martin-boston-5?adjust_creative=gBcvfFpabk3CnzmXKdYe3w&utm_campaign=yelp_api_v3&utm_medium=api_v3_business_search&utm_source=gBcvfFpabk3CnzmXKdYe3w", "categories": [{"alias": "criminaldefense", "title": "Criminal Defense Law"}, {"alias": "duilawyers", "title": "DUI Law"}], "display_phone": "(617) 657-4529", "is_closed": false, "name": "The Law Office Of Dakota D Martin", "review_count": 12, "coordinates": {"longitude": -71.0533656, "latitude": 42.3581003}}, {"rating": 3.0, "transactions": [], "image_url": "https://s3-media3.fl.yelpcdn.com/bphoto/2R2qqG2154-vg2skVXW7Bw/o.jpg", "phone": "+16173752524", "id": "40-berkeley-boston", "distance": 213.11490219860002, "location": {"display_address": ["40 Berkeley St", "Boston, MA 02116"], "state": "MA", "address2": "", "address1": "40 Berkeley St", "zip_code": "02116", "city": "Boston", "country": "US", "address3": ""}, "url": "https://www.yelp.com/biz/40-berkeley-boston?adjust_creative=gBcvfFpabk3CnzmXKdYe3w&utm_campaign=yelp_api_v3&utm_medium=api_v3_business_search&utm_source=gBcvfFpabk3CnzmXKdYe3w", "categories": [{"alias": "hostels", "title": "Hostels"}], "display_phone": "(617) 375-2524", "is_closed": false, "name": "40 Berkeley", "review_count": 77, "coordinates": {"longitude": -71.0708694458008, "latitude": 42.3459396362305}}, {"rating": 3.0, "transactions": [], "image_url": "https://s3-media3.fl.yelpcdn.com/bphoto/eLH3HTmBMUFDn3myQSLFZw/o.jpg", "phone": "+16175560006", "id": "hilton-boston-downtown-faneuil-hall-boston", "distance": 1830.961245796, "location": {"display_address": ["89 Broad St", "Boston, MA 02110"], "state": "MA", "address2": "", "address1": "89 Broad St", "zip_code": "02110", "city": "Boston", "country": "US", "address3": ""}, "url": "https://www.yelp.com/biz/hilton-boston-downtown-faneuil-hall-boston?adjust_creative=gBcvfFpabk3CnzmXKdYe3w&utm_campaign=yelp_api_v3&utm_medium=api_v3_business_search&utm_source=gBcvfFpabk3CnzmXKdYe3w", "categories": [{"alias": "hotels", "title": "Hotels"}], "display_phone": "(617) 556-0006", "is_closed": false, "name": "Hilton Boston Downtown/Faneuil Hall", "price": "$$$", "review_count": 168, "coordinates": {"longitude": -71.0531222820282, "latitude": 42.3574260597396}}, {"rating": 5.0, "transactions": [], "image_url": "https://s3-media2.fl.yelpcdn.com/bphoto/XRi7d_OyvD_vi18VH4FmcA/o.jpg", "phone": "+16179218292", "id": "mike-betts-boston", "distance": 1768.5005073199998, "location": {"display_address": ["Boston, MA 02115"], "state": "MA", "address2": null, "address1": "", "zip_code": "02115", "city": "Boston", "country": "US", "address3": ""}, "url": "https://www.yelp.com/biz/mike-betts-boston?adjust_creative=gBcvfFpabk3CnzmXKdYe3w&utm_campaign=yelp_api_v3&utm_medium=api_v3_business_search&utm_source=gBcvfFpabk3CnzmXKdYe3w", "categories": [{"alias": "personalchefs", "title": "Personal Chefs"}, {"alias": "catering", "title": "Caterers"}, {"alias": "cookingclasses", "title": "Cooking Classes"}], "display_phone": "(617) 921-8292", "is_closed": false, "name": "Mike Betts", "review_count": 6, "coordinates": {"longitude": -71.08843, "latitude": 42.34165}}, {"rating": 3.5, "transactions": [], "image_url": "", "phone": "+16172489900", "id": "parris-boston", "distance": 2408.2043059499997, "location": {"display_address": ["1 Faneuil Hall Market Pl", "Boston, MA 02110"], "state": "MA", "address2": "", "address1": "1 Faneuil Hall Market Pl", "zip_code": "02110", "city": "Boston", "country": "US", "address3": ""}, "url": "https://www.yelp.com/biz/parris-boston?adjust_creative=gBcvfFpabk3CnzmXKdYe3w&utm_campaign=yelp_api_v3&utm_medium=api_v3_business_search&utm_source=gBcvfFpabk3CnzmXKdYe3w", "categories": [{"alias": "venues", "title": "Venues & Event Spaces"}, {"alias": "musicvenues", "title": "Music Venues"}, {"alias": "lounges", "title": "Lounges"}], "display_phone": "(617) 248-9900", "is_closed": false, "name": "Parris", "review_count": 6, "coordinates": {"longitude": -71.0556019842625, "latitude": 42.3600096255541}}, {"rating": 4.5, "transactions": [], "image_url": "https://s3-media2.fl.yelpcdn.com/bphoto/FSzhE8R-_lH1cS8V0gT6Kw/o.jpg", "phone": "+18574136529", "id": "yuppie-puppy-of-boston-llc-boston", "distance": 3829.8514879019995, "location": {"display_address": ["Boston, MA 02129"], "state": "MA", "address2": "", "address1": "", "zip_code": "02129", "city": "Boston", "country": "US", "address3": ""}, "url": "https://www.yelp.com/biz/yuppie-puppy-of-boston-llc-boston?adjust_creative=gBcvfFpabk3CnzmXKdYe3w&utm_campaign=yelp_api_v3&utm_medium=api_v3_business_search&utm_source=gBcvfFpabk3CnzmXKdYe3w", "categories": [{"alias": "dogwalkers", "title": "Dog Walkers"}, {"alias": "pet_sitting", "title": "Pet Boarding/Pet Sitting"}], "display_phone": "(857) 413-6529", "is_closed": false, "name": "Yuppie Puppy Of Boston, LLC", "review_count": 12, "coordinates": {"longitude": -71.0640563964844, "latitude": 42.3818740844727}}, {"rating": 3.0, "transactions": [], "image_url": "https://s3-media4.fl.yelpcdn.com/bphoto/C1bZdU9T5xiQQf5JjK_jOQ/o.jpg", "phone": "+16174230785", "id": "limelight-stage-studios-boston-2", "distance": 726.8178556319999, "location": {"display_address": ["204 Tremont St", "Boston, MA 02116"], "state": "MA", "address2": null, "address1": "204 Tremont St", "zip_code": "02116", "city": "Boston", "country": "US", "address3": ""}, "url": "https://www.yelp.com/biz/limelight-stage-studios-boston-2?adjust_creative=gBcvfFpabk3CnzmXKdYe3w&utm_campaign=yelp_api_v3&utm_medium=api_v3_business_search&utm_source=gBcvfFpabk3CnzmXKdYe3w", "categories": [{"alias": "karaoke", "title": "Karaoke"}, {"alias": "eventplanning", "title": "Party & Event Planning"}], "display_phone": "(617) 423-0785", "is_closed": false, "name": "Limelight Stage + Studios", "price": "$$", "review_count": 181, "coordinates": {"longitude": -71.0644841194153, "latitude": 42.3520584799329}}, {"rating": 5.0, "transactions": [], "image_url": "https://s3-media4.fl.yelpcdn.com/bphoto/O0jXD1FD8vQKaAaXvgxcoQ/o.jpg", "phone": "+16173575355", "id": "all-drain-services-boston", "distance": 2619.020282052, "location": {"display_address": ["Boston, MA 02108"], "state": "MA", "address2": "", "address1": "", "zip_code": "02108", "city": "Boston", "country": "US", "address3": ""}, "url": "https://www.yelp.com/biz/all-drain-services-boston?adjust_creative=gBcvfFpabk3CnzmXKdYe3w&utm_campaign=yelp_api_v3&utm_medium=api_v3_business_search&utm_source=gBcvfFpabk3CnzmXKdYe3w", "categories": [{"alias": "plumbing", "title": "Plumbing"}, {"alias": "contractors", "title": "Contractors"}], "display_phone": "(617) 357-5355", "is_closed": false, "name": "All Drain Services", "review_count": 5, "coordinates": {"longitude": -71.0661193, "latitude": 42.3710914964916}}, {"rating": 3.5, "transactions": [], "image_url": "https://s3-media4.fl.yelpcdn.com/bphoto/lGjLZAMjo_RMlehzWh2sJg/o.jpg", "phone": "+16175686700", "id": "hilton-boston-logan-airport-boston", "distance": 4491.984336244, "location": {"display_address": ["1 Hotel Dr", "Boston, MA 02128"], "state": "MA", "address2": "", "address1": "1 Hotel Dr", "zip_code": "02128", "city": "Boston", "country": "US", "address3": ""}, "url": "https://www.yelp.com/biz/hilton-boston-logan-airport-boston?adjust_creative=gBcvfFpabk3CnzmXKdYe3w&utm_campaign=yelp_api_v3&utm_medium=api_v3_business_search&utm_source=gBcvfFpabk3CnzmXKdYe3w", "categories": [{"alias": "hotels", "title": "Hotels"}], "display_phone": "(617) 568-6700", "is_closed": false, "name": "Hilton Boston Logan Airport", "price": "$$$", "review_count": 175, "coordinates": {"longitude": -71.023418, "latitude": 42.367407}}, {"rating": 3.0, "transactions": [], "image_url": "https://s3-media4.fl.yelpcdn.com/bphoto/srMRKXemhUV03fyRnwcTcA/o.jpg", "phone": "+16176677000", "id": "beth-israel-deaconess-medical-center-boston-9", "distance": 2921.721042652, "location": {"display_address": ["330 Brookline Ave", "Boston, MA 02215"], "state": "MA", "address2": "", "address1": "330 Brookline Ave", "zip_code": "02215", "city": "Boston", "country": "US", "address3": ""}, "url": "https://www.yelp.com/biz/beth-israel-deaconess-medical-center-boston-9?adjust_creative=gBcvfFpabk3CnzmXKdYe3w&utm_campaign=yelp_api_v3&utm_medium=api_v3_business_search&utm_source=gBcvfFpabk3CnzmXKdYe3w", "categories": [{"alias": "medcenters", "title": "Medical Centers"}], "display_phone": "(617) 667-7000", "is_closed": false, "name": "Beth Israel Deaconess Medical Center", "review_count": 118, "coordinates": {"longitude": -71.105063, "latitude": 42.339749}}, {"rating": 5.0, "transactions": [], "image_url": "https://s3-media1.fl.yelpcdn.com/bphoto/hEOEvd4SLCoevgh9123MoQ/o.jpg", "phone": "+15613176668", "id": "night-rider-charters-boston", "distance": 2769.962533728, "location": {"display_address": ["28 Constitution Rd", "Boston, MA 02129"], "state": "MA", "address2": null, "address1": "28 Constitution Rd", "zip_code": "02129", "city": "Boston", "country": "US", "address3": ""}, "url": "https://www.yelp.com/biz/night-rider-charters-boston?adjust_creative=gBcvfFpabk3CnzmXKdYe3w&utm_campaign=yelp_api_v3&utm_medium=api_v3_business_search&utm_source=gBcvfFpabk3CnzmXKdYe3w", "categories": [{"alias": "eventplanning", "title": "Party & Event Planning"}, {"alias": "boatcharters", "title": "Boat Charters"}, {"alias": "venues", "title": "Venues & Event Spaces"}], "display_phone": "(561) 317-6668", "is_closed": false, "name": "Night Rider Charters", "review_count": 7, "coordinates": {"longitude": -71.0596239566803, "latitude": 42.3719481378794}}, {"rating": 5.0, "transactions": [], "image_url": "", "phone": "+16175672400", "id": "central-livery-boston-2", "distance": 4004.6736093, "location": {"display_address": ["11 Porter St", "Boston, MA 02128"], "state": "MA", "address2": "", "address1": "11 Porter St", "zip_code": "02128", "city": "Boston", "country": "US", "address3": ""}, "url": "https://www.yelp.com/biz/central-livery-boston-2?adjust_creative=gBcvfFpabk3CnzmXKdYe3w&utm_campaign=yelp_api_v3&utm_medium=api_v3_business_search&utm_source=gBcvfFpabk3CnzmXKdYe3w", "categories": [{"alias": "taxis", "title": "Taxis"}], "display_phone": "(617) 567-2400", "is_closed": false, "name": "Central Livery", "review_count": 6, "coordinates": {"longitude": -71.0386207, "latitude": 42.374689}}, {"rating": 2.0, "transactions": [], "image_url": "https://s3-media3.fl.yelpcdn.com/bphoto/ev7j73-PUlHx-GqXkoUUvA/o.jpg", "phone": "+16174249000", "id": "dominos-pizza-boston", "distance": 2060.317784302, "location": {"display_address": ["1260 Boylston St", "Boston, MA 02215"], "state": "MA", "address2": "", "address1": "1260 Boylston St", "zip_code": "02215", "city": "Boston", "country": "US", "address3": ""}, "url": "https://www.yelp.com/biz/dominos-pizza-boston?adjust_creative=gBcvfFpabk3CnzmXKdYe3w&utm_campaign=yelp_api_v3&utm_medium=api_v3_business_search&utm_source=gBcvfFpabk3CnzmXKdYe3w", "categories": [{"alias": "pizza", "title": "Pizza"}, {"alias": "chicken_wings", "title": "Chicken Wings"}, {"alias": "sandwiches", "title": "Sandwiches"}], "display_phone": "(617) 424-9000", "is_closed": false, "name": "Domino's Pizza", "price": "$$", "review_count": 66, "coordinates": {"longitude": -71.0960707, "latitude": 42.3448717}}, {"rating": 4.0, "transactions": [], "image_url": "https://s3-media2.fl.yelpcdn.com/bphoto/9IZ9xIT0ll3_rE0QCGuegg/o.jpg", "phone": "+18776517716", "id": "3-day-blinds-shop-at-home-services-boston", "distance": 1556.1041593379998, "location": {"display_address": ["Boston, MA 02324"], "state": "MA", "address2": "", "address1": "", "zip_code": "02324", "city": "Boston", "country": "US", "address3": ""}, "url": "https://www.yelp.com/biz/3-day-blinds-shop-at-home-services-boston?adjust_creative=gBcvfFpabk3CnzmXKdYe3w&utm_campaign=yelp_api_v3&utm_medium=api_v3_business_search&utm_source=gBcvfFpabk3CnzmXKdYe3w", "categories": [{"alias": "blinds", "title": "Shades & Blinds"}, {"alias": "interiordesign", "title": "Interior Design"}, {"alias": "shutters", "title": "Shutters"}], "display_phone": "(877) 651-7716", "is_closed": false, "name": "3 Day Blinds Shop-At-Home Services", "review_count": 32, "coordinates": {"longitude": -71.0678186125, "latitude": 42.3340803750324}}, {"rating": 3.0, "transactions": [], "image_url": "https://s3-media4.fl.yelpcdn.com/bphoto/WlDZvKo2yMaSNifaPV9g7A/o.jpg", "phone": "+16179891000", "id": "best-western-plus-boston-hotel-boston", "distance": 1790.928108626, "location": {"display_address": ["891 Massachusetts Ave", "Boston, MA 02118"], "state": "MA", "address2": "", "address1": "891 Massachusetts Ave", "zip_code": "02118", "city": "Boston", "country": "US", "address3": ""}, "url": "https://www.yelp.com/biz/best-western-plus-boston-hotel-boston?adjust_creative=gBcvfFpabk3CnzmXKdYe3w&utm_campaign=yelp_api_v3&utm_medium=api_v3_business_search&utm_source=gBcvfFpabk3CnzmXKdYe3w", "categories": [{"alias": "hotels", "title": "Hotels"}], "display_phone": "(617) 989-1000", "is_closed": false, "name": "Best Western Plus Boston Hotel", "price": "$$", "review_count": 56, "coordinates": {"longitude": -71.0708007216454, "latitude": 42.3314025253057}}, {"rating": 3.0, "transactions": [], "image_url": "https://s3-media3.fl.yelpcdn.com/bphoto/CJowkEhEsNckO8Sc7S74Jg/o.jpg", "phone": "+18776326654", "id": "insomnia-cookies-boston", "distance": 2814.1065689939996, "location": {"display_address": ["708 Commonwealth Ave", "Boston, MA 02215"], "state": "MA", "address2": "", "address1": "708 Commonwealth Ave", "zip_code": "02215", "city": "Boston", "country": "US", "address3": ""}, "url": "https://www.yelp.com/biz/insomnia-cookies-boston?adjust_creative=gBcvfFpabk3CnzmXKdYe3w&utm_campaign=yelp_api_v3&utm_medium=api_v3_business_search&utm_source=gBcvfFpabk3CnzmXKdYe3w", "categories": [{"alias": "desserts", "title": "Desserts"}, {"alias": "bakeries", "title": "Bakeries"}], "display_phone": "(877) 632-6654", "is_closed": false, "name": "Insomnia Cookies", "price": "$", "review_count": 69, "coordinates": {"longitude": -71.105418, "latitude": 42.349475}}, {"rating": 5.0, "transactions": [], "image_url": "https://s3-media4.fl.yelpcdn.com/bphoto/6ZRDG5KRDDI_WCXg_s0Wcw/o.jpg", "phone": "+16172863170", "id": "fisher-and-paykel-boston", "distance": 856.362322668, "location": {"display_address": ["560 Harrison Ave", "Boston, MA 02118"], "state": "MA", "address2": null, "address1": "560 Harrison Ave", "zip_code": "02118", "city": "Boston", "country": "US", "address3": ""}, "url": "https://www.yelp.com/biz/fisher-and-paykel-boston?adjust_creative=gBcvfFpabk3CnzmXKdYe3w&utm_campaign=yelp_api_v3&utm_medium=api_v3_business_search&utm_source=gBcvfFpabk3CnzmXKdYe3w", "categories": [{"alias": "homeappliancerepair", "title": "Appliances & Repair"}], "display_phone": "(617) 286-3170", "is_closed": false, "name": "Fisher&Paykel", "review_count": 6, "coordinates": {"longitude": -71.0675378143787, "latitude": 42.3408975452185}}, {"rating": 3.0, "transactions": [], "image_url": "https://s3-media3.fl.yelpcdn.com/bphoto/nVuoiBKmp4PqFfVTcS5tMg/o.jpg", "phone": "+16172621000", "id": "midtown-hotel-boston", "distance": 1154.6370763999998, "location": {"display_address": ["220 Huntington Ave", "Boston, MA 02115"], "state": "MA", "address2": "", "address1": "220 Huntington Ave", "zip_code": "02115", "city": "Boston", "country": "US", "address3": ""}, "url": "https://www.yelp.com/biz/midtown-hotel-boston?adjust_creative=gBcvfFpabk3CnzmXKdYe3w&utm_campaign=yelp_api_v3&utm_medium=api_v3_business_search&utm_source=gBcvfFpabk3CnzmXKdYe3w", "categories": [{"alias": "hotels", "title": "Hotels"}], "display_phone": "(617) 262-1000", "is_closed": false, "name": "Midtown Hotel", "price": "$$", "review_count": 68, "coordinates": {"longitude": -71.083934828639, "latitude": 42.3433960229158}}, {"rating": 4.0, "transactions": [], "image_url": "https://s3-media1.fl.yelpcdn.com/bphoto/6GY74REtyEnyoDzNvN-ptA/o.jpg", "phone": "+18773450292", "id": "boston-suburban-coach-boston-6", "distance": 1083.8219964896, "location": {"display_address": ["11 East Newton St", "Boston, MA 02118"], "state": "MA", "address2": "", "address1": "11 East Newton St", "zip_code": "02118", "city": "Boston", "country": "US", "address3": ""}, "url": "https://www.yelp.com/biz/boston-suburban-coach-boston-6?adjust_creative=gBcvfFpabk3CnzmXKdYe3w&utm_campaign=yelp_api_v3&utm_medium=api_v3_business_search&utm_source=gBcvfFpabk3CnzmXKdYe3w", "categories": [{"alias": "limos", "title": "Limos"}, {"alias": "airport_shuttles", "title": "Airport Shuttles"}, {"alias": "towncarservice", "title": "Town Car Service"}], "display_phone": "(877) 345-0292", "is_closed": false, "name": "Boston Suburban Coach", "review_count": 12, "coordinates": {"longitude": -71.0732958, "latitude": 42.3382137}}, {"rating": 3.5, "transactions": [], "image_url": "https://s3-media2.fl.yelpcdn.com/bphoto/dYTALP5zelTJ4IJKao3JvA/o.jpg", "phone": "+16172626644", "id": "g-and-v-symphony-mart-boston", "distance": 1467.0687756836, "location": {"display_address": ["1130 Boylston St", "Boston, MA 02215"], "state": "MA", "address2": "", "address1": "1130 Boylston St", "zip_code": "02215", "city": "Boston", "country": "US", "address3": ""}, "url": "https://www.yelp.com/biz/g-and-v-symphony-mart-boston?adjust_creative=gBcvfFpabk3CnzmXKdYe3w&utm_campaign=yelp_api_v3&utm_medium=api_v3_business_search&utm_source=gBcvfFpabk3CnzmXKdYe3w", "categories": [{"alias": "grocery", "title": "Grocery"}], "display_phone": "(617) 262-6644", "is_closed": false, "name": "G&V Symphony Mart", "price": "$$", "review_count": 14, "coordinates": {"longitude": -71.0890324168727, "latitude": 42.346763062926}}, {"rating": 3.0, "transactions": [], "image_url": "https://s3-media4.fl.yelpcdn.com/bphoto/MJyS4tt4Kz384LEPChH7UA/o.jpg", "phone": "+16174262000", "id": "boston-park-plaza-boston-3", "distance": 335.5099567516, "location": {"display_address": ["50 Park Plz", "Boston, MA 02116"], "state": "MA", "address2": "", "address1": "50 Park Plz", "zip_code": "02116", "city": "Boston", "country": "US", "address3": null}, "url": "https://www.yelp.com/biz/boston-park-plaza-boston-3?adjust_creative=gBcvfFpabk3CnzmXKdYe3w&utm_campaign=yelp_api_v3&utm_medium=api_v3_business_search&utm_source=gBcvfFpabk3CnzmXKdYe3w", "categories": [{"alias": "hotels", "title": "Hotels"}, {"alias": "venues", "title": "Venues & Event Spaces"}], "display_phone": "(617) 426-2000", "is_closed": false, "name": "Boston Park Plaza", "price": "$$$", "review_count": 78, "coordinates": {"longitude": -71.06923, "latitude": 42.3513905}}, {"rating": 5.0, "transactions": [], "image_url": "https://s3-media4.fl.yelpcdn.com/bphoto/mhDScQYzhXfRyCrCR_Lb4w/o.jpg", "phone": "+16177214968", "id": "skyplus-limousines-boston", "distance": 304.1457387058, "location": {"display_address": ["75 Arlington St", "Ste 500", "Boston, MA 02116"], "state": "MA", "address2": "Ste 500", "address1": "75 Arlington St", "zip_code": "02116", "city": "Boston", "country": "US", "address3": ""}, "url": "https://www.yelp.com/biz/skyplus-limousines-boston?adjust_creative=gBcvfFpabk3CnzmXKdYe3w&utm_campaign=yelp_api_v3&utm_medium=api_v3_business_search&utm_source=gBcvfFpabk3CnzmXKdYe3w", "categories": [{"alias": "limos", "title": "Limos"}], "display_phone": "(617) 721-4968", "is_closed": false, "name": "Skyplus Limousines", "review_count": 7, "coordinates": {"longitude": -71.070464, "latitude": 42.350516}}, {"rating": 5.0, "transactions": [], "image_url": "https://s3-media4.fl.yelpcdn.com/bphoto/tsNtZj5g0JNxDBFktr6rLw/o.jpg", "phone": "+16176452424", "id": "personal-mba-coach-boston", "distance": 346.7037050282, "location": {"display_address": ["31 St James Ave", "Fl 6", "Boston, MA 02116"], "state": "MA", "address2": "Fl 6", "address1": "31 St James Ave", "zip_code": "02116", "city": "Boston", "country": "US", "address3": ""}, "url": "https://www.yelp.com/biz/personal-mba-coach-boston?adjust_creative=gBcvfFpabk3CnzmXKdYe3w&utm_campaign=yelp_api_v3&utm_medium=api_v3_business_search&utm_source=gBcvfFpabk3CnzmXKdYe3w", "categories": [{"alias": "editorialservices", "title": "Editorial Services"}, {"alias": "privatetutors", "title": "Private Tutors"}, {"alias": "testprep", "title": "Test Preparation"}], "display_phone": "(617) 645-2424", "is_closed": false, "name": "Personal MBA Coach", "review_count": 7, "coordinates": {"longitude": -71.0715658, "latitude": 42.3509525}}, {"rating": 5.0, "transactions": [], "image_url": "https://s3-media1.fl.yelpcdn.com/bphoto/W60xVoTfzIjyiphlhuJExw/o.jpg", "phone": "+16172068088", "id": "beantown-towing-boston-3", "distance": 6691.841715519999, "location": {"display_address": ["15 Norwood St", "Boston, MA 02122"], "state": "MA", "address2": null, "address1": "15 Norwood St", "zip_code": "02122", "city": "Boston", "country": "US", "address3": ""}, "url": "https://www.yelp.com/biz/beantown-towing-boston-3?adjust_creative=gBcvfFpabk3CnzmXKdYe3w&utm_campaign=yelp_api_v3&utm_medium=api_v3_business_search&utm_source=gBcvfFpabk3CnzmXKdYe3w", "categories": [{"alias": "roadsideassist", "title": "Roadside Assistance"}], "display_phone": "(617) 206-8088", "is_closed": false, "name": "Beantown Towing", "review_count": 17, "coordinates": {"longitude": -71.0450944514101, "latitude": 42.2908514597845}}, {"rating": 5.0, "transactions": [], "image_url": "https://s3-media3.fl.yelpcdn.com/bphoto/uhnrkRHmnSaODVTcmdXe6Q/o.jpg", "phone": "+17813671598", "id": "randy-horn-boston", "distance": 540.085330762, "location": {"display_address": ["575 Boylston St", "Bushari Real Estate", "Boston, MA 02116"], "state": "MA", "address2": "", "address1": "575 Boylston St", "zip_code": "02116", "city": "Boston", "country": "US", "address3": "Bushari Real Estate"}, "url": "https://www.yelp.com/biz/randy-horn-boston?adjust_creative=gBcvfFpabk3CnzmXKdYe3w&utm_campaign=yelp_api_v3&utm_medium=api_v3_business_search&utm_source=gBcvfFpabk3CnzmXKdYe3w", "categories": [{"alias": "realestateagents", "title": "Real Estate Agents"}], "display_phone": "(781) 367-1598", "is_closed": false, "name": "Randy Horn", "review_count": 4, "coordinates": {"longitude": -71.07655, "latitude": 42.35058}}, {"rating": 3.0, "transactions": [], "image_url": "https://s3-media3.fl.yelpcdn.com/bphoto/aqdEg-TRp0So5tvzPH23zQ/o.jpg", "phone": "+16177205544", "id": "holiday-inn-express-hotel-and-suites-boston-garden-boston-2", "distance": 2046.3751062779997, "location": {"display_address": ["280 Friend Street", "Boston, MA 02114"], "state": "MA", "address2": "", "address1": "280 Friend Street", "zip_code": "02114", "city": "Boston", "country": "US", "address3": ""}, "url": "https://www.yelp.com/biz/holiday-inn-express-hotel-and-suites-boston-garden-boston-2?adjust_creative=gBcvfFpabk3CnzmXKdYe3w&utm_campaign=yelp_api_v3&utm_medium=api_v3_business_search&utm_source=gBcvfFpabk3CnzmXKdYe3w", "categories": [{"alias": "hotels", "title": "Hotels"}], "display_phone": "(617) 720-5544", "is_closed": false, "name": "Holiday Inn Express Hotel & Suites Boston Garden", "price": "$$", "review_count": 45, "coordinates": {"longitude": -71.0615801, "latitude": 42.3647885}}], "total": 1239}