{"region": {"center": {"longitude": -71.07124328613281, "latitude": 42.34784169448538}}, "businesses": [{"rating": 5.0, "transactions": [], "image_url": "https://s3-media4.fl.yelpcdn.com/bphoto/tzkE0TqouaaHUZJbLWIBGQ/o.jpg", "phone": "+17816962311", "id": "lighthouse-security-consulting-medford", "distance": 10011.5592994, "location": {"display_address": ["39 Greenhalge St", "Medford, MA 02155"], "state": "MA", "address2": "", "address1": "39 Greenhalge St", "zip_code": "02155", "city": "Medford", "country": "US", "address3": ""}, "url": "https://www.yelp.com/biz/lighthouse-security-consulting-medford?adjust_creative=gBcvfFpabk3CnzmXKdYe3w&utm_campaign=yelp_api_v3&utm_medium=api_v3_business_search&utm_source=gBcvfFpabk3CnzmXKdYe3w", "categories": [{"alias": "privateinvestigation", "title": "Private Investigation"}], "display_phone": "(781) 696-2311", "is_closed": false, "name": "Lighthouse Security Consulting", "review_count": 1, "coordinates": {"longitude": -71.0991821, "latitude": 42.4356804}}, {"rating": 4.5, "transactions": [], "image_url": "https://s3-media4.fl.yelpcdn.com/bphoto/MLSBFNOr1PDDVip6fNtnDA/o.jpg", "phone": "+18009059025", "id": "boston-carriage-westwood", "distance": 16499.06150578, "location": {"display_address": ["91 Providence Hwy", "Ste 1H", "Westwood, MA 02090"], "state": "MA", "address2": "Ste 1H", "address1": "91 Providence Hwy", "zip_code": "02090", "city": "Westwood", "country": "US", "address3": null}, "url": "https://www.yelp.com/biz/boston-carriage-westwood?adjust_creative=gBcvfFpabk3CnzmXKdYe3w&utm_campaign=yelp_api_v3&utm_medium=api_v3_business_search&utm_source=gBcvfFpabk3CnzmXKdYe3w", "categories": [{"alias": "limos", "title": "Limos"}, {"alias": "airport_shuttles", "title": "Airport Shuttles"}], "display_phone": "(800) 905-9025", "is_closed": false, "name": "Boston Carriage", "review_count": 10, "coordinates": {"longitude": -71.182183, "latitude": 42.224227}}, {"rating": 1.0, "transactions": [], "image_url": "https://s3-media2.fl.yelpcdn.com/bphoto/_GkNhnF1Yq_m1gUS8En-cw/o.jpg", "phone": "+16174724111", "id": "marina-bay-taxi-quincy", "distance": 10374.21119368, "location": {"display_address": ["Quincy, MA 02169"], "state": "MA", "address2": "", "address1": "", "zip_code": "02169", "city": "Quincy", "country": "US", "address3": ""}, "url": "https://www.yelp.com/biz/marina-bay-taxi-quincy?adjust_creative=gBcvfFpabk3CnzmXKdYe3w&utm_campaign=yelp_api_v3&utm_medium=api_v3_business_search&utm_source=gBcvfFpabk3CnzmXKdYe3w", "categories": [{"alias": "taxis", "title": "Taxis"}], "display_phone": "(617) 472-4111", "is_closed": false, "name": "Marina Bay Taxi", "review_count": 5, "coordinates": {"longitude": -71.0111463, "latitude": 42.265811}}, {"rating": 3.0, "transactions": [], "image_url": "https://s3-media2.fl.yelpcdn.com/bphoto/fzGh-WTO0Rt6RImwM8hUpA/o.jpg", "phone": "+16176201375", "id": "rick-flynn-centre-realty-group-west-roxbury", "distance": 10252.212439101999, "location": {"display_address": ["2012 Centre St", "West Roxbury, MA 02132"], "state": "MA", "address2": null, "address1": "2012 Centre St", "zip_code": "02132", "city": "West Roxbury", "country": "US", "address3": ""}, "url": "https://www.yelp.com/biz/rick-flynn-centre-realty-group-west-roxbury?adjust_creative=gBcvfFpabk3CnzmXKdYe3w&utm_campaign=yelp_api_v3&utm_medium=api_v3_business_search&utm_source=gBcvfFpabk3CnzmXKdYe3w", "categories": [{"alias": "realestateagents", "title": "Real Estate Agents"}], "display_phone": "(617) 620-1375", "is_closed": false, "name": "Rick Flynn - Centre Realty Group", "review_count": 2, "coordinates": {"longitude": -71.15771484375, "latitude": 42.2814178466797}}, {"rating": 5.0, "transactions": [], "image_url": "https://s3-media2.fl.yelpcdn.com/bphoto/g8IimZRYwL5o-aQ1dFYpTQ/o.jpg", "phone": "+16176100716", "id": "mike-hughes-hughes-residential-waltham", "distance": 14954.69699894, "location": {"display_address": ["395 Totten Pond Rd", "Waltham, MA 02451"], "state": "MA", "address2": "", "address1": "395 Totten Pond Rd", "zip_code": "02451", "city": "Waltham", "country": "US", "address3": null}, "url": "https://www.yelp.com/biz/mike-hughes-hughes-residential-waltham?adjust_creative=gBcvfFpabk3CnzmXKdYe3w&utm_campaign=yelp_api_v3&utm_medium=api_v3_business_search&utm_source=gBcvfFpabk3CnzmXKdYe3w", "categories": [{"alias": "realestateagents", "title": "Real Estate Agents"}], "display_phone": "(617) 610-0716", "is_closed": false, "name": "Mike Hughes- Hughes Residential", "review_count": 2, "coordinates": {"longitude": -71.252781, "latitude": 42.3387224}}, {"rating": 2.0, "transactions": [], "image_url": "https://s3-media2.fl.yelpcdn.com/bphoto/llzW1xFpUk7xTtDYcJJHRA/o.jpg", "phone": "+17816480388", "id": "lyons-fuel-arlington", "distance": 11278.80511428, "location": {"display_address": ["6 Dudley Street Pl", "Arlington, MA 02476"], "state": "MA", "address2": "", "address1": "6 Dudley Street Pl", "zip_code": "02476", "city": "Arlington", "country": "US", "address3": ""}, "url": "https://www.yelp.com/biz/lyons-fuel-arlington?adjust_creative=gBcvfFpabk3CnzmXKdYe3w&utm_campaign=yelp_api_v3&utm_medium=api_v3_business_search&utm_source=gBcvfFpabk3CnzmXKdYe3w", "categories": [{"alias": "hvac", "title": "Heating & Air Conditioning/HVAC"}], "display_phone": "(781) 648-0388", "is_closed": false, "name": "Lyons Fuel", "review_count": 13, "coordinates": {"longitude": -71.16689, "latitude": 42.42064}}, {"rating": 5.0, "transactions": [], "image_url": "https://s3-media1.fl.yelpcdn.com/bphoto/edvZfGQzp9J7s503orT44A/o.jpg", "phone": "+16173191667", "id": "soriano-environmental-waltham-3", "distance": 13377.677374159999, "location": {"display_address": ["30A Amory Rd", "Ste 4", "Waltham, MA 02453"], "state": "MA", "address2": "Ste 4", "address1": "30A Amory Rd", "zip_code": "02453", "city": "Waltham", "country": "US", "address3": ""}, "url": "https://www.yelp.com/biz/soriano-environmental-waltham-3?adjust_creative=gBcvfFpabk3CnzmXKdYe3w&utm_campaign=yelp_api_v3&utm_medium=api_v3_business_search&utm_source=gBcvfFpabk3CnzmXKdYe3w", "categories": [{"alias": "damagerestoration", "title": "Damage Restoration"}, {"alias": "environmentaltesting", "title": "Environmental Testing"}], "display_phone": "(617) 319-1667", "is_closed": false, "name": "Soriano Environmental", "review_count": 2, "coordinates": {"longitude": -71.2302398681641, "latitude": 42.3748664855957}}, {"rating": 5.0, "transactions": [], "image_url": "https://s3-media3.fl.yelpcdn.com/bphoto/Vd2XU6VGmCov47JKnVkuuA/o.jpg", "phone": "+16174385393", "id": "lucys-cleaning-service-revere-2", "distance": 10328.795136078, "location": {"display_address": ["Revere, MA 02151"], "state": "MA", "address2": "", "address1": "", "zip_code": "02151", "city": "Revere", "country": "US", "address3": ""}, "url": "https://www.yelp.com/biz/lucys-cleaning-service-revere-2?adjust_creative=gBcvfFpabk3CnzmXKdYe3w&utm_campaign=yelp_api_v3&utm_medium=api_v3_business_search&utm_source=gBcvfFpabk3CnzmXKdYe3w", "categories": [{"alias": "homecleaning", "title": "Home Cleaning"}], "display_phone": "(617) 438-5393", "is_closed": false, "name": "Lucys Cleaning Service", "review_count": 2, "coordinates": {"longitude": -71.0039749145508, "latitude": 42.4191055297852}}, {"rating": 2.5, "transactions": [], "image_url": "https://s3-media4.fl.yelpcdn.com/bphoto/6ggddawCTPU-9zp6aSvzRQ/o.jpg", "phone": "+16173327700", "id": "newton-yellow-cab-inc-newton", "distance": 12396.704659961999, "location": {"display_address": ["Newton, MA 02465"], "state": "MA", "address2": "", "address1": null, "zip_code": "02465", "city": "Newton", "country": "US", "address3": ""}, "url": "https://www.yelp.com/biz/newton-yellow-cab-inc-newton?adjust_creative=gBcvfFpabk3CnzmXKdYe3w&utm_campaign=yelp_api_v3&utm_medium=api_v3_business_search&utm_source=gBcvfFpabk3CnzmXKdYe3w", "categories": [{"alias": "taxis", "title": "Taxis"}, {"alias": "airport_shuttles", "title": "Airport Shuttles"}, {"alias": "limos", "title": "Limos"}], "display_phone": "(617) 332-7700", "is_closed": false, "name": "Newton Yellow Cab Inc", "review_count": 12, "coordinates": {"longitude": -71.22662, "latitude": 42.34935}}, {"rating": 4.5, "transactions": [], "image_url": "https://s3-media3.fl.yelpcdn.com/bphoto/OF0zuf8_7UA1rpiKFvMpZA/o.jpg", "phone": "+17819136340", "id": "muscle-moving-and-storage-salem-4", "distance": 18564.44340026, "location": {"display_address": ["14 Heritage Dr", "Salem, MA 01970"], "state": "MA", "address2": null, "address1": "14 Heritage Dr", "zip_code": "01970", "city": "Salem", "country": "US", "address3": null}, "url": "https://www.yelp.com/biz/muscle-moving-and-storage-salem-4?adjust_creative=gBcvfFpabk3CnzmXKdYe3w&utm_campaign=yelp_api_v3&utm_medium=api_v3_business_search&utm_source=gBcvfFpabk3CnzmXKdYe3w", "categories": [{"alias": "movers", "title": "Movers"}], "display_phone": "(781) 913-6340", "is_closed": false, "name": "Muscle Moving & Storage", "review_count": 20, "coordinates": {"longitude": -70.9412111341953, "latitude": 42.4844355564815}}, {"rating": 2.5, "transactions": [], "image_url": "https://s3-media3.fl.yelpcdn.com/bphoto/7ioz5IqcEkBjW3qYhCMyDw/o.jpg", "phone": "+16174895332", "id": "d-muzzioli-associates-belmont", "distance": 12445.0745002, "location": {"display_address": ["22 Hough Rd", "Belmont, MA 02478"], "state": "MA", "address2": "", "address1": "22 Hough Rd", "zip_code": "02478", "city": "Belmont", "country": "US", "address3": ""}, "url": "https://www.yelp.com/biz/d-muzzioli-associates-belmont?adjust_creative=gBcvfFpabk3CnzmXKdYe3w&utm_campaign=yelp_api_v3&utm_medium=api_v3_business_search&utm_source=gBcvfFpabk3CnzmXKdYe3w", "categories": [{"alias": "landscaping", "title": "Landscaping"}], "display_phone": "(617) 489-5332", "is_closed": false, "name": "D Muzzioli Associates", "review_count": 4, "coordinates": {"longitude": -71.200131, "latitude": 42.406669}}, {"rating": 5.0, "transactions": [], "image_url": "", "phone": "+17813976943", "id": "mr-squeege-and-company-watertown", "distance": 10577.61084826, "location": {"display_address": ["Watertown, MA 02472"], "state": "MA", "address2": "", "address1": "", "zip_code": "02472", "city": "Watertown", "country": "US", "address3": ""}, "url": "https://www.yelp.com/biz/mr-squeege-and-company-watertown?adjust_creative=gBcvfFpabk3CnzmXKdYe3w&utm_campaign=yelp_api_v3&utm_medium=api_v3_business_search&utm_source=gBcvfFpabk3CnzmXKdYe3w", "categories": [{"alias": "windowwashing", "title": "Window Washing"}], "display_phone": "(781) 397-6943", "is_closed": false, "name": "Mr Squeege & Company", "review_count": 3, "coordinates": {"longitude": -71.1937798, "latitude": 42.3770214}}, {"rating": 5.0, "transactions": [], "image_url": "https://s3-media3.fl.yelpcdn.com/bphoto/uV1pu7hVbiJ-bCqfnNi5YQ/o.jpg", "phone": "+16173961256", "id": "dinos-play-doggy-dates-newton", "distance": 10712.02131572, "location": {"display_address": ["Newton, MA 02459"], "state": "MA", "address2": null, "address1": "", "zip_code": "02459", "city": "Newton", "country": "US", "address3": ""}, "url": "https://www.yelp.com/biz/dinos-play-doggy-dates-newton?adjust_creative=gBcvfFpabk3CnzmXKdYe3w&utm_campaign=yelp_api_v3&utm_medium=api_v3_business_search&utm_source=gBcvfFpabk3CnzmXKdYe3w", "categories": [{"alias": "dogwalkers", "title": "Dog Walkers"}, {"alias": "pet_sitting", "title": "Pet Boarding/Pet Sitting"}], "display_phone": "(617) 396-1256", "is_closed": false, "name": "Dino's Play Doggy Dates", "review_count": 2, "coordinates": {"longitude": -71.1922302246094, "latitude": 42.3144989013672}}, {"rating": 3.5, "transactions": [], "image_url": "https://s3-media2.fl.yelpcdn.com/bphoto/-_8nnuuo-YXSiGDgkNvHhA/o.jpg", "phone": "+16174773499", "id": "private-livery-service-west-roxbury-2", "distance": 10669.589457279999, "location": {"display_address": ["West Roxbury, MA 02132"], "state": "MA", "address2": "", "address1": null, "zip_code": "02132", "city": "West Roxbury", "country": "US", "address3": ""}, "url": "https://www.yelp.com/biz/private-livery-service-west-roxbury-2?adjust_creative=gBcvfFpabk3CnzmXKdYe3w&utm_campaign=yelp_api_v3&utm_medium=api_v3_business_search&utm_source=gBcvfFpabk3CnzmXKdYe3w", "categories": [{"alias": "airport_shuttles", "title": "Airport Shuttles"}, {"alias": "limos", "title": "Limos"}], "display_phone": "(617) 477-3499", "is_closed": false, "name": "Private Livery Service", "review_count": 3, "coordinates": {"longitude": -71.1598434448242, "latitude": 42.2806777954102}}, {"rating": 5.0, "transactions": [], "image_url": "https://s3-media4.fl.yelpcdn.com/bphoto/irCAZOrIVXtxUVbiUP1V6w/o.jpg", "phone": "+17814388838", "id": "stearns-painting-stoneham", "distance": 14910.425664879998, "location": {"display_address": ["Stoneham, MA 02180"], "state": "MA", "address2": null, "address1": null, "zip_code": "02180", "city": "Stoneham", "country": "US", "address3": ""}, "url": "https://www.yelp.com/biz/stearns-painting-stoneham?adjust_creative=gBcvfFpabk3CnzmXKdYe3w&utm_campaign=yelp_api_v3&utm_medium=api_v3_business_search&utm_source=gBcvfFpabk3CnzmXKdYe3w", "categories": [{"alias": "painters", "title": "Painters"}], "display_phone": "(781) 438-8838", "is_closed": false, "name": "Stearns Painting", "review_count": 3, "coordinates": {"longitude": -71.10019, "latitude": 42.48188}}, {"rating": 2.5, "transactions": [], "image_url": "https://s3-media4.fl.yelpcdn.com/bphoto/Kgkc6auwThR3q_8G_8wexw/o.jpg", "phone": "+17812310010", "id": "saugus-center-taxi-saugus", "distance": 12891.803144099998, "location": {"display_address": ["961 Broadway", "Saugus, MA 01906"], "state": "MA", "address2": "", "address1": "961 Broadway", "zip_code": "01906", "city": "Saugus", "country": "US", "address3": ""}, "url": "https://www.yelp.com/biz/saugus-center-taxi-saugus?adjust_creative=gBcvfFpabk3CnzmXKdYe3w&utm_campaign=yelp_api_v3&utm_medium=api_v3_business_search&utm_source=gBcvfFpabk3CnzmXKdYe3w", "categories": [{"alias": "taxis", "title": "Taxis"}], "display_phone": "(781) 231-0010", "is_closed": false, "name": "Saugus Center Taxi", "review_count": 3, "coordinates": {"longitude": -71.0244870185852, "latitude": 42.4585235165391}}, {"rating": 1.0, "transactions": [], "image_url": "https://s3-media3.fl.yelpcdn.com/bphoto/r_CzTnS9UR3K5NbU9chtkA/o.jpg", "phone": "+17812792828", "id": "stoneham-taxi-malden", "distance": 11031.637849059998, "location": {"display_address": ["45 Loomis St", "Malden, MA 02148"], "state": "MA", "address2": null, "address1": "45 Loomis St", "zip_code": "02148", "city": "Malden", "country": "US", "address3": ""}, "url": "https://www.yelp.com/biz/stoneham-taxi-malden?adjust_creative=gBcvfFpabk3CnzmXKdYe3w&utm_campaign=yelp_api_v3&utm_medium=api_v3_business_search&utm_source=gBcvfFpabk3CnzmXKdYe3w", "categories": [{"alias": "taxis", "title": "Taxis"}], "display_phone": "(781) 279-2828", "is_closed": false, "name": "Stoneham Taxi", "review_count": 1, "coordinates": {"longitude": -71.0345535, "latitude": 42.4431801}}, {"rating": 5.0, "transactions": [], "image_url": "https://s3-media4.fl.yelpcdn.com/bphoto/NS-nNvhZwIUNmkZv66FM-A/o.jpg", "phone": "+16178660711", "id": "d-and-o-limo-lexington-2", "distance": 15703.58727454, "location": {"display_address": ["Lexington, MA 02421"], "state": "MA", "address2": "", "address1": "", "zip_code": "02421", "city": "Lexington", "country": "US", "address3": null}, "url": "https://www.yelp.com/biz/d-and-o-limo-lexington-2?adjust_creative=gBcvfFpabk3CnzmXKdYe3w&utm_campaign=yelp_api_v3&utm_medium=api_v3_business_search&utm_source=gBcvfFpabk3CnzmXKdYe3w", "categories": [{"alias": "airport_shuttles", "title": "Airport Shuttles"}, {"alias": "limos", "title": "Limos"}, {"alias": "taxis", "title": "Taxis"}], "display_phone": "(617) 866-0711", "is_closed": false, "name": "D & O Limo", "review_count": 3, "coordinates": {"longitude": -71.2392959594727, "latitude": 42.4385108947754}}, {"rating": 1.0, "transactions": [], "image_url": "", "phone": "+16173231100", "id": "boston-limousine-west-roxbury-2", "distance": 11302.130405438, "location": {"display_address": ["164 Baker St", "West Roxbury, MA 02132"], "state": "MA", "address2": null, "address1": "164 Baker St", "zip_code": "02132", "city": "West Roxbury", "country": "US", "address3": null}, "url": "https://www.yelp.com/biz/boston-limousine-west-roxbury-2?adjust_creative=gBcvfFpabk3CnzmXKdYe3w&utm_campaign=yelp_api_v3&utm_medium=api_v3_business_search&utm_source=gBcvfFpabk3CnzmXKdYe3w", "categories": [{"alias": "limos", "title": "Limos"}], "display_phone": "(617) 323-1100", "is_closed": false, "name": "Boston Limousine", "review_count": 1, "coordinates": {"longitude": -71.167274, "latitude": 42.275127}}, {"rating": 5.0, "transactions": [], "image_url": "https://s3-media2.fl.yelpcdn.com/bphoto/fOAf1V8PvSg_ePnYBvstmQ/o.jpg", "phone": "+16173889694", "id": "waggey-land-milton", "distance": 10939.810517999998, "location": {"display_address": ["Milton, MA 02186"], "state": "MA", "address2": null, "address1": "", "zip_code": "02186", "city": "Milton", "country": "US", "address3": ""}, "url": "https://www.yelp.com/biz/waggey-land-milton?adjust_creative=gBcvfFpabk3CnzmXKdYe3w&utm_campaign=yelp_api_v3&utm_medium=api_v3_business_search&utm_source=gBcvfFpabk3CnzmXKdYe3w", "categories": [{"alias": "groomer", "title": "Pet Groomers"}, {"alias": "dogwalkers", "title": "Dog Walkers"}, {"alias": "pet_sitting", "title": "Pet Boarding/Pet Sitting"}], "display_phone": "(617) 388-9694", "is_closed": false, "name": "Waggey Land", "review_count": 1, "coordinates": {"longitude": -71.07716, "latitude": 42.25549}}, {"rating": 3.5, "transactions": [], "image_url": "https://s3-media4.fl.yelpcdn.com/bphoto/ZOV4SRMsK-9oVJ7AXR4OdQ/o.jpg", "phone": "+17818610500", "id": "servpro-of-lexington-bedford-waltham", "distance": 14500.07132366, "location": {"display_address": ["50 Sun Street", "Ste 1", "Waltham, MA 02453"], "state": "MA", "address2": "Ste 1", "address1": "50 Sun Street", "zip_code": "02453", "city": "Waltham", "country": "US", "address3": ""}, "url": "https://www.yelp.com/biz/servpro-of-lexington-bedford-waltham?adjust_creative=gBcvfFpabk3CnzmXKdYe3w&utm_campaign=yelp_api_v3&utm_medium=api_v3_business_search&utm_source=gBcvfFpabk3CnzmXKdYe3w", "categories": [{"alias": "damagerestoration", "title": "Damage Restoration"}], "display_phone": "(781) 861-0500", "is_closed": false, "name": "SERVPRO of Lexington-Bedford", "review_count": 4, "coordinates": {"longitude": -71.2450103759766, "latitude": 42.3705368041992}}, {"rating": 5.0, "transactions": [], "image_url": "https://s3-media2.fl.yelpcdn.com/bphoto/H-dgWhI5d8VZKAZtOo17zg/o.jpg", "phone": "+17818793146", "id": "home-sweet-home-care-solutions-winchester", "distance": 14456.44211626, "location": {"display_address": ["23 Churchill Rd", "Winchester, MA 01890"], "state": "MA", "address2": "", "address1": "23 Churchill Rd", "zip_code": "01890", "city": "Winchester", "country": "US", "address3": ""}, "url": "https://www.yelp.com/biz/home-sweet-home-care-solutions-winchester?adjust_creative=gBcvfFpabk3CnzmXKdYe3w&utm_campaign=yelp_api_v3&utm_medium=api_v3_business_search&utm_source=gBcvfFpabk3CnzmXKdYe3w", "categories": [{"alias": "homehealthcare", "title": "Home Health Care"}], "display_phone": "(781) 879-3146", "is_closed": false, "name": "Home Sweet Home Care Solutions", "review_count": 1, "coordinates": {"longitude": -71.1187973022461, "latitude": 42.4730186462402}}, {"rating": 4.0, "transactions": [], "image_url": "https://s3-media2.fl.yelpcdn.com/bphoto/J6kOB3bpR-5_mWklTuVCZg/o.jpg", "phone": "+16179432153", "id": "boston-moving-co-wakefield-4", "distance": 14418.566299359998, "location": {"display_address": ["11A Druid Hill Ave", "Ste100", "Wakefield, MA 01880"], "state": "MA", "address2": "Ste100", "address1": "11A Druid Hill Ave", "zip_code": "01880", "city": "Wakefield", "country": "US", "address3": ""}, "url": "https://www.yelp.com/biz/boston-moving-co-wakefield-4?adjust_creative=gBcvfFpabk3CnzmXKdYe3w&utm_campaign=yelp_api_v3&utm_medium=api_v3_business_search&utm_source=gBcvfFpabk3CnzmXKdYe3w", "categories": [{"alias": "movers", "title": "Movers"}], "display_phone": "(617) 943-2153", "is_closed": false, "name": "Boston Moving Co", "review_count": 4, "coordinates": {"longitude": -71.0736, "latitude": 42.4775}}, {"rating": 4.5, "transactions": [], "image_url": "https://s3-media4.fl.yelpcdn.com/bphoto/2CHil04LXuo3zI6S8kfz4A/o.jpg", "phone": "+18579199521", "id": "good-choice-movers-brighton-6", "distance": 16076.540554159998, "location": {"display_address": ["321 Summit Ave", "Brighton, MA 02135"], "state": "MA", "address2": null, "address1": "321 Summit Ave", "zip_code": "02135", "city": "Brighton", "country": "US", "address3": ""}, "url": "https://www.yelp.com/biz/good-choice-movers-brighton-6?adjust_creative=gBcvfFpabk3CnzmXKdYe3w&utm_campaign=yelp_api_v3&utm_medium=api_v3_business_search&utm_source=gBcvfFpabk3CnzmXKdYe3w", "categories": [{"alias": "movers", "title": "Movers"}], "display_phone": "(857) 919-9521", "is_closed": false, "name": "Good Choice Movers", "review_count": 8, "coordinates": {"longitude": -70.9534605, "latitude": 42.4633411}}, {"rating": 4.5, "transactions": [], "image_url": "https://s3-media3.fl.yelpcdn.com/bphoto/fNEd9goe5b6WBBSUgdm4Mw/o.jpg", "phone": "+16176883732", "id": "t-morrell-gutters-and-roofing-braintree", "distance": 16058.29063856, "location": {"display_address": ["102 Shaw St", "Braintree, MA 02184"], "state": "MA", "address2": "", "address1": "102 Shaw St", "zip_code": "02184", "city": "Braintree", "country": "US", "address3": ""}, "url": "https://www.yelp.com/biz/t-morrell-gutters-and-roofing-braintree?adjust_creative=gBcvfFpabk3CnzmXKdYe3w&utm_campaign=yelp_api_v3&utm_medium=api_v3_business_search&utm_source=gBcvfFpabk3CnzmXKdYe3w", "categories": [{"alias": "roofing", "title": "Roofing"}, {"alias": "gutterservices", "title": "Gutter Services"}, {"alias": "snowremoval", "title": "Snow Removal"}], "display_phone": "(617) 688-3732", "is_closed": false, "name": "T Morrell Gutters & Roofing", "review_count": 13, "coordinates": {"longitude": -70.974097, "latitude": 42.2225793}}, {"rating": 3.0, "transactions": [], "image_url": "https://s3-media3.fl.yelpcdn.com/bphoto/myriuG8brYYm7PexrVLJTA/o.jpg", "phone": "+17816656396", "id": "servpro-of-malden-melrose-melrose-2", "distance": 12015.701622595998, "location": {"display_address": ["177 W Foster St", "Melrose, MA 02176"], "state": "MA", "address2": "", "address1": "177 W Foster St", "zip_code": "02176", "city": "Melrose", "country": "US", "address3": ""}, "url": "https://www.yelp.com/biz/servpro-of-malden-melrose-melrose-2?adjust_creative=gBcvfFpabk3CnzmXKdYe3w&utm_campaign=yelp_api_v3&utm_medium=api_v3_business_search&utm_source=gBcvfFpabk3CnzmXKdYe3w", "categories": [{"alias": "damagerestoration", "title": "Damage Restoration"}], "display_phone": "(781) 665-6396", "is_closed": false, "name": "SERVPRO of Malden/Melrose", "review_count": 2, "coordinates": {"longitude": -71.0690213, "latitude": 42.455892}}, {"rating": 5.0, "transactions": [], "image_url": "https://s3-media1.fl.yelpcdn.com/bphoto/BlxPbIFnjuxoUxP7apmUqg/o.jpg", "phone": "+17816065200", "id": "plumr-wakefield", "distance": 14774.4171228, "location": {"display_address": ["1017 Main St", "Wakefield, MA 01880"], "state": "MA", "address2": null, "address1": "1017 Main St", "zip_code": "01880", "city": "Wakefield", "country": "US", "address3": ""}, "url": "https://www.yelp.com/biz/plumr-wakefield?adjust_creative=gBcvfFpabk3CnzmXKdYe3w&utm_campaign=yelp_api_v3&utm_medium=api_v3_business_search&utm_source=gBcvfFpabk3CnzmXKdYe3w", "categories": [{"alias": "plumbing", "title": "Plumbing"}], "display_phone": "(781) 606-5200", "is_closed": false, "name": "Plumr", "review_count": 2, "coordinates": {"longitude": -71.0651321411133, "latitude": 42.4804344177246}}, {"rating": 3.5, "transactions": [], "image_url": "https://s3-media2.fl.yelpcdn.com/bphoto/DWPv5pgu7zJN6QBOj15tJQ/o.jpg", "phone": "+17819339999", "id": "locks-and-keys-woburn-5", "distance": 18212.746283359997, "location": {"display_address": ["300 Mishawum Rd", "Woburn, MA 01801"], "state": "MA", "address2": "", "address1": "300 Mishawum Rd", "zip_code": "01801", "city": "Woburn", "country": "US", "address3": ""}, "url": "https://www.yelp.com/biz/locks-and-keys-woburn-5?adjust_creative=gBcvfFpabk3CnzmXKdYe3w&utm_campaign=yelp_api_v3&utm_medium=api_v3_business_search&utm_source=gBcvfFpabk3CnzmXKdYe3w", "categories": [{"alias": "locksmiths", "title": "Keys & Locksmiths"}, {"alias": "securitysystems", "title": "Security Systems"}], "display_phone": "(781) 933-9999", "is_closed": false, "name": "Locks & Keys", "review_count": 21, "coordinates": {"longitude": -71.13391, "latitude": 42.504966}}, {"rating": 3.0, "transactions": [], "image_url": "https://s3-media2.fl.yelpcdn.com/bphoto/O8f97fH_5XYmLGQMhv7Bxg/o.jpg", "phone": "+16176318450", "id": "911-restoration-of-boston-needham", "distance": 14947.41956346, "location": {"display_address": ["124 Crescent Rd", "Needham, MA 02494"], "state": "MA", "address2": "", "address1": "124 Crescent Rd", "zip_code": "02494", "city": "Needham", "country": "US", "address3": ""}, "url": "https://www.yelp.com/biz/911-restoration-of-boston-needham?adjust_creative=gBcvfFpabk3CnzmXKdYe3w&utm_campaign=yelp_api_v3&utm_medium=api_v3_business_search&utm_source=gBcvfFpabk3CnzmXKdYe3w", "categories": [{"alias": "damagerestoration", "title": "Damage Restoration"}, {"alias": "septicservices", "title": "Septic Services"}], "display_phone": "(617) 631-8450", "is_closed": false, "name": "911 Restoration of Boston", "review_count": 4, "coordinates": {"longitude": -71.239349, "latitude": 42.296102}}, {"rating": 5.0, "transactions": [], "image_url": "https://s3-media1.fl.yelpcdn.com/bphoto/6AkJxgoNFUE_z8HHWxwYdw/o.jpg", "phone": "+19788766933", "id": "asap-moving-and-storage-saugus-3", "distance": 12298.386377879999, "location": {"display_address": ["494 Lincoln Ave", "Ste 3", "Saugus, MA 01906"], "state": "MA", "address2": "Ste 3", "address1": "494 Lincoln Ave", "zip_code": "01906", "city": "Saugus", "country": "US", "address3": ""}, "url": "https://www.yelp.com/biz/asap-moving-and-storage-saugus-3?adjust_creative=gBcvfFpabk3CnzmXKdYe3w&utm_campaign=yelp_api_v3&utm_medium=api_v3_business_search&utm_source=gBcvfFpabk3CnzmXKdYe3w", "categories": [{"alias": "movers", "title": "Movers"}, {"alias": "selfstorage", "title": "Self Storage"}, {"alias": "homestaging", "title": "Home Staging"}], "display_phone": "(978) 876-6933", "is_closed": false, "name": "ASAP Moving & Storage", "review_count": 2, "coordinates": {"longitude": -71.00913, "latitude": 42.44844}}, {"rating": 5.0, "transactions": [], "image_url": "https://s3-media4.fl.yelpcdn.com/bphoto/R-7gi4Nb8Qtj-DaxrP7R5A/o.jpg", "phone": "+17818498611", "id": "city-fuel-braintree-2", "distance": 15056.19324472, "location": {"display_address": ["25 Adams St", "Braintree, MA 02184"], "state": "MA", "address2": null, "address1": "25 Adams St", "zip_code": "02184", "city": "Braintree", "country": "US", "address3": null}, "url": "https://www.yelp.com/biz/city-fuel-braintree-2?adjust_creative=gBcvfFpabk3CnzmXKdYe3w&utm_campaign=yelp_api_v3&utm_medium=api_v3_business_search&utm_source=gBcvfFpabk3CnzmXKdYe3w", "categories": [{"alias": "hvac", "title": "Heating & Air Conditioning/HVAC"}], "display_phone": "(781) 849-8611", "is_closed": false, "name": "City Fuel", "review_count": 1, "coordinates": {"longitude": -70.99602, "latitude": 42.22428}}, {"rating": 2.0, "transactions": [], "image_url": "https://s3-media3.fl.yelpcdn.com/bphoto/HasVvsbPzqRZovSsb-EeYw/o.jpg", "phone": "+16174718807", "id": "shore-taxi-quincy", "distance": 13896.29523586, "location": {"display_address": ["8 Des Moines Rd", "Quincy, MA 02169"], "state": "MA", "address2": "", "address1": "8 Des Moines Rd", "zip_code": "02169", "city": "Quincy", "country": "US", "address3": ""}, "url": "https://www.yelp.com/biz/shore-taxi-quincy?adjust_creative=gBcvfFpabk3CnzmXKdYe3w&utm_campaign=yelp_api_v3&utm_medium=api_v3_business_search&utm_source=gBcvfFpabk3CnzmXKdYe3w", "categories": [{"alias": "taxis", "title": "Taxis"}, {"alias": "airport_shuttles", "title": "Airport Shuttles"}], "display_phone": "(617) 471-8807", "is_closed": false, "name": "Shore Taxi", "review_count": 13, "coordinates": {"longitude": -70.9809312969446, "latitude": 42.2422948479652}}, {"rating": 4.0, "transactions": [], "image_url": "https://s3-media2.fl.yelpcdn.com/bphoto/sQa1QXiptfO0E-7JvVZjUQ/o.jpg", "phone": "+17815950000", "id": "wayne-alarm-systems-lynn", "distance": 16913.32493386, "location": {"display_address": ["424 Essex St", "Lynn, MA 01902"], "state": "MA", "address2": "", "address1": "424 Essex St", "zip_code": "01902", "city": "Lynn", "country": "US", "address3": ""}, "url": "https://www.yelp.com/biz/wayne-alarm-systems-lynn?adjust_creative=gBcvfFpabk3CnzmXKdYe3w&utm_campaign=yelp_api_v3&utm_medium=api_v3_business_search&utm_source=gBcvfFpabk3CnzmXKdYe3w", "categories": [{"alias": "securitysystems", "title": "Security Systems"}], "display_phone": "(781) 595-0000", "is_closed": false, "name": "Wayne Alarm Systems", "review_count": 9, "coordinates": {"longitude": -70.9436327962952, "latitude": 42.4672495144008}}, {"rating": 5.0, "transactions": [], "image_url": "https://s3-media2.fl.yelpcdn.com/bphoto/LvfNklLs_PZKZNd0He-mfw/o.jpg", "phone": "+16175291679", "id": "rick-karp-newton", "distance": 12396.704659961999, "location": {"display_address": ["Newton, MA 02465"], "state": "MA", "address2": "", "address1": "", "zip_code": "02465", "city": "Newton", "country": "US", "address3": ""}, "url": "https://www.yelp.com/biz/rick-karp-newton?adjust_creative=gBcvfFpabk3CnzmXKdYe3w&utm_campaign=yelp_api_v3&utm_medium=api_v3_business_search&utm_source=gBcvfFpabk3CnzmXKdYe3w", "categories": [{"alias": "realestateagents", "title": "Real Estate Agents"}], "display_phone": "(617) 529-1679", "is_closed": false, "name": "Rick Karp", "review_count": 3, "coordinates": {"longitude": -71.22662, "latitude": 42.34935}}, {"rating": 5.0, "transactions": [], "image_url": "https://s3-media4.fl.yelpcdn.com/bphoto/OzQkwFpqsZgegWn3ZbTF5g/o.jpg", "phone": "+18573346352", "id": "boston-top-limo-lynn", "distance": 16692.637749, "location": {"display_address": ["23 W Baltimore St", "Lynn, MA 01902"], "state": "MA", "address2": "", "address1": "23 W Baltimore St", "zip_code": "01902", "city": "Lynn", "country": "US", "address3": ""}, "url": "https://www.yelp.com/biz/boston-top-limo-lynn?adjust_creative=gBcvfFpabk3CnzmXKdYe3w&utm_campaign=yelp_api_v3&utm_medium=api_v3_business_search&utm_source=gBcvfFpabk3CnzmXKdYe3w", "categories": [{"alias": "limos", "title": "Limos"}, {"alias": "airport_shuttles", "title": "Airport Shuttles"}, {"alias": "towncarservice", "title": "Town Car Service"}], "display_phone": "(857) 334-6352", "is_closed": false, "name": "Boston Top Limo", "review_count": 9, "coordinates": {"longitude": -70.9386959, "latitude": 42.461673}}, {"rating": 5.0, "transactions": [], "image_url": "https://s3-media4.fl.yelpcdn.com/bphoto/lHMjWjXHub0SjhcF_46scA/o.jpg", "phone": "+17815696695", "id": "johns-sewer-and-pipe-cleaning-woburn-3", "distance": 20474.519156719998, "location": {"display_address": ["4 Breed Ave", "Woburn, MA 01801"], "state": "MA", "address2": "", "address1": "4 Breed Ave", "zip_code": "01801", "city": "Woburn", "country": "US", "address3": ""}, "url": "https://www.yelp.com/biz/johns-sewer-and-pipe-cleaning-woburn-3?adjust_creative=gBcvfFpabk3CnzmXKdYe3w&utm_campaign=yelp_api_v3&utm_medium=api_v3_business_search&utm_source=gBcvfFpabk3CnzmXKdYe3w", "categories": [{"alias": "plumbing", "title": "Plumbing"}], "display_phone": "(781) 569-6695", "is_closed": false, "name": "John's Sewer & Pipe Cleaning", "review_count": 39, "coordinates": {"longitude": -71.156817, "latitude": 42.520804}}, {"rating": 5.0, "transactions": [], "image_url": "https://s3-media3.fl.yelpcdn.com/bphoto/kxT--yDy9G5ZRWsUJzS7mQ/o.jpg", "phone": "+18008400876", "id": "golden-transportation-waltham-2", "distance": 15529.50416207, "location": {"display_address": ["35 Gregory St", "Waltham, MA 02451"], "state": "MA", "address2": null, "address1": "35 Gregory St", "zip_code": "02451", "city": "Waltham", "country": "US", "address3": null}, "url": "https://www.yelp.com/biz/golden-transportation-waltham-2?adjust_creative=gBcvfFpabk3CnzmXKdYe3w&utm_campaign=yelp_api_v3&utm_medium=api_v3_business_search&utm_source=gBcvfFpabk3CnzmXKdYe3w", "categories": [{"alias": "limos", "title": "Limos"}], "display_phone": "(800) 840-0876", "is_closed": false, "name": "Golden Transportation", "review_count": 1, "coordinates": {"longitude": -71.2473946809769, "latitude": 42.398530912369}}, {"rating": 5.0, "transactions": [], "image_url": "https://s3-media1.fl.yelpcdn.com/bphoto/tQ316JVeaj_2R7N9CBNAJg/o.jpg", "phone": "+16176100050", "id": "conforti-and-medina-coldwell-banker-winchester", "distance": 12900.38414498, "location": {"display_address": ["3 Church St", "Winchester, MA 01890"], "state": "MA", "address2": null, "address1": "3 Church St", "zip_code": "01890", "city": "Winchester", "country": "US", "address3": ""}, "url": "https://www.yelp.com/biz/conforti-and-medina-coldwell-banker-winchester?adjust_creative=gBcvfFpabk3CnzmXKdYe3w&utm_campaign=yelp_api_v3&utm_medium=api_v3_business_search&utm_source=gBcvfFpabk3CnzmXKdYe3w", "categories": [{"alias": "realestateagents", "title": "Real Estate Agents"}, {"alias": "realestatesvcs", "title": "Real Estate Services"}], "display_phone": "(617) 610-0050", "is_closed": false, "name": "Conforti & Medina - Coldwell Banker", "review_count": 1, "coordinates": {"longitude": -71.1377105712891, "latitude": 42.4529418945312}}, {"rating": 4.5, "transactions": [], "image_url": "https://s3-media4.fl.yelpcdn.com/bphoto/5aDH4gxyrPQtL3XPQ2C43g/o.jpg", "phone": "+19787057914", "id": "vioclean-swampscott-2", "distance": 19253.34874604, "location": {"display_address": ["211 Essex St", "Swampscott, MA 01907"], "state": "MA", "address2": "", "address1": "211 Essex St", "zip_code": "01907", "city": "Swampscott", "country": "US", "address3": ""}, "url": "https://www.yelp.com/biz/vioclean-swampscott-2?adjust_creative=gBcvfFpabk3CnzmXKdYe3w&utm_campaign=yelp_api_v3&utm_medium=api_v3_business_search&utm_source=gBcvfFpabk3CnzmXKdYe3w", "categories": [{"alias": "damagerestoration", "title": "Damage Restoration"}, {"alias": "airductcleaning", "title": "Air Duct Cleaning"}], "display_phone": "(978) 705-7914", "is_closed": false, "name": "VioClean", "review_count": 13, "coordinates": {"longitude": -70.9175005, "latitude": 42.4785057}}, {"rating": 5.0, "transactions": [], "image_url": "https://s3-media2.fl.yelpcdn.com/bphoto/uQAXevxrSI0gPWZ9K34eOg/o.jpg", "phone": "+17812450702", "id": "bow-wow-dog-walks-wakefield", "distance": 18033.58167984, "location": {"display_address": ["4 Fitch Ct", "Wakefield, MA 01880"], "state": "MA", "address2": "", "address1": "4 Fitch Ct", "zip_code": "01880", "city": "Wakefield", "country": "US", "address3": ""}, "url": "https://www.yelp.com/biz/bow-wow-dog-walks-wakefield?adjust_creative=gBcvfFpabk3CnzmXKdYe3w&utm_campaign=yelp_api_v3&utm_medium=api_v3_business_search&utm_source=gBcvfFpabk3CnzmXKdYe3w", "categories": [{"alias": "dogwalkers", "title": "Dog Walkers"}, {"alias": "pet_sitting", "title": "Pet Boarding/Pet Sitting"}], "display_phone": "(781) 245-0702", "is_closed": false, "name": "bow WOW! Dog Walks", "review_count": 6, "coordinates": {"longitude": -71.0654949626037, "latitude": 42.5099661025576}}, {"rating": 5.0, "transactions": [], "image_url": "https://s3-media3.fl.yelpcdn.com/bphoto/2R37qmVUzKV-_tp7MssYZQ/o.jpg", "phone": "+16179012954", "id": "greg-o-leary-custom-painting-reading-2", "distance": 18631.3855069, "location": {"display_address": ["16 Louanis Dr", "Reading, MA 01867"], "state": "MA", "address2": "", "address1": "16 Louanis Dr", "zip_code": "01867", "city": "Reading", "country": "US", "address3": ""}, "url": "https://www.yelp.com/biz/greg-o-leary-custom-painting-reading-2?adjust_creative=gBcvfFpabk3CnzmXKdYe3w&utm_campaign=yelp_api_v3&utm_medium=api_v3_business_search&utm_source=gBcvfFpabk3CnzmXKdYe3w", "categories": [{"alias": "painters", "title": "Painters"}], "display_phone": "(617) 901-2954", "is_closed": false, "name": "Greg O'Leary Custom Painting", "review_count": 6, "coordinates": {"longitude": -71.1215891, "latitude": 42.5112248}}, {"rating": 1.0, "transactions": [], "image_url": "https://s3-media4.fl.yelpcdn.com/bphoto/230P64sGEOsECX9kkXv0zg/o.jpg", "phone": "+17817673888", "id": "d-and-b-quincy", "distance": 13252.22368847, "location": {"display_address": ["35 Federal Ave", "Quincy, MA 02169"], "state": "MA", "address2": "", "address1": "35 Federal Ave", "zip_code": "02169", "city": "Quincy", "country": "US", "address3": ""}, "url": "https://www.yelp.com/biz/d-and-b-quincy?adjust_creative=gBcvfFpabk3CnzmXKdYe3w&utm_campaign=yelp_api_v3&utm_medium=api_v3_business_search&utm_source=gBcvfFpabk3CnzmXKdYe3w", "categories": [{"alias": "treeservices", "title": "Tree Services"}], "display_phone": "(781) 767-3888", "is_closed": false, "name": "D & B", "review_count": 1, "coordinates": {"longitude": -71.005187, "latitude": 42.23914}}, {"rating": 5.0, "transactions": [], "image_url": "https://s3-media2.fl.yelpcdn.com/bphoto/3s2SINkFsi5f95a6eEBxgQ/o.jpg", "phone": "+18572449318", "id": "callaghan-quincy", "distance": 13138.76119512, "location": {"display_address": ["118 Sumner St", "Apt 3", "Quincy, MA 02169"], "state": "MA", "address2": "Apt 3", "address1": "118 Sumner St", "zip_code": "02169", "city": "Quincy", "country": "US", "address3": ""}, "url": "https://www.yelp.com/biz/callaghan-quincy?adjust_creative=gBcvfFpabk3CnzmXKdYe3w&utm_campaign=yelp_api_v3&utm_medium=api_v3_business_search&utm_source=gBcvfFpabk3CnzmXKdYe3w", "categories": [{"alias": "contractors", "title": "Contractors"}, {"alias": "masonry_concrete", "title": "Masonry/Concrete"}, {"alias": "roofing", "title": "Roofing"}], "display_phone": "(857) 244-9318", "is_closed": false, "name": "Callaghan", "review_count": 1, "coordinates": {"longitude": -70.987678527832, "latitude": 42.2471389770508}}, {"rating": 5.0, "transactions": [], "image_url": "https://s3-media4.fl.yelpcdn.com/bphoto/va2i3szxidDnkKjSb8oZsw/o.jpg", "phone": "+17812059653", "id": "downtown-uplighting-woburn", "distance": 18250.16987572, "location": {"display_address": ["462 Washington St", "Ste 2232", "Woburn, MA 01888"], "state": "MA", "address2": "Ste 2232", "address1": "462 Washington St", "zip_code": "01888", "city": "Woburn", "country": "US", "address3": ""}, "url": "https://www.yelp.com/biz/downtown-uplighting-woburn?adjust_creative=gBcvfFpabk3CnzmXKdYe3w&utm_campaign=yelp_api_v3&utm_medium=api_v3_business_search&utm_source=gBcvfFpabk3CnzmXKdYe3w", "categories": [{"alias": "partyequipmentrentals", "title": "Party Equipment Rentals"}, {"alias": "lighting", "title": "Lighting Fixtures & Equipment"}], "display_phone": "(781) 205-9653", "is_closed": false, "name": "Downtown Uplighting", "review_count": 3, "coordinates": {"longitude": -71.1272911, "latitude": 42.5066722}}, {"rating": 4.0, "transactions": [], "image_url": "https://s3-media2.fl.yelpcdn.com/bphoto/HTqPfiorNqlFSozlNK0vpg/o.jpg", "phone": "+17819448043", "id": "mark-tango-plumbing-inc-reading", "distance": 19870.28923504, "location": {"display_address": ["Reading, MA 01867"], "state": "MA", "address2": "", "address1": "", "zip_code": "01867", "city": "Reading", "country": "US", "address3": ""}, "url": "https://www.yelp.com/biz/mark-tango-plumbing-inc-reading?adjust_creative=gBcvfFpabk3CnzmXKdYe3w&utm_campaign=yelp_api_v3&utm_medium=api_v3_business_search&utm_source=gBcvfFpabk3CnzmXKdYe3w", "categories": [{"alias": "plumbing", "title": "Plumbing"}, {"alias": "hvac", "title": "Heating & Air Conditioning/HVAC"}], "display_phone": "(781) 944-8043", "is_closed": false, "name": "Mark Tango Plumbing, Inc.", "review_count": 20, "coordinates": {"longitude": -71.10258, "latitude": 42.52576}}, {"rating": 4.0, "transactions": [], "image_url": "https://s3-media1.fl.yelpcdn.com/bphoto/KLbWoT6eudYOQFQe-niFTg/o.jpg", "phone": "+17816703104", "id": "128-plumbing-heating-cooling-and-electric-wakefield-2", "distance": 16864.3865138, "location": {"display_address": ["78 Foundry St", "Wakefield, MA 01880"], "state": "MA", "address2": "", "address1": "78 Foundry St", "zip_code": "01880", "city": "Wakefield", "country": "US", "address3": ""}, "url": "https://www.yelp.com/biz/128-plumbing-heating-cooling-and-electric-wakefield-2?adjust_creative=gBcvfFpabk3CnzmXKdYe3w&utm_campaign=yelp_api_v3&utm_medium=api_v3_business_search&utm_source=gBcvfFpabk3CnzmXKdYe3w", "categories": [{"alias": "plumbing", "title": "Plumbing"}, {"alias": "hvac", "title": "Heating & Air Conditioning/HVAC"}, {"alias": "electricians", "title": "Electricians"}], "display_phone": "(781) 670-3104", "is_closed": false, "name": "128 Plumbing, Heating, Cooling & Electric", "review_count": 40, "coordinates": {"longitude": -71.0737991333008, "latitude": 42.4994506835938}}, {"rating": 1.0, "transactions": [], "image_url": "https://s3-media2.fl.yelpcdn.com/bphoto/at0GTqhXeO_Ub_lpsPPZWA/o.jpg", "phone": "+17742196785", "id": "a-few-good-tradesmen-dedham", "distance": 13430.02759502, "location": {"display_address": ["52 Harvard St", "Dedham, MA 02026"], "state": "MA", "address2": null, "address1": "52 Harvard St", "zip_code": "02026", "city": "Dedham", "country": "US", "address3": null}, "url": "https://www.yelp.com/biz/a-few-good-tradesmen-dedham?adjust_creative=gBcvfFpabk3CnzmXKdYe3w&utm_campaign=yelp_api_v3&utm_medium=api_v3_business_search&utm_source=gBcvfFpabk3CnzmXKdYe3w", "categories": [{"alias": "handyman", "title": "Handyman"}, {"alias": "electricians", "title": "Electricians"}, {"alias": "carpenters", "title": "Carpenters"}], "display_phone": "(774) 219-6785", "is_closed": false, "name": "A Few Good Tradesmen", "review_count": 2, "coordinates": {"longitude": -71.167551, "latitude": 42.250304}}, {"rating": 3.0, "transactions": [], "image_url": "https://s3-media2.fl.yelpcdn.com/bphoto/s8rnKHetyG7qG3O2FSrNwQ/o.jpg", "phone": "+16174509900", "id": "bostons-best-transportation-weymouth", "distance": 14822.185552679997, "location": {"display_address": ["119 Bridge St", "Weymouth, MA 02191"], "state": "MA", "address2": "", "address1": "119 Bridge St", "zip_code": "02191", "city": "Weymouth", "country": "US", "address3": ""}, "url": "https://www.yelp.com/biz/bostons-best-transportation-weymouth?adjust_creative=gBcvfFpabk3CnzmXKdYe3w&utm_campaign=yelp_api_v3&utm_medium=api_v3_business_search&utm_source=gBcvfFpabk3CnzmXKdYe3w", "categories": [{"alias": "limos", "title": "Limos"}], "display_phone": "(617) 450-9900", "is_closed": false, "name": "Boston's Best Transportation", "review_count": 3, "coordinates": {"longitude": -70.9610595703125, "latitude": 42.2423706054688}}, {"rating": 3.0, "transactions": [], "image_url": "https://s3-media3.fl.yelpcdn.com/bphoto/HjG4bmA-nUXtfqDNrJMSBQ/o.jpg", "phone": "+17815304976", "id": "waltham-services-waltham", "distance": 13917.705895219999, "location": {"display_address": ["817 Moody St", "Waltham, MA 02453"], "state": "MA", "address2": "", "address1": "817 Moody St", "zip_code": "02453", "city": "Waltham", "country": "US", "address3": ""}, "url": "https://www.yelp.com/biz/waltham-services-waltham?adjust_creative=gBcvfFpabk3CnzmXKdYe3w&utm_campaign=yelp_api_v3&utm_medium=api_v3_business_search&utm_source=gBcvfFpabk3CnzmXKdYe3w", "categories": [{"alias": "pest_control", "title": "Pest Control"}], "display_phone": "(781) 530-4976", "is_closed": false, "name": "Waltham Services", "review_count": 2, "coordinates": {"longitude": -71.2395213, "latitude": 42.3620367}}, {"rating": 5.0, "transactions": [], "image_url": "https://s3-media1.fl.yelpcdn.com/bphoto/0d8YgWaIlPTHTd2FlFmOCQ/o.jpg", "phone": "+17815957377", "id": "mass-towing-services-lynn", "distance": 13890.089620819997, "location": {"display_address": ["1117 Rear Western Ave", "Lynn, MA 01905"], "state": "MA", "address2": null, "address1": "1117 Rear Western Ave", "zip_code": "01905", "city": "Lynn", "country": "US", "address3": ""}, "url": "https://www.yelp.com/biz/mass-towing-services-lynn?adjust_creative=gBcvfFpabk3CnzmXKdYe3w&utm_campaign=yelp_api_v3&utm_medium=api_v3_business_search&utm_source=gBcvfFpabk3CnzmXKdYe3w", "categories": [{"alias": "towing", "title": "Towing"}, {"alias": "autorepair", "title": "Auto Repair"}, {"alias": "roadsideassist", "title": "Roadside Assistance"}], "display_phone": "(781) 595-7377", "is_closed": false, "name": "Mass Towing Services", "review_count": 2, "coordinates": {"longitude": -70.9768612, "latitude": 42.4529746}}], "total": 1239}