{"region": {"center": {"longitude": -71.07124328613281, "latitude": 42.34784169448538}}, "businesses": [{"rating": 3.5, "transactions": [], "image_url": "https://s3-media2.fl.yelpcdn.com/bphoto/SRs5PkEafRpWcivfdRjzBg/o.jpg", "phone": "+16172471222", "id": "the-lansdowne-pub-boston", "distance": 1970.992655074, "location": {"display_address": ["9 Lansdowne St", "Boston, MA 02215"], "state": "MA", "address2": "", "address1": "9 Lansdowne St", "zip_code": "02215", "city": "Boston", "country": "US", "address3": ""}, "url": "https://www.yelp.com/biz/the-lansdowne-pub-boston?adjust_creative=gBcvfFpabk3CnzmXKdYe3w&utm_campaign=yelp_api_v3&utm_medium=api_v3_business_search&utm_source=gBcvfFpabk3CnzmXKdYe3w", "categories": [{"alias": "pubs", "title": "Pubs"}, {"alias": "salad", "title": "Salad"}, {"alias": "sandwiches", "title": "Sandwiches"}], "display_phone": "(617) 247-1222", "is_closed": false, "name": "The Lansdowne Pub", "price": "$$", "review_count": 267, "coordinates": {"longitude": -71.095215, "latitude": 42.3472824}}, {"rating": 3.5, "transactions": [], "image_url": "https://s3-media1.fl.yelpcdn.com/bphoto/K72Bf5DQXmR_E3_XBi7aYw/o.jpg", "phone": "+16178674142", "id": "brownstone-boston", "distance": 378.44888603879997, "location": {"display_address": ["111 Dartmouth St", "Boston, MA 02116"], "state": "MA", "address2": "", "address1": "111 Dartmouth St", "zip_code": "02116", "city": "Boston", "country": "US", "address3": ""}, "url": "https://www.yelp.com/biz/brownstone-boston?adjust_creative=gBcvfFpabk3CnzmXKdYe3w&utm_campaign=yelp_api_v3&utm_medium=api_v3_business_search&utm_source=gBcvfFpabk3CnzmXKdYe3w", "categories": [{"alias": "bars", "title": "Bars"}, {"alias": "breakfast_brunch", "title": "Breakfast & Brunch"}, {"alias": "newamerican", "title": "American (New)"}], "display_phone": "(617) 867-4142", "is_closed": false, "name": "Brownstone", "price": "$$", "review_count": 248, "coordinates": {"longitude": -71.0754221986725, "latitude": 42.3464177995131}}, {"rating": 3.5, "transactions": [], "image_url": "https://s3-media2.fl.yelpcdn.com/bphoto/QWXg7kgrRg7esyOs5ORRtw/o.jpg", "phone": "+18572653480", "id": "blackstone-grill-boston", "distance": 1867.779726316, "location": {"display_address": ["15 Union St", "Boston, MA 02108"], "state": "MA", "address2": "", "address1": "15 Union St", "zip_code": "02108", "city": "Boston", "country": "US", "address3": ""}, "url": "https://www.yelp.com/biz/blackstone-grill-boston?adjust_creative=gBcvfFpabk3CnzmXKdYe3w&utm_campaign=yelp_api_v3&utm_medium=api_v3_business_search&utm_source=gBcvfFpabk3CnzmXKdYe3w", "categories": [{"alias": "tradamerican", "title": "American (Traditional)"}, {"alias": "sportsbars", "title": "Sports Bars"}, {"alias": "musicvenues", "title": "Music Venues"}], "display_phone": "(857) 265-3480", "is_closed": false, "name": "Blackstone Grill", "price": "$$", "review_count": 102, "coordinates": {"longitude": -71.0567962, "latitude": 42.3608092}}, {"rating": 3.5, "transactions": [], "image_url": "https://s3-media2.fl.yelpcdn.com/bphoto/B2s58uUhrqp-dQaSR9G9mA/o.jpg", "phone": "+16179334803", "id": "solas-boston", "distance": 718.4577527604, "location": {"display_address": ["710 Boylston St", "Boston, MA 02199"], "state": "MA", "address2": null, "address1": "710 Boylston St", "zip_code": "02199", "city": "Boston", "country": "US", "address3": ""}, "url": "https://www.yelp.com/biz/solas-boston?adjust_creative=gBcvfFpabk3CnzmXKdYe3w&utm_campaign=yelp_api_v3&utm_medium=api_v3_business_search&utm_source=gBcvfFpabk3CnzmXKdYe3w", "categories": [{"alias": "pubs", "title": "Pubs"}, {"alias": "irish", "title": "Irish"}], "display_phone": "(617) 933-4803", "is_closed": false, "name": "Solas", "price": "$$", "review_count": 287, "coordinates": {"longitude": -71.0796434, "latitude": 42.3493082}}, {"rating": 3.5, "transactions": [], "image_url": "https://s3-media3.fl.yelpcdn.com/bphoto/d7fS1hN4xn98B0lYeW6RjA/o.jpg", "phone": "+16173670055", "id": "green-dragon-tavern-boston", "distance": 1922.282278492, "location": {"display_address": ["11 Marshall St", "Boston, MA 02108"], "state": "MA", "address2": "", "address1": "11 Marshall St", "zip_code": "02108", "city": "Boston", "country": "US", "address3": ""}, "url": "https://www.yelp.com/biz/green-dragon-tavern-boston?adjust_creative=gBcvfFpabk3CnzmXKdYe3w&utm_campaign=yelp_api_v3&utm_medium=api_v3_business_search&utm_source=gBcvfFpabk3CnzmXKdYe3w", "categories": [{"alias": "pubs", "title": "Pubs"}, {"alias": "tradamerican", "title": "American (Traditional)"}, {"alias": "musicvenues", "title": "Music Venues"}], "display_phone": "(617) 367-0055", "is_closed": false, "name": "Green Dragon Tavern", "price": "$$", "review_count": 347, "coordinates": {"longitude": -71.0568008422852, "latitude": 42.3614501953125}}, {"rating": 3.5, "transactions": [], "image_url": "https://s3-media2.fl.yelpcdn.com/bphoto/uXV3PkbhvNLPO15hdsIrJw/o.jpg", "phone": "+16174219595", "id": "lorettas-last-call-boston", "distance": 1906.8565936579998, "location": {"display_address": ["1 Lansdowne St", "Boston, MA 02115"], "state": "MA", "address2": null, "address1": "1 Lansdowne St", "zip_code": "02115", "city": "Boston", "country": "US", "address3": ""}, "url": "https://www.yelp.com/biz/lorettas-last-call-boston?adjust_creative=gBcvfFpabk3CnzmXKdYe3w&utm_campaign=yelp_api_v3&utm_medium=api_v3_business_search&utm_source=gBcvfFpabk3CnzmXKdYe3w", "categories": [{"alias": "southern", "title": "Southern"}, {"alias": "tradamerican", "title": "American (Traditional)"}, {"alias": "musicvenues", "title": "Music Venues"}], "display_phone": "(617) 421-9595", "is_closed": false, "name": "Loretta's Last Call", "price": "$$", "review_count": 126, "coordinates": {"longitude": -71.0945355892181, "latitude": 42.3472148180008}}, {"rating": 3.5, "transactions": [], "image_url": "https://s3-media4.fl.yelpcdn.com/bphoto/cUBUkHdj_RkJ_MUEytGWkA/o.jpg", "phone": "+16174820301", "id": "the-barracuda-tavern-boston", "distance": 1346.2177380199998, "location": {"display_address": ["15 Bosworth St", "Boston, MA 02108"], "state": "MA", "address2": "", "address1": "15 Bosworth St", "zip_code": "02108", "city": "Boston", "country": "US", "address3": ""}, "url": "https://www.yelp.com/biz/the-barracuda-tavern-boston?adjust_creative=gBcvfFpabk3CnzmXKdYe3w&utm_campaign=yelp_api_v3&utm_medium=api_v3_business_search&utm_source=gBcvfFpabk3CnzmXKdYe3w", "categories": [{"alias": "bars", "title": "Bars"}, {"alias": "seafood", "title": "Seafood"}, {"alias": "tradamerican", "title": "American (Traditional)"}], "display_phone": "(617) 482-0301", "is_closed": false, "name": "The Barracuda Tavern", "price": "$$", "review_count": 216, "coordinates": {"longitude": -71.0605392605066, "latitude": 42.3570779711008}}, {"rating": 3.5, "transactions": [], "image_url": "https://s3-media3.fl.yelpcdn.com/bphoto/pG43Zw7m3oEJHYTicifiyw/o.jpg", "phone": "+16173510400", "id": "tico-boston-boston", "distance": 322.0209033934, "location": {"display_address": ["222 Berkeley St", "Boston, MA 02116"], "state": "MA", "address2": "", "address1": "222 Berkeley St", "zip_code": "02116", "city": "Boston", "country": "US", "address3": ""}, "url": "https://www.yelp.com/biz/tico-boston-boston?adjust_creative=gBcvfFpabk3CnzmXKdYe3w&utm_campaign=yelp_api_v3&utm_medium=api_v3_business_search&utm_source=gBcvfFpabk3CnzmXKdYe3w", "categories": [{"alias": "latin", "title": "Latin American"}, {"alias": "newamerican", "title": "American (New)"}, {"alias": "mexican", "title": "Mexican"}], "display_phone": "(617) 351-0400", "is_closed": false, "name": "Tico Boston", "price": "$$", "review_count": 453, "coordinates": {"longitude": -71.07292, "latitude": 42.350461}}, {"rating": 3.5, "transactions": [], "image_url": "https://s3-media4.fl.yelpcdn.com/bphoto/UL_tabOoBq3dz7KYZ8Qdyw/o.jpg", "phone": "", "id": "the-black-rose-boston", "distance": 1935.7180144159997, "location": {"display_address": ["160 State St", "Boston, MA 02109"], "state": "MA", "address2": "", "address1": "160 State St", "zip_code": "02109", "city": "Boston", "country": "US", "address3": ""}, "url": "https://www.yelp.com/biz/the-black-rose-boston?adjust_creative=gBcvfFpabk3CnzmXKdYe3w&utm_campaign=yelp_api_v3&utm_medium=api_v3_business_search&utm_source=gBcvfFpabk3CnzmXKdYe3w", "categories": [{"alias": "pubs", "title": "Pubs"}, {"alias": "tradamerican", "title": "American (Traditional)"}], "display_phone": "", "is_closed": false, "name": "The Black Rose", "price": "$$", "review_count": 461, "coordinates": {"longitude": -71.0536410447498, "latitude": 42.3594142632159}}, {"rating": 4.0, "transactions": [], "image_url": "https://s3-media3.fl.yelpcdn.com/bphoto/zaE8vcxTB_yhDK47E1xCwg/o.jpg", "phone": "+16172088925", "id": "hopewell-bar-and-kitchen-boston", "distance": 5114.578436664, "location": {"display_address": ["1277 Commonwealth Ave", "Boston, MA 02134"], "state": "MA", "address2": "", "address1": "1277 Commonwealth Ave", "zip_code": "02134", "city": "Boston", "country": "US", "address3": ""}, "url": "https://www.yelp.com/biz/hopewell-bar-and-kitchen-boston?adjust_creative=gBcvfFpabk3CnzmXKdYe3w&utm_campaign=yelp_api_v3&utm_medium=api_v3_business_search&utm_source=gBcvfFpabk3CnzmXKdYe3w", "categories": [{"alias": "bars", "title": "Bars"}, {"alias": "newamerican", "title": "American (New)"}], "display_phone": "(617) 208-8925", "is_closed": false, "name": "Hopewell Bar & Kitchen", "price": "$$", "review_count": 106, "coordinates": {"longitude": -71.1334228515625, "latitude": 42.3498153686523}}, {"rating": 4.0, "transactions": [], "image_url": "https://s3-media2.fl.yelpcdn.com/bphoto/C45LPis756W6ZUtH08KFcA/o.jpg", "phone": "+16172277100", "id": "21st-amendment-boston", "distance": 1371.9746614509997, "location": {"display_address": ["150 Bowdoin Sq", "Boston, MA 02108"], "state": "MA", "address2": "", "address1": "150 Bowdoin Sq", "zip_code": "02108", "city": "Boston", "country": "US", "address3": ""}, "url": "https://www.yelp.com/biz/21st-amendment-boston?adjust_creative=gBcvfFpabk3CnzmXKdYe3w&utm_campaign=yelp_api_v3&utm_medium=api_v3_business_search&utm_source=gBcvfFpabk3CnzmXKdYe3w", "categories": [{"alias": "bars", "title": "Bars"}], "display_phone": "(617) 227-7100", "is_closed": false, "name": "21st Amendment", "price": "$$", "review_count": 303, "coordinates": {"longitude": -71.062613549108, "latitude": 42.358404744459}}, {"rating": 3.5, "transactions": [], "image_url": "https://s3-media3.fl.yelpcdn.com/bphoto/FEnTazzVr-_gtGimrGBXcA/o.jpg", "phone": "", "id": "beacon-hill-pub-boston", "distance": 1402.623334746, "location": {"display_address": ["149 Charles St", "Boston, MA 02108"], "state": "MA", "address2": null, "address1": "149 Charles St", "zip_code": "02108", "city": "Boston", "country": "US", "address3": ""}, "url": "https://www.yelp.com/biz/beacon-hill-pub-boston?adjust_creative=gBcvfFpabk3CnzmXKdYe3w&utm_campaign=yelp_api_v3&utm_medium=api_v3_business_search&utm_source=gBcvfFpabk3CnzmXKdYe3w", "categories": [{"alias": "pubs", "title": "Pubs"}], "display_phone": "", "is_closed": false, "name": "Beacon Hill Pub", "price": "$", "review_count": 190, "coordinates": {"longitude": -71.0733572, "latitude": 42.4234042}}, {"rating": 4.0, "transactions": [], "image_url": "https://s3-media2.fl.yelpcdn.com/bphoto/pcBbFTx7cT8mZimuEc_MKA/o.jpg", "phone": "+16175674449", "id": "la-cancun-boston", "distance": 3489.336548124, "location": {"display_address": ["192 Sumner St", "Boston, MA 02128"], "state": "MA", "address2": "", "address1": "192 Sumner St", "zip_code": "02128", "city": "Boston", "country": "US", "address3": ""}, "url": "https://www.yelp.com/biz/la-cancun-boston?adjust_creative=gBcvfFpabk3CnzmXKdYe3w&utm_campaign=yelp_api_v3&utm_medium=api_v3_business_search&utm_source=gBcvfFpabk3CnzmXKdYe3w", "categories": [{"alias": "mexican", "title": "Mexican"}, {"alias": "latin", "title": "Latin American"}, {"alias": "seafood", "title": "Seafood"}], "display_phone": "(617) 567-4449", "is_closed": false, "name": "La Cancun", "price": "$$", "review_count": 65, "coordinates": {"longitude": -71.040182052625, "latitude": 42.369244077092}}, {"rating": 4.0, "transactions": [], "image_url": "https://s3-media2.fl.yelpcdn.com/bphoto/HhPj81zBljflvY5xTnQU4A/o.jpg", "phone": "+16177423922", "id": "four-winds-bar-and-grill-boston", "distance": 2455.064424334, "location": {"display_address": ["266 Commercial St", "Boston, MA 02109"], "state": "MA", "address2": "", "address1": "266 Commercial St", "zip_code": "02109", "city": "Boston", "country": "US", "address3": ""}, "url": "https://www.yelp.com/biz/four-winds-bar-and-grill-boston?adjust_creative=gBcvfFpabk3CnzmXKdYe3w&utm_campaign=yelp_api_v3&utm_medium=api_v3_business_search&utm_source=gBcvfFpabk3CnzmXKdYe3w", "categories": [{"alias": "tradamerican", "title": "American (Traditional)"}, {"alias": "pizza", "title": "Pizza"}, {"alias": "sportsbars", "title": "Sports Bars"}], "display_phone": "(617) 742-3922", "is_closed": false, "name": "Four Winds Bar and Grill", "price": "$$", "review_count": 31, "coordinates": {"longitude": -71.0513534545898, "latitude": 42.3643188476562}}, {"rating": 3.5, "transactions": [], "image_url": "https://s3-media3.fl.yelpcdn.com/bphoto/FrktjmwRiZ3PlaMnU9ypUA/o.jpg", "phone": "+16173387721", "id": "new-golden-gate-boston-2", "distance": 1002.354566372, "location": {"display_address": ["66 Beach St", "Boston, MA 02111"], "state": "MA", "address2": null, "address1": "66 Beach St", "zip_code": "02111", "city": "Boston", "country": "US", "address3": ""}, "url": "https://www.yelp.com/biz/new-golden-gate-boston-2?adjust_creative=gBcvfFpabk3CnzmXKdYe3w&utm_campaign=yelp_api_v3&utm_medium=api_v3_business_search&utm_source=gBcvfFpabk3CnzmXKdYe3w", "categories": [{"alias": "chinese", "title": "Chinese"}], "display_phone": "(617) 338-7721", "is_closed": false, "name": "New Golden Gate", "price": "$$", "review_count": 238, "coordinates": {"longitude": -71.0595946, "latitude": 42.3512652}}, {"rating": 3.5, "transactions": [], "image_url": "https://s3-media3.fl.yelpcdn.com/bphoto/MgMFbmwclVFz7eDPEIL2Qw/o.jpg", "phone": "+16174826060", "id": "the-merchant-boston-4", "distance": 1364.8663997918, "location": {"display_address": ["60 Franklin St", "Boston, MA 02110"], "state": "MA", "address2": "", "address1": "60 Franklin St", "zip_code": "02110", "city": "Boston", "country": "US", "address3": ""}, "url": "https://www.yelp.com/biz/the-merchant-boston-4?adjust_creative=gBcvfFpabk3CnzmXKdYe3w&utm_campaign=yelp_api_v3&utm_medium=api_v3_business_search&utm_source=gBcvfFpabk3CnzmXKdYe3w", "categories": [{"alias": "newamerican", "title": "American (New)"}, {"alias": "brasseries", "title": "Brasseries"}], "display_phone": "(617) 482-6060", "is_closed": false, "name": "The Merchant", "price": "$$", "review_count": 230, "coordinates": {"longitude": -71.0584067222325, "latitude": 42.3556297489967}}, {"rating": 3.5, "transactions": [], "image_url": "https://s3-media1.fl.yelpcdn.com/bphoto/x5xft3hSjyM6SGZPQ22GtQ/o.jpg", "phone": "+16172620911", "id": "mcgreevys-boston", "distance": 1084.95506841, "location": {"display_address": ["911 Boylston St", "Boston, MA 02115"], "state": "MA", "address2": "", "address1": "911 Boylston St", "zip_code": "02115", "city": "Boston", "country": "US", "address3": ""}, "url": "https://www.yelp.com/biz/mcgreevys-boston?adjust_creative=gBcvfFpabk3CnzmXKdYe3w&utm_campaign=yelp_api_v3&utm_medium=api_v3_business_search&utm_source=gBcvfFpabk3CnzmXKdYe3w", "categories": [{"alias": "sportsbars", "title": "Sports Bars"}, {"alias": "breakfast_brunch", "title": "Breakfast & Brunch"}, {"alias": "irish", "title": "Irish"}], "display_phone": "(617) 262-0911", "is_closed": false, "name": "McGreevy's", "price": "$$", "review_count": 274, "coordinates": {"longitude": -71.0844268798828, "latitude": 42.348461151123}}, {"rating": 3.5, "transactions": [], "image_url": "https://s3-media3.fl.yelpcdn.com/bphoto/x5AJmjzY9Sp9RT_HzA1XsA/o.jpg", "phone": "+16175661244", "id": "the-mission-bar-and-grill-boston", "distance": 3187.6264972279996, "location": {"display_address": ["724 Huntington Ave", "Boston, MA 02120"], "state": "MA", "address2": null, "address1": "724 Huntington Ave", "zip_code": "02120", "city": "Boston", "country": "US", "address3": ""}, "url": "https://www.yelp.com/biz/the-mission-bar-and-grill-boston?adjust_creative=gBcvfFpabk3CnzmXKdYe3w&utm_campaign=yelp_api_v3&utm_medium=api_v3_business_search&utm_source=gBcvfFpabk3CnzmXKdYe3w", "categories": [{"alias": "bars", "title": "Bars"}, {"alias": "newamerican", "title": "American (New)"}], "display_phone": "(617) 566-1244", "is_closed": false, "name": "The Mission Bar & Grill", "price": "$$", "review_count": 261, "coordinates": {"longitude": -71.10523, "latitude": 42.33375}}, {"rating": 3.5, "transactions": [], "image_url": "https://s3-media3.fl.yelpcdn.com/bphoto/JJ3c9sHJg7sU5eg27DmyFA/o.jpg", "phone": "+16174519460", "id": "central-wharf-co-boston", "distance": 1934.7047739519999, "location": {"display_address": ["160 Milk St", "Boston, MA 02109"], "state": "MA", "address2": "", "address1": "160 Milk St", "zip_code": "02109", "city": "Boston", "country": "US", "address3": ""}, "url": "https://www.yelp.com/biz/central-wharf-co-boston?adjust_creative=gBcvfFpabk3CnzmXKdYe3w&utm_campaign=yelp_api_v3&utm_medium=api_v3_business_search&utm_source=gBcvfFpabk3CnzmXKdYe3w", "categories": [{"alias": "bars", "title": "Bars"}, {"alias": "newamerican", "title": "American (New)"}], "display_phone": "(617) 451-9460", "is_closed": false, "name": "Central Wharf Co", "price": "$$", "review_count": 83, "coordinates": {"longitude": -71.0527324, "latitude": 42.3585953}}, {"rating": 3.0, "transactions": ["delivery"], "image_url": "https://s3-media3.fl.yelpcdn.com/bphoto/haoflMVKWrvPKVIDeG2Naw/o.jpg", "phone": "+16173388158", "id": "chau-chow-city-boston", "distance": 1041.923891754, "location": {"display_address": ["83 Essex St", "Boston, MA 02111"], "state": "MA", "address2": "", "address1": "83 Essex St", "zip_code": "02111", "city": "Boston", "country": "US", "address3": ""}, "url": "https://www.yelp.com/biz/chau-chow-city-boston?adjust_creative=gBcvfFpabk3CnzmXKdYe3w&utm_campaign=yelp_api_v3&utm_medium=api_v3_business_search&utm_source=gBcvfFpabk3CnzmXKdYe3w", "categories": [{"alias": "dimsum", "title": "Dim Sum"}, {"alias": "seafood", "title": "Seafood"}, {"alias": "cantonese", "title": "Cantonese"}], "display_phone": "(617) 338-8158", "is_closed": false, "name": "Chau Chow City", "price": "$$", "review_count": 356, "coordinates": {"longitude": -71.0602416, "latitude": 42.3525011}}, {"rating": 3.5, "transactions": [], "image_url": "https://s3-media3.fl.yelpcdn.com/bphoto/071iGfrLq1XZD6-535z5MA/o.jpg", "phone": "+18572411144", "id": "alibi-boston-3", "distance": 1578.392069932, "location": {"display_address": ["215 Charles St", "Boston, MA 02114"], "state": "MA", "address2": null, "address1": "215 Charles St", "zip_code": "02114", "city": "Boston", "country": "US", "address3": null}, "url": "https://www.yelp.com/biz/alibi-boston-3?adjust_creative=gBcvfFpabk3CnzmXKdYe3w&utm_campaign=yelp_api_v3&utm_medium=api_v3_business_search&utm_source=gBcvfFpabk3CnzmXKdYe3w", "categories": [{"alias": "lounges", "title": "Lounges"}, {"alias": "newamerican", "title": "American (New)"}], "display_phone": "(857) 241-1144", "is_closed": false, "name": "Alibi", "price": "$$$", "review_count": 297, "coordinates": {"longitude": -71.070142, "latitude": 42.362014}}, {"rating": 3.5, "transactions": [], "image_url": "https://s3-media4.fl.yelpcdn.com/bphoto/aQx0NasjLMoGSJ2EqYn7ew/o.jpg", "phone": "+16177230888", "id": "garden-halal-meat-boston", "distance": 1963.573597674, "location": {"display_address": ["96 Blackstone St", "Boston, MA 02109"], "state": "MA", "address2": "", "address1": "96 Blackstone St", "zip_code": "02109", "city": "Boston", "country": "US", "address3": ""}, "url": "https://www.yelp.com/biz/garden-halal-meat-boston?adjust_creative=gBcvfFpabk3CnzmXKdYe3w&utm_campaign=yelp_api_v3&utm_medium=api_v3_business_search&utm_source=gBcvfFpabk3CnzmXKdYe3w", "categories": [{"alias": "african", "title": "African"}, {"alias": "mideastern", "title": "Middle Eastern"}, {"alias": "halal", "title": "Halal"}], "display_phone": "(617) 723-0888", "is_closed": false, "name": "Garden Halal Meat", "price": "$", "review_count": 19, "coordinates": {"longitude": -71.0563402622938, "latitude": 42.3616062104702}}, {"rating": 3.5, "transactions": [], "image_url": "https://s3-media2.fl.yelpcdn.com/bphoto/lzpe_2pSOh6xosqDhleVTg/o.jpg", "phone": "+16177205570", "id": "anthem-kitchen-and-bar-boston", "distance": 1845.8627685919998, "location": {"display_address": ["101 S Market St", "Boston, MA 02109"], "state": "MA", "address2": "", "address1": "101 S Market St", "zip_code": "02109", "city": "Boston", "country": "US", "address3": ""}, "url": "https://www.yelp.com/biz/anthem-kitchen-and-bar-boston?adjust_creative=gBcvfFpabk3CnzmXKdYe3w&utm_campaign=yelp_api_v3&utm_medium=api_v3_business_search&utm_source=gBcvfFpabk3CnzmXKdYe3w", "categories": [{"alias": "newamerican", "title": "American (New)"}, {"alias": "bars", "title": "Bars"}], "display_phone": "(617) 720-5570", "is_closed": false, "name": "Anthem Kitchen and Bar", "price": "$$", "review_count": 348, "coordinates": {"longitude": -71.0556122920653, "latitude": 42.359763021257}}, {"rating": 3.5, "transactions": [], "image_url": "https://s3-media4.fl.yelpcdn.com/bphoto/eZ27lI4K5njJ8RHO7BLbxA/o.jpg", "phone": "+16173307430", "id": "legal-test-kitchen-boston", "distance": 2661.727337632, "location": {"display_address": ["225 Northern Ave", "Boston, MA 02210"], "state": "MA", "address2": "", "address1": "225 Northern Ave", "zip_code": "02210", "city": "Boston", "country": "US", "address3": ""}, "url": "https://www.yelp.com/biz/legal-test-kitchen-boston?adjust_creative=gBcvfFpabk3CnzmXKdYe3w&utm_campaign=yelp_api_v3&utm_medium=api_v3_business_search&utm_source=gBcvfFpabk3CnzmXKdYe3w", "categories": [{"alias": "newamerican", "title": "American (New)"}, {"alias": "seafood", "title": "Seafood"}, {"alias": "gluten_free", "title": "Gluten-Free"}], "display_phone": "(617) 330-7430", "is_closed": false, "name": "Legal Test Kitchen", "price": "$$", "review_count": 614, "coordinates": {"longitude": -71.0388763993979, "latitude": 42.3487845808268}}, {"rating": 3.5, "transactions": [], "image_url": "https://s3-media1.fl.yelpcdn.com/bphoto/zA5jOh4oCWLb99HtjqNfKw/o.jpg", "phone": "+16177426192", "id": "the-hill-tavern-boston", "distance": 1518.6792151323998, "location": {"display_address": ["228 Cambridge St", "Boston, MA 02114"], "state": "MA", "address2": "", "address1": "228 Cambridge St", "zip_code": "02114", "city": "Boston", "country": "US", "address3": ""}, "url": "https://www.yelp.com/biz/the-hill-tavern-boston?adjust_creative=gBcvfFpabk3CnzmXKdYe3w&utm_campaign=yelp_api_v3&utm_medium=api_v3_business_search&utm_source=gBcvfFpabk3CnzmXKdYe3w", "categories": [{"alias": "pubs", "title": "Pubs"}, {"alias": "breakfast_brunch", "title": "Breakfast & Brunch"}, {"alias": "sandwiches", "title": "Sandwiches"}], "display_phone": "(617) 742-6192", "is_closed": false, "name": "The Hill Tavern", "price": "$$", "review_count": 199, "coordinates": {"longitude": -71.066658, "latitude": 42.360981}}, {"rating": 3.5, "transactions": [], "image_url": "https://s3-media1.fl.yelpcdn.com/bphoto/oW7uRebdLsiIEI-epfX_Yg/o.jpg", "phone": "+16176700507", "id": "hojoko-boston-boston", "distance": 2133.519901674, "location": {"display_address": ["1271 Boylston St", "Boston, MA 02215"], "state": "MA", "address2": "", "address1": "1271 Boylston St", "zip_code": "02215", "city": "Boston", "country": "US", "address3": ""}, "url": "https://www.yelp.com/biz/hojoko-boston-boston?adjust_creative=gBcvfFpabk3CnzmXKdYe3w&utm_campaign=yelp_api_v3&utm_medium=api_v3_business_search&utm_source=gBcvfFpabk3CnzmXKdYe3w", "categories": [{"alias": "japanese", "title": "Japanese"}, {"alias": "cocktailbars", "title": "Cocktail Bars"}], "display_phone": "(617) 670-0507", "is_closed": false, "name": "Hojoko Boston", "price": "$$", "review_count": 203, "coordinates": {"longitude": -71.0969520423279, "latitude": 42.3451899451252}}, {"rating": 3.0, "transactions": [], "image_url": "https://s3-media4.fl.yelpcdn.com/bphoto/DhvFXlNTTPjl4oj3jh4vEA/o.jpg", "phone": "+16172272098", "id": "the-bell-in-hand-boston", "distance": 1915.993138706, "location": {"display_address": ["45 Union St", "Boston, MA 02108"], "state": "MA", "address2": "", "address1": "45 Union St", "zip_code": "02108", "city": "Boston", "country": "US", "address3": ""}, "url": "https://www.yelp.com/biz/the-bell-in-hand-boston?adjust_creative=gBcvfFpabk3CnzmXKdYe3w&utm_campaign=yelp_api_v3&utm_medium=api_v3_business_search&utm_source=gBcvfFpabk3CnzmXKdYe3w", "categories": [{"alias": "lounges", "title": "Lounges"}, {"alias": "pubs", "title": "Pubs"}, {"alias": "musicvenues", "title": "Music Venues"}], "display_phone": "(617) 227-2098", "is_closed": false, "name": "The Bell In Hand", "price": "$$", "review_count": 579, "coordinates": {"longitude": -71.0570678710938, "latitude": 42.3615760803223}}, {"rating": 3.5, "transactions": [], "image_url": "https://s3-media4.fl.yelpcdn.com/bphoto/yS8stoGfrftxQzfMptUypQ/o.jpg", "phone": "+16175232175", "id": "the-red-hat-boston", "distance": 1594.851594782, "location": {"display_address": ["9 Bowdoin St", "Boston, MA 02114"], "state": "MA", "address2": "", "address1": "9 Bowdoin St", "zip_code": "02114", "city": "Boston", "country": "US", "address3": ""}, "url": "https://www.yelp.com/biz/the-red-hat-boston?adjust_creative=gBcvfFpabk3CnzmXKdYe3w&utm_campaign=yelp_api_v3&utm_medium=api_v3_business_search&utm_source=gBcvfFpabk3CnzmXKdYe3w", "categories": [{"alias": "divebars", "title": "Dive Bars"}, {"alias": "tradamerican", "title": "American (Traditional)"}], "display_phone": "(617) 523-2175", "is_closed": false, "name": "The Red Hat", "price": "$$", "review_count": 199, "coordinates": {"longitude": -71.06318, "latitude": 42.36099}}, {"rating": 3.5, "transactions": [], "image_url": "https://s3-media3.fl.yelpcdn.com/bphoto/m_doIWwamlw4usoa3XUiAw/o.jpg", "phone": "+16174248500", "id": "minibar-boston", "distance": 608.3580879942, "location": {"display_address": ["51 Huntington Ave", "Boston, MA 02116"], "state": "MA", "address2": "", "address1": "51 Huntington Ave", "zip_code": "02116", "city": "Boston", "country": "US", "address3": ""}, "url": "https://www.yelp.com/biz/minibar-boston?adjust_creative=gBcvfFpabk3CnzmXKdYe3w&utm_campaign=yelp_api_v3&utm_medium=api_v3_business_search&utm_source=gBcvfFpabk3CnzmXKdYe3w", "categories": [{"alias": "lounges", "title": "Lounges"}], "display_phone": "(617) 424-8500", "is_closed": false, "name": "Minibar", "price": "$$$", "review_count": 133, "coordinates": {"longitude": -71.07862, "latitude": 42.34836}}, {"rating": 3.0, "transactions": [], "image_url": "https://s3-media3.fl.yelpcdn.com/bphoto/2a6wdHX18rMsbdco6Tt3VA/o.jpg", "phone": "+16175360966", "id": "club-cafe-boston", "distance": 121.52346175843999, "location": {"display_address": ["209 Columbus Ave", "Boston, MA 02116"], "state": "MA", "address2": "", "address1": "209 Columbus Ave", "zip_code": "02116", "city": "Boston", "country": "US", "address3": ""}, "url": "https://www.yelp.com/biz/club-cafe-boston?adjust_creative=gBcvfFpabk3CnzmXKdYe3w&utm_campaign=yelp_api_v3&utm_medium=api_v3_business_search&utm_source=gBcvfFpabk3CnzmXKdYe3w", "categories": [{"alias": "pubs", "title": "Pubs"}, {"alias": "italian", "title": "Italian"}, {"alias": "danceclubs", "title": "Dance Clubs"}], "display_phone": "(617) 536-0966", "is_closed": false, "name": "Club Cafe", "price": "$$", "review_count": 285, "coordinates": {"longitude": -71.0724468, "latitude": 42.3482771}}, {"rating": 3.0, "transactions": [], "image_url": "https://s3-media1.fl.yelpcdn.com/bphoto/yxlSQXDXMWbtOdKuxGvsJw/o.jpg", "phone": "+16172480025", "id": "scholars-american-bistro-and-cocktail-lounge-boston", "distance": 1482.191518356, "location": {"display_address": ["25 School St", "Boston, MA 02108"], "state": "MA", "address2": "", "address1": "25 School St", "zip_code": "02108", "city": "Boston", "country": "US", "address3": ""}, "url": "https://www.yelp.com/biz/scholars-american-bistro-and-cocktail-lounge-boston?adjust_creative=gBcvfFpabk3CnzmXKdYe3w&utm_campaign=yelp_api_v3&utm_medium=api_v3_business_search&utm_source=gBcvfFpabk3CnzmXKdYe3w", "categories": [{"alias": "newamerican", "title": "American (New)"}, {"alias": "poolhalls", "title": "Pool Halls"}, {"alias": "cocktailbars", "title": "Cocktail Bars"}], "display_phone": "(617) 248-0025", "is_closed": false, "name": "Scholars American Bistro & Cocktail Lounge", "price": "$$", "review_count": 293, "coordinates": {"longitude": -71.059207250754, "latitude": 42.357769319572}}, {"rating": 3.5, "transactions": ["delivery", "pickup"], "image_url": "https://s3-media2.fl.yelpcdn.com/bphoto/0xCDYbt7o4Dz5n1xhPf3Ew/o.jpg", "phone": "+16175234055", "id": "roccos-cucina-and-bar-boston-6", "distance": 2633.7748721059997, "location": {"display_address": ["450 Commercial St", "Boston, MA 02109"], "state": "MA", "address2": null, "address1": "450 Commercial St", "zip_code": "02109", "city": "Boston", "country": "US", "address3": ""}, "url": "https://www.yelp.com/biz/roccos-cucina-and-bar-boston-6?adjust_creative=gBcvfFpabk3CnzmXKdYe3w&utm_campaign=yelp_api_v3&utm_medium=api_v3_business_search&utm_source=gBcvfFpabk3CnzmXKdYe3w", "categories": [{"alias": "sportsbars", "title": "Sports Bars"}, {"alias": "italian", "title": "Italian"}, {"alias": "burgers", "title": "Burgers"}], "display_phone": "(617) 523-4055", "is_closed": false, "name": "Rocco's Cucina & Bar", "price": "$$", "review_count": 102, "coordinates": {"longitude": -71.053254, "latitude": 42.3674477}}, {"rating": 3.5, "transactions": [], "image_url": "https://s3-media4.fl.yelpcdn.com/bphoto/mhohqCVjj9g9q9luyU7rPA/o.jpg", "phone": "+16177420306", "id": "6b-lounge-boston", "distance": 1414.778357898, "location": {"display_address": ["6B Beacon St", "Boston, MA 02108"], "state": "MA", "address2": null, "address1": "6B Beacon St", "zip_code": "02108", "city": "Boston", "country": "US", "address3": ""}, "url": "https://www.yelp.com/biz/6b-lounge-boston?adjust_creative=gBcvfFpabk3CnzmXKdYe3w&utm_campaign=yelp_api_v3&utm_medium=api_v3_business_search&utm_source=gBcvfFpabk3CnzmXKdYe3w", "categories": [{"alias": "lounges", "title": "Lounges"}, {"alias": "tapasmallplates", "title": "Tapas/Small Plates"}], "display_phone": "(617) 742-0306", "is_closed": false, "name": "6B Lounge", "price": "$$", "review_count": 152, "coordinates": {"longitude": -71.06159, "latitude": 42.358}}, {"rating": 3.0, "transactions": ["delivery"], "image_url": "https://s3-media1.fl.yelpcdn.com/bphoto/4uIXlQXI3zALGEqK5z4bVA/o.jpg", "phone": "+16175422504", "id": "east-ocean-city-boston", "distance": 864.24857147, "location": {"display_address": ["27 Beach St", "Boston, MA 02111"], "state": "MA", "address2": "", "address1": "27 Beach St", "zip_code": "02111", "city": "Boston", "country": "US", "address3": ""}, "url": "https://www.yelp.com/biz/east-ocean-city-boston?adjust_creative=gBcvfFpabk3CnzmXKdYe3w&utm_campaign=yelp_api_v3&utm_medium=api_v3_business_search&utm_source=gBcvfFpabk3CnzmXKdYe3w", "categories": [{"alias": "chinese", "title": "Chinese"}, {"alias": "seafood", "title": "Seafood"}], "display_phone": "(617) 542-2504", "is_closed": false, "name": "East Ocean City", "price": "$$", "review_count": 174, "coordinates": {"longitude": -71.0615663, "latitude": 42.3513252}}, {"rating": 4.0, "transactions": [], "image_url": "https://s3-media4.fl.yelpcdn.com/bphoto/jwfxMep8mcYTOxz6ZisEnQ/o.jpg", "phone": "+18572039462", "id": "the-frogmore-boston-2", "distance": 4147.720278002, "location": {"display_address": ["365 Centre St", "Boston, MA 02130"], "state": "MA", "address2": "", "address1": "365 Centre St", "zip_code": "02130", "city": "Boston", "country": "US", "address3": ""}, "url": "https://www.yelp.com/biz/the-frogmore-boston-2?adjust_creative=gBcvfFpabk3CnzmXKdYe3w&utm_campaign=yelp_api_v3&utm_medium=api_v3_business_search&utm_source=gBcvfFpabk3CnzmXKdYe3w", "categories": [{"alias": "tradamerican", "title": "American (Traditional)"}, {"alias": "bars", "title": "Bars"}], "display_phone": "(857) 203-9462", "is_closed": false, "name": "The Frogmore", "price": "$$", "review_count": 111, "coordinates": {"longitude": -71.1082798987627, "latitude": 42.3225067822998}}, {"rating": 3.5, "transactions": ["delivery"], "image_url": "https://s3-media1.fl.yelpcdn.com/bphoto/pFrglmQrIyb5ekX5yoeJcw/o.jpg", "phone": "+16174821900", "id": "vintage-restaurant-and-lounge-boston", "distance": 1861.0055314539998, "location": {"display_address": ["72 Broad St", "Boston, MA 02110"], "state": "MA", "address2": null, "address1": "72 Broad St", "zip_code": "02110", "city": "Boston", "country": "US", "address3": ""}, "url": "https://www.yelp.com/biz/vintage-restaurant-and-lounge-boston?adjust_creative=gBcvfFpabk3CnzmXKdYe3w&utm_campaign=yelp_api_v3&utm_medium=api_v3_business_search&utm_source=gBcvfFpabk3CnzmXKdYe3w", "categories": [{"alias": "lounges", "title": "Lounges"}, {"alias": "newamerican", "title": "American (New)"}], "display_phone": "(617) 482-1900", "is_closed": false, "name": "Vintage Restaurant and Lounge", "price": "$$", "review_count": 121, "coordinates": {"longitude": -71.05302, "latitude": 42.3577}}, {"rating": 3.5, "transactions": ["pickup"], "image_url": "https://s3-media3.fl.yelpcdn.com/bphoto/beN9YIs0ul55Bki04_3k2g/o.jpg", "phone": "+16172279100", "id": "causeway-restaurant-and-bar-boston-3", "distance": 1984.409722654, "location": {"display_address": ["65 Causeway St", "Boston, MA 02114"], "state": "MA", "address2": "", "address1": "65 Causeway St", "zip_code": "02114", "city": "Boston", "country": "US", "address3": ""}, "url": "https://www.yelp.com/biz/causeway-restaurant-and-bar-boston-3?adjust_creative=gBcvfFpabk3CnzmXKdYe3w&utm_campaign=yelp_api_v3&utm_medium=api_v3_business_search&utm_source=gBcvfFpabk3CnzmXKdYe3w", "categories": [{"alias": "bbq", "title": "Barbeque"}, {"alias": "bars", "title": "Bars"}, {"alias": "sandwiches", "title": "Sandwiches"}], "display_phone": "(617) 227-9100", "is_closed": false, "name": "Causeway Restaurant & Bar", "price": "$$", "review_count": 98, "coordinates": {"longitude": -71.0627413541079, "latitude": 42.3645493372538}}, {"rating": 3.5, "transactions": [], "image_url": "https://s3-media4.fl.yelpcdn.com/bphoto/qvpJiElVFesRlmzH0tGBQg/o.jpg", "phone": "+16173386060", "id": "cathedral-station-boston", "distance": 662.506215222, "location": {"display_address": ["1222 Washington St", "Boston, MA 02118"], "state": "MA", "address2": "", "address1": "1222 Washington St", "zip_code": "02118", "city": "Boston", "country": "US", "address3": ""}, "url": "https://www.yelp.com/biz/cathedral-station-boston?adjust_creative=gBcvfFpabk3CnzmXKdYe3w&utm_campaign=yelp_api_v3&utm_medium=api_v3_business_search&utm_source=gBcvfFpabk3CnzmXKdYe3w", "categories": [{"alias": "sportsbars", "title": "Sports Bars"}, {"alias": "gaybars", "title": "Gay Bars"}, {"alias": "pubs", "title": "Pubs"}], "display_phone": "(617) 338-6060", "is_closed": false, "name": "Cathedral Station", "price": "$$", "review_count": 36, "coordinates": {"longitude": -71.066907314402, "latitude": 42.3428190425811}}, {"rating": 3.0, "transactions": [], "image_url": "https://s3-media1.fl.yelpcdn.com/bphoto/kkdnVcKaA23h3HZ8IaWfTg/o.jpg", "phone": "+16174260111", "id": "beantown-pub-boston", "distance": 1364.652244918, "location": {"display_address": ["100 Tremont St", "Boston, MA 02108"], "state": "MA", "address2": null, "address1": "100 Tremont St", "zip_code": "02108", "city": "Boston", "country": "US", "address3": ""}, "url": "https://www.yelp.com/biz/beantown-pub-boston?adjust_creative=gBcvfFpabk3CnzmXKdYe3w&utm_campaign=yelp_api_v3&utm_medium=api_v3_business_search&utm_source=gBcvfFpabk3CnzmXKdYe3w", "categories": [{"alias": "pubs", "title": "Pubs"}, {"alias": "tradamerican", "title": "American (Traditional)"}, {"alias": "breakfast_brunch", "title": "Breakfast & Brunch"}], "display_phone": "(617) 426-0111", "is_closed": false, "name": "Beantown Pub", "price": "$$", "review_count": 492, "coordinates": {"longitude": -71.060911746876, "latitude": 42.357451481565}}, {"rating": 3.0, "transactions": ["delivery", "pickup"], "image_url": "https://s3-media3.fl.yelpcdn.com/bphoto/2_xPoksiU0ZfnuiNps4fyg/o.jpg", "phone": "+16172668888", "id": "dumpling-palace-boston", "distance": 1345.283033348, "location": {"display_address": ["179 Massachusetts Ave", "Boston, MA 02115"], "state": "MA", "address2": "", "address1": "179 Massachusetts Ave", "zip_code": "02115", "city": "Boston", "country": "US", "address3": ""}, "url": "https://www.yelp.com/biz/dumpling-palace-boston?adjust_creative=gBcvfFpabk3CnzmXKdYe3w&utm_campaign=yelp_api_v3&utm_medium=api_v3_business_search&utm_source=gBcvfFpabk3CnzmXKdYe3w", "categories": [{"alias": "taiwanese", "title": "Taiwanese"}, {"alias": "chinese", "title": "Chinese"}], "display_phone": "(617) 266-8888", "is_closed": false, "name": "Dumpling Palace", "price": "$$", "review_count": 224, "coordinates": {"longitude": -71.0873413085938, "latitude": 42.345703125}}, {"rating": 3.5, "transactions": ["delivery", "pickup"], "image_url": "https://s3-media1.fl.yelpcdn.com/bphoto/IGpp94YPBYu1lVHGYq45LA/o.jpg", "phone": "+16175421763", "id": "china-king-boston", "distance": 997.6818476819999, "location": {"display_address": ["60 Beach St", "Boston, MA 02111"], "state": "MA", "address2": "", "address1": "60 Beach St", "zip_code": "02111", "city": "Boston", "country": "US", "address3": ""}, "url": "https://www.yelp.com/biz/china-king-boston?adjust_creative=gBcvfFpabk3CnzmXKdYe3w&utm_campaign=yelp_api_v3&utm_medium=api_v3_business_search&utm_source=gBcvfFpabk3CnzmXKdYe3w", "categories": [{"alias": "chinese", "title": "Chinese"}, {"alias": "seafood", "title": "Seafood"}, {"alias": "soup", "title": "Soup"}], "display_phone": "(617) 542-1763", "is_closed": false, "name": "China King", "price": "$$", "review_count": 93, "coordinates": {"longitude": -71.0601654052734, "latitude": 42.3514404296875}}, {"rating": 3.5, "transactions": ["delivery"], "image_url": "https://s3-media1.fl.yelpcdn.com/bphoto/4PUhSWD2WvhWZERlMlta3w/o.jpg", "phone": "+16177424336", "id": "artu-boston-2", "distance": 2313.124015948, "location": {"display_address": ["6 Prince St", "Boston, MA 02113"], "state": "MA", "address2": "", "address1": "6 Prince St", "zip_code": "02113", "city": "Boston", "country": "US", "address3": ""}, "url": "https://www.yelp.com/biz/artu-boston-2?adjust_creative=gBcvfFpabk3CnzmXKdYe3w&utm_campaign=yelp_api_v3&utm_medium=api_v3_business_search&utm_source=gBcvfFpabk3CnzmXKdYe3w", "categories": [{"alias": "italian", "title": "Italian"}, {"alias": "diners", "title": "Diners"}, {"alias": "wine_bars", "title": "Wine Bars"}], "display_phone": "(617) 742-4336", "is_closed": false, "name": "Artu", "price": "$$", "review_count": 272, "coordinates": {"longitude": -71.0537365, "latitude": 42.3641323}}, {"rating": 3.0, "transactions": [], "image_url": "https://s3-media2.fl.yelpcdn.com/bphoto/XSb2dVMHhXdg9rZFShDiqA/o.jpg", "phone": "+16174822255", "id": "mj-o-connors-irish-pub-boston", "distance": 415.2579036396, "location": {"display_address": ["27 Columbus Ave", "Boston, MA 02116"], "state": "MA", "address2": "", "address1": "27 Columbus Ave", "zip_code": "02116", "city": "Boston", "country": "US", "address3": ""}, "url": "https://www.yelp.com/biz/mj-o-connors-irish-pub-boston?adjust_creative=gBcvfFpabk3CnzmXKdYe3w&utm_campaign=yelp_api_v3&utm_medium=api_v3_business_search&utm_source=gBcvfFpabk3CnzmXKdYe3w", "categories": [{"alias": "pubs", "title": "Pubs"}, {"alias": "tradamerican", "title": "American (Traditional)"}, {"alias": "irish_pubs", "title": "Irish Pub"}], "display_phone": "(617) 482-2255", "is_closed": false, "name": "MJ O'Connor's Irish Pub", "price": "$$", "review_count": 188, "coordinates": {"longitude": -71.0689188256007, "latitude": 42.3511597728604}}, {"rating": 3.5, "transactions": [], "image_url": "https://s3-media1.fl.yelpcdn.com/bphoto/W2UUWAYyCN7r2G79cTRYVQ/o.jpg", "phone": "+16172175148", "id": "rumba-boston", "distance": 1734.570309298, "location": {"display_address": ["510 Atlantic Ave", "InterContinental Boston", "Boston, MA 02210"], "state": "MA", "address2": "", "address1": "510 Atlantic Ave", "zip_code": "02210", "city": "Boston", "country": "US", "address3": "InterContinental Boston"}, "url": "https://www.yelp.com/biz/rumba-boston?adjust_creative=gBcvfFpabk3CnzmXKdYe3w&utm_campaign=yelp_api_v3&utm_medium=api_v3_business_search&utm_source=gBcvfFpabk3CnzmXKdYe3w", "categories": [{"alias": "lounges", "title": "Lounges"}, {"alias": "wine_bars", "title": "Wine Bars"}], "display_phone": "(617) 217-5148", "is_closed": false, "name": "RumBa", "price": "$$$", "review_count": 103, "coordinates": {"longitude": -71.051903, "latitude": 42.354093}}, {"rating": 5.0, "transactions": [], "image_url": "https://s3-media4.fl.yelpcdn.com/bphoto/_1nJVH8l_7n4pVV1ns0LKw/o.jpg", "phone": "+16173347722", "id": "alpha-locksmith-boston-3", "distance": 1407.1586158, "location": {"display_address": ["Boston, MA 02135"], "state": "MA", "address2": null, "address1": "", "zip_code": "02135", "city": "Boston", "country": "US", "address3": ""}, "url": "https://www.yelp.com/biz/alpha-locksmith-boston-3?adjust_creative=gBcvfFpabk3CnzmXKdYe3w&utm_campaign=yelp_api_v3&utm_medium=api_v3_business_search&utm_source=gBcvfFpabk3CnzmXKdYe3w", "categories": [{"alias": "locksmiths", "title": "Keys & Locksmiths"}], "display_phone": "(617) 334-7722", "is_closed": false, "name": "Alpha Locksmith", "review_count": 74, "coordinates": {"longitude": -71.0861554078705, "latitude": 42.3416290949687}}, {"rating": 3.5, "transactions": [], "image_url": "https://s3-media1.fl.yelpcdn.com/bphoto/jH0KKkFQK9Ms3h3HvIuDqg/o.jpg", "phone": "+16172631449", "id": "the-alley-boston-2", "distance": 1534.3601251970001, "location": {"display_address": ["14 Pi Aly", "Boston, MA 02108"], "state": "MA", "address2": "", "address1": "14 Pi Aly", "zip_code": "02108", "city": "Boston", "country": "US", "address3": ""}, "url": "https://www.yelp.com/biz/the-alley-boston-2?adjust_creative=gBcvfFpabk3CnzmXKdYe3w&utm_campaign=yelp_api_v3&utm_medium=api_v3_business_search&utm_source=gBcvfFpabk3CnzmXKdYe3w", "categories": [{"alias": "gaybars", "title": "Gay Bars"}, {"alias": "poolhalls", "title": "Pool Halls"}, {"alias": "danceclubs", "title": "Dance Clubs"}], "display_phone": "(617) 263-1449", "is_closed": false, "name": "The Alley", "price": "$", "review_count": 60, "coordinates": {"longitude": -71.0588139295578, "latitude": 42.3581220209599}}, {"rating": 3.5, "transactions": [], "image_url": "https://s3-media2.fl.yelpcdn.com/bphoto/584EqFCE3snAEJzig2d5Bw/o.jpg", "phone": "+16175679539", "id": "jevelis-restaurant-boston", "distance": 5053.48531532, "location": {"display_address": ["387 Chelsea St", "Boston, MA 02128"], "state": "MA", "address2": null, "address1": "387 Chelsea St", "zip_code": "02128", "city": "Boston", "country": "US", "address3": ""}, "url": "https://www.yelp.com/biz/jevelis-restaurant-boston?adjust_creative=gBcvfFpabk3CnzmXKdYe3w&utm_campaign=yelp_api_v3&utm_medium=api_v3_business_search&utm_source=gBcvfFpabk3CnzmXKdYe3w", "categories": [{"alias": "italian", "title": "Italian"}], "display_phone": "(617) 567-9539", "is_closed": false, "name": "Jeveli's Restaurant", "price": "$$", "review_count": 139, "coordinates": {"longitude": -71.0273923, "latitude": 42.3794701}}, {"rating": 3.5, "transactions": [], "image_url": "https://s3-media2.fl.yelpcdn.com/bphoto/ESNQ8QWCZ5Ve4PeHfbo8zw/o.jpg", "phone": "+16174261870", "id": "an-tain-boston", "distance": 1880.3047367339998, "location": {"display_address": ["31 India St", "Boston, MA 02110"], "state": "MA", "address2": "", "address1": "31 India St", "zip_code": "02110", "city": "Boston", "country": "US", "address3": ""}, "url": "https://www.yelp.com/biz/an-tain-boston?adjust_creative=gBcvfFpabk3CnzmXKdYe3w&utm_campaign=yelp_api_v3&utm_medium=api_v3_business_search&utm_source=gBcvfFpabk3CnzmXKdYe3w", "categories": [{"alias": "divebars", "title": "Dive Bars"}], "display_phone": "(617) 426-1870", "is_closed": false, "name": "An Tain", "price": "$", "review_count": 61, "coordinates": {"longitude": -71.0531387329102, "latitude": 42.3582305908203}}, {"rating": 3.0, "transactions": ["delivery"], "image_url": "https://s3-media4.fl.yelpcdn.com/bphoto/MfzrIIssyiM2smOTO3D_yw/o.jpg", "phone": "+16172678554", "id": "uno-pizzeria-and-grill-boston-2", "distance": 762.3209742898, "location": {"display_address": ["731 Boylston St.", "Boston, MA 02116"], "state": "MA", "address2": "", "address1": "731 Boylston St.", "zip_code": "02116", "city": "Boston", "country": "US", "address3": ""}, "url": "https://www.yelp.com/biz/uno-pizzeria-and-grill-boston-2?adjust_creative=gBcvfFpabk3CnzmXKdYe3w&utm_campaign=yelp_api_v3&utm_medium=api_v3_business_search&utm_source=gBcvfFpabk3CnzmXKdYe3w", "categories": [{"alias": "pizza", "title": "Pizza"}, {"alias": "gluten_free", "title": "Gluten-Free"}, {"alias": "tradamerican", "title": "American (Traditional)"}], "display_phone": "(617) 267-8554", "is_closed": false, "name": "Uno Pizzeria & Grill", "price": "$$", "review_count": 158, "coordinates": {"longitude": -71.0802917, "latitude": 42.3495712}}, {"rating": 3.5, "transactions": [], "image_url": "https://s3-media3.fl.yelpcdn.com/bphoto/WhlbwTG0DmPwhxIV9f7WRQ/o.jpg", "phone": "+16179899988", "id": "zc-boston-boston", "distance": 1664.734448404, "location": {"display_address": ["801 Massachusetts Ave", "Boston, MA 02118"], "state": "MA", "address2": "", "address1": "801 Massachusetts Ave", "zip_code": "02118", "city": "Boston", "country": "US", "address3": ""}, "url": "https://www.yelp.com/biz/zc-boston-boston?adjust_creative=gBcvfFpabk3CnzmXKdYe3w&utm_campaign=yelp_api_v3&utm_medium=api_v3_business_search&utm_source=gBcvfFpabk3CnzmXKdYe3w", "categories": [{"alias": "sushi", "title": "Sushi Bars"}, {"alias": "japanese", "title": "Japanese"}, {"alias": "asianfusion", "title": "Asian Fusion"}], "display_phone": "(617) 989-9988", "is_closed": false, "name": "ZC Boston", "price": "$$", "review_count": 69, "coordinates": {"longitude": -71.0727788507938, "latitude": 42.3329126089811}}], "total": 1239}