{"region": {"center": {"longitude": -71.07124328613281, "latitude": 42.34784169448538}}, "businesses": [{"rating": 2.5, "transactions": [], "image_url": "https://s3-media2.fl.yelpcdn.com/bphoto/SzvsFTL5si5CXb-K0kXl3g/o.jpg", "phone": "+16174916300", "id": "a-cambridge-house-inn-cambridge", "distance": 6775.745782957999, "location": {"display_address": ["2218 Massachusetts Ave", "Cambridge, MA 02140"], "state": "MA", "address2": "", "address1": "2218 Massachusetts Ave", "zip_code": "02140", "city": "Cambridge", "country": "US", "address3": ""}, "url": "https://www.yelp.com/biz/a-cambridge-house-inn-cambridge?adjust_creative=gBcvfFpabk3CnzmXKdYe3w&utm_campaign=yelp_api_v3&utm_medium=api_v3_business_search&utm_source=gBcvfFpabk3CnzmXKdYe3w", "categories": [{"alias": "bedbreakfast", "title": "Bed & Breakfast"}], "display_phone": "(617) 491-6300", "is_closed": false, "name": "A Cambridge House Inn", "review_count": 13, "coordinates": {"longitude": -71.1261444091797, "latitude": 42.3932952880859}}, {"rating": 5.0, "transactions": [], "image_url": "", "phone": "+16175835660", "id": "ac-general-contracting-cambridge", "distance": 6629.823706478, "location": {"display_address": ["Cambridge, MA 02138"], "state": "MA", "address2": "", "address1": "", "zip_code": "02138", "city": "Cambridge", "country": "US", "address3": null}, "url": "https://www.yelp.com/biz/ac-general-contracting-cambridge?adjust_creative=gBcvfFpabk3CnzmXKdYe3w&utm_campaign=yelp_api_v3&utm_medium=api_v3_business_search&utm_source=gBcvfFpabk3CnzmXKdYe3w", "categories": [{"alias": "contractors", "title": "Contractors"}, {"alias": "solarinstallation", "title": "Solar Installation"}, {"alias": "architects", "title": "Architects"}], "display_phone": "(617) 583-5660", "is_closed": false, "name": "AC General Contracting", "review_count": 1, "coordinates": {"longitude": -71.11965, "latitude": 42.37696}}, {"rating": 2.5, "transactions": [], "image_url": "https://s3-media4.fl.yelpcdn.com/bphoto/ShAqnmAx4p5RtJvVfqzEjQ/o.jpg", "phone": "+16175695278", "id": "walgreens-east-boston", "distance": 3989.2344060099995, "location": {"display_address": ["1 Central Sq", "East Boston, MA 02128"], "state": "MA", "address2": "", "address1": "1 Central Sq", "zip_code": "02128", "city": "East Boston", "country": "US", "address3": ""}, "url": "https://www.yelp.com/biz/walgreens-east-boston?adjust_creative=gBcvfFpabk3CnzmXKdYe3w&utm_campaign=yelp_api_v3&utm_medium=api_v3_business_search&utm_source=gBcvfFpabk3CnzmXKdYe3w", "categories": [{"alias": "drugstores", "title": "Drugstores"}, {"alias": "cosmetics", "title": "Cosmetics & Beauty Supply"}, {"alias": "convenience", "title": "Convenience Stores"}], "display_phone": "(617) 569-5278", "is_closed": false, "name": "Walgreens", "price": "$$", "review_count": 3, "coordinates": {"longitude": -71.0388336, "latitude": 42.3745193}}, {"rating": 5.0, "transactions": [], "image_url": "https://s3-media3.fl.yelpcdn.com/bphoto/Uqzztqfi_zfycYq6-252Mg/o.jpg", "phone": "+16179838500", "id": "boston-nature-center-and-wildlife-sanctuary-mattapan-3", "distance": 7088.655069979999, "location": {"display_address": ["500 Walk Hill St", "Mattapan, MA 02126"], "state": "MA", "address2": "", "address1": "500 Walk Hill St", "zip_code": "02126", "city": "Mattapan", "country": "US", "address3": ""}, "url": "https://www.yelp.com/biz/boston-nature-center-and-wildlife-sanctuary-mattapan-3?adjust_creative=gBcvfFpabk3CnzmXKdYe3w&utm_campaign=yelp_api_v3&utm_medium=api_v3_business_search&utm_source=gBcvfFpabk3CnzmXKdYe3w", "categories": [{"alias": "educationservices", "title": "Educational Services"}], "display_phone": "(617) 983-8500", "is_closed": false, "name": "Boston Nature Center & Wildlife Sanctuary", "review_count": 1, "coordinates": {"longitude": -71.1006429791451, "latitude": 42.2831254452467}}, {"rating": 1.0, "transactions": [], "image_url": "https://s3-media4.fl.yelpcdn.com/bphoto/JYxlRSRS63NbHfNgY3EuuQ/o.jpg", "phone": "+16177839707", "id": "chinese-food-restaurant-brighton", "distance": 7501.1015532, "location": {"display_address": ["525 Washington St", "Brighton, MA 02135"], "state": "MA", "address2": "", "address1": "525 Washington St", "zip_code": "02135", "city": "Brighton", "country": "US", "address3": ""}, "url": "https://www.yelp.com/biz/chinese-food-restaurant-brighton?adjust_creative=gBcvfFpabk3CnzmXKdYe3w&utm_campaign=yelp_api_v3&utm_medium=api_v3_business_search&utm_source=gBcvfFpabk3CnzmXKdYe3w", "categories": [{"alias": "chinese", "title": "Chinese"}], "display_phone": "(617) 783-9707", "is_closed": false, "name": "Chinese Food Restaurant", "review_count": 1, "coordinates": {"longitude": -71.162887, "latitude": 42.349205}}, {"rating": 2.0, "transactions": [], "image_url": "https://s3-media3.fl.yelpcdn.com/bphoto/IKC9nJnsUCaiyvDwPZImtA/o.jpg", "phone": "+15086501155", "id": "scrubadub-auto-wash-centers-brighton", "distance": 6531.29878514, "location": {"display_address": ["235 Market St", "Brighton, MA 02135"], "state": "MA", "address2": "", "address1": "235 Market St", "zip_code": "02135", "city": "Brighton", "country": "US", "address3": ""}, "url": "https://www.yelp.com/biz/scrubadub-auto-wash-centers-brighton?adjust_creative=gBcvfFpabk3CnzmXKdYe3w&utm_campaign=yelp_api_v3&utm_medium=api_v3_business_search&utm_source=gBcvfFpabk3CnzmXKdYe3w", "categories": [{"alias": "carwash", "title": "Car Wash"}], "display_phone": "(508) 650-1155", "is_closed": false, "name": "ScrubaDub Auto Wash Centers", "review_count": 16, "coordinates": {"longitude": -71.150062, "latitude": 42.355155}}, {"rating": 4.0, "transactions": [], "image_url": "https://s3-media4.fl.yelpcdn.com/bphoto/0Hq9RJGrp-BQGPjerHp4gA/o.jpg", "phone": "+17818935900", "id": "smurfs-transportation-waltham", "distance": 13323.675970459999, "location": {"display_address": ["296 Newton St", "Ste 100b", "Waltham, MA 02453"], "state": "MA", "address2": "Ste 100b", "address1": "296 Newton St", "zip_code": "02453", "city": "Waltham", "country": "US", "address3": ""}, "url": "https://www.yelp.com/biz/smurfs-transportation-waltham?adjust_creative=gBcvfFpabk3CnzmXKdYe3w&utm_campaign=yelp_api_v3&utm_medium=api_v3_business_search&utm_source=gBcvfFpabk3CnzmXKdYe3w", "categories": [{"alias": "taxis", "title": "Taxis"}, {"alias": "airport_shuttles", "title": "Airport Shuttles"}], "display_phone": "(781) 893-5900", "is_closed": false, "name": "Smurfs Transportation", "review_count": 105, "coordinates": {"longitude": -71.2311928, "latitude": 42.366981}}, {"rating": 5.0, "transactions": [], "image_url": "https://s3-media4.fl.yelpcdn.com/bphoto/xi_3ofd8W1iL1Ax9xIpmmQ/o.jpg", "phone": "+16178888542", "id": "baystatecar-newton", "distance": 9487.74487884, "location": {"display_address": ["101 Grant Ave", "Newton, MA 02459"], "state": "MA", "address2": null, "address1": "101 Grant Ave", "zip_code": "02459", "city": "Newton", "country": "US", "address3": ""}, "url": "https://www.yelp.com/biz/baystatecar-newton?adjust_creative=gBcvfFpabk3CnzmXKdYe3w&utm_campaign=yelp_api_v3&utm_medium=api_v3_business_search&utm_source=gBcvfFpabk3CnzmXKdYe3w", "categories": [{"alias": "limos", "title": "Limos"}], "display_phone": "(617) 888-8542", "is_closed": false, "name": "Baystatecar", "review_count": 2, "coordinates": {"longitude": -71.1863785, "latitude": 42.3360901}}, {"rating": 2.0, "transactions": [], "image_url": "https://s3-media1.fl.yelpcdn.com/bphoto/ZzyJ7lhT8RlF6wN0HnX5dg/o.jpg", "phone": "+16172664800", "id": "top-cab-association-revere", "distance": 8166.87907384, "location": {"display_address": ["281 Lee Burbank Hwy", "Revere, MA 02151"], "state": "MA", "address2": "", "address1": "281 Lee Burbank Hwy", "zip_code": "02151", "city": "Revere", "country": "US", "address3": ""}, "url": "https://www.yelp.com/biz/top-cab-association-revere?adjust_creative=gBcvfFpabk3CnzmXKdYe3w&utm_campaign=yelp_api_v3&utm_medium=api_v3_business_search&utm_source=gBcvfFpabk3CnzmXKdYe3w", "categories": [{"alias": "taxis", "title": "Taxis"}, {"alias": "airport_shuttles", "title": "Airport Shuttles"}], "display_phone": "(617) 266-4800", "is_closed": false, "name": "Top Cab Association", "review_count": 80, "coordinates": {"longitude": -71.00421, "latitude": 42.40207}}, {"rating": 5.0, "transactions": [], "image_url": "https://s3-media4.fl.yelpcdn.com/bphoto/JEOaxyKdCljHeg2rhZhKFQ/o.jpg", "phone": "+16513031275", "id": "time-stand-still-photography-cambridge", "distance": 7274.507607738, "location": {"display_address": ["Cambridge, MA"], "state": "MA", "address2": null, "address1": null, "zip_code": "", "city": "Cambridge", "country": "US", "address3": ""}, "url": "https://www.yelp.com/biz/time-stand-still-photography-cambridge?adjust_creative=gBcvfFpabk3CnzmXKdYe3w&utm_campaign=yelp_api_v3&utm_medium=api_v3_business_search&utm_source=gBcvfFpabk3CnzmXKdYe3w", "categories": [{"alias": "sessionphotography", "title": "Session Photography"}], "display_phone": "(651) 303-1275", "is_closed": false, "name": "Time Stand Still Photography", "review_count": 4, "coordinates": {"longitude": -71.1298286099396, "latitude": 42.3968983553059}}, {"rating": 1.5, "transactions": [], "image_url": "https://s3-media2.fl.yelpcdn.com/bphoto/LHCadOo5tsdgUve0RJnjOg/o.jpg", "phone": "+16174266862", "id": "j-and-t-mobil-roxbury", "distance": 877.9815524919999, "location": {"display_address": ["273 E Berkeley St", "Roxbury, MA 02118"], "state": "MA", "address2": "", "address1": "273 E Berkeley St", "zip_code": "02118", "city": "Roxbury", "country": "US", "address3": ""}, "url": "https://www.yelp.com/biz/j-and-t-mobil-roxbury?adjust_creative=gBcvfFpabk3CnzmXKdYe3w&utm_campaign=yelp_api_v3&utm_medium=api_v3_business_search&utm_source=gBcvfFpabk3CnzmXKdYe3w", "categories": [{"alias": "servicestations", "title": "Gas & Service Stations"}], "display_phone": "(617) 426-6862", "is_closed": false, "name": "J and T Mobil", "review_count": 3, "coordinates": {"longitude": -71.0631027, "latitude": 42.3430214}}, {"rating": 5.0, "transactions": [], "image_url": "https://s3-media1.fl.yelpcdn.com/bphoto/fSViBRhAqTVWzmMJ8peZTQ/o.jpg", "phone": "+17813916100", "id": "corfu-painting-company-medford-2", "distance": 7181.63227447, "location": {"display_address": ["26 Golden Ave", "Medford, MA 02155"], "state": "MA", "address2": "", "address1": "26 Golden Ave", "zip_code": "02155", "city": "Medford", "country": "US", "address3": ""}, "url": "https://www.yelp.com/biz/corfu-painting-company-medford-2?adjust_creative=gBcvfFpabk3CnzmXKdYe3w&utm_campaign=yelp_api_v3&utm_medium=api_v3_business_search&utm_source=gBcvfFpabk3CnzmXKdYe3w", "categories": [{"alias": "painters", "title": "Painters"}, {"alias": "drywall", "title": "Drywall Installation & Repair"}, {"alias": "pressurewashers", "title": "Pressure Washers"}], "display_phone": "(781) 391-6100", "is_closed": false, "name": "corfu painting", "review_count": 1, "coordinates": {"longitude": -71.1072505, "latitude": 42.4066954}}, {"rating": 1.5, "transactions": [], "image_url": "https://s3-media1.fl.yelpcdn.com/bphoto/QxrcJ7mwYnATy3hnX2pEqQ/o.jpg", "phone": "+16176497000", "id": "cambridge-taxi-cab-cambridge-3", "distance": 3932.870973992, "location": {"display_address": ["808 Memorial Dr", "Cambridge, MA 02138"], "state": "MA", "address2": "", "address1": "808 Memorial Dr", "zip_code": "02138", "city": "Cambridge", "country": "US", "address3": ""}, "url": "https://www.yelp.com/biz/cambridge-taxi-cab-cambridge-3?adjust_creative=gBcvfFpabk3CnzmXKdYe3w&utm_campaign=yelp_api_v3&utm_medium=api_v3_business_search&utm_source=gBcvfFpabk3CnzmXKdYe3w", "categories": [{"alias": "taxis", "title": "Taxis"}, {"alias": "limos", "title": "Limos"}, {"alias": "airport_shuttles", "title": "Airport Shuttles"}], "display_phone": "(617) 649-7000", "is_closed": false, "name": "Cambridge Taxi Cab", "review_count": 11, "coordinates": {"longitude": -71.115097, "latitude": 42.3610992}}, {"rating": 3.0, "transactions": [], "image_url": "https://s3-media3.fl.yelpcdn.com/bphoto/k2TYiRu2nJ1fQ7j0U23yVA/o.jpg", "phone": "+16176662121", "id": "century-21-commonwealth-somerville-2", "distance": 7519.67011812, "location": {"display_address": ["205 Holland St", "Somerville, MA 02144"], "state": "MA", "address2": "", "address1": "205 Holland St", "zip_code": "02144", "city": "Somerville", "country": "US", "address3": ""}, "url": "https://www.yelp.com/biz/century-21-commonwealth-somerville-2?adjust_creative=gBcvfFpabk3CnzmXKdYe3w&utm_campaign=yelp_api_v3&utm_medium=api_v3_business_search&utm_source=gBcvfFpabk3CnzmXKdYe3w", "categories": [{"alias": "realestateagents", "title": "Real Estate Agents"}], "display_phone": "(617) 666-2121", "is_closed": false, "name": "Century 21 Commonwealth", "review_count": 6, "coordinates": {"longitude": -71.126121, "latitude": 42.40192}}, {"rating": 2.0, "transactions": [], "image_url": "https://s3-media2.fl.yelpcdn.com/bphoto/HD2xF6S1vkTHfZTsKXvxTg/o.jpg", "phone": "+16179033215", "id": "d-and-g-towing-allston", "distance": 5346.680670144, "location": {"display_address": ["2 Emery Rd", "Allston, MA 02134"], "state": "MA", "address2": "", "address1": "2 Emery Rd", "zip_code": "02134", "city": "Allston", "country": "US", "address3": ""}, "url": "https://www.yelp.com/biz/d-and-g-towing-allston?adjust_creative=gBcvfFpabk3CnzmXKdYe3w&utm_campaign=yelp_api_v3&utm_medium=api_v3_business_search&utm_source=gBcvfFpabk3CnzmXKdYe3w", "categories": [{"alias": "towing", "title": "Towing"}], "display_phone": "(617) 903-3215", "is_closed": false, "name": "D&G Towing", "review_count": 17, "coordinates": {"longitude": -71.1358577013016, "latitude": 42.3543823510408}}, {"rating": 3.0, "transactions": [], "image_url": "https://s3-media4.fl.yelpcdn.com/bphoto/qbiHITxl2yWvgFPwAafdGQ/o.jpg", "phone": "+16173892188", "id": "walgreens-everett", "distance": 7749.410323282, "location": {"display_address": ["317 Ferry St", "Everett, MA 02149"], "state": "MA", "address2": null, "address1": "317 Ferry St", "zip_code": "02149", "city": "Everett", "country": "US", "address3": ""}, "url": "https://www.yelp.com/biz/walgreens-everett?adjust_creative=gBcvfFpabk3CnzmXKdYe3w&utm_campaign=yelp_api_v3&utm_medium=api_v3_business_search&utm_source=gBcvfFpabk3CnzmXKdYe3w", "categories": [{"alias": "cosmetics", "title": "Cosmetics & Beauty Supply"}, {"alias": "drugstores", "title": "Drugstores"}, {"alias": "convenience", "title": "Convenience Stores"}], "display_phone": "(617) 389-2188", "is_closed": false, "name": "Walgreens", "price": "$$$$", "review_count": 10, "coordinates": {"longitude": -71.0472736, "latitude": 42.4144775}}, {"rating": 2.5, "transactions": [], "image_url": "https://s3-media2.fl.yelpcdn.com/bphoto/1La-elMKVINIw-j0vRv1qQ/o.jpg", "phone": "+16173000675", "id": "transportation-of-new-england-cambridge", "distance": 3055.8456913279997, "location": {"display_address": ["485 Massachusetts Ave", "Ste 300", "Cambridge, MA 02139"], "state": "MA", "address2": "Ste 300", "address1": "485 Massachusetts Ave", "zip_code": "02139", "city": "Cambridge", "country": "US", "address3": ""}, "url": "https://www.yelp.com/biz/transportation-of-new-england-cambridge?adjust_creative=gBcvfFpabk3CnzmXKdYe3w&utm_campaign=yelp_api_v3&utm_medium=api_v3_business_search&utm_source=gBcvfFpabk3CnzmXKdYe3w", "categories": [{"alias": "airport_shuttles", "title": "Airport Shuttles"}, {"alias": "taxis", "title": "Taxis"}, {"alias": "limos", "title": "Limos"}], "display_phone": "(617) 300-0675", "is_closed": false, "name": "Transportation of New England", "review_count": 5, "coordinates": {"longitude": -71.10129, "latitude": 42.36415}}, {"rating": 2.5, "transactions": [], "image_url": "https://s3-media3.fl.yelpcdn.com/bphoto/vzLE75bpIZ8yf992kB91Xw/o.jpg", "phone": "+16174925781", "id": "b-and-b-towing-cambridge", "distance": 8468.820708762, "location": {"display_address": ["50 Mooney St", "Cambridge, MA 02138"], "state": "MA", "address2": "", "address1": "50 Mooney St", "zip_code": "02138", "city": "Cambridge", "country": "US", "address3": ""}, "url": "https://www.yelp.com/biz/b-and-b-towing-cambridge?adjust_creative=gBcvfFpabk3CnzmXKdYe3w&utm_campaign=yelp_api_v3&utm_medium=api_v3_business_search&utm_source=gBcvfFpabk3CnzmXKdYe3w", "categories": [{"alias": "towing", "title": "Towing"}], "display_phone": "(617) 492-5781", "is_closed": false, "name": "B & B Towing", "review_count": 43, "coordinates": {"longitude": -71.1525269, "latitude": 42.3946114}}, {"rating": 5.0, "transactions": [], "image_url": "https://s3-media3.fl.yelpcdn.com/bphoto/yIbVpt-u9X4lXSJtL_1soQ/o.jpg", "phone": "+16179698855", "id": "luxury-fast-ride-quincy", "distance": 7333.091928956, "location": {"display_address": ["Quincy, MA 02171"], "state": "MA", "address2": null, "address1": "", "zip_code": "02171", "city": "Quincy", "country": "US", "address3": ""}, "url": "https://www.yelp.com/biz/luxury-fast-ride-quincy?adjust_creative=gBcvfFpabk3CnzmXKdYe3w&utm_campaign=yelp_api_v3&utm_medium=api_v3_business_search&utm_source=gBcvfFpabk3CnzmXKdYe3w", "categories": [{"alias": "airport_shuttles", "title": "Airport Shuttles"}, {"alias": "limos", "title": "Limos"}], "display_phone": "(617) 969-8855", "is_closed": false, "name": "Luxury Fast Ride", "review_count": 2, "coordinates": {"longitude": -71.0111463, "latitude": 42.2991086}}, {"rating": 4.0, "transactions": [], "image_url": "https://s3-media1.fl.yelpcdn.com/bphoto/mMN6T2H88OujFyrYhAc_ww/o.jpg", "phone": "+16172446500", "id": "baker-elman-plumbing-company-newton-center", "distance": 11384.995161104, "location": {"display_address": ["671 Saw Mill Brook Pkwy", "Newton Center, MA 02459"], "state": "MA", "address2": "", "address1": "671 Saw Mill Brook Pkwy", "zip_code": "02459", "city": "Newton Center", "country": "US", "address3": ""}, "url": "https://www.yelp.com/biz/baker-elman-plumbing-company-newton-center?adjust_creative=gBcvfFpabk3CnzmXKdYe3w&utm_campaign=yelp_api_v3&utm_medium=api_v3_business_search&utm_source=gBcvfFpabk3CnzmXKdYe3w", "categories": [{"alias": "plumbing", "title": "Plumbing"}], "display_phone": "(617) 244-6500", "is_closed": false, "name": "Baker-Elman Plumbing Company", "review_count": 21, "coordinates": {"longitude": -71.1863122, "latitude": 42.2908823}}, {"rating": 1.5, "transactions": [], "image_url": "https://s3-media2.fl.yelpcdn.com/bphoto/3rYwT1mlLJtstAfYHEEpQA/o.jpg", "phone": "+16175668531", "id": "roberts-towing-brighton", "distance": 6889.375969536, "location": {"display_address": ["25 Goodenough St", "Brighton, MA 02135"], "state": "MA", "address2": "", "address1": "25 Goodenough St", "zip_code": "02135", "city": "Brighton", "country": "US", "address3": ""}, "url": "https://www.yelp.com/biz/roberts-towing-brighton?adjust_creative=gBcvfFpabk3CnzmXKdYe3w&utm_campaign=yelp_api_v3&utm_medium=api_v3_business_search&utm_source=gBcvfFpabk3CnzmXKdYe3w", "categories": [{"alias": "towing", "title": "Towing"}], "display_phone": "(617) 566-8531", "is_closed": false, "name": "Robert's Towing", "review_count": 84, "coordinates": {"longitude": -71.1542913, "latitude": 42.3563386}}, {"rating": 5.0, "transactions": [], "image_url": "https://s3-media1.fl.yelpcdn.com/bphoto/ZR6drfW5UtE5c9FTHWmyOw/o.jpg", "phone": "+19788538124", "id": "the-magic-of-evan-northrup-brighton", "distance": 7515.747673737999, "location": {"display_address": ["Brighton, MA 02135"], "state": "MA", "address2": null, "address1": "", "zip_code": "02135", "city": "Brighton", "country": "US", "address3": ""}, "url": "https://www.yelp.com/biz/the-magic-of-evan-northrup-brighton?adjust_creative=gBcvfFpabk3CnzmXKdYe3w&utm_campaign=yelp_api_v3&utm_medium=api_v3_business_search&utm_source=gBcvfFpabk3CnzmXKdYe3w", "categories": [{"alias": "magicians", "title": "Magicians"}], "display_phone": "(978) 853-8124", "is_closed": false, "name": "The Magic of Evan Northrup", "review_count": 3, "coordinates": {"longitude": -71.15328, "latitude": 42.34964}}, {"rating": 2.5, "transactions": [], "image_url": "https://s3-media2.fl.yelpcdn.com/bphoto/RoiGvdcFsOmG-Krznlqzrg/o.jpg", "phone": "+16179239003", "id": "watertown-taxi-watertown", "distance": 9620.65785543, "location": {"display_address": ["37 Galen St", "Watertown, MA 02472"], "state": "MA", "address2": "", "address1": "37 Galen St", "zip_code": "02472", "city": "Watertown", "country": "US", "address3": ""}, "url": "https://www.yelp.com/biz/watertown-taxi-watertown?adjust_creative=gBcvfFpabk3CnzmXKdYe3w&utm_campaign=yelp_api_v3&utm_medium=api_v3_business_search&utm_source=gBcvfFpabk3CnzmXKdYe3w", "categories": [{"alias": "taxis", "title": "Taxis"}], "display_phone": "(617) 923-9003", "is_closed": false, "name": "Watertown Taxi", "review_count": 54, "coordinates": {"longitude": -71.1861103, "latitude": 42.3642344}}, {"rating": 2.5, "transactions": [], "image_url": "https://s3-media1.fl.yelpcdn.com/bphoto/eYa6ISHyCaNiN4NVjLa2pg/o.jpg", "phone": "+17813931805", "id": "work-out-world-medford-3", "distance": 8804.216820802, "location": {"display_address": ["200 Boston Ave", "Medford, MA 02155"], "state": "MA", "address2": "", "address1": "200 Boston Ave", "zip_code": "02155", "city": "Medford", "country": "US", "address3": ""}, "url": "https://www.yelp.com/biz/work-out-world-medford-3?adjust_creative=gBcvfFpabk3CnzmXKdYe3w&utm_campaign=yelp_api_v3&utm_medium=api_v3_business_search&utm_source=gBcvfFpabk3CnzmXKdYe3w", "categories": [{"alias": "gyms", "title": "Gyms"}], "display_phone": "(781) 393-1805", "is_closed": false, "name": "Work Out World", "review_count": 66, "coordinates": {"longitude": -71.1273766, "latitude": 42.4152957}}, {"rating": 4.0, "transactions": [], "image_url": "https://s3-media2.fl.yelpcdn.com/bphoto/iw-bQw7PQVPSuglfgelabw/o.jpg", "phone": "+17813508001", "id": "teco-junk-removal-everett", "distance": 6889.7358179600005, "location": {"display_address": ["Everett, MA 02149"], "state": "MA", "address2": "", "address1": "", "zip_code": "02149", "city": "Everett", "country": "US", "address3": ""}, "url": "https://www.yelp.com/biz/teco-junk-removal-everett?adjust_creative=gBcvfFpabk3CnzmXKdYe3w&utm_campaign=yelp_api_v3&utm_medium=api_v3_business_search&utm_source=gBcvfFpabk3CnzmXKdYe3w", "categories": [{"alias": "junkremovalandhauling", "title": "Junk Removal & Hauling"}], "display_phone": "(781) 350-8001", "is_closed": false, "name": "Teco Junk Removal", "review_count": 3, "coordinates": {"longitude": -71.0544204711914, "latitude": 42.4066581726074}}, {"rating": 5.0, "transactions": [], "image_url": "https://s3-media2.fl.yelpcdn.com/bphoto/a00ajgQ2w9GOIawc5Vj4dg/o.jpg", "phone": "+17816915400", "id": "boston-express-car-service-swampscott", "distance": 1277.882264808, "location": {"display_address": ["Swampscott, MA 01907"], "state": "MA", "address2": "", "address1": "", "zip_code": "01907", "city": "Swampscott", "country": "US", "address3": ""}, "url": "https://www.yelp.com/biz/boston-express-car-service-swampscott?adjust_creative=gBcvfFpabk3CnzmXKdYe3w&utm_campaign=yelp_api_v3&utm_medium=api_v3_business_search&utm_source=gBcvfFpabk3CnzmXKdYe3w", "categories": [{"alias": "limos", "title": "Limos"}], "display_phone": "(781) 691-5400", "is_closed": false, "name": "Boston Express Car Service", "review_count": 3, "coordinates": {"longitude": -71.0567949, "latitude": 42.3520904}}, {"rating": 4.0, "transactions": [], "image_url": "https://s3-media3.fl.yelpcdn.com/bphoto/SvBQi7AbC1oOsFtL9mTL8A/o.jpg", "phone": "+16178525879", "id": "the-locksmith-chelsea", "distance": 6045.654207898, "location": {"display_address": ["107 Marlboro St", "Ste 2", "Chelsea, MA 02150"], "state": "MA", "address2": "Ste 2", "address1": "107 Marlboro St", "zip_code": "02150", "city": "Chelsea", "country": "US", "address3": ""}, "url": "https://www.yelp.com/biz/the-locksmith-chelsea?adjust_creative=gBcvfFpabk3CnzmXKdYe3w&utm_campaign=yelp_api_v3&utm_medium=api_v3_business_search&utm_source=gBcvfFpabk3CnzmXKdYe3w", "categories": [{"alias": "locksmiths", "title": "Keys & Locksmiths"}], "display_phone": "(617) 852-5879", "is_closed": false, "name": "The Locksmith", "review_count": 1, "coordinates": {"longitude": -71.02880859375, "latitude": 42.3922843933105}}, {"rating": 1.0, "transactions": [], "image_url": "https://s3-media1.fl.yelpcdn.com/bphoto/IHYx7sa_i1GtzRqby-coAw/o.jpg", "phone": "+16172367302", "id": "mv-petroleum-roxbury", "distance": 1267.9000115899998, "location": {"display_address": ["785 Tremont St", "Roxbury, MA 02118"], "state": "MA", "address2": "", "address1": "785 Tremont St", "zip_code": "02118", "city": "Roxbury", "country": "US", "address3": ""}, "url": "https://www.yelp.com/biz/mv-petroleum-roxbury?adjust_creative=gBcvfFpabk3CnzmXKdYe3w&utm_campaign=yelp_api_v3&utm_medium=api_v3_business_search&utm_source=gBcvfFpabk3CnzmXKdYe3w", "categories": [{"alias": "servicestations", "title": "Gas & Service Stations"}], "display_phone": "(617) 236-7302", "is_closed": false, "name": "Mv Petroleum", "review_count": 1, "coordinates": {"longitude": -71.0811462, "latitude": 42.3391914}}, {"rating": 5.0, "transactions": [], "image_url": "https://s3-media1.fl.yelpcdn.com/bphoto/35RyH156MBXDn9gowFjgHg/o.jpg", "phone": "+18009815084", "id": "athenahealth-watertown", "distance": 8024.345784598, "location": {"display_address": ["311 Arsenal St", "Watertown, MA 02472"], "state": "MA", "address2": "", "address1": "311 Arsenal St", "zip_code": "02472", "city": "Watertown", "country": "US", "address3": ""}, "url": "https://www.yelp.com/biz/athenahealth-watertown?adjust_creative=gBcvfFpabk3CnzmXKdYe3w&utm_campaign=yelp_api_v3&utm_medium=api_v3_business_search&utm_source=gBcvfFpabk3CnzmXKdYe3w", "categories": [{"alias": "health", "title": "Health & Medical"}], "display_phone": "(800) 981-5084", "is_closed": false, "name": "athenahealth", "review_count": 1, "coordinates": {"longitude": -71.1660461425781, "latitude": 42.3626823425293}}, {"rating": 5.0, "transactions": [], "image_url": "https://s3-media3.fl.yelpcdn.com/bphoto/nSDgtyPyQALugwA8pQ8XjA/o.jpg", "phone": "+18008995463", "id": "hosttor-cambridge", "distance": 1865.030007992, "location": {"display_address": ["245 First St", "Cambridge, MA 02142"], "state": "MA", "address2": null, "address1": "245 First St", "zip_code": "02142", "city": "Cambridge", "country": "US", "address3": ""}, "url": "https://www.yelp.com/biz/hosttor-cambridge?adjust_creative=gBcvfFpabk3CnzmXKdYe3w&utm_campaign=yelp_api_v3&utm_medium=api_v3_business_search&utm_source=gBcvfFpabk3CnzmXKdYe3w", "categories": [{"alias": "advertising", "title": "Advertising"}, {"alias": "web_design", "title": "Web Design"}, {"alias": "marketing", "title": "Marketing"}], "display_phone": "(800) 899-5463", "is_closed": false, "name": "Hosttor", "review_count": 1, "coordinates": {"longitude": -71.0790834, "latitude": 42.3635819}}, {"rating": 3.0, "transactions": [], "image_url": "https://s3-media3.fl.yelpcdn.com/bphoto/7UP8MZPc_bk7YZU-nHi0Yw/o.jpg", "phone": "+17812843663", "id": "rodeway-inn-logan-international-airport-revere", "distance": 9582.24130029, "location": {"display_address": ["309 American Legion Hwy", "Route 60 West", "Revere, MA 02151"], "state": "MA", "address2": "Route 60 West", "address1": "309 American Legion Hwy", "zip_code": "02151", "city": "Revere", "country": "US", "address3": ""}, "url": "https://www.yelp.com/biz/rodeway-inn-logan-international-airport-revere?adjust_creative=gBcvfFpabk3CnzmXKdYe3w&utm_campaign=yelp_api_v3&utm_medium=api_v3_business_search&utm_source=gBcvfFpabk3CnzmXKdYe3w", "categories": [{"alias": "hotels", "title": "Hotels"}], "display_phone": "(781) 284-3663", "is_closed": false, "name": "Rodeway Inn Logan International Airport", "price": "$$", "review_count": 25, "coordinates": {"longitude": -71.002465, "latitude": 42.417451}}, {"rating": 5.0, "transactions": [], "image_url": "https://s3-media1.fl.yelpcdn.com/bphoto/VjYJDtJjBR9AP8vyffGwQg/o.jpg", "phone": "+17813661507", "id": "erkan-barin-photography-brighton", "distance": 7872.50021038, "location": {"display_address": ["57 South Crescent Circuit", "Brighton, MA 02135"], "state": "MA", "address2": "", "address1": "57 South Crescent Circuit", "zip_code": "02135", "city": "Brighton", "country": "US", "address3": ""}, "url": "https://www.yelp.com/biz/erkan-barin-photography-brighton?adjust_creative=gBcvfFpabk3CnzmXKdYe3w&utm_campaign=yelp_api_v3&utm_medium=api_v3_business_search&utm_source=gBcvfFpabk3CnzmXKdYe3w", "categories": [{"alias": "photographers", "title": "Photographers"}], "display_phone": "(781) 366-1507", "is_closed": false, "name": "Erkan Barin Photography", "review_count": 4, "coordinates": {"longitude": -71.1670199, "latitude": 42.34757}}, {"rating": 5.0, "transactions": [], "image_url": "https://s3-media1.fl.yelpcdn.com/bphoto/qpImO04sprCdm-xkKXGpIg/o.jpg", "phone": "+13127318486", "id": "erika-fritz-yoga-brookline", "distance": 1697.979389454, "location": {"display_address": ["Brookline, MA 02446"], "state": "MA", "address2": null, "address1": null, "zip_code": "02446", "city": "Brookline", "country": "US", "address3": ""}, "url": "https://www.yelp.com/biz/erika-fritz-yoga-brookline?adjust_creative=gBcvfFpabk3CnzmXKdYe3w&utm_campaign=yelp_api_v3&utm_medium=api_v3_business_search&utm_source=gBcvfFpabk3CnzmXKdYe3w", "categories": [{"alias": "yoga", "title": "Yoga"}], "display_phone": "(312) 731-8486", "is_closed": false, "name": "Erika Fritz Yoga", "review_count": 2, "coordinates": {"longitude": -71.0588801, "latitude": 42.3600825}}, {"rating": 5.0, "transactions": [], "image_url": "", "phone": "+19544944438", "id": "cover-story-entertainment-llc-everett", "distance": 6889.7358179600005, "location": {"display_address": ["Everett, MA"], "state": "MA", "address2": null, "address1": null, "zip_code": "", "city": "Everett", "country": "US", "address3": ""}, "url": "https://www.yelp.com/biz/cover-story-entertainment-llc-everett?adjust_creative=gBcvfFpabk3CnzmXKdYe3w&utm_campaign=yelp_api_v3&utm_medium=api_v3_business_search&utm_source=gBcvfFpabk3CnzmXKdYe3w", "categories": [{"alias": "wedding_planning", "title": "Wedding Planning"}, {"alias": "djs", "title": "DJs"}], "display_phone": "(954) 494-4438", "is_closed": false, "name": "Cover Story Entertainment, LLC", "review_count": 2, "coordinates": {"longitude": -71.0544967651367, "latitude": 42.4081687927246}}, {"rating": 5.0, "transactions": [], "image_url": "https://s3-media2.fl.yelpcdn.com/bphoto/uqkX8u0LRSxMEGDOHmPVzw/o.jpg", "phone": "+16179422560", "id": "fitchoice-24-7-roslindale", "distance": 8081.0513623, "location": {"display_address": ["4170 Washington St", "Roslindale, MA 02131"], "state": "MA", "address2": "", "address1": "4170 Washington St", "zip_code": "02131", "city": "Roslindale", "country": "US", "address3": ""}, "url": "https://www.yelp.com/biz/fitchoice-24-7-roslindale?adjust_creative=gBcvfFpabk3CnzmXKdYe3w&utm_campaign=yelp_api_v3&utm_medium=api_v3_business_search&utm_source=gBcvfFpabk3CnzmXKdYe3w", "categories": [{"alias": "gyms", "title": "Gyms"}], "display_phone": "(617) 942-2560", "is_closed": false, "name": "FitChoice 24/7", "review_count": 1, "coordinates": {"longitude": -71.12652, "latitude": 42.28758}}, {"rating": 3.5, "transactions": [], "image_url": "https://s3-media2.fl.yelpcdn.com/bphoto/0Sg3BV2UlY74xW-LDfCsAA/o.jpg", "phone": "+16173258138", "id": "nick-franceshelli-electric-roslindale", "distance": 8088.72952344, "location": {"display_address": ["10 Ashfield St", "Roslindale, MA 02131"], "state": "MA", "address2": "", "address1": "10 Ashfield St", "zip_code": "02131", "city": "Roslindale", "country": "US", "address3": ""}, "url": "https://www.yelp.com/biz/nick-franceshelli-electric-roslindale?adjust_creative=gBcvfFpabk3CnzmXKdYe3w&utm_campaign=yelp_api_v3&utm_medium=api_v3_business_search&utm_source=gBcvfFpabk3CnzmXKdYe3w", "categories": [{"alias": "electricians", "title": "Electricians"}, {"alias": "lighting", "title": "Lighting Fixtures & Equipment"}], "display_phone": "(617) 325-8138", "is_closed": false, "name": "Nick Franceshelli Electric", "review_count": 3, "coordinates": {"longitude": -71.1304397583008, "latitude": 42.2897415161133}}, {"rating": 5.0, "transactions": [], "image_url": "https://s3-media2.fl.yelpcdn.com/bphoto/KT7qaau8bESmcZBJXX-DsA/o.jpg", "phone": "+16179242222", "id": "madison-limousine-services-watertown", "distance": 9521.244900279999, "location": {"display_address": ["Watertown, MA 02472"], "state": "MA", "address2": "", "address1": "", "zip_code": "02472", "city": "Watertown", "country": "US", "address3": ""}, "url": "https://www.yelp.com/biz/madison-limousine-services-watertown?adjust_creative=gBcvfFpabk3CnzmXKdYe3w&utm_campaign=yelp_api_v3&utm_medium=api_v3_business_search&utm_source=gBcvfFpabk3CnzmXKdYe3w", "categories": [{"alias": "limos", "title": "Limos"}, {"alias": "partybusrentals", "title": "Party Bus Rentals"}, {"alias": "airport_shuttles", "title": "Airport Shuttles"}], "display_phone": "(617) 924-2222", "is_closed": false, "name": "Madison Limousine Services", "review_count": 8, "coordinates": {"longitude": -71.18732, "latitude": 42.37244}}, {"rating": 1.5, "transactions": [], "image_url": "https://s3-media1.fl.yelpcdn.com/bphoto/lEfOXmp7XvuS57WDy0g71A/o.jpg", "phone": "+16177313200", "id": "arbour-hri-hospital-brookline", "distance": 4118.294944508, "location": {"display_address": ["227 Babcock St", "Brookline, MA 02446"], "state": "MA", "address2": "", "address1": "227 Babcock St", "zip_code": "02446", "city": "Brookline", "country": "US", "address3": ""}, "url": "https://www.yelp.com/biz/arbour-hri-hospital-brookline?adjust_creative=gBcvfFpabk3CnzmXKdYe3w&utm_campaign=yelp_api_v3&utm_medium=api_v3_business_search&utm_source=gBcvfFpabk3CnzmXKdYe3w", "categories": [{"alias": "hospitals", "title": "Hospitals"}], "display_phone": "(617) 731-3200", "is_closed": false, "name": "Arbour-HRI Hospital", "review_count": 8, "coordinates": {"longitude": -71.1211471557617, "latitude": 42.3507347106934}}, {"rating": 4.0, "transactions": [], "image_url": "", "phone": "+16172538761", "id": "next-house-cambridge", "distance": 2627.343627598, "location": {"display_address": ["500 Memorial Dr", "Cambridge, MA 02139"], "state": "MA", "address2": null, "address1": "500 Memorial Dr", "zip_code": "02139", "city": "Cambridge", "country": "US", "address3": ""}, "url": "https://www.yelp.com/biz/next-house-cambridge?adjust_creative=gBcvfFpabk3CnzmXKdYe3w&utm_campaign=yelp_api_v3&utm_medium=api_v3_business_search&utm_source=gBcvfFpabk3CnzmXKdYe3w", "categories": [{"alias": "bedbreakfast", "title": "Bed & Breakfast"}, {"alias": "recreation", "title": "Recreation Centers"}], "display_phone": "(617) 253-8761", "is_closed": false, "name": "Next House", "review_count": 1, "coordinates": {"longitude": -71.10142, "latitude": 42.3546}}, {"rating": 5.0, "transactions": [], "image_url": "", "phone": "+16175156704", "id": "nextwave-care-st-brighton", "distance": 7974.119248802, "location": {"display_address": ["28 Bigelow St", "St. Brighton, MA 02135"], "state": "MA", "address2": null, "address1": "28 Bigelow St", "zip_code": "02135", "city": "St. Brighton", "country": "US", "address3": ""}, "url": "https://www.yelp.com/biz/nextwave-care-st-brighton?adjust_creative=gBcvfFpabk3CnzmXKdYe3w&utm_campaign=yelp_api_v3&utm_medium=api_v3_business_search&utm_source=gBcvfFpabk3CnzmXKdYe3w", "categories": [{"alias": "web_design", "title": "Web Design"}, {"alias": "marketing", "title": "Marketing"}], "display_phone": "(617) 515-6704", "is_closed": false, "name": "NextWave Care", "review_count": 1, "coordinates": {"longitude": -71.168067, "latitude": 42.352565}}, {"rating": 3.0, "transactions": [], "image_url": "https://s3-media3.fl.yelpcdn.com/bphoto/XLnPAe0GJ4H5YFORjnESzA/o.jpg", "phone": "+17813964800", "id": "peter-needham-electrical-and-hvac-medford-3", "distance": 8563.876858664, "location": {"display_address": ["59 Oakland St", "Medford, MA 02155"], "state": "MA", "address2": "", "address1": "59 Oakland St", "zip_code": "02155", "city": "Medford", "country": "US", "address3": ""}, "url": "https://www.yelp.com/biz/peter-needham-electrical-and-hvac-medford-3?adjust_creative=gBcvfFpabk3CnzmXKdYe3w&utm_campaign=yelp_api_v3&utm_medium=api_v3_business_search&utm_source=gBcvfFpabk3CnzmXKdYe3w", "categories": [{"alias": "electricians", "title": "Electricians"}, {"alias": "hvac", "title": "Heating & Air Conditioning/HVAC"}], "display_phone": "(781) 396-4800", "is_closed": false, "name": "Peter Needham Electrical & Hvac", "review_count": 20, "coordinates": {"longitude": -71.10527, "latitude": 42.42052}}, {"rating": 4.0, "transactions": [], "image_url": "https://s3-media4.fl.yelpcdn.com/bphoto/lb1Ln7J1lm8reNTbpC-OAg/o.jpg", "phone": "+16178680575", "id": "cadbury-commons-cambridge", "distance": 6631.047287679999, "location": {"display_address": ["66 Sherman St", "Cambridge, MA 02140"], "state": "MA", "address2": null, "address1": "66 Sherman St", "zip_code": "02140", "city": "Cambridge", "country": "US", "address3": ""}, "url": "https://www.yelp.com/biz/cadbury-commons-cambridge?adjust_creative=gBcvfFpabk3CnzmXKdYe3w&utm_campaign=yelp_api_v3&utm_medium=api_v3_business_search&utm_source=gBcvfFpabk3CnzmXKdYe3w", "categories": [{"alias": "assistedliving", "title": "Assisted Living Facilities"}], "display_phone": "(617) 868-0575", "is_closed": false, "name": "Cadbury Commons", "review_count": 1, "coordinates": {"longitude": -71.1314315795898, "latitude": 42.3875694274902}}, {"rating": 3.0, "transactions": [], "image_url": "https://s3-media3.fl.yelpcdn.com/bphoto/HvtdzwJgDEoGN8RkLLDBUA/o.jpg", "phone": "+16178412137", "id": "everett-locksmith-everett-2", "distance": 6482.653908696, "location": {"display_address": ["87C Santilli Hwy", "Everett, MA 02149"], "state": "MA", "address2": null, "address1": "87C Santilli Hwy", "zip_code": "02149", "city": "Everett", "country": "US", "address3": null}, "url": "https://www.yelp.com/biz/everett-locksmith-everett-2?adjust_creative=gBcvfFpabk3CnzmXKdYe3w&utm_campaign=yelp_api_v3&utm_medium=api_v3_business_search&utm_source=gBcvfFpabk3CnzmXKdYe3w", "categories": [{"alias": "locksmiths", "title": "Keys & Locksmiths"}], "display_phone": "(617) 841-2137", "is_closed": false, "name": "Everett Locksmith", "review_count": 2, "coordinates": {"longitude": -71.0680236816406, "latitude": 42.4060935974121}}, {"rating": 2.5, "transactions": [], "image_url": "https://s3-media4.fl.yelpcdn.com/bphoto/sHBUx4GcXMnTeILBJm50qA/o.jpg", "phone": "+17812893607", "id": "walgreens-revere", "distance": 8529.975789696, "location": {"display_address": ["430 Broadway", "Revere, MA 02151"], "state": "MA", "address2": "", "address1": "430 Broadway", "zip_code": "02151", "city": "Revere", "country": "US", "address3": ""}, "url": "https://www.yelp.com/biz/walgreens-revere?adjust_creative=gBcvfFpabk3CnzmXKdYe3w&utm_campaign=yelp_api_v3&utm_medium=api_v3_business_search&utm_source=gBcvfFpabk3CnzmXKdYe3w", "categories": [{"alias": "drugstores", "title": "Drugstores"}, {"alias": "cosmetics", "title": "Cosmetics & Beauty Supply"}, {"alias": "convenience", "title": "Convenience Stores"}], "display_phone": "(781) 289-3607", "is_closed": false, "name": "Walgreens", "price": "$$", "review_count": 7, "coordinates": {"longitude": -71.012761, "latitude": 42.411235}}, {"rating": 3.5, "transactions": [], "image_url": "", "phone": "+16175698350", "id": "airport-valet-and-park-chelsea", "distance": 6583.22735892, "location": {"display_address": ["155 Cresent Ave", "Chelsea, MA 02150"], "state": "MA", "address2": "", "address1": "155 Cresent Ave", "zip_code": "02150", "city": "Chelsea", "country": "US", "address3": ""}, "url": "https://www.yelp.com/biz/airport-valet-and-park-chelsea?adjust_creative=gBcvfFpabk3CnzmXKdYe3w&utm_campaign=yelp_api_v3&utm_medium=api_v3_business_search&utm_source=gBcvfFpabk3CnzmXKdYe3w", "categories": [{"alias": "parking", "title": "Parking"}, {"alias": "valetservices", "title": "Valet Services"}], "display_phone": "(617) 569-8350", "is_closed": false, "name": "Airport Valet and Park", "review_count": 5, "coordinates": {"longitude": -71.024361, "latitude": 42.3958579}}, {"rating": 3.0, "transactions": [], "image_url": "https://s3-media3.fl.yelpcdn.com/bphoto/wbPLXZ2Ld3M3KuDVXHhofg/o.jpg", "phone": "+17812845555", "id": "revere-taxi-logan-airport-cab-revere", "distance": 8725.528302436, "location": {"display_address": ["882 Winthrop Ave", "Revere, MA 02151"], "state": "MA", "address2": null, "address1": "882 Winthrop Ave", "zip_code": "02151", "city": "Revere", "country": "US", "address3": ""}, "url": "https://www.yelp.com/biz/revere-taxi-logan-airport-cab-revere?adjust_creative=gBcvfFpabk3CnzmXKdYe3w&utm_campaign=yelp_api_v3&utm_medium=api_v3_business_search&utm_source=gBcvfFpabk3CnzmXKdYe3w", "categories": [{"alias": "taxis", "title": "Taxis"}, {"alias": "couriers", "title": "Couriers & Delivery Services"}, {"alias": "airport_shuttles", "title": "Airport Shuttles"}], "display_phone": "(781) 284-5555", "is_closed": false, "name": "Revere Taxi Logan Airport Cab", "review_count": 6, "coordinates": {"longitude": -70.9863277, "latitude": 42.3949817}}, {"rating": 4.0, "transactions": [], "image_url": "https://s3-media2.fl.yelpcdn.com/bphoto/q6uaEBA_d5WI-PDVO_uQUA/o.jpg", "phone": "+16173083471", "id": "dana-berenson-photography-brookline", "distance": 2909.89271552, "location": {"display_address": ["101 Monmouth St", "Brookline, MA 02446"], "state": "MA", "address2": "", "address1": "101 Monmouth St", "zip_code": "02446", "city": "Brookline", "country": "US", "address3": ""}, "url": "https://www.yelp.com/biz/dana-berenson-photography-brookline?adjust_creative=gBcvfFpabk3CnzmXKdYe3w&utm_campaign=yelp_api_v3&utm_medium=api_v3_business_search&utm_source=gBcvfFpabk3CnzmXKdYe3w", "categories": [{"alias": "photographers", "title": "Photographers"}], "display_phone": "(617) 308-3471", "is_closed": false, "name": "Dana Berenson Photography", "review_count": 4, "coordinates": {"longitude": -71.1063984, "latitude": 42.344729}}, {"rating": 5.0, "transactions": [], "image_url": "", "phone": "+17813917882", "id": "daily-mart-medford", "distance": 8484.54186842, "location": {"display_address": ["267 Spring St", "Medford, MA 02155"], "state": "MA", "address2": null, "address1": "267 Spring St", "zip_code": "02155", "city": "Medford", "country": "US", "address3": null}, "url": "https://www.yelp.com/biz/daily-mart-medford?adjust_creative=gBcvfFpabk3CnzmXKdYe3w&utm_campaign=yelp_api_v3&utm_medium=api_v3_business_search&utm_source=gBcvfFpabk3CnzmXKdYe3w", "categories": [{"alias": "convenience", "title": "Convenience Stores"}], "display_phone": "(781) 391-7882", "is_closed": false, "name": "Daily Mart", "price": "$$", "review_count": 1, "coordinates": {"longitude": -71.0914383, "latitude": 42.4227791}}, {"rating": 4.0, "transactions": [], "image_url": "https://s3-media4.fl.yelpcdn.com/bphoto/kFnIWKNw2fuDSooWiA7WHA/o.jpg", "phone": "+16178495652", "id": "big-river-properties-south-boston", "distance": 2660.374848296, "location": {"display_address": ["516 E Second St", "Ste 26", "South Boston, MA 02127"], "state": "MA", "address2": "Ste 26", "address1": "516 E Second St", "zip_code": "02127", "city": "South Boston", "country": "US", "address3": ""}, "url": "https://www.yelp.com/biz/big-river-properties-south-boston?adjust_creative=gBcvfFpabk3CnzmXKdYe3w&utm_campaign=yelp_api_v3&utm_medium=api_v3_business_search&utm_source=gBcvfFpabk3CnzmXKdYe3w", "categories": [{"alias": "propertymgmt", "title": "Property Management"}, {"alias": "realestatesvcs", "title": "Real Estate Services"}], "display_phone": "(617) 849-5652", "is_closed": false, "name": "Big River Properties", "review_count": 4, "coordinates": {"longitude": -71.0420774, "latitude": 42.3374672}}, {"rating": 3.0, "transactions": [], "image_url": "https://s3-media1.fl.yelpcdn.com/bphoto/iWXQ0BedwUwaA-PGGZxs_g/o.jpg", "phone": "+17812841000", "id": "yellow-taxi-revere", "distance": 10328.795136078, "location": {"display_address": ["Revere, MA 02151"], "state": "MA", "address2": "", "address1": "", "zip_code": "02151", "city": "Revere", "country": "US", "address3": null}, "url": "https://www.yelp.com/biz/yellow-taxi-revere?adjust_creative=gBcvfFpabk3CnzmXKdYe3w&utm_campaign=yelp_api_v3&utm_medium=api_v3_business_search&utm_source=gBcvfFpabk3CnzmXKdYe3w", "categories": [{"alias": "taxis", "title": "Taxis"}, {"alias": "airport_shuttles", "title": "Airport Shuttles"}], "display_phone": "(781) 284-1000", "is_closed": false, "name": "Yellow Taxi", "review_count": 6, "coordinates": {"longitude": -71.0039749145508, "latitude": 42.4191055297852}}], "total": 1239}