{"region": {"center": {"longitude": -71.07124328613281, "latitude": 42.34784169448538}}, "businesses": [{"rating": 5.0, "transactions": [], "image_url": "https://s3-media1.fl.yelpcdn.com/bphoto/iXJoS43sUoTbx4GKB5vqBA/o.jpg", "phone": "+17813214099", "id": "better-comfort-systems-malden-2", "distance": 9779.36613821, "location": {"display_address": ["1310 Eastern Ave", "Malden, MA 02148"], "state": "MA", "address2": null, "address1": "1310 Eastern Ave", "zip_code": "02148", "city": "Malden", "country": "US", "address3": ""}, "url": "https://www.yelp.com/biz/better-comfort-systems-malden-2?adjust_creative=gBcvfFpabk3CnzmXKdYe3w&utm_campaign=yelp_api_v3&utm_medium=api_v3_business_search&utm_source=gBcvfFpabk3CnzmXKdYe3w", "categories": [{"alias": "hvac", "title": "Heating & Air Conditioning/HVAC"}], "display_phone": "(781) 321-4099", "is_closed": false, "name": "Better Comfort Systems", "review_count": 2, "coordinates": {"longitude": -71.0331089, "latitude": 42.4311604}}, {"rating": 1.5, "transactions": [], "image_url": "", "phone": "+17813939300", "id": "cross-country-motor-club-roadside-assistance-program-medford", "distance": 6529.086425441999, "location": {"display_address": ["1 Cabot Rd", "Medford, MA 02155"], "state": "MA", "address2": "", "address1": "1 Cabot Rd", "zip_code": "02155", "city": "Medford", "country": "US", "address3": ""}, "url": "https://www.yelp.com/biz/cross-country-motor-club-roadside-assistance-program-medford?adjust_creative=gBcvfFpabk3CnzmXKdYe3w&utm_campaign=yelp_api_v3&utm_medium=api_v3_business_search&utm_source=gBcvfFpabk3CnzmXKdYe3w", "categories": [{"alias": "roadsideassist", "title": "Roadside Assistance"}], "display_phone": "(781) 393-9300", "is_closed": false, "name": "Cross Country Motor Club - Roadside Assistance Program", "review_count": 25, "coordinates": {"longitude": -71.0764440894127, "latitude": 42.4065151065588}}, {"rating": 3.5, "transactions": [], "image_url": "https://s3-media1.fl.yelpcdn.com/bphoto/Gfc3hZylIlfkyebOm6YKxQ/o.jpg", "phone": "+17816413823", "id": "abc-plumbing-drain-and-sewer-cleaning-cambridge-2", "distance": 5425.724047979999, "location": {"display_address": ["Cambridge, MA 02138"], "state": "MA", "address2": "", "address1": null, "zip_code": "02138", "city": "Cambridge", "country": "US", "address3": ""}, "url": "https://www.yelp.com/biz/abc-plumbing-drain-and-sewer-cleaning-cambridge-2?adjust_creative=gBcvfFpabk3CnzmXKdYe3w&utm_campaign=yelp_api_v3&utm_medium=api_v3_business_search&utm_source=gBcvfFpabk3CnzmXKdYe3w", "categories": [{"alias": "plumbing", "title": "Plumbing"}], "display_phone": "(781) 641-3823", "is_closed": false, "name": "ABC Plumbing Drain and Sewer Cleaning", "review_count": 3, "coordinates": {"longitude": -71.119224, "latitude": 42.3813707}}, {"rating": 1.0, "transactions": [], "image_url": "", "phone": "+16178849080", "id": "stanley-hotel-chelsea", "distance": 5483.59350037, "location": {"display_address": ["15 Congress Ave", "Chelsea, MA 02150"], "state": "MA", "address2": "", "address1": "15 Congress Ave", "zip_code": "02150", "city": "Chelsea", "country": "US", "address3": ""}, "url": "https://www.yelp.com/biz/stanley-hotel-chelsea?adjust_creative=gBcvfFpabk3CnzmXKdYe3w&utm_campaign=yelp_api_v3&utm_medium=api_v3_business_search&utm_source=gBcvfFpabk3CnzmXKdYe3w", "categories": [{"alias": "hotels", "title": "Hotels"}], "display_phone": "(617) 884-9080", "is_closed": false, "name": "Stanley Hotel", "review_count": 2, "coordinates": {"longitude": -71.03734, "latitude": 42.39025}}, {"rating": 2.5, "transactions": [], "image_url": "https://s3-media4.fl.yelpcdn.com/bphoto/JaL20Aanm6oIMNPysT3ctw/o.jpg", "phone": "+17815262100", "id": "medford-city-taxi-medford-2", "distance": 6996.293438039999, "location": {"display_address": ["119 Arlington At", "Medford, MA 02155"], "state": "MA", "address2": "", "address1": "119 Arlington At", "zip_code": "02155", "city": "Medford", "country": "US", "address3": ""}, "url": "https://www.yelp.com/biz/medford-city-taxi-medford-2?adjust_creative=gBcvfFpabk3CnzmXKdYe3w&utm_campaign=yelp_api_v3&utm_medium=api_v3_business_search&utm_source=gBcvfFpabk3CnzmXKdYe3w", "categories": [{"alias": "taxis", "title": "Taxis"}], "display_phone": "(781) 526-2100", "is_closed": false, "name": "Medford City Taxi", "review_count": 9, "coordinates": {"longitude": -71.09286117221, "latitude": 42.4087015707094}}, {"rating": 1.0, "transactions": [], "image_url": "https://s3-media1.fl.yelpcdn.com/bphoto/NrXjJOTooWe4hsY0pK9Mhg/o.jpg", "phone": "+16172322800", "id": "town-taxi-brookline", "distance": 5807.475267512, "location": {"display_address": ["Brookline, MA 02445"], "state": "MA", "address2": "", "address1": "", "zip_code": "02445", "city": "Brookline", "country": "US", "address3": ""}, "url": "https://www.yelp.com/biz/town-taxi-brookline?adjust_creative=gBcvfFpabk3CnzmXKdYe3w&utm_campaign=yelp_api_v3&utm_medium=api_v3_business_search&utm_source=gBcvfFpabk3CnzmXKdYe3w", "categories": [{"alias": "taxis", "title": "Taxis"}], "display_phone": "(617) 232-2800", "is_closed": false, "name": "Town Taxi", "review_count": 4, "coordinates": {"longitude": -71.1333541870117, "latitude": 42.3261909484863}}, {"rating": 2.5, "transactions": [], "image_url": "https://s3-media2.fl.yelpcdn.com/bphoto/rIVMxvSYhp0Ez36pioe_fA/o.jpg", "phone": "+16178840917", "id": "walgreens-chelsea-2", "distance": 7458.54899426, "location": {"display_address": ["1010 Broadway", "Chelsea, MA 02150"], "state": "MA", "address2": "", "address1": "1010 Broadway", "zip_code": "02150", "city": "Chelsea", "country": "US", "address3": ""}, "url": "https://www.yelp.com/biz/walgreens-chelsea-2?adjust_creative=gBcvfFpabk3CnzmXKdYe3w&utm_campaign=yelp_api_v3&utm_medium=api_v3_business_search&utm_source=gBcvfFpabk3CnzmXKdYe3w", "categories": [{"alias": "drugstores", "title": "Drugstores"}, {"alias": "cosmetics", "title": "Cosmetics & Beauty Supply"}, {"alias": "convenience", "title": "Convenience Stores"}], "display_phone": "(617) 884-0917", "is_closed": false, "name": "Walgreens", "price": "$$", "review_count": 6, "coordinates": {"longitude": -71.0193939208984, "latitude": 42.4028778076172}}, {"rating": 5.0, "transactions": [], "image_url": "https://s3-media1.fl.yelpcdn.com/bphoto/PUgG6zv_faYkY3PSYfFLSg/o.jpg", "phone": "+17812866529", "id": "tedeschi-food-shops-revere-2", "distance": 9780.587949137998, "location": {"display_address": ["72 Squire Rd", "Revere, MA 02151"], "state": "MA", "address2": "", "address1": "72 Squire Rd", "zip_code": "02151", "city": "Revere", "country": "US", "address3": ""}, "url": "https://www.yelp.com/biz/tedeschi-food-shops-revere-2?adjust_creative=gBcvfFpabk3CnzmXKdYe3w&utm_campaign=yelp_api_v3&utm_medium=api_v3_business_search&utm_source=gBcvfFpabk3CnzmXKdYe3w", "categories": [{"alias": "convenience", "title": "Convenience Stores"}], "display_phone": "(781) 286-6529", "is_closed": false, "name": "Tedeschi Food Shops", "review_count": 1, "coordinates": {"longitude": -71.0073, "latitude": 42.42205}}, {"rating": 4.5, "transactions": [], "image_url": "https://s3-media4.fl.yelpcdn.com/bphoto/Z2paGqh4P0_lFpQhgEFZTQ/o.jpg", "phone": "+17814384114", "id": "sila-heating-and-air-conditioning-stoneham-2", "distance": 14868.882162119999, "location": {"display_address": ["12 Manison St", "Ste 4", "Stoneham, MA 02180"], "state": "MA", "address2": "Ste 4", "address1": "12 Manison St", "zip_code": "02180", "city": "Stoneham", "country": "US", "address3": null}, "url": "https://www.yelp.com/biz/sila-heating-and-air-conditioning-stoneham-2?adjust_creative=gBcvfFpabk3CnzmXKdYe3w&utm_campaign=yelp_api_v3&utm_medium=api_v3_business_search&utm_source=gBcvfFpabk3CnzmXKdYe3w", "categories": [{"alias": "hvac", "title": "Heating & Air Conditioning/HVAC"}], "display_phone": "(781) 438-4114", "is_closed": false, "name": "Sila Heating & Air Conditioning", "review_count": 83, "coordinates": {"longitude": -71.11072, "latitude": 42.4783459}}, {"rating": 2.0, "transactions": [], "image_url": "https://s3-media1.fl.yelpcdn.com/bphoto/sIKYYP6ZGh_RP9YyfRq-_w/o.jpg", "phone": "+15083956528", "id": "william-raveis-chestnut-hill", "distance": 8308.42213618, "location": {"display_address": ["191 Grove St", "Chestnut Hill, MA 02467"], "state": "MA", "address2": null, "address1": "191 Grove St", "zip_code": "02467", "city": "Chestnut Hill", "country": "US", "address3": null}, "url": "https://www.yelp.com/biz/william-raveis-chestnut-hill?adjust_creative=gBcvfFpabk3CnzmXKdYe3w&utm_campaign=yelp_api_v3&utm_medium=api_v3_business_search&utm_source=gBcvfFpabk3CnzmXKdYe3w", "categories": [{"alias": "realestatesvcs", "title": "Real Estate Services"}], "display_phone": "(508) 395-6528", "is_closed": false, "name": "William Raveis", "review_count": 4, "coordinates": {"longitude": -71.1525421, "latitude": 42.3025055}}, {"rating": 1.5, "transactions": [], "image_url": "https://s3-media3.fl.yelpcdn.com/bphoto/PzVbsr38RJ2p6SNs7mC1Zw/o.jpg", "phone": "+16178764400", "id": "stephens-automotive-transport-medford", "distance": 8143.652435223999, "location": {"display_address": ["60 Union St", "Medford, MA 02155"], "state": "MA", "address2": "", "address1": "60 Union St", "zip_code": "02155", "city": "Medford", "country": "US", "address3": ""}, "url": "https://www.yelp.com/biz/stephens-automotive-transport-medford?adjust_creative=gBcvfFpabk3CnzmXKdYe3w&utm_campaign=yelp_api_v3&utm_medium=api_v3_business_search&utm_source=gBcvfFpabk3CnzmXKdYe3w", "categories": [{"alias": "towing", "title": "Towing"}], "display_phone": "(617) 876-4400", "is_closed": false, "name": "Stephens Automotive Transport", "review_count": 11, "coordinates": {"longitude": -71.109449, "latitude": 42.415423}}, {"rating": 1.5, "transactions": [], "image_url": "https://s3-media4.fl.yelpcdn.com/bphoto/VWylGoQHFBq3iQK574VGYg/o.jpg", "phone": "+17816294224", "id": "select-airport-valet-parking-revere", "distance": 9084.81603238, "location": {"display_address": ["60 Vfw Pkwy Rte 1A N", "Revere, MA 02151"], "state": "MA", "address2": "", "address1": "60 Vfw Pkwy Rte 1A N", "zip_code": "02151", "city": "Revere", "country": "US", "address3": ""}, "url": "https://www.yelp.com/biz/select-airport-valet-parking-revere?adjust_creative=gBcvfFpabk3CnzmXKdYe3w&utm_campaign=yelp_api_v3&utm_medium=api_v3_business_search&utm_source=gBcvfFpabk3CnzmXKdYe3w", "categories": [{"alias": "parking", "title": "Parking"}], "display_phone": "(781) 629-4224", "is_closed": false, "name": "Select Airport Valet Parking", "review_count": 147, "coordinates": {"longitude": -70.9996461, "latitude": 42.4101162}}, {"rating": 1.0, "transactions": [], "image_url": "https://s3-media4.fl.yelpcdn.com/bphoto/03xKbnbP4jmvcVaxwj1CQg/o.jpg", "phone": "+16178431090", "id": "minutemen-locksmith-brookline-2", "distance": 5821.840880088, "location": {"display_address": ["93 Williston Rd", "Brookline, MA 02445"], "state": "MA", "address2": null, "address1": "93 Williston Rd", "zip_code": "02445", "city": "Brookline", "country": "US", "address3": ""}, "url": "https://www.yelp.com/biz/minutemen-locksmith-brookline-2?adjust_creative=gBcvfFpabk3CnzmXKdYe3w&utm_campaign=yelp_api_v3&utm_medium=api_v3_business_search&utm_source=gBcvfFpabk3CnzmXKdYe3w", "categories": [{"alias": "locksmiths", "title": "Keys & Locksmiths"}], "display_phone": "(617) 843-1090", "is_closed": false, "name": "Minutemen Locksmith", "review_count": 1, "coordinates": {"longitude": -71.1415413022041, "latitude": 42.3412328213453}}, {"rating": 2.0, "transactions": [], "image_url": "https://s3-media3.fl.yelpcdn.com/bphoto/sQzScpD3JAWY1K44teOs9w/o.jpg", "phone": "+18572661576", "id": "o-neill-inc-cambridge", "distance": 6016.716504423999, "location": {"display_address": ["1770 Mass Ave", "Cambridge, MA 02140"], "state": "MA", "address2": "", "address1": "1770 Mass Ave", "zip_code": "02140", "city": "Cambridge", "country": "US", "address3": ""}, "url": "https://www.yelp.com/biz/o-neill-inc-cambridge?adjust_creative=gBcvfFpabk3CnzmXKdYe3w&utm_campaign=yelp_api_v3&utm_medium=api_v3_business_search&utm_source=gBcvfFpabk3CnzmXKdYe3w", "categories": [{"alias": "contractors", "title": "Contractors"}], "display_phone": "(857) 266-1576", "is_closed": false, "name": "O'Neill, Inc.", "review_count": 3, "coordinates": {"longitude": -71.1193178594112, "latitude": 42.3886623476471}}, {"rating": 4.0, "transactions": [], "image_url": "https://s3-media2.fl.yelpcdn.com/bphoto/frL1JlVHpskSiBfscG-nbg/o.jpg", "phone": "+16173258144", "id": "jeffs-transportation-services-dedham-2", "distance": 13279.037706879999, "location": {"display_address": ["174 Milton St", "Dedham, MA 02026"], "state": "MA", "address2": "", "address1": "174 Milton St", "zip_code": "02026", "city": "Dedham", "country": "US", "address3": ""}, "url": "https://www.yelp.com/biz/jeffs-transportation-services-dedham-2?adjust_creative=gBcvfFpabk3CnzmXKdYe3w&utm_campaign=yelp_api_v3&utm_medium=api_v3_business_search&utm_source=gBcvfFpabk3CnzmXKdYe3w", "categories": [{"alias": "limos", "title": "Limos"}], "display_phone": "(617) 325-8144", "is_closed": false, "name": "Jeff's Transportation Services", "review_count": 12, "coordinates": {"longitude": -71.1490814, "latitude": 42.2432187}}, {"rating": 2.5, "transactions": [], "image_url": "https://s3-media1.fl.yelpcdn.com/bphoto/iWhZVxCZCi462e7T3lM4Hg/o.jpg", "phone": "+17819421278", "id": "sunset-limousine-service-reading", "distance": 8205.393798719999, "location": {"display_address": ["Reading, MA 01867"], "state": "MA", "address2": "", "address1": "", "zip_code": "01867", "city": "Reading", "country": "US", "address3": ""}, "url": "https://www.yelp.com/biz/sunset-limousine-service-reading?adjust_creative=gBcvfFpabk3CnzmXKdYe3w&utm_campaign=yelp_api_v3&utm_medium=api_v3_business_search&utm_source=gBcvfFpabk3CnzmXKdYe3w", "categories": [{"alias": "limos", "title": "Limos"}, {"alias": "partybusrentals", "title": "Party Bus Rentals"}], "display_phone": "(781) 942-1278", "is_closed": false, "name": "Sunset Limousine Service", "review_count": 3, "coordinates": {"longitude": -71.0909605078125, "latitude": 42.4201831821909}}, {"rating": 5.0, "transactions": [], "image_url": "https://s3-media4.fl.yelpcdn.com/bphoto/2Va2HOaV2PvMGMy5p5nZQw/o.jpg", "phone": "+18027346423", "id": "hair-by-jillian-jimmo-cambridge", "distance": 6344.734919102, "location": {"display_address": ["2034 Massachusetts Ave", "Cambridge, MA 02140"], "state": "MA", "address2": null, "address1": "2034 Massachusetts Ave", "zip_code": "02140", "city": "Cambridge", "country": "US", "address3": ""}, "url": "https://www.yelp.com/biz/hair-by-jillian-jimmo-cambridge?adjust_creative=gBcvfFpabk3CnzmXKdYe3w&utm_campaign=yelp_api_v3&utm_medium=api_v3_business_search&utm_source=gBcvfFpabk3CnzmXKdYe3w", "categories": [{"alias": "hairstylists", "title": "Hair Stylists"}], "display_phone": "(802) 734-6423", "is_closed": false, "name": "Hair by Jillian Jimmo", "review_count": 1, "coordinates": {"longitude": -71.1222, "latitude": 42.39072}}, {"rating": 5.0, "transactions": [], "image_url": "https://s3-media1.fl.yelpcdn.com/bphoto/n41VRqc0DrMXY1bvU-EYRg/o.jpg", "phone": "+16178892204", "id": "holden-fruit-and-produce-company-chelsea", "distance": 6185.990426172, "location": {"display_address": ["1 Griffin Way", "Chelsea, MA 02150"], "state": "MA", "address2": "", "address1": "1 Griffin Way", "zip_code": "02150", "city": "Chelsea", "country": "US", "address3": ""}, "url": "https://www.yelp.com/biz/holden-fruit-and-produce-company-chelsea?adjust_creative=gBcvfFpabk3CnzmXKdYe3w&utm_campaign=yelp_api_v3&utm_medium=api_v3_business_search&utm_source=gBcvfFpabk3CnzmXKdYe3w", "categories": [{"alias": "markets", "title": "Fruits & Veggies"}], "display_phone": "(617) 889-2204", "is_closed": false, "name": "Holden Fruit & Produce Co", "review_count": 1, "coordinates": {"longitude": -71.025564, "latitude": 42.3920699}}, {"rating": 4.0, "transactions": [], "image_url": "", "phone": "+16173761320", "id": "thomas-crane-public-library-quincy", "distance": 9005.593695935999, "location": {"display_address": ["381 Hancock St", "Quincy, MA 02171"], "state": "MA", "address2": "", "address1": "381 Hancock St", "zip_code": "02171", "city": "Quincy", "country": "US", "address3": ""}, "url": "https://www.yelp.com/biz/thomas-crane-public-library-quincy?adjust_creative=gBcvfFpabk3CnzmXKdYe3w&utm_campaign=yelp_api_v3&utm_medium=api_v3_business_search&utm_source=gBcvfFpabk3CnzmXKdYe3w", "categories": [{"alias": "libraries", "title": "Libraries"}], "display_phone": "(617) 376-1320", "is_closed": false, "name": "Thomas Crane Public Library", "review_count": 1, "coordinates": {"longitude": -71.026155, "latitude": 42.2739511}}, {"rating": 3.0, "transactions": [], "image_url": "https://s3-media1.fl.yelpcdn.com/bphoto/hfK2KlsgmKJs-G2nL9371A/o.jpg", "phone": "+16179691119", "id": "ars-restoration-specialists-newton", "distance": 10681.24751624, "location": {"display_address": ["38 Crafts St", "Newton, MA 02458"], "state": "MA", "address2": null, "address1": "38 Crafts St", "zip_code": "02458", "city": "Newton", "country": "US", "address3": ""}, "url": "https://www.yelp.com/biz/ars-restoration-specialists-newton?adjust_creative=gBcvfFpabk3CnzmXKdYe3w&utm_campaign=yelp_api_v3&utm_medium=api_v3_business_search&utm_source=gBcvfFpabk3CnzmXKdYe3w", "categories": [{"alias": "contractors", "title": "Contractors"}, {"alias": "damagerestoration", "title": "Damage Restoration"}], "display_phone": "(617) 969-1119", "is_closed": false, "name": "ARS Restoration Specialists", "review_count": 10, "coordinates": {"longitude": -71.20066, "latitude": 42.35462}}, {"rating": 1.0, "transactions": [], "image_url": "https://s3-media4.fl.yelpcdn.com/bphoto/bdnvGRls4XNlQE9jz15UhQ/o.jpg", "phone": "+17819600818", "id": "medford-cab-medford-3", "distance": 6359.276271606, "location": {"display_address": ["407R Mystic Ave", "Medford, MA 02155"], "state": "MA", "address2": null, "address1": "407R Mystic Ave", "zip_code": "02155", "city": "Medford", "country": "US", "address3": null}, "url": "https://www.yelp.com/biz/medford-cab-medford-3?adjust_creative=gBcvfFpabk3CnzmXKdYe3w&utm_campaign=yelp_api_v3&utm_medium=api_v3_business_search&utm_source=gBcvfFpabk3CnzmXKdYe3w", "categories": [{"alias": "taxis", "title": "Taxis"}], "display_phone": "(781) 960-0818", "is_closed": false, "name": "Medford Cab", "review_count": 2, "coordinates": {"longitude": -71.0976715, "latitude": 42.4009514}}, {"rating": 2.0, "transactions": [], "image_url": "https://s3-media2.fl.yelpcdn.com/bphoto/uZKgBcgVfSNJ10biMbVEng/o.jpg", "phone": "+18572255855", "id": "tough-guys-snow-removal-brighton-2", "distance": 7922.150602455999, "location": {"display_address": ["31 Bigelow St", "Brighton, MA 02135"], "state": "MA", "address2": "", "address1": "31 Bigelow St", "zip_code": "02135", "city": "Brighton", "country": "US", "address3": ""}, "url": "https://www.yelp.com/biz/tough-guys-snow-removal-brighton-2?adjust_creative=gBcvfFpabk3CnzmXKdYe3w&utm_campaign=yelp_api_v3&utm_medium=api_v3_business_search&utm_source=gBcvfFpabk3CnzmXKdYe3w", "categories": [{"alias": "snowremoval", "title": "Snow Removal"}], "display_phone": "(857) 225-5855", "is_closed": false, "name": "Tough Guys Snow Removal", "review_count": 8, "coordinates": {"longitude": -71.167399, "latitude": 42.3529709}}, {"rating": 5.0, "transactions": [], "image_url": "https://s3-media1.fl.yelpcdn.com/bphoto/BJwvEmba2VmTAGuQalJ4RA/o.jpg", "phone": "+16177940371", "id": "a-dtransportation-chelsea", "distance": 6284.31820336, "location": {"display_address": ["100 Heard St", "Chelsea, MA 02150"], "state": "MA", "address2": "", "address1": "100 Heard St", "zip_code": "02150", "city": "Chelsea", "country": "US", "address3": ""}, "url": "https://www.yelp.com/biz/a-dtransportation-chelsea?adjust_creative=gBcvfFpabk3CnzmXKdYe3w&utm_campaign=yelp_api_v3&utm_medium=api_v3_business_search&utm_source=gBcvfFpabk3CnzmXKdYe3w", "categories": [{"alias": "limos", "title": "Limos"}, {"alias": "airport_shuttles", "title": "Airport Shuttles"}], "display_phone": "(617) 794-0371", "is_closed": false, "name": "A-DTransportation", "review_count": 1, "coordinates": {"longitude": -71.0361948609352, "latitude": 42.3979762941599}}, {"rating": 3.5, "transactions": [], "image_url": "https://s3-media1.fl.yelpcdn.com/bphoto/LAbjtVOhhpoifz6s1MGNRA/o.jpg", "phone": "+16175240861", "id": "brady-fallon-funeral-and-cremation-service-jamaica-plain", "distance": 6357.833981098, "location": {"display_address": ["10 Tower St", "Jamaica Plain, MA 02130"], "state": "MA", "address2": "", "address1": "10 Tower St", "zip_code": "02130", "city": "Jamaica Plain", "country": "US", "address3": ""}, "url": "https://www.yelp.com/biz/brady-fallon-funeral-and-cremation-service-jamaica-plain?adjust_creative=gBcvfFpabk3CnzmXKdYe3w&utm_campaign=yelp_api_v3&utm_medium=api_v3_business_search&utm_source=gBcvfFpabk3CnzmXKdYe3w", "categories": [{"alias": "funeralservices", "title": "Funeral Services & Cemeteries"}], "display_phone": "(617) 524-0861", "is_closed": false, "name": "Brady Fallon Funeral and Cremation Service", "review_count": 3, "coordinates": {"longitude": -71.11298, "latitude": 42.29971}}, {"rating": 5.0, "transactions": [], "image_url": "https://s3-media2.fl.yelpcdn.com/bphoto/9tr7TxKYgTf3IYASccNjxA/o.jpg", "phone": "+17812897106", "id": "rapid-flow-drain-cleaning-revere-2", "distance": 10328.795136078, "location": {"display_address": ["Revere, MA 02151"], "state": "MA", "address2": "", "address1": "", "zip_code": "02151", "city": "Revere", "country": "US", "address3": ""}, "url": "https://www.yelp.com/biz/rapid-flow-drain-cleaning-revere-2?adjust_creative=gBcvfFpabk3CnzmXKdYe3w&utm_campaign=yelp_api_v3&utm_medium=api_v3_business_search&utm_source=gBcvfFpabk3CnzmXKdYe3w", "categories": [{"alias": "plumbing", "title": "Plumbing"}, {"alias": "septicservices", "title": "Septic Services"}, {"alias": "hydrojetting", "title": "Hydro-jetting"}], "display_phone": "(781) 289-7106", "is_closed": false, "name": "Rapid Flow Drain Cleaning", "review_count": 1, "coordinates": {"longitude": -71.0039749145508, "latitude": 42.4191055297852}}, {"rating": 5.0, "transactions": [], "image_url": "", "phone": "+16178891177", "id": "smith-funeral-home-chelsea", "distance": 6353.680435492, "location": {"display_address": ["125 Washington Ave", "Ste 125", "Chelsea, MA 02150"], "state": "MA", "address2": "Ste 125", "address1": "125 Washington Ave", "zip_code": "02150", "city": "Chelsea", "country": "US", "address3": ""}, "url": "https://www.yelp.com/biz/smith-funeral-home-chelsea?adjust_creative=gBcvfFpabk3CnzmXKdYe3w&utm_campaign=yelp_api_v3&utm_medium=api_v3_business_search&utm_source=gBcvfFpabk3CnzmXKdYe3w", "categories": [{"alias": "funeralservices", "title": "Funeral Services & Cemeteries"}], "display_phone": "(617) 889-1177", "is_closed": false, "name": "Smith Funeral Home", "review_count": 1, "coordinates": {"longitude": -71.0316727, "latitude": 42.3967002}}, {"rating": 4.0, "transactions": [], "image_url": "", "phone": "+17812843376", "id": "buonfiglio-funeral-home-revere", "distance": 9447.189510839999, "location": {"display_address": ["128 Revere St", "Revere, MA 02151"], "state": "MA", "address2": "", "address1": "128 Revere St", "zip_code": "02151", "city": "Revere", "country": "US", "address3": ""}, "url": "https://www.yelp.com/biz/buonfiglio-funeral-home-revere?adjust_creative=gBcvfFpabk3CnzmXKdYe3w&utm_campaign=yelp_api_v3&utm_medium=api_v3_business_search&utm_source=gBcvfFpabk3CnzmXKdYe3w", "categories": [{"alias": "funeralservices", "title": "Funeral Services & Cemeteries"}], "display_phone": "(781) 284-3376", "is_closed": false, "name": "Buonfiglio Funeral Home", "review_count": 3, "coordinates": {"longitude": -71.0040130615234, "latitude": 42.4167671203613}}, {"rating": 1.5, "transactions": [], "image_url": "https://s3-media3.fl.yelpcdn.com/bphoto/zYlejwZBju4EcYpVo7NrlA/o.jpg", "phone": "+16174918000", "id": "hotel-tria-cambridge", "distance": 7393.2033529, "location": {"display_address": ["220 Alewife Brook Pkwy", "Cambridge, MA 02138"], "state": "MA", "address2": "", "address1": "220 Alewife Brook Pkwy", "zip_code": "02138", "city": "Cambridge", "country": "US", "address3": null}, "url": "https://www.yelp.com/biz/hotel-tria-cambridge?adjust_creative=gBcvfFpabk3CnzmXKdYe3w&utm_campaign=yelp_api_v3&utm_medium=api_v3_business_search&utm_source=gBcvfFpabk3CnzmXKdYe3w", "categories": [{"alias": "hotels", "title": "Hotels"}], "display_phone": "(617) 491-8000", "is_closed": false, "name": "Hotel Tria", "price": "$$$", "review_count": 8, "coordinates": {"longitude": -71.14245, "latitude": 42.3885999}}, {"rating": 1.5, "transactions": [], "image_url": "https://s3-media3.fl.yelpcdn.com/bphoto/3Z30IiyjKHt99uMNtq7Zig/o.jpg", "phone": "+17813917777", "id": "medford-taxi-medford-2", "distance": 6810.914689977999, "location": {"display_address": ["625 Boston Ave", "Medford, MA 02155"], "state": "MA", "address2": "", "address1": "625 Boston Ave", "zip_code": "02155", "city": "Medford", "country": "US", "address3": ""}, "url": "https://www.yelp.com/biz/medford-taxi-medford-2?adjust_creative=gBcvfFpabk3CnzmXKdYe3w&utm_campaign=yelp_api_v3&utm_medium=api_v3_business_search&utm_source=gBcvfFpabk3CnzmXKdYe3w", "categories": [{"alias": "taxis", "title": "Taxis"}], "display_phone": "(781) 391-7777", "is_closed": false, "name": "Medford Taxi", "review_count": 4, "coordinates": {"longitude": -71.1128006, "latitude": 42.4010811}}, {"rating": 3.5, "transactions": [], "image_url": "https://s3-media3.fl.yelpcdn.com/bphoto/XJU497gs4TkR1vgCd7b7tA/o.jpg", "phone": "+17815580222", "id": "premier-logan-taxi-revere-2", "distance": 10328.795136078, "location": {"display_address": ["Revere, MA 02151"], "state": "MA", "address2": "", "address1": "", "zip_code": "02151", "city": "Revere", "country": "US", "address3": ""}, "url": "https://www.yelp.com/biz/premier-logan-taxi-revere-2?adjust_creative=gBcvfFpabk3CnzmXKdYe3w&utm_campaign=yelp_api_v3&utm_medium=api_v3_business_search&utm_source=gBcvfFpabk3CnzmXKdYe3w", "categories": [{"alias": "taxis", "title": "Taxis"}, {"alias": "airport_shuttles", "title": "Airport Shuttles"}, {"alias": "limos", "title": "Limos"}], "display_phone": "(781) 558-0222", "is_closed": false, "name": "Premier Logan Taxi", "review_count": 3, "coordinates": {"longitude": -71.0039749145508, "latitude": 42.4191055297852}}, {"rating": 2.5, "transactions": [], "image_url": "https://s3-media2.fl.yelpcdn.com/bphoto/JwMxROuu6ZSlbCVYq8M_tw/o.jpg", "phone": "+16174844404", "id": "freiner-company-inc-belmont-2", "distance": 8975.716137901998, "location": {"display_address": ["45 Brighton St", "Belmont, MA 02478"], "state": "MA", "address2": "", "address1": "45 Brighton St", "zip_code": "02478", "city": "Belmont", "country": "US", "address3": ""}, "url": "https://www.yelp.com/biz/freiner-company-inc-belmont-2?adjust_creative=gBcvfFpabk3CnzmXKdYe3w&utm_campaign=yelp_api_v3&utm_medium=api_v3_business_search&utm_source=gBcvfFpabk3CnzmXKdYe3w", "categories": [{"alias": "plumbing", "title": "Plumbing"}, {"alias": "hvac", "title": "Heating & Air Conditioning/HVAC"}], "display_phone": "(617) 484-4404", "is_closed": false, "name": "Freiner Company, Inc.", "review_count": 7, "coordinates": {"longitude": -71.1586380004883, "latitude": 42.3962898254395}}, {"rating": 2.0, "transactions": [], "image_url": "", "phone": "+16178843333", "id": "independent-cab-company-chelsea", "distance": 6556.615312679999, "location": {"display_address": ["183 Washington Ave", "Chelsea, MA 02150"], "state": "MA", "address2": "", "address1": "183 Washington Ave", "zip_code": "02150", "city": "Chelsea", "country": "US", "address3": ""}, "url": "https://www.yelp.com/biz/independent-cab-company-chelsea?adjust_creative=gBcvfFpabk3CnzmXKdYe3w&utm_campaign=yelp_api_v3&utm_medium=api_v3_business_search&utm_source=gBcvfFpabk3CnzmXKdYe3w", "categories": [{"alias": "taxis", "title": "Taxis"}], "display_phone": "(617) 884-3333", "is_closed": false, "name": "Independent Cab Company", "review_count": 3, "coordinates": {"longitude": -71.0310821533203, "latitude": 42.3987998962402}}, {"rating": 5.0, "transactions": [], "image_url": "", "phone": "+16177315434", "id": "frank-r-moy-greenline-realty-brighton-2", "distance": 6680.067301278, "location": {"display_address": ["1956 Beacon St", "Brighton, MA 02135"], "state": "MA", "address2": "", "address1": "1956 Beacon St", "zip_code": "02135", "city": "Brighton", "country": "US", "address3": ""}, "url": "https://www.yelp.com/biz/frank-r-moy-greenline-realty-brighton-2?adjust_creative=gBcvfFpabk3CnzmXKdYe3w&utm_campaign=yelp_api_v3&utm_medium=api_v3_business_search&utm_source=gBcvfFpabk3CnzmXKdYe3w", "categories": [{"alias": "realestateagents", "title": "Real Estate Agents"}], "display_phone": "(617) 731-5434", "is_closed": false, "name": "Frank R. Moy - Greenline Realty", "review_count": 1, "coordinates": {"longitude": -71.1504200845957, "latitude": 42.3362231254578}}, {"rating": 1.5, "transactions": [], "image_url": "https://s3-media3.fl.yelpcdn.com/bphoto/qv_fRSmVmpP6-Vf64PwxFg/o.jpg", "phone": "+17812842222", "id": "patriot-taxi-and-van-service-revere", "distance": 9222.534337276, "location": {"display_address": ["737 Broadway", "Revere, MA 02151"], "state": "MA", "address2": null, "address1": "737 Broadway", "zip_code": "02151", "city": "Revere", "country": "US", "address3": ""}, "url": "https://www.yelp.com/biz/patriot-taxi-and-van-service-revere?adjust_creative=gBcvfFpabk3CnzmXKdYe3w&utm_campaign=yelp_api_v3&utm_medium=api_v3_business_search&utm_source=gBcvfFpabk3CnzmXKdYe3w", "categories": [{"alias": "taxis", "title": "Taxis"}], "display_phone": "(781) 284-2222", "is_closed": false, "name": "Patriot Taxi & Van Service", "review_count": 13, "coordinates": {"longitude": -71.0081518, "latitude": 42.4164521}}, {"rating": 2.0, "transactions": [], "image_url": "https://s3-media2.fl.yelpcdn.com/bphoto/yO2mQT5BRPoL4KXh4Jwd5A/o.jpg", "phone": "+17812890941", "id": "laundromax-revere", "distance": 9260.40629176, "location": {"display_address": ["120 VFW Parkway", "Revere, MA 02151"], "state": "MA", "address2": "", "address1": "120 VFW Parkway", "zip_code": "02151", "city": "Revere", "country": "US", "address3": ""}, "url": "https://www.yelp.com/biz/laundromax-revere?adjust_creative=gBcvfFpabk3CnzmXKdYe3w&utm_campaign=yelp_api_v3&utm_medium=api_v3_business_search&utm_source=gBcvfFpabk3CnzmXKdYe3w", "categories": [{"alias": "laundryservices", "title": "Laundry Services"}], "display_phone": "(781) 289-0941", "is_closed": false, "name": "Laundromax", "price": "$", "review_count": 5, "coordinates": {"longitude": -70.99814233355, "latitude": 42.4112487010841}}, {"rating": 2.0, "transactions": [], "image_url": "https://s3-media4.fl.yelpcdn.com/bphoto/IM8N-uDpBw27TVcT6jLJog/o.jpg", "phone": "+16174690300", "id": "bournewood-hospital-brookline", "distance": 8452.938776038, "location": {"display_address": ["300 South St", "Brookline, MA 02445"], "state": "MA", "address2": "", "address1": "300 South St", "zip_code": "02445", "city": "Brookline", "country": "US", "address3": ""}, "url": "https://www.yelp.com/biz/bournewood-hospital-brookline?adjust_creative=gBcvfFpabk3CnzmXKdYe3w&utm_campaign=yelp_api_v3&utm_medium=api_v3_business_search&utm_source=gBcvfFpabk3CnzmXKdYe3w", "categories": [{"alias": "hospitals", "title": "Hospitals"}], "display_phone": "(617) 469-0300", "is_closed": false, "name": "Bournewood Hospital", "review_count": 9, "coordinates": {"longitude": -71.1494598388672, "latitude": 42.2982902526855}}, {"rating": 5.0, "transactions": [], "image_url": "https://s3-media3.fl.yelpcdn.com/bphoto/Wcxz9yOq6gx-ESncqku0aw/o.jpg", "phone": "+16173408272", "id": "newton-limos-newton-centre", "distance": 10348.260586179998, "location": {"display_address": ["Newton Centre, MA 02459"], "state": "MA", "address2": null, "address1": "", "zip_code": "02459", "city": "Newton Centre", "country": "US", "address3": ""}, "url": "https://www.yelp.com/biz/newton-limos-newton-centre?adjust_creative=gBcvfFpabk3CnzmXKdYe3w&utm_campaign=yelp_api_v3&utm_medium=api_v3_business_search&utm_source=gBcvfFpabk3CnzmXKdYe3w", "categories": [{"alias": "airport_shuttles", "title": "Airport Shuttles"}, {"alias": "limos", "title": "Limos"}, {"alias": "partybusrentals", "title": "Party Bus Rentals"}], "display_phone": "(617) 340-8272", "is_closed": false, "name": "Newton Limos", "review_count": 2, "coordinates": {"longitude": -71.19479, "latitude": 42.33022}}, {"rating": 1.0, "transactions": [], "image_url": "https://s3-media3.fl.yelpcdn.com/bphoto/Sro-gJQM0yQBvfhz0EuXcg/o.jpg", "phone": "+16176349193", "id": "boston-metro-shuttle-jamaica-plain", "distance": 7067.52443578, "location": {"display_address": ["235 Hyde Park Ave", "Jamaica Plain, MA 02130"], "state": "MA", "address2": "", "address1": "235 Hyde Park Ave", "zip_code": "02130", "city": "Jamaica Plain", "country": "US", "address3": ""}, "url": "https://www.yelp.com/biz/boston-metro-shuttle-jamaica-plain?adjust_creative=gBcvfFpabk3CnzmXKdYe3w&utm_campaign=yelp_api_v3&utm_medium=api_v3_business_search&utm_source=gBcvfFpabk3CnzmXKdYe3w", "categories": [{"alias": "airport_shuttles", "title": "Airport Shuttles"}, {"alias": "taxis", "title": "Taxis"}], "display_phone": "(617) 634-9193", "is_closed": false, "name": "Boston Metro Shuttle", "review_count": 1, "coordinates": {"longitude": -71.1175308227539, "latitude": 42.2943382263184}}, {"rating": 1.0, "transactions": [], "image_url": "https://s3-media2.fl.yelpcdn.com/bphoto/4iiRNB6XDdQFEYSvJQQ_-Q/o.jpg", "phone": "+16178181222", "id": "arlington-cabs-somerville", "distance": 7168.908027760001, "location": {"display_address": ["69 Boston Ave", "Somerville, MA 02144"], "state": "MA", "address2": null, "address1": "69 Boston Ave", "zip_code": "02144", "city": "Somerville", "country": "US", "address3": ""}, "url": "https://www.yelp.com/biz/arlington-cabs-somerville?adjust_creative=gBcvfFpabk3CnzmXKdYe3w&utm_campaign=yelp_api_v3&utm_medium=api_v3_business_search&utm_source=gBcvfFpabk3CnzmXKdYe3w", "categories": [{"alias": "taxis", "title": "Taxis"}, {"alias": "limos", "title": "Limos"}], "display_phone": "(617) 818-1222", "is_closed": false, "name": "Arlington Cabs", "review_count": 1, "coordinates": {"longitude": -71.1240559, "latitude": 42.3991718}}, {"rating": 1.0, "transactions": [], "image_url": "https://s3-media2.fl.yelpcdn.com/bphoto/TwPYr285RbhIl4z5iyzfMQ/o.jpg", "phone": "+17812840275", "id": "speedway-revere", "distance": 7416.247492359999, "location": {"display_address": ["41 Lee Burbank Hwy", "Revere, MA 02151"], "state": "MA", "address2": "", "address1": "41 Lee Burbank Hwy", "zip_code": "02151", "city": "Revere", "country": "US", "address3": ""}, "url": "https://www.yelp.com/biz/speedway-revere?adjust_creative=gBcvfFpabk3CnzmXKdYe3w&utm_campaign=yelp_api_v3&utm_medium=api_v3_business_search&utm_source=gBcvfFpabk3CnzmXKdYe3w", "categories": [{"alias": "servicestations", "title": "Gas & Service Stations"}], "display_phone": "(781) 284-0275", "is_closed": false, "name": "Speedway", "review_count": 1, "coordinates": {"longitude": -71.00901, "latitude": 42.39608}}, {"rating": 1.0, "transactions": [], "image_url": "https://s3-media2.fl.yelpcdn.com/bphoto/jZ5sKTQnYpC8Ak0oFH2SZQ/o.jpg", "phone": "+16176255000", "id": "green-and-yellow-cab-somerville-5", "distance": 7168.908027760001, "location": {"display_address": ["600 Windsor Pl", "Somerville, MA 02144"], "state": "MA", "address2": "", "address1": "600 Windsor Pl", "zip_code": "02144", "city": "Somerville", "country": "US", "address3": ""}, "url": "https://www.yelp.com/biz/green-and-yellow-cab-somerville-5?adjust_creative=gBcvfFpabk3CnzmXKdYe3w&utm_campaign=yelp_api_v3&utm_medium=api_v3_business_search&utm_source=gBcvfFpabk3CnzmXKdYe3w", "categories": [{"alias": "taxis", "title": "Taxis"}, {"alias": "airport_shuttles", "title": "Airport Shuttles"}], "display_phone": "(617) 625-5000", "is_closed": false, "name": "Green & Yellow Cab", "review_count": 1, "coordinates": {"longitude": -71.1240559, "latitude": 42.3991718}}, {"rating": 4.0, "transactions": [], "image_url": "", "phone": "+16173257100", "id": "parkway-towing-west-roxbury", "distance": 10588.662829775998, "location": {"display_address": ["West Roxbury, MA 02132"], "state": "MA", "address2": "", "address1": "", "zip_code": "02132", "city": "West Roxbury", "country": "US", "address3": ""}, "url": "https://www.yelp.com/biz/parkway-towing-west-roxbury?adjust_creative=gBcvfFpabk3CnzmXKdYe3w&utm_campaign=yelp_api_v3&utm_medium=api_v3_business_search&utm_source=gBcvfFpabk3CnzmXKdYe3w", "categories": [{"alias": "towing", "title": "Towing"}], "display_phone": "(617) 325-7100", "is_closed": false, "name": "Parkway Towing", "review_count": 4, "coordinates": {"longitude": -71.163626, "latitude": 42.2815}}, {"rating": 5.0, "transactions": [], "image_url": "", "phone": "+17813969200", "id": "dello-russo-funeral-service-medford", "distance": 7385.06894387, "location": {"display_address": ["306 Main St", "Medford, MA 02155"], "state": "MA", "address2": "", "address1": "306 Main St", "zip_code": "02155", "city": "Medford", "country": "US", "address3": ""}, "url": "https://www.yelp.com/biz/dello-russo-funeral-service-medford?adjust_creative=gBcvfFpabk3CnzmXKdYe3w&utm_campaign=yelp_api_v3&utm_medium=api_v3_business_search&utm_source=gBcvfFpabk3CnzmXKdYe3w", "categories": [{"alias": "funeralservices", "title": "Funeral Services & Cemeteries"}], "display_phone": "(781) 396-9200", "is_closed": false, "name": "Dello Russo Funeral Service", "review_count": 2, "coordinates": {"longitude": -71.1088104248047, "latitude": 42.4082107543945}}, {"rating": 1.0, "transactions": [], "image_url": "https://s3-media2.fl.yelpcdn.com/bphoto/W7zZbEiVoQhqg4YFXnouTA/o.jpg", "phone": "+16172945224", "id": "abiatar-hardscape-everett", "distance": 7252.026898212, "location": {"display_address": ["131 Bucknam St", "Everett, MA 02149"], "state": "MA", "address2": null, "address1": "131 Bucknam St", "zip_code": "02149", "city": "Everett", "country": "US", "address3": null}, "url": "https://www.yelp.com/biz/abiatar-hardscape-everett?adjust_creative=gBcvfFpabk3CnzmXKdYe3w&utm_campaign=yelp_api_v3&utm_medium=api_v3_business_search&utm_source=gBcvfFpabk3CnzmXKdYe3w", "categories": [{"alias": "masonry_concrete", "title": "Masonry/Concrete"}], "display_phone": "(617) 294-5224", "is_closed": false, "name": "Abiatar Hardscape", "review_count": 1, "coordinates": {"longitude": -71.0610770434141, "latitude": 42.4126292020082}}, {"rating": 3.0, "transactions": [], "image_url": "https://s3-media4.fl.yelpcdn.com/bphoto/-GJAUbxwsAdi_ekm-cAIGQ/o.jpg", "phone": "+17813542807", "id": "marathon-cab-newton", "distance": 11403.505467916, "location": {"display_address": ["Newton, MA 02459"], "state": "MA", "address2": "", "address1": "", "zip_code": "02459", "city": "Newton", "country": "US", "address3": ""}, "url": "https://www.yelp.com/biz/marathon-cab-newton?adjust_creative=gBcvfFpabk3CnzmXKdYe3w&utm_campaign=yelp_api_v3&utm_medium=api_v3_business_search&utm_source=gBcvfFpabk3CnzmXKdYe3w", "categories": [{"alias": "taxis", "title": "Taxis"}, {"alias": "limos", "title": "Limos"}], "display_phone": "(781) 354-2807", "is_closed": false, "name": "Marathon Cab", "review_count": 5, "coordinates": {"longitude": -71.2092214, "latitude": 42.3370413}}, {"rating": 2.0, "transactions": [], "image_url": "https://s3-media1.fl.yelpcdn.com/bphoto/sykcKUfvzWUXNUSVZR9jig/o.jpg", "phone": "+17812895823", "id": "e-z-lube-revere", "distance": 9784.23519638, "location": {"display_address": ["415 American Legion Hwy", "Revere, MA 02151"], "state": "MA", "address2": "", "address1": "415 American Legion Hwy", "zip_code": "02151", "city": "Revere", "country": "US", "address3": ""}, "url": "https://www.yelp.com/biz/e-z-lube-revere?adjust_creative=gBcvfFpabk3CnzmXKdYe3w&utm_campaign=yelp_api_v3&utm_medium=api_v3_business_search&utm_source=gBcvfFpabk3CnzmXKdYe3w", "categories": [{"alias": "oilchange", "title": "Oil Change Stations"}], "display_phone": "(781) 289-5823", "is_closed": false, "name": "E-Z Lube", "review_count": 5, "coordinates": {"longitude": -71.0026263445616, "latitude": 42.4204974621534}}, {"rating": 1.0, "transactions": [], "image_url": "https://s3-media1.fl.yelpcdn.com/bphoto/jI_dXQQQAqCmRZwyiUfqSQ/o.jpg", "phone": "+16172492565", "id": "essex-plumbing-and-heating-quincy", "distance": 7393.758897068, "location": {"display_address": ["60 Essex St", "Quincy, MA 02171"], "state": "MA", "address2": null, "address1": "60 Essex St", "zip_code": "02171", "city": "Quincy", "country": "US", "address3": ""}, "url": "https://www.yelp.com/biz/essex-plumbing-and-heating-quincy?adjust_creative=gBcvfFpabk3CnzmXKdYe3w&utm_campaign=yelp_api_v3&utm_medium=api_v3_business_search&utm_source=gBcvfFpabk3CnzmXKdYe3w", "categories": [{"alias": "hvac", "title": "Heating & Air Conditioning/HVAC"}], "display_phone": "(617) 249-2565", "is_closed": false, "name": "Essex Plumbing and Heating", "review_count": 1, "coordinates": {"longitude": -71.015686, "latitude": 42.295555}}, {"rating": 5.0, "transactions": [], "image_url": "https://s3-media4.fl.yelpcdn.com/bphoto/EjLKFo1eph5nc0wKpWmhSw/o.jpg", "phone": "+18574170489", "id": "g-and-p-exclusive-limo-service-llc-roslindale", "distance": 7684.703750835999, "location": {"display_address": ["4069 Washinghton", "Ste 1", "Roslindale, MA 02131"], "state": "MA", "address2": "Ste 1", "address1": "4069 Washinghton", "zip_code": "02131", "city": "Roslindale", "country": "US", "address3": ""}, "url": "https://www.yelp.com/biz/g-and-p-exclusive-limo-service-llc-roslindale?adjust_creative=gBcvfFpabk3CnzmXKdYe3w&utm_campaign=yelp_api_v3&utm_medium=api_v3_business_search&utm_source=gBcvfFpabk3CnzmXKdYe3w", "categories": [{"alias": "limos", "title": "Limos"}, {"alias": "airport_shuttles", "title": "Airport Shuttles"}], "display_phone": "(857) 417-0489", "is_closed": false, "name": "G&P Exclusive Limo Service LLC", "review_count": 1, "coordinates": {"longitude": -71.1239499, "latitude": 42.290767}}, {"rating": 2.5, "transactions": [], "image_url": "https://s3-media3.fl.yelpcdn.com/bphoto/VtMFCXKbyi1BVJCMVDoXNQ/o.jpg", "phone": "+17817777777", "id": "lucky-7-taxi-east-boston-3", "distance": 9780.66568026, "location": {"display_address": ["89 Condor St", "East Boston, MA 02128"], "state": "MA", "address2": "", "address1": "89 Condor St", "zip_code": "02128", "city": "East Boston", "country": "US", "address3": ""}, "url": "https://www.yelp.com/biz/lucky-7-taxi-east-boston-3?adjust_creative=gBcvfFpabk3CnzmXKdYe3w&utm_campaign=yelp_api_v3&utm_medium=api_v3_business_search&utm_source=gBcvfFpabk3CnzmXKdYe3w", "categories": [{"alias": "taxis", "title": "Taxis"}, {"alias": "airport_shuttles", "title": "Airport Shuttles"}], "display_phone": "(781) 777-7777", "is_closed": false, "name": "Lucky 7 Taxi", "review_count": 6, "coordinates": {"longitude": -71.008008, "latitude": 42.4223799}}, {"rating": 5.0, "transactions": [], "image_url": "https://s3-media1.fl.yelpcdn.com/bphoto/_4LvXo7Fgrk3zrIw-sK_tQ/o.jpg", "phone": "+16177833640", "id": "evelyn-images-waltham", "distance": 14008.725337599999, "location": {"display_address": ["681 Main St", "Waltham, MA 02451"], "state": "MA", "address2": null, "address1": "681 Main St", "zip_code": "02451", "city": "Waltham", "country": "US", "address3": ""}, "url": "https://www.yelp.com/biz/evelyn-images-waltham?adjust_creative=gBcvfFpabk3CnzmXKdYe3w&utm_campaign=yelp_api_v3&utm_medium=api_v3_business_search&utm_source=gBcvfFpabk3CnzmXKdYe3w", "categories": [{"alias": "sessionphotography", "title": "Session Photography"}], "display_phone": "(617) 783-3640", "is_closed": false, "name": "Evelyn Images", "review_count": 6, "coordinates": {"longitude": -71.2374496, "latitude": 42.3763199}}], "total": 1239}