{"region": {"center": {"longitude": -71.07124328613281, "latitude": 42.34784169448538}}, "businesses": [{"rating": 4.5, "transactions": [], "image_url": "https://s3-media1.fl.yelpcdn.com/bphoto/YyKUYxeKphfZSGDY36Qnxw/o.jpg", "phone": "+17813964192", "id": "snake-it-away-medford", "distance": 8356.53657416, "location": {"display_address": ["Medford, MA 02155"], "state": "MA", "address2": "", "address1": "", "zip_code": "02155", "city": "Medford", "country": "US", "address3": ""}, "url": "https://www.yelp.com/biz/snake-it-away-medford?adjust_creative=gBcvfFpabk3CnzmXKdYe3w&utm_campaign=yelp_api_v3&utm_medium=api_v3_business_search&utm_source=gBcvfFpabk3CnzmXKdYe3w", "categories": [{"alias": "plumbing", "title": "Plumbing"}], "display_phone": "(781) 396-4192", "is_closed": false, "name": "Snake It Away", "review_count": 11, "coordinates": {"longitude": -71.10608, "latitude": 42.41943}}, {"rating": 5.0, "transactions": [], "image_url": "https://s3-media3.fl.yelpcdn.com/bphoto/kca7k6E3AaonOScroLdPUA/o.jpg", "phone": "+16179130649", "id": "ariana-leigh-boston", "distance": 10669.589457279999, "location": {"display_address": ["Boston, MA 02132"], "state": "MA", "address2": null, "address1": null, "zip_code": "02132", "city": "Boston", "country": "US", "address3": ""}, "url": "https://www.yelp.com/biz/ariana-leigh-boston?adjust_creative=gBcvfFpabk3CnzmXKdYe3w&utm_campaign=yelp_api_v3&utm_medium=api_v3_business_search&utm_source=gBcvfFpabk3CnzmXKdYe3w", "categories": [{"alias": "makeupartists", "title": "Makeup Artists"}], "display_phone": "(617) 913-0649", "is_closed": false, "name": "Ariana Leigh", "review_count": 1, "coordinates": {"longitude": -71.1607131958008, "latitude": 42.2781982421875}}, {"rating": 5.0, "transactions": [], "image_url": "https://s3-media1.fl.yelpcdn.com/bphoto/_WgLtC-vnPjYvVHPxd25Fg/o.jpg", "phone": "+18886549990", "id": "all-savants-transportation-quincy-4", "distance": 12515.429534178, "location": {"display_address": ["12 Hynes Ave", "Ste 1L", "Quincy, MA 02169"], "state": "MA", "address2": "Ste 1L", "address1": "12 Hynes Ave", "zip_code": "02169", "city": "Quincy", "country": "US", "address3": ""}, "url": "https://www.yelp.com/biz/all-savants-transportation-quincy-4?adjust_creative=gBcvfFpabk3CnzmXKdYe3w&utm_campaign=yelp_api_v3&utm_medium=api_v3_business_search&utm_source=gBcvfFpabk3CnzmXKdYe3w", "categories": [{"alias": "airport_shuttles", "title": "Airport Shuttles"}, {"alias": "taxis", "title": "Taxis"}], "display_phone": "(888) 654-9990", "is_closed": false, "name": "All-Savants Transportation", "review_count": 25, "coordinates": {"longitude": -71.022552, "latitude": 42.241203}}, {"rating": 4.0, "transactions": [], "image_url": "https://s3-media2.fl.yelpcdn.com/bphoto/BgBUHNfs3qF8JrDflLOFhA/o.jpg", "phone": "+18572843050", "id": "sila-transportation-chestnut-hill-2", "distance": 8041.31595303, "location": {"display_address": ["Chestnut Hill, MA 02467"], "state": "MA", "address2": "", "address1": "", "zip_code": "02467", "city": "Chestnut Hill", "country": "US", "address3": ""}, "url": "https://www.yelp.com/biz/sila-transportation-chestnut-hill-2?adjust_creative=gBcvfFpabk3CnzmXKdYe3w&utm_campaign=yelp_api_v3&utm_medium=api_v3_business_search&utm_source=gBcvfFpabk3CnzmXKdYe3w", "categories": [{"alias": "limos", "title": "Limos"}, {"alias": "airport_shuttles", "title": "Airport Shuttles"}, {"alias": "taxis", "title": "Taxis"}], "display_phone": "(857) 284-3050", "is_closed": false, "name": "Sila Transportation", "review_count": 12, "coordinates": {"longitude": -71.17235, "latitude": 42.33293}}, {"rating": 4.5, "transactions": [], "image_url": "https://s3-media2.fl.yelpcdn.com/bphoto/zVVSlQ5-kkFYj5NAwSzcow/o.jpg", "phone": "+16172825246", "id": "walgreens-dorchester-3", "distance": 7444.882478979999, "location": {"display_address": ["757 Gallivan Blvd", "Dorchester, MA 02122"], "state": "MA", "address2": "", "address1": "757 Gallivan Blvd", "zip_code": "02122", "city": "Dorchester", "country": "US", "address3": ""}, "url": "https://www.yelp.com/biz/walgreens-dorchester-3?adjust_creative=gBcvfFpabk3CnzmXKdYe3w&utm_campaign=yelp_api_v3&utm_medium=api_v3_business_search&utm_source=gBcvfFpabk3CnzmXKdYe3w", "categories": [{"alias": "drugstores", "title": "Drugstores"}, {"alias": "cosmetics", "title": "Cosmetics & Beauty Supply"}, {"alias": "convenience", "title": "Convenience Stores"}], "display_phone": "(617) 282-5246", "is_closed": false, "name": "Walgreens", "price": "$$", "review_count": 3, "coordinates": {"longitude": -71.0451965, "latitude": 42.2837486}}, {"rating": 2.5, "transactions": [], "image_url": "", "phone": "+16175224000", "id": "bani-transportation-jamaica-plain", "distance": 5695.634345146, "location": {"display_address": ["26 Brookley Rd", "Jamaica Plain, MA 02130"], "state": "MA", "address2": "", "address1": "26 Brookley Rd", "zip_code": "02130", "city": "Jamaica Plain", "country": "US", "address3": ""}, "url": "https://www.yelp.com/biz/bani-transportation-jamaica-plain?adjust_creative=gBcvfFpabk3CnzmXKdYe3w&utm_campaign=yelp_api_v3&utm_medium=api_v3_business_search&utm_source=gBcvfFpabk3CnzmXKdYe3w", "categories": [{"alias": "taxis", "title": "Taxis"}], "display_phone": "(617) 522-4000", "is_closed": false, "name": "Bani Transportation", "review_count": 9, "coordinates": {"longitude": -71.1080846, "latitude": 42.3044089}}, {"rating": 3.5, "transactions": [], "image_url": "https://s3-media3.fl.yelpcdn.com/bphoto/qlcjTzM1iP_JYq3W08rDNw/o.jpg", "phone": "+16174944724", "id": "summer-eyes-optometry-cambridge-2", "distance": 2293.579386318, "location": {"display_address": ["100 Cambridge Side Pl", "Cambridge, MA 02141"], "state": "MA", "address2": null, "address1": "100 Cambridge Side Pl", "zip_code": "02141", "city": "Cambridge", "country": "US", "address3": ""}, "url": "https://www.yelp.com/biz/summer-eyes-optometry-cambridge-2?adjust_creative=gBcvfFpabk3CnzmXKdYe3w&utm_campaign=yelp_api_v3&utm_medium=api_v3_business_search&utm_source=gBcvfFpabk3CnzmXKdYe3w", "categories": [{"alias": "optometrists", "title": "Optometrists"}, {"alias": "laserlasikeyes", "title": "Laser Eye Surgery/Lasik"}], "display_phone": "(617) 494-4724", "is_closed": false, "name": "Summer Eyes Optometry", "review_count": 3, "coordinates": {"longitude": -71.075714, "latitude": 42.367916}}, {"rating": 5.0, "transactions": [], "image_url": "https://s3-media3.fl.yelpcdn.com/bphoto/BypXE4EI2yDEhcDaXePs2Q/o.jpg", "phone": "+17818666126", "id": "elios-electric-belmont-2", "distance": 10367.919961751999, "location": {"display_address": ["169 White St", "Belmont, MA 02478"], "state": "MA", "address2": null, "address1": "169 White St", "zip_code": "02478", "city": "Belmont", "country": "US", "address3": ""}, "url": "https://www.yelp.com/biz/elios-electric-belmont-2?adjust_creative=gBcvfFpabk3CnzmXKdYe3w&utm_campaign=yelp_api_v3&utm_medium=api_v3_business_search&utm_source=gBcvfFpabk3CnzmXKdYe3w", "categories": [{"alias": "electricians", "title": "Electricians"}], "display_phone": "(781) 866-6126", "is_closed": false, "name": "Elios Electric", "review_count": 17, "coordinates": {"longitude": -71.1879323, "latitude": 42.3833411}}, {"rating": 5.0, "transactions": [], "image_url": "https://s3-media4.fl.yelpcdn.com/bphoto/mPjKyEQdg0PxDTAk-l1GPA/o.jpg", "phone": "+18572210631", "id": "alligators-rooter-somerville", "distance": 5225.685339056, "location": {"display_address": ["Somerville, MA 02145"], "state": "MA", "address2": "", "address1": "", "zip_code": "02145", "city": "Somerville", "country": "US", "address3": ""}, "url": "https://www.yelp.com/biz/alligators-rooter-somerville?adjust_creative=gBcvfFpabk3CnzmXKdYe3w&utm_campaign=yelp_api_v3&utm_medium=api_v3_business_search&utm_source=gBcvfFpabk3CnzmXKdYe3w", "categories": [{"alias": "plumbing", "title": "Plumbing"}], "display_phone": "(857) 221-0631", "is_closed": false, "name": "Alligators Rooter", "review_count": 5, "coordinates": {"longitude": -71.089729309082, "latitude": 42.3919219970703}}, {"rating": 3.5, "transactions": [], "image_url": "https://s3-media2.fl.yelpcdn.com/bphoto/i2UujSAT5f_hhGRK3I-ZyQ/o.jpg", "phone": "+18576157995", "id": "david-carucci-home-handyman-malden", "distance": 8600.08926174, "location": {"display_address": ["Malden, MA 02148"], "state": "MA", "address2": null, "address1": "", "zip_code": "02148", "city": "Malden", "country": "US", "address3": ""}, "url": "https://www.yelp.com/biz/david-carucci-home-handyman-malden?adjust_creative=gBcvfFpabk3CnzmXKdYe3w&utm_campaign=yelp_api_v3&utm_medium=api_v3_business_search&utm_source=gBcvfFpabk3CnzmXKdYe3w", "categories": [{"alias": "handyman", "title": "Handyman"}, {"alias": "electricians", "title": "Electricians"}, {"alias": "hometheatreinstallation", "title": "Home Theatre Installation"}], "display_phone": "(857) 615-7995", "is_closed": false, "name": "David Carucci Home Handyman", "review_count": 9, "coordinates": {"longitude": -71.07353, "latitude": 42.4266}}, {"rating": 4.5, "transactions": [], "image_url": "https://s3-media3.fl.yelpcdn.com/bphoto/ZlmXwtqRxJGoquWwojX41g/o.jpg", "phone": "+16173077869", "id": "prendergast-oil-watertown", "distance": 7664.524397509999, "location": {"display_address": ["Watertown, MA 02471"], "state": "MA", "address2": "", "address1": "", "zip_code": "02471", "city": "Watertown", "country": "US", "address3": ""}, "url": "https://www.yelp.com/biz/prendergast-oil-watertown?adjust_creative=gBcvfFpabk3CnzmXKdYe3w&utm_campaign=yelp_api_v3&utm_medium=api_v3_business_search&utm_source=gBcvfFpabk3CnzmXKdYe3w", "categories": [{"alias": "hvac", "title": "Heating & Air Conditioning/HVAC"}], "display_phone": "(617) 307-7869", "is_closed": false, "name": "Prendergast Oil", "review_count": 12, "coordinates": {"longitude": -71.1535415649414, "latitude": 42.3734092712402}}, {"rating": 2.5, "transactions": [], "image_url": "https://s3-media4.fl.yelpcdn.com/bphoto/ore37MkXpO7PhuTP63Papg/o.jpg", "phone": "+16178843030", "id": "planet-fitness-chelsea-chelsea", "distance": 7409.539763239999, "location": {"display_address": ["1020 Revere Beach Pkwy", "Chelsea, MA 02151"], "state": "MA", "address2": "", "address1": "1020 Revere Beach Pkwy", "zip_code": "02151", "city": "Chelsea", "country": "US", "address3": ""}, "url": "https://www.yelp.com/biz/planet-fitness-chelsea-chelsea?adjust_creative=gBcvfFpabk3CnzmXKdYe3w&utm_campaign=yelp_api_v3&utm_medium=api_v3_business_search&utm_source=gBcvfFpabk3CnzmXKdYe3w", "categories": [{"alias": "gyms", "title": "Gyms"}, {"alias": "healthtrainers", "title": "Trainers"}], "display_phone": "(617) 884-3030", "is_closed": false, "name": "Planet Fitness - Chelsea", "review_count": 26, "coordinates": {"longitude": -71.022491, "latitude": 42.403904}}, {"rating": 3.0, "transactions": [], "image_url": "https://s3-media4.fl.yelpcdn.com/bphoto/YF0kii4MMagz4LqREod-uQ/o.jpg", "phone": "+16174639404", "id": "sage-care-cambridge", "distance": 2718.540741114, "location": {"display_address": ["210 Broadway", "Ste 201", "Cambridge, MA 02139"], "state": "MA", "address2": "Ste 201", "address1": "210 Broadway", "zip_code": "02139", "city": "Cambridge", "country": "US", "address3": ""}, "url": "https://www.yelp.com/biz/sage-care-cambridge?adjust_creative=gBcvfFpabk3CnzmXKdYe3w&utm_campaign=yelp_api_v3&utm_medium=api_v3_business_search&utm_source=gBcvfFpabk3CnzmXKdYe3w", "categories": [{"alias": "homehealthcare", "title": "Home Health Care"}], "display_phone": "(617) 463-9404", "is_closed": false, "name": "Sage Care", "review_count": 2, "coordinates": {"longitude": -71.0935083, "latitude": 42.3659295}}, {"rating": 3.0, "transactions": [], "image_url": "https://s3-media3.fl.yelpcdn.com/bphoto/bvlqV-2eUyp9nJA-6d4REQ/o.jpg", "phone": "+16177765950", "id": "winters-home-services-cambridge-2", "distance": 8439.241522364, "location": {"display_address": ["67 Smith Pl", "Ste 11", "Cambridge, MA 02138"], "state": "MA", "address2": "Ste 11", "address1": "67 Smith Pl", "zip_code": "02138", "city": "Cambridge", "country": "US", "address3": ""}, "url": "https://www.yelp.com/biz/winters-home-services-cambridge-2?adjust_creative=gBcvfFpabk3CnzmXKdYe3w&utm_campaign=yelp_api_v3&utm_medium=api_v3_business_search&utm_source=gBcvfFpabk3CnzmXKdYe3w", "categories": [{"alias": "plumbing", "title": "Plumbing"}, {"alias": "hvac", "title": "Heating & Air Conditioning/HVAC"}], "display_phone": "(617) 776-5950", "is_closed": false, "name": "Winters Home Services", "review_count": 34, "coordinates": {"longitude": -71.1529004142944, "latitude": 42.393892873674}}, {"rating": 4.5, "transactions": [], "image_url": "https://s3-media3.fl.yelpcdn.com/bphoto/DTSwMgMOP3jNO-Uh9ua-jg/o.jpg", "phone": "+17816651808", "id": "atr-limousine-malden-4", "distance": 12722.582008704, "location": {"display_address": ["Malden, MA 02148"], "state": "MA", "address2": "", "address1": "", "zip_code": "02148", "city": "Malden", "country": "US", "address3": ""}, "url": "https://www.yelp.com/biz/atr-limousine-malden-4?adjust_creative=gBcvfFpabk3CnzmXKdYe3w&utm_campaign=yelp_api_v3&utm_medium=api_v3_business_search&utm_source=gBcvfFpabk3CnzmXKdYe3w", "categories": [{"alias": "limos", "title": "Limos"}, {"alias": "airport_shuttles", "title": "Airport Shuttles"}], "display_phone": "(781) 665-1808", "is_closed": false, "name": "ATR Limousine", "review_count": 43, "coordinates": {"longitude": -71.08813565625, "latitude": 42.4615792796462}}, {"rating": 5.0, "transactions": [], "image_url": "https://s3-media2.fl.yelpcdn.com/bphoto/3DpJfiCPsKyP5OPuE5qbQw/o.jpg", "phone": "+16175839448", "id": "collegevine-cambridge", "distance": 8077.119744679999, "location": {"display_address": ["125 Cambridgepark Dr", "Cambridge, MA 02140"], "state": "MA", "address2": null, "address1": "125 Cambridgepark Dr", "zip_code": "02140", "city": "Cambridge", "country": "US", "address3": ""}, "url": "https://www.yelp.com/biz/collegevine-cambridge?adjust_creative=gBcvfFpabk3CnzmXKdYe3w&utm_campaign=yelp_api_v3&utm_medium=api_v3_business_search&utm_source=gBcvfFpabk3CnzmXKdYe3w", "categories": [{"alias": "privatetutors", "title": "Private Tutors"}, {"alias": "testprep", "title": "Test Preparation"}, {"alias": "collegecounseling", "title": "College Counseling"}], "display_phone": "(617) 583-9448", "is_closed": false, "name": "CollegeVine", "review_count": 5, "coordinates": {"longitude": -71.14579, "latitude": 42.3952067}}, {"rating": 3.0, "transactions": [], "image_url": "https://s3-media3.fl.yelpcdn.com/bphoto/6llczHDIgcgdp5yc6shBUA/o.jpg", "phone": "+16179037571", "id": "tone-den-music-rehearsal-studios-allston", "distance": 5339.61148326, "location": {"display_address": ["41 Rugg Rd", "Allston, MA 02134"], "state": "MA", "address2": "", "address1": "41 Rugg Rd", "zip_code": "02134", "city": "Allston", "country": "US", "address3": ""}, "url": "https://www.yelp.com/biz/tone-den-music-rehearsal-studios-allston?adjust_creative=gBcvfFpabk3CnzmXKdYe3w&utm_campaign=yelp_api_v3&utm_medium=api_v3_business_search&utm_source=gBcvfFpabk3CnzmXKdYe3w", "categories": [{"alias": "recording_studios", "title": "Recording & Rehearsal Studios"}], "display_phone": "(617) 903-7571", "is_closed": false, "name": "Tone Den Music Rehearsal Studios", "review_count": 2, "coordinates": {"longitude": -71.1354141, "latitude": 42.3554153}}, {"rating": 3.5, "transactions": [], "image_url": "https://s3-media3.fl.yelpcdn.com/bphoto/ZKtNBxGW33C21mJyHebVdQ/o.jpg", "phone": "+16179241130", "id": "watertown-health-center-watertown", "distance": 7037.904533079999, "location": {"display_address": ["59 Coolidge Hill Rd", "Watertown, MA 02472"], "state": "MA", "address2": "", "address1": "59 Coolidge Hill Rd", "zip_code": "02472", "city": "Watertown", "country": "US", "address3": ""}, "url": "https://www.yelp.com/biz/watertown-health-center-watertown?adjust_creative=gBcvfFpabk3CnzmXKdYe3w&utm_campaign=yelp_api_v3&utm_medium=api_v3_business_search&utm_source=gBcvfFpabk3CnzmXKdYe3w", "categories": [{"alias": "rehabilitation_center", "title": "Rehabilitation Center"}, {"alias": "hospice", "title": "Hospice"}, {"alias": "physicaltherapy", "title": "Physical Therapy"}], "display_phone": "(617) 924-1130", "is_closed": false, "name": "Watertown Health Center", "review_count": 3, "coordinates": {"longitude": -71.1528778076172, "latitude": 42.3672523498535}}, {"rating": 2.5, "transactions": [], "image_url": "https://s3-media1.fl.yelpcdn.com/bphoto/8PqXR8S7v1t1LVudnwR2eQ/o.jpg", "phone": "+16172827518", "id": "tedeschi-food-shops-dorchester-3", "distance": 3214.320458874, "location": {"display_address": ["187 E Cottage St", "Dorchester, MA 02125"], "state": "MA", "address2": "", "address1": "187 E Cottage St", "zip_code": "02125", "city": "Dorchester", "country": "US", "address3": ""}, "url": "https://www.yelp.com/biz/tedeschi-food-shops-dorchester-3?adjust_creative=gBcvfFpabk3CnzmXKdYe3w&utm_campaign=yelp_api_v3&utm_medium=api_v3_business_search&utm_source=gBcvfFpabk3CnzmXKdYe3w", "categories": [{"alias": "convenience", "title": "Convenience Stores"}], "display_phone": "(617) 282-7518", "is_closed": false, "name": "Tedeschi Food Shops", "price": "$$", "review_count": 4, "coordinates": {"longitude": -71.0611877441406, "latitude": 42.3199081420898}}, {"rating": 5.0, "transactions": [], "image_url": "https://s3-media3.fl.yelpcdn.com/bphoto/1rWSm5cjSquna5oWyh_bAA/o.jpg", "phone": "+16176970902", "id": "luisa-alberto-makeup-chelsea-3", "distance": 5814.798891049999, "location": {"display_address": ["Chelsea, MA 02150"], "state": "MA", "address2": "", "address1": "", "zip_code": "02150", "city": "Chelsea", "country": "US", "address3": ""}, "url": "https://www.yelp.com/biz/luisa-alberto-makeup-chelsea-3?adjust_creative=gBcvfFpabk3CnzmXKdYe3w&utm_campaign=yelp_api_v3&utm_medium=api_v3_business_search&utm_source=gBcvfFpabk3CnzmXKdYe3w", "categories": [{"alias": "makeupartists", "title": "Makeup Artists"}, {"alias": "blowoutservices", "title": "Blow Dry/Out Services"}], "display_phone": "(617) 697-0902", "is_closed": false, "name": "Luisa Alberto Makeup", "review_count": 1, "coordinates": {"longitude": -71.03237, "latitude": 42.39376}}, {"rating": 4.5, "transactions": [], "image_url": "https://s3-media4.fl.yelpcdn.com/bphoto/JW1WHqBTbZJGLDPCyfol0A/o.jpg", "phone": "+16174976275", "id": "tedeschi-food-shops-cambridge", "distance": 3447.8331179300003, "location": {"display_address": ["321 Broadway", "Cambridge, MA 02139"], "state": "MA", "address2": null, "address1": "321 Broadway", "zip_code": "02139", "city": "Cambridge", "country": "US", "address3": null}, "url": "https://www.yelp.com/biz/tedeschi-food-shops-cambridge?adjust_creative=gBcvfFpabk3CnzmXKdYe3w&utm_campaign=yelp_api_v3&utm_medium=api_v3_business_search&utm_source=gBcvfFpabk3CnzmXKdYe3w", "categories": [{"alias": "convenience", "title": "Convenience Stores"}], "display_phone": "(617) 497-6275", "is_closed": false, "name": "Tedeschi Food Shops", "price": "$", "review_count": 2, "coordinates": {"longitude": -71.1010818481445, "latitude": 42.3696022033691}}, {"rating": 5.0, "transactions": [], "image_url": "https://s3-media2.fl.yelpcdn.com/bphoto/_Oo1IFKLwcXGoGLjS770pA/o.jpg", "phone": "+16177396060", "id": "american-investigative-services-brookline", "distance": 5418.785700438, "location": {"display_address": ["1 University Rd", "Brookline, MA 02445"], "state": "MA", "address2": "", "address1": "1 University Rd", "zip_code": "02445", "city": "Brookline", "country": "US", "address3": ""}, "url": "https://www.yelp.com/biz/american-investigative-services-brookline?adjust_creative=gBcvfFpabk3CnzmXKdYe3w&utm_campaign=yelp_api_v3&utm_medium=api_v3_business_search&utm_source=gBcvfFpabk3CnzmXKdYe3w", "categories": [{"alias": "privateinvestigation", "title": "Private Investigation"}], "display_phone": "(617) 739-6060", "is_closed": false, "name": "American Investigative Services", "review_count": 3, "coordinates": {"longitude": -71.1359079927206, "latitude": 42.3389160633087}}, {"rating": 2.0, "transactions": [], "image_url": "", "phone": "+16177345000", "id": "brookline-red-cab-everett", "distance": 5224.32399835, "location": {"display_address": ["43 Mystic St", "Everett, MA 02149"], "state": "MA", "address2": "", "address1": "43 Mystic St", "zip_code": "02149", "city": "Everett", "country": "US", "address3": ""}, "url": "https://www.yelp.com/biz/brookline-red-cab-everett?adjust_creative=gBcvfFpabk3CnzmXKdYe3w&utm_campaign=yelp_api_v3&utm_medium=api_v3_business_search&utm_source=gBcvfFpabk3CnzmXKdYe3w", "categories": [{"alias": "taxis", "title": "Taxis"}], "display_phone": "(617) 734-5000", "is_closed": false, "name": "Brookline Red Cab", "review_count": 11, "coordinates": {"longitude": -71.0650004446507, "latitude": 42.3945993930101}}, {"rating": 3.5, "transactions": [], "image_url": "https://s3-media2.fl.yelpcdn.com/bphoto/hbtkhw1uBploGQLLPos5Uw/o.jpg", "phone": "+17812862000", "id": "atlantic-taxi-revere", "distance": 8330.72115122, "location": {"display_address": ["231 Park Ave", "Revere, MA 02151"], "state": "MA", "address2": null, "address1": "231 Park Ave", "zip_code": "02151", "city": "Revere", "country": "US", "address3": ""}, "url": "https://www.yelp.com/biz/atlantic-taxi-revere?adjust_creative=gBcvfFpabk3CnzmXKdYe3w&utm_campaign=yelp_api_v3&utm_medium=api_v3_business_search&utm_source=gBcvfFpabk3CnzmXKdYe3w", "categories": [{"alias": "taxis", "title": "Taxis"}, {"alias": "airport_shuttles", "title": "Airport Shuttles"}], "display_phone": "(781) 286-2000", "is_closed": false, "name": "Atlantic Taxi", "review_count": 9, "coordinates": {"longitude": -71.018608, "latitude": 42.411884}}, {"rating": 2.0, "transactions": [], "image_url": "https://s3-media1.fl.yelpcdn.com/bphoto/Q7XXsdpJy4GKtQ54wyaSrA/o.jpg", "phone": "+16173544000", "id": "pats-tow-services-somerville-2", "distance": 5996.466179204, "location": {"display_address": ["503 Medford St", "Ste A", "Somerville, MA 02145"], "state": "MA", "address2": "Ste A", "address1": "503 Medford St", "zip_code": "02145", "city": "Somerville", "country": "US", "address3": ""}, "url": "https://www.yelp.com/biz/pats-tow-services-somerville-2?adjust_creative=gBcvfFpabk3CnzmXKdYe3w&utm_campaign=yelp_api_v3&utm_medium=api_v3_business_search&utm_source=gBcvfFpabk3CnzmXKdYe3w", "categories": [{"alias": "towing", "title": "Towing"}], "display_phone": "(617) 354-4000", "is_closed": false, "name": "Pat's Tow Services", "review_count": 46, "coordinates": {"longitude": -71.1034008, "latitude": 42.3962554}}, {"rating": 4.5, "transactions": [], "image_url": "https://s3-media2.fl.yelpcdn.com/bphoto/fQLyg-c0W5frrKDUnMbtng/o.jpg", "phone": "+16179698855", "id": "luxury-fast-ride-newton", "distance": 12396.704659961999, "location": {"display_address": ["Newton, MA 02465"], "state": "MA", "address2": null, "address1": null, "zip_code": "02465", "city": "Newton", "country": "US", "address3": ""}, "url": "https://www.yelp.com/biz/luxury-fast-ride-newton?adjust_creative=gBcvfFpabk3CnzmXKdYe3w&utm_campaign=yelp_api_v3&utm_medium=api_v3_business_search&utm_source=gBcvfFpabk3CnzmXKdYe3w", "categories": [{"alias": "limos", "title": "Limos"}, {"alias": "airport_shuttles", "title": "Airport Shuttles"}], "display_phone": "(617) 969-8855", "is_closed": false, "name": "Luxury Fast Ride", "review_count": 32, "coordinates": {"longitude": -71.22662, "latitude": 42.34935}}, {"rating": 2.5, "transactions": [], "image_url": "https://s3-media3.fl.yelpcdn.com/bphoto/14EeJeIpTVZKs5_y3f5kGQ/o.jpg", "phone": "+16173896270", "id": "cha-whidden-hospital-campus-everett", "distance": 7309.0895884599995, "location": {"display_address": ["103 Garland St", "Everett, MA 02149"], "state": "MA", "address2": "", "address1": "103 Garland St", "zip_code": "02149", "city": "Everett", "country": "US", "address3": ""}, "url": "https://www.yelp.com/biz/cha-whidden-hospital-campus-everett?adjust_creative=gBcvfFpabk3CnzmXKdYe3w&utm_campaign=yelp_api_v3&utm_medium=api_v3_business_search&utm_source=gBcvfFpabk3CnzmXKdYe3w", "categories": [{"alias": "hospitals", "title": "Hospitals"}], "display_phone": "(617) 389-6270", "is_closed": false, "name": "CHA Whidden Hospital Campus", "review_count": 17, "coordinates": {"longitude": -71.0391595, "latitude": 42.4093472}}, {"rating": 5.0, "transactions": [], "image_url": "https://s3-media3.fl.yelpcdn.com/bphoto/TSyMxU0wbXgIDqEfBmUsOg/o.jpg", "phone": "+16175430026", "id": "cataloni-electrical-services-hyde-park", "distance": 11043.365431508, "location": {"display_address": ["Hyde Park, MA 02136"], "state": "MA", "address2": null, "address1": "", "zip_code": "02136", "city": "Hyde Park", "country": "US", "address3": ""}, "url": "https://www.yelp.com/biz/cataloni-electrical-services-hyde-park?adjust_creative=gBcvfFpabk3CnzmXKdYe3w&utm_campaign=yelp_api_v3&utm_medium=api_v3_business_search&utm_source=gBcvfFpabk3CnzmXKdYe3w", "categories": [{"alias": "electricians", "title": "Electricians"}], "display_phone": "(617) 543-0026", "is_closed": false, "name": "Cataloni Electrical Services", "review_count": 1, "coordinates": {"longitude": -71.12395, "latitude": 42.25643}}, {"rating": 3.0, "transactions": [], "image_url": "https://s3-media1.fl.yelpcdn.com/bphoto/xjtaZ8iwWWb8awmZUgut6A/o.jpg", "phone": "+18772261538", "id": "atlas-glen-mor-chelsea", "distance": 6863.46736581, "location": {"display_address": ["295 Eastern Ave", "Chelsea, MA 02150"], "state": "MA", "address2": "", "address1": "295 Eastern Ave", "zip_code": "02150", "city": "Chelsea", "country": "US", "address3": ""}, "url": "https://www.yelp.com/biz/atlas-glen-mor-chelsea?adjust_creative=gBcvfFpabk3CnzmXKdYe3w&utm_campaign=yelp_api_v3&utm_medium=api_v3_business_search&utm_source=gBcvfFpabk3CnzmXKdYe3w", "categories": [{"alias": "hvac", "title": "Heating & Air Conditioning/HVAC"}, {"alias": "plumbing", "title": "Plumbing"}], "display_phone": "(877) 226-1538", "is_closed": false, "name": "Atlas Glen-mor", "review_count": 40, "coordinates": {"longitude": -71.01769, "latitude": 42.39746}}, {"rating": 4.0, "transactions": [], "image_url": "https://s3-media1.fl.yelpcdn.com/bphoto/0VNJCz9ZOHn8Zr1OT3SHYg/o.jpg", "phone": "+16175393120", "id": "winthrop-beach-inn-and-suites-winthrop", "distance": 8613.72359022, "location": {"display_address": ["312 Shirley St", "Winthrop, MA 02152"], "state": "MA", "address2": null, "address1": "312 Shirley St", "zip_code": "02152", "city": "Winthrop", "country": "US", "address3": null}, "url": "https://www.yelp.com/biz/winthrop-beach-inn-and-suites-winthrop?adjust_creative=gBcvfFpabk3CnzmXKdYe3w&utm_campaign=yelp_api_v3&utm_medium=api_v3_business_search&utm_source=gBcvfFpabk3CnzmXKdYe3w", "categories": [{"alias": "hotels", "title": "Hotels"}], "display_phone": "(617) 539-3120", "is_closed": false, "name": "Winthrop Beach Inn and Suites", "review_count": 5, "coordinates": {"longitude": -70.973852, "latitude": 42.376521}}, {"rating": 2.5, "transactions": [], "image_url": "", "phone": "+16175365000", "id": "town-taxi-allston", "distance": 5550.061012644, "location": {"display_address": ["119 Braintree St", "Ste 106", "Allston, MA 02134"], "state": "MA", "address2": "Ste 106", "address1": "119 Braintree St", "zip_code": "02134", "city": "Allston", "country": "US", "address3": ""}, "url": "https://www.yelp.com/biz/town-taxi-allston?adjust_creative=gBcvfFpabk3CnzmXKdYe3w&utm_campaign=yelp_api_v3&utm_medium=api_v3_business_search&utm_source=gBcvfFpabk3CnzmXKdYe3w", "categories": [{"alias": "taxis", "title": "Taxis"}], "display_phone": "(617) 536-5000", "is_closed": false, "name": "Town Taxi", "review_count": 13, "coordinates": {"longitude": -71.1377716, "latitude": 42.3566666}}, {"rating": 2.5, "transactions": [], "image_url": "https://s3-media3.fl.yelpcdn.com/bphoto/WOCZSInsfq74DWPvpPB4AA/o.jpg", "phone": "+16176616422", "id": "cvs-pharmacy-cambridge-2", "distance": 7563.584661502, "location": {"display_address": ["215 Alewife Brook Pkwy", "Cambridge, MA 02138"], "state": "MA", "address2": "", "address1": "215 Alewife Brook Pkwy", "zip_code": "02138", "city": "Cambridge", "country": "US", "address3": ""}, "url": "https://www.yelp.com/biz/cvs-pharmacy-cambridge-2?adjust_creative=gBcvfFpabk3CnzmXKdYe3w&utm_campaign=yelp_api_v3&utm_medium=api_v3_business_search&utm_source=gBcvfFpabk3CnzmXKdYe3w", "categories": [{"alias": "drugstores", "title": "Drugstores"}, {"alias": "convenience", "title": "Convenience Stores"}], "display_phone": "(617) 661-6422", "is_closed": false, "name": "CVS/pharmacy", "price": "$", "review_count": 14, "coordinates": {"longitude": -71.1429419, "latitude": 42.3893676}}, {"rating": 3.0, "transactions": [], "image_url": "https://s3-media1.fl.yelpcdn.com/bphoto/js2BKpkR8EoEeyJBJdpBuw/o.jpg", "phone": "+16174910801", "id": "university-place-garage-cambridge", "distance": 5129.2412943379995, "location": {"display_address": ["124 Mt Auburn St", "Cambridge, MA 02138"], "state": "MA", "address2": "", "address1": "124 Mt Auburn St", "zip_code": "02138", "city": "Cambridge", "country": "US", "address3": ""}, "url": "https://www.yelp.com/biz/university-place-garage-cambridge?adjust_creative=gBcvfFpabk3CnzmXKdYe3w&utm_campaign=yelp_api_v3&utm_medium=api_v3_business_search&utm_source=gBcvfFpabk3CnzmXKdYe3w", "categories": [{"alias": "parking", "title": "Parking"}], "display_phone": "(617) 491-0801", "is_closed": false, "name": "University Place Garage", "review_count": 5, "coordinates": {"longitude": -71.1230392, "latitude": 42.37323}}, {"rating": 5.0, "transactions": [], "image_url": "https://s3-media2.fl.yelpcdn.com/bphoto/6cMKlUcaP1ELCbzdAs_EIQ/o.jpg", "phone": "+13393689089", "id": "sensible-livery-service-arlington-6", "distance": 10778.31807702, "location": {"display_address": ["Arlington, MA 02474"], "state": "MA", "address2": "", "address1": "", "zip_code": "02474", "city": "Arlington", "country": "US", "address3": ""}, "url": "https://www.yelp.com/biz/sensible-livery-service-arlington-6?adjust_creative=gBcvfFpabk3CnzmXKdYe3w&utm_campaign=yelp_api_v3&utm_medium=api_v3_business_search&utm_source=gBcvfFpabk3CnzmXKdYe3w", "categories": [{"alias": "limos", "title": "Limos"}, {"alias": "taxis", "title": "Taxis"}, {"alias": "airport_shuttles", "title": "Airport Shuttles"}], "display_phone": "(339) 368-9089", "is_closed": false, "name": "Sensible Livery Service", "review_count": 9, "coordinates": {"longitude": -71.1566619873047, "latitude": 42.4204254150391}}, {"rating": 2.5, "transactions": [], "image_url": "https://s3-media2.fl.yelpcdn.com/bphoto/V3TVnjcRsyGY5J6QOuRIVw/o.jpg", "phone": "+16173281500", "id": "best-western-adams-inn-quincy-2", "distance": 7762.0962677, "location": {"display_address": ["29 Hancock St", "Quincy, MA 02171"], "state": "MA", "address2": "", "address1": "29 Hancock St", "zip_code": "02171", "city": "Quincy", "country": "US", "address3": ""}, "url": "https://www.yelp.com/biz/best-western-adams-inn-quincy-2?adjust_creative=gBcvfFpabk3CnzmXKdYe3w&utm_campaign=yelp_api_v3&utm_medium=api_v3_business_search&utm_source=gBcvfFpabk3CnzmXKdYe3w", "categories": [{"alias": "hotels", "title": "Hotels"}], "display_phone": "(617) 328-1500", "is_closed": false, "name": "Best Western Adams Inn", "price": "$$", "review_count": 56, "coordinates": {"longitude": -71.0374662979789, "latitude": 42.2826594477115}}, {"rating": 4.0, "transactions": [], "image_url": "https://s3-media1.fl.yelpcdn.com/bphoto/xDVwf1YFo0YTiYfPlgVWXg/o.jpg", "phone": "+18576548158", "id": "boston-latin-djs-east-boston", "distance": 4286.366367408, "location": {"display_address": ["350 Meridian St", "Ste 204", "East Boston, MA 02128"], "state": "MA", "address2": "Ste 204", "address1": "350 Meridian St", "zip_code": "02128", "city": "East Boston", "country": "US", "address3": ""}, "url": "https://www.yelp.com/biz/boston-latin-djs-east-boston?adjust_creative=gBcvfFpabk3CnzmXKdYe3w&utm_campaign=yelp_api_v3&utm_medium=api_v3_business_search&utm_source=gBcvfFpabk3CnzmXKdYe3w", "categories": [{"alias": "djs", "title": "DJs"}, {"alias": "wedding_planning", "title": "Wedding Planning"}], "display_phone": "(857) 654-8158", "is_closed": false, "name": "Boston Latin DJs", "review_count": 1, "coordinates": {"longitude": -71.039494, "latitude": 42.378435}}, {"rating": 5.0, "transactions": [], "image_url": "https://s3-media2.fl.yelpcdn.com/bphoto/a4za4PxXqvkkJQqypy1DPg/o.jpg", "phone": "+15083539266", "id": "perfect-paws-newton", "distance": 11399.0517804, "location": {"display_address": ["255 Newtonville Ave", "Newton, MA 02458"], "state": "MA", "address2": null, "address1": "255 Newtonville Ave", "zip_code": "02458", "city": "Newton", "country": "US", "address3": ""}, "url": "https://www.yelp.com/biz/perfect-paws-newton?adjust_creative=gBcvfFpabk3CnzmXKdYe3w&utm_campaign=yelp_api_v3&utm_medium=api_v3_business_search&utm_source=gBcvfFpabk3CnzmXKdYe3w", "categories": [{"alias": "pet_training", "title": "Pet Training"}, {"alias": "dogwalkers", "title": "Dog Walkers"}, {"alias": "pet_sitting", "title": "Pet Boarding/Pet Sitting"}], "display_phone": "(508) 353-9266", "is_closed": false, "name": "Perfect Paws", "review_count": 11, "coordinates": {"longitude": -71.1931322796875, "latitude": 42.2989764963105}}, {"rating": 2.5, "transactions": [], "image_url": "https://s3-media1.fl.yelpcdn.com/bphoto/DphQmN0yo9KQ2lw68GuxXw/o.jpg", "phone": "+16175934620", "id": "harrison-removal-east-boston", "distance": 3642.57693732, "location": {"display_address": ["East Boston, MA 02128"], "state": "MA", "address2": null, "address1": "", "zip_code": "02128", "city": "East Boston", "country": "US", "address3": ""}, "url": "https://www.yelp.com/biz/harrison-removal-east-boston?adjust_creative=gBcvfFpabk3CnzmXKdYe3w&utm_campaign=yelp_api_v3&utm_medium=api_v3_business_search&utm_source=gBcvfFpabk3CnzmXKdYe3w", "categories": [{"alias": "junkremovalandhauling", "title": "Junk Removal & Hauling"}], "display_phone": "(617) 593-4620", "is_closed": false, "name": "Harrison Removal", "review_count": 3, "coordinates": {"longitude": -71.03479, "latitude": 42.37297}}, {"rating": 2.5, "transactions": [], "image_url": "https://s3-media2.fl.yelpcdn.com/bphoto/tsTtV6Zge8jyNEKa12HGJw/o.jpg", "phone": "+16174896324", "id": "h-o-services-belmont", "distance": 8851.300154644, "location": {"display_address": ["83 Concord Ave", "Belmont, MA 02478"], "state": "MA", "address2": "", "address1": "83 Concord Ave", "zip_code": "02478", "city": "Belmont", "country": "US", "address3": ""}, "url": "https://www.yelp.com/biz/h-o-services-belmont?adjust_creative=gBcvfFpabk3CnzmXKdYe3w&utm_campaign=yelp_api_v3&utm_medium=api_v3_business_search&utm_source=gBcvfFpabk3CnzmXKdYe3w", "categories": [{"alias": "electricians", "title": "Electricians"}, {"alias": "plumbing", "title": "Plumbing"}, {"alias": "hvac", "title": "Heating & Air Conditioning/HVAC"}], "display_phone": "(617) 489-6324", "is_closed": false, "name": "H.O. Services", "review_count": 46, "coordinates": {"longitude": -71.1609612, "latitude": 42.3917813}}, {"rating": 1.5, "transactions": [], "image_url": "https://s3-media4.fl.yelpcdn.com/bphoto/ajCKHdOnJ0RZ2UjGwuxNeQ/o.jpg", "phone": "+16174921100", "id": "ambassador-brattle-cab-cambridge", "distance": 2917.645067234, "location": {"display_address": ["76 Hampshire St", "Cambridge, MA 02139"], "state": "MA", "address2": "", "address1": "76 Hampshire St", "zip_code": "02139", "city": "Cambridge", "country": "US", "address3": ""}, "url": "https://www.yelp.com/biz/ambassador-brattle-cab-cambridge?adjust_creative=gBcvfFpabk3CnzmXKdYe3w&utm_campaign=yelp_api_v3&utm_medium=api_v3_business_search&utm_source=gBcvfFpabk3CnzmXKdYe3w", "categories": [{"alias": "taxis", "title": "Taxis"}, {"alias": "airport_shuttles", "title": "Airport Shuttles"}], "display_phone": "(617) 492-1100", "is_closed": false, "name": "Ambassador Brattle Cab", "review_count": 76, "coordinates": {"longitude": -71.09395, "latitude": 42.36793}}, {"rating": 4.0, "transactions": [], "image_url": "https://s3-media3.fl.yelpcdn.com/bphoto/s6s08fPP0iNEc0UKXfJ9eQ/o.jpg", "phone": "+16173074138", "id": "1008-mass-ave-apartments-cambridge", "distance": 4053.4390253099996, "location": {"display_address": ["1008 Mass Ave", "Cambridge, MA 02138"], "state": "MA", "address2": "", "address1": "1008 Mass Ave", "zip_code": "02138", "city": "Cambridge", "country": "US", "address3": ""}, "url": "https://www.yelp.com/biz/1008-mass-ave-apartments-cambridge?adjust_creative=gBcvfFpabk3CnzmXKdYe3w&utm_campaign=yelp_api_v3&utm_medium=api_v3_business_search&utm_source=gBcvfFpabk3CnzmXKdYe3w", "categories": [{"alias": "apartments", "title": "Apartments"}], "display_phone": "(617) 307-4138", "is_closed": false, "name": "1008 Mass Ave Apartments", "review_count": 1, "coordinates": {"longitude": -71.1111939, "latitude": 42.3692307}}, {"rating": 2.5, "transactions": [], "image_url": "https://s3-media4.fl.yelpcdn.com/bphoto/3ZKKVpgdAg7ceezMdqSAJQ/o.jpg", "phone": "+18008208210", "id": "grasshopper-allston", "distance": 5177.59117876, "location": {"display_address": ["Allston, MA 02134"], "state": "MA", "address2": null, "address1": "", "zip_code": "02134", "city": "Allston", "country": "US", "address3": null}, "url": "https://www.yelp.com/biz/grasshopper-allston?adjust_creative=gBcvfFpabk3CnzmXKdYe3w&utm_campaign=yelp_api_v3&utm_medium=api_v3_business_search&utm_source=gBcvfFpabk3CnzmXKdYe3w", "categories": [{"alias": "telecommunications", "title": "Telecommunications"}], "display_phone": "(800) 820-8210", "is_closed": false, "name": "Grasshopper", "review_count": 7, "coordinates": {"longitude": -71.13217, "latitude": 42.35341}}, {"rating": 4.0, "transactions": [], "image_url": "https://s3-media4.fl.yelpcdn.com/bphoto/3aBhEzBNEZdsDDvakc2tRQ/o.jpg", "phone": "+18578692035", "id": "lovedecor-brighton", "distance": 6515.60128278, "location": {"display_address": ["7 Cypress Rd", "Apt 702", "Brighton, MA 02135"], "state": "MA", "address2": "Apt 702", "address1": "7 Cypress Rd", "zip_code": "02135", "city": "Brighton", "country": "US", "address3": ""}, "url": "https://www.yelp.com/biz/lovedecor-brighton?adjust_creative=gBcvfFpabk3CnzmXKdYe3w&utm_campaign=yelp_api_v3&utm_medium=api_v3_business_search&utm_source=gBcvfFpabk3CnzmXKdYe3w", "categories": [{"alias": "wedding_planning", "title": "Wedding Planning"}], "display_phone": "(857) 869-2035", "is_closed": false, "name": "loveDECOR", "review_count": 5, "coordinates": {"longitude": -71.1499023, "latitude": 42.3544312}}, {"rating": 5.0, "transactions": [], "image_url": "https://s3-media4.fl.yelpcdn.com/bphoto/laT_0ME2Rb4pyNLnr2c6gQ/o.jpg", "phone": "+16178870900", "id": "dav-el-everett", "distance": 6706.552370592, "location": {"display_address": ["69 Norman St", "Everett, MA 02149"], "state": "MA", "address2": "", "address1": "69 Norman St", "zip_code": "02149", "city": "Everett", "country": "US", "address3": ""}, "url": "https://www.yelp.com/biz/dav-el-everett?adjust_creative=gBcvfFpabk3CnzmXKdYe3w&utm_campaign=yelp_api_v3&utm_medium=api_v3_business_search&utm_source=gBcvfFpabk3CnzmXKdYe3w", "categories": [{"alias": "limos", "title": "Limos"}], "display_phone": "(617) 887-0900", "is_closed": false, "name": "Dav El", "review_count": 2, "coordinates": {"longitude": -71.0663122, "latitude": 42.4080449}}, {"rating": 5.0, "transactions": [], "image_url": "https://s3-media1.fl.yelpcdn.com/bphoto/aNI_enpMJl4FbzFGrlX9WQ/o.jpg", "phone": "+16172822146", "id": "beacon-dental-group-dorchester-center", "distance": 6704.764232918, "location": {"display_address": ["1026 Blue Hill Ave", "Dorchester, MA 02124"], "state": "MA", "address2": "", "address1": "1026 Blue Hill Ave", "zip_code": "02124", "city": "Dorchester", "country": "US", "address3": ""}, "url": "https://www.yelp.com/biz/beacon-dental-group-dorchester-center?adjust_creative=gBcvfFpabk3CnzmXKdYe3w&utm_campaign=yelp_api_v3&utm_medium=api_v3_business_search&utm_source=gBcvfFpabk3CnzmXKdYe3w", "categories": [{"alias": "generaldentistry", "title": "General Dentistry"}, {"alias": "orthodontists", "title": "Orthodontists"}], "display_phone": "(617) 282-2146", "is_closed": false, "name": "Beacon Dental Group", "review_count": 1, "coordinates": {"longitude": -71.0895386, "latitude": 42.2890816}}, {"rating": 5.0, "transactions": [], "image_url": "https://s3-media1.fl.yelpcdn.com/bphoto/AkgqPwcnWX7Kd4MVs63yfw/o.jpg", "phone": "+16172936801", "id": "drew-donarumo-plumbing-and-heating-chelsea", "distance": 6460.363905959999, "location": {"display_address": ["714 Broadway", "Chelsea, MA 02150"], "state": "MA", "address2": "", "address1": "714 Broadway", "zip_code": "02150", "city": "Chelsea", "country": "US", "address3": ""}, "url": "https://www.yelp.com/biz/drew-donarumo-plumbing-and-heating-chelsea?adjust_creative=gBcvfFpabk3CnzmXKdYe3w&utm_campaign=yelp_api_v3&utm_medium=api_v3_business_search&utm_source=gBcvfFpabk3CnzmXKdYe3w", "categories": [{"alias": "plumbing", "title": "Plumbing"}, {"alias": "hvac", "title": "Heating & Air Conditioning/HVAC"}], "display_phone": "(617) 293-6801", "is_closed": false, "name": "Drew Donarumo Plumbing and Heating", "review_count": 3, "coordinates": {"longitude": -71.0282592773438, "latitude": 42.3963813781738}}, {"rating": 2.5, "transactions": [], "image_url": "https://s3-media1.fl.yelpcdn.com/bphoto/KQBNU6qCHlP8fNxVSyTFUg/o.jpg", "phone": "+16174970600", "id": "neville-center-at-fresh-pond-cambridge", "distance": 7833.46727802, "location": {"display_address": ["640 Concord Ave", "Cambridge, MA 02138"], "state": "MA", "address2": "", "address1": "640 Concord Ave", "zip_code": "02138", "city": "Cambridge", "country": "US", "address3": ""}, "url": "https://www.yelp.com/biz/neville-center-at-fresh-pond-cambridge?adjust_creative=gBcvfFpabk3CnzmXKdYe3w&utm_campaign=yelp_api_v3&utm_medium=api_v3_business_search&utm_source=gBcvfFpabk3CnzmXKdYe3w", "categories": [{"alias": "rehabilitation_center", "title": "Rehabilitation Center"}], "display_phone": "(617) 497-0600", "is_closed": false, "name": "Neville Center at Fresh Pond", "review_count": 5, "coordinates": {"longitude": -71.1479568481445, "latitude": 42.3889083862305}}, {"rating": 5.0, "transactions": [], "image_url": "https://s3-media3.fl.yelpcdn.com/bphoto/-Br_YxVlTl7ZXsKfaiopyw/o.jpg", "phone": "+16175941729", "id": "smart-event-planning-everett", "distance": 6672.626678722, "location": {"display_address": ["30 Chelsea St", "Everett, MA 02149"], "state": "MA", "address2": null, "address1": "30 Chelsea St", "zip_code": "02149", "city": "Everett", "country": "US", "address3": ""}, "url": "https://www.yelp.com/biz/smart-event-planning-everett?adjust_creative=gBcvfFpabk3CnzmXKdYe3w&utm_campaign=yelp_api_v3&utm_medium=api_v3_business_search&utm_source=gBcvfFpabk3CnzmXKdYe3w", "categories": [{"alias": "eventplanning", "title": "Party & Event Planning"}], "display_phone": "(617) 594-1729", "is_closed": false, "name": "SMART Event Planning", "review_count": 1, "coordinates": {"longitude": -71.0541687, "latitude": 42.406601}}, {"rating": 2.5, "transactions": [], "image_url": "https://s3-media2.fl.yelpcdn.com/bphoto/WqwJCp7vXvDA1cqm70YEAQ/o.jpg", "phone": "+16172788100", "id": "beth-israel-deaconess-medical-center-brookline-9", "distance": 3959.8869645719997, "location": {"display_address": ["One Brookline Pl", "Ste 623", "Brookline, MA 02445"], "state": "MA", "address2": "Ste 623", "address1": "One Brookline Pl", "zip_code": "02445", "city": "Brookline", "country": "US", "address3": null}, "url": "https://www.yelp.com/biz/beth-israel-deaconess-medical-center-brookline-9?adjust_creative=gBcvfFpabk3CnzmXKdYe3w&utm_campaign=yelp_api_v3&utm_medium=api_v3_business_search&utm_source=gBcvfFpabk3CnzmXKdYe3w", "categories": [{"alias": "medcenters", "title": "Medical Centers"}], "display_phone": "(617) 278-8100", "is_closed": false, "name": "Beth Israel Deaconess Medical Center", "review_count": 3, "coordinates": {"longitude": -71.114673997478, "latitude": 42.3324314554658}}, {"rating": 2.5, "transactions": [], "image_url": "https://s3-media2.fl.yelpcdn.com/bphoto/-lO1tN5Yz9IrTnCGq5EYTQ/o.jpg", "phone": "+16178642625", "id": "pann-home-services-cambridge", "distance": 3472.640772162, "location": {"display_address": ["207 Prospect St", "Cambridge, MA 02139"], "state": "MA", "address2": "", "address1": "207 Prospect St", "zip_code": "02139", "city": "Cambridge", "country": "US", "address3": ""}, "url": "https://www.yelp.com/biz/pann-home-services-cambridge?adjust_creative=gBcvfFpabk3CnzmXKdYe3w&utm_campaign=yelp_api_v3&utm_medium=api_v3_business_search&utm_source=gBcvfFpabk3CnzmXKdYe3w", "categories": [{"alias": "plumbing", "title": "Plumbing"}, {"alias": "contractors", "title": "Contractors"}, {"alias": "hvac", "title": "Heating & Air Conditioning/HVAC"}], "display_phone": "(617) 864-2625", "is_closed": false, "name": "Pann Home Services", "review_count": 33, "coordinates": {"longitude": -71.1003516, "latitude": 42.3704857}}], "total": 1239}