{"region": {"center": {"longitude": -71.07124328613281, "latitude": 42.34784169448538}}, "businesses": [{"rating": 4.0, "transactions": [], "image_url": "https://s3-media2.fl.yelpcdn.com/bphoto/kFpc_qwM3Mj-p6EZf-_goQ/o.jpg", "phone": "+16178761655", "id": "green-street-cambridge", "distance": 3282.7650453379997, "location": {"display_address": ["280 Green St", "Cambridge, MA 02139"], "state": "MA", "address2": "", "address1": "280 Green St", "zip_code": "02139", "city": "Cambridge", "country": "US", "address3": ""}, "url": "https://www.yelp.com/biz/green-street-cambridge?adjust_creative=gBcvfFpabk3CnzmXKdYe3w&utm_campaign=yelp_api_v3&utm_medium=api_v3_business_search&utm_source=gBcvfFpabk3CnzmXKdYe3w", "categories": [{"alias": "newamerican", "title": "American (New)"}, {"alias": "desserts", "title": "Desserts"}, {"alias": "cocktailbars", "title": "Cocktail Bars"}], "display_phone": "(617) 876-1655", "is_closed": false, "name": "Green Street", "price": "$$", "review_count": 643, "coordinates": {"longitude": -71.1041946411133, "latitude": 42.3645210266113}}, {"rating": 5.0, "transactions": [], "image_url": "https://s3-media1.fl.yelpcdn.com/bphoto/ckmomixe8akwNsg6M6M1ig/o.jpg", "phone": "+16177820055", "id": "united-private-car-boston-2", "distance": 5527.39571182, "location": {"display_address": ["214 Lincoln St", "Ste 211", "Boston, MA 02134"], "state": "MA", "address2": "Ste 211", "address1": "214 Lincoln St", "zip_code": "02134", "city": "Boston", "country": "US", "address3": null}, "url": "https://www.yelp.com/biz/united-private-car-boston-2?adjust_creative=gBcvfFpabk3CnzmXKdYe3w&utm_campaign=yelp_api_v3&utm_medium=api_v3_business_search&utm_source=gBcvfFpabk3CnzmXKdYe3w", "categories": [{"alias": "towncarservice", "title": "Town Car Service"}], "display_phone": "(617) 782-0055", "is_closed": false, "name": "United Private Car", "review_count": 5, "coordinates": {"longitude": -71.13708, "latitude": 42.35799}}, {"rating": 4.0, "transactions": [], "image_url": "https://s3-media1.fl.yelpcdn.com/bphoto/h1Mt47momBdTNx2lJDn-VA/o.jpg", "phone": "+16174211616", "id": "shawmut-glass-co-boston-2", "distance": 1968.4600367159999, "location": {"display_address": ["144 Old Colony Ave", "Boston, MA 02127"], "state": "MA", "address2": "", "address1": "144 Old Colony Ave", "zip_code": "02127", "city": "Boston", "country": "US", "address3": ""}, "url": "https://www.yelp.com/biz/shawmut-glass-co-boston-2?adjust_creative=gBcvfFpabk3CnzmXKdYe3w&utm_campaign=yelp_api_v3&utm_medium=api_v3_business_search&utm_source=gBcvfFpabk3CnzmXKdYe3w", "categories": [{"alias": "glassandmirrors", "title": "Glass & Mirrors"}], "display_phone": "(617) 421-1616", "is_closed": false, "name": "Shawmut Glass Co", "review_count": 5, "coordinates": {"longitude": -71.0549678, "latitude": 42.3349704}}, {"rating": 3.5, "transactions": [], "image_url": "", "phone": "+16467844467", "id": "premier-house-call-md-boston", "distance": 2971.016414324, "location": {"display_address": ["1575 Tremont St", "Ste 609", "Boston, MA 02120"], "state": "MA", "address2": "Ste 609", "address1": "1575 Tremont St", "zip_code": "02120", "city": "Boston", "country": "US", "address3": ""}, "url": "https://www.yelp.com/biz/premier-house-call-md-boston?adjust_creative=gBcvfFpabk3CnzmXKdYe3w&utm_campaign=yelp_api_v3&utm_medium=api_v3_business_search&utm_source=gBcvfFpabk3CnzmXKdYe3w", "categories": [{"alias": "physicians", "title": "Doctors"}], "display_phone": "(646) 784-4467", "is_closed": false, "name": "Premier House Call, MD", "review_count": 3, "coordinates": {"longitude": -71.101699, "latitude": 42.333614}}, {"rating": 5.0, "transactions": [], "image_url": "https://s3-media4.fl.yelpcdn.com/bphoto/FRVfVBFlV-hsGneZaDPhww/o.jpg", "phone": "+16175808273", "id": "downtown-abbeys-boston", "distance": 3566.0243350019996, "location": {"display_address": ["Boston, MA 02129"], "state": "MA", "address2": null, "address1": "", "zip_code": "02129", "city": "Boston", "country": "US", "address3": ""}, "url": "https://www.yelp.com/biz/downtown-abbeys-boston?adjust_creative=gBcvfFpabk3CnzmXKdYe3w&utm_campaign=yelp_api_v3&utm_medium=api_v3_business_search&utm_source=gBcvfFpabk3CnzmXKdYe3w", "categories": [{"alias": "contractors", "title": "Contractors"}], "display_phone": "(617) 580-8273", "is_closed": false, "name": "Downtown Abbeys", "review_count": 4, "coordinates": {"longitude": -71.0634994506836, "latitude": 42.3802680969238}}, {"rating": 3.0, "transactions": [], "image_url": "https://s3-media4.fl.yelpcdn.com/bphoto/UAOK32X1tT1EKPFOV2QgUw/o.jpg", "phone": "", "id": "hess-gas-station-boston", "distance": 1968.203186052, "location": {"display_address": ["151 Old Colony Ave", "Boston, MA 02127"], "state": "MA", "address2": "", "address1": "151 Old Colony Ave", "zip_code": "02127", "city": "Boston", "country": "US", "address3": ""}, "url": "https://www.yelp.com/biz/hess-gas-station-boston?adjust_creative=gBcvfFpabk3CnzmXKdYe3w&utm_campaign=yelp_api_v3&utm_medium=api_v3_business_search&utm_source=gBcvfFpabk3CnzmXKdYe3w", "categories": [{"alias": "servicestations", "title": "Gas & Service Stations"}], "display_phone": "", "is_closed": false, "name": "Hess Gas Station", "review_count": 8, "coordinates": {"longitude": -71.0553512573242, "latitude": 42.3345756530762}}, {"rating": 2.5, "transactions": [], "image_url": "https://s3-media4.fl.yelpcdn.com/bphoto/fQLp8a8A0O4rT65_3lMOlA/o.jpg", "phone": "+16177314700", "id": "the-inn-at-longwood-medical-boston-2", "distance": 3093.01307676, "location": {"display_address": ["342 Longwood Ave", "Boston, MA 02115"], "state": "MA", "address2": "", "address1": "342 Longwood Ave", "zip_code": "02115", "city": "Boston", "country": "US", "address3": ""}, "url": "https://www.yelp.com/biz/the-inn-at-longwood-medical-boston-2?adjust_creative=gBcvfFpabk3CnzmXKdYe3w&utm_campaign=yelp_api_v3&utm_medium=api_v3_business_search&utm_source=gBcvfFpabk3CnzmXKdYe3w", "categories": [{"alias": "hotels", "title": "Hotels"}], "display_phone": "(617) 731-4700", "is_closed": false, "name": "The Inn at Longwood Medical", "price": "$$", "review_count": 56, "coordinates": {"longitude": -71.1069118, "latitude": 42.3385807}}, {"rating": 3.0, "transactions": [], "image_url": "https://s3-media4.fl.yelpcdn.com/bphoto/PeRIt2YNyEr36w4UEEBejA/o.jpg", "phone": "+16175695250", "id": "courtyard-by-marriott-boston-logan-airport-boston-2", "distance": 6297.510607075999, "location": {"display_address": ["225 William F McClellan Hwy", "Boston, MA 02128"], "state": "MA", "address2": "", "address1": "225 William F McClellan Hwy", "zip_code": "02128", "city": "Boston", "country": "US", "address3": ""}, "url": "https://www.yelp.com/biz/courtyard-by-marriott-boston-logan-airport-boston-2?adjust_creative=gBcvfFpabk3CnzmXKdYe3w&utm_campaign=yelp_api_v3&utm_medium=api_v3_business_search&utm_source=gBcvfFpabk3CnzmXKdYe3w", "categories": [{"alias": "hotels", "title": "Hotels"}], "display_phone": "(617) 569-5250", "is_closed": false, "name": "Courtyard by Marriott Boston Logan Airport", "price": "$$", "review_count": 77, "coordinates": {"longitude": -71.016326, "latitude": 42.387355}}, {"rating": 4.0, "transactions": [], "image_url": "https://s3-media3.fl.yelpcdn.com/bphoto/bMPUjeyqCjKACBdC8lBCQQ/o.jpg", "phone": "+16177081316", "id": "just-add-cooking-boston-2", "distance": 1118.6066896779998, "location": {"display_address": ["Boston, MA 02118"], "state": "MA", "address2": null, "address1": "", "zip_code": "02118", "city": "Boston", "country": "US", "address3": ""}, "url": "https://www.yelp.com/biz/just-add-cooking-boston-2?adjust_creative=gBcvfFpabk3CnzmXKdYe3w&utm_campaign=yelp_api_v3&utm_medium=api_v3_business_search&utm_source=gBcvfFpabk3CnzmXKdYe3w", "categories": [{"alias": "fooddeliveryservices", "title": "Food Delivery Services"}], "display_phone": "(617) 708-1316", "is_closed": false, "name": "Just Add Cooking", "price": "$$", "review_count": 6, "coordinates": {"longitude": -71.0699996948242, "latitude": 42.3379669189453}}, {"rating": 4.0, "transactions": ["delivery", "pickup"], "image_url": "https://s3-media2.fl.yelpcdn.com/bphoto/7CgMk3-2iARWER4gvFBI6Q/o.jpg", "phone": "+16177381268", "id": "fugakyu-japanese-cuisine-brookline-2", "distance": 3993.4891791019995, "location": {"display_address": ["1280 Beacon St", "Brookline, MA 02446"], "state": "MA", "address2": null, "address1": "1280 Beacon St", "zip_code": "02446", "city": "Brookline", "country": "US", "address3": ""}, "url": "https://www.yelp.com/biz/fugakyu-japanese-cuisine-brookline-2?adjust_creative=gBcvfFpabk3CnzmXKdYe3w&utm_campaign=yelp_api_v3&utm_medium=api_v3_business_search&utm_source=gBcvfFpabk3CnzmXKdYe3w", "categories": [{"alias": "sushi", "title": "Sushi Bars"}, {"alias": "japanese", "title": "Japanese"}], "display_phone": "(617) 738-1268", "is_closed": false, "name": "Fugakyu Japanese Cuisine", "price": "$$$", "review_count": 1031, "coordinates": {"longitude": -71.119374642915, "latitude": 42.342922369746}}, {"rating": 3.0, "transactions": [], "image_url": "https://s3-media4.fl.yelpcdn.com/bphoto/6yHjkdxm9pdJPHX8Q5ma-Q/o.jpg", "phone": "+16175231028", "id": "cvs-pharmacy-boston-21", "distance": 1425.8942945856, "location": {"display_address": ["155 Charles St", "Boston, MA 02114"], "state": "MA", "address2": "", "address1": "155 Charles St", "zip_code": "02114", "city": "Boston", "country": "US", "address3": ""}, "url": "https://www.yelp.com/biz/cvs-pharmacy-boston-21?adjust_creative=gBcvfFpabk3CnzmXKdYe3w&utm_campaign=yelp_api_v3&utm_medium=api_v3_business_search&utm_source=gBcvfFpabk3CnzmXKdYe3w", "categories": [{"alias": "drugstores", "title": "Drugstores"}], "display_phone": "(617) 523-1028", "is_closed": false, "name": "CVS/pharmacy", "price": "$$$", "review_count": 11, "coordinates": {"longitude": -71.0705413818359, "latitude": 42.3606262207031}}, {"rating": 5.0, "transactions": [], "image_url": "https://s3-media2.fl.yelpcdn.com/bphoto/mbwA2qARlzGZmjLpJtnjEg/o.jpg", "phone": "+18574921645", "id": "kaleidescope-face-painters-boston", "distance": 1507.7886665117999, "location": {"display_address": ["Boston, MA"], "state": "MA", "address2": null, "address1": null, "zip_code": "", "city": "Boston", "country": "US", "address3": ""}, "url": "https://www.yelp.com/biz/kaleidescope-face-painters-boston?adjust_creative=gBcvfFpabk3CnzmXKdYe3w&utm_campaign=yelp_api_v3&utm_medium=api_v3_business_search&utm_source=gBcvfFpabk3CnzmXKdYe3w", "categories": [{"alias": "facepainting", "title": "Face Painting"}], "display_phone": "(857) 492-1645", "is_closed": false, "name": "Kaleidescope Face Painters", "review_count": 3, "coordinates": {"longitude": null, "latitude": null}}, {"rating": 4.5, "transactions": [], "image_url": "https://s3-media2.fl.yelpcdn.com/bphoto/4U-wrXD3snKK-EZFh5sRTA/o.jpg", "phone": "+16172968600", "id": "boston-budget-plumbing-boston", "distance": 5885.011176569999, "location": {"display_address": ["Boston, MA 02122"], "state": "MA", "address2": null, "address1": "", "zip_code": "02122", "city": "Boston", "country": "US", "address3": ""}, "url": "https://www.yelp.com/biz/boston-budget-plumbing-boston?adjust_creative=gBcvfFpabk3CnzmXKdYe3w&utm_campaign=yelp_api_v3&utm_medium=api_v3_business_search&utm_source=gBcvfFpabk3CnzmXKdYe3w", "categories": [{"alias": "plumbing", "title": "Plumbing"}], "display_phone": "(617) 296-8600", "is_closed": false, "name": "Boston Budget Plumbing", "review_count": 10, "coordinates": {"longitude": -71.0546188354492, "latitude": 42.2967987060547}}, {"rating": 4.5, "transactions": [], "image_url": "https://s3-media2.fl.yelpcdn.com/bphoto/0B2DFRCMSKBFapwIGea3bA/o.jpg", "phone": "+16172594497", "id": "mobile-auto-clinic-towing-service-boston-3", "distance": 8525.458211382, "location": {"display_address": ["30 Rugg Rd", "Boston, MA 02131"], "state": "MA", "address2": "", "address1": "30 Rugg Rd", "zip_code": "02131", "city": "Boston", "country": "US", "address3": ""}, "url": "https://www.yelp.com/biz/mobile-auto-clinic-towing-service-boston-3?adjust_creative=gBcvfFpabk3CnzmXKdYe3w&utm_campaign=yelp_api_v3&utm_medium=api_v3_business_search&utm_source=gBcvfFpabk3CnzmXKdYe3w", "categories": [{"alias": "autorepair", "title": "Auto Repair"}, {"alias": "oilchange", "title": "Oil Change Stations"}, {"alias": "roadsideassist", "title": "Roadside Assistance"}], "display_phone": "(617) 259-4497", "is_closed": false, "name": "Mobile Auto Clinic Towing Service", "review_count": 16, "coordinates": {"longitude": -71.1270268, "latitude": 42.2832142}}, {"rating": 2.5, "transactions": [], "image_url": "https://s3-media2.fl.yelpcdn.com/bphoto/p1Ct8BvuYYazEkpNejAv5A/o.jpg", "phone": "+16173382290", "id": "the-glass-slipper-boston", "distance": 760.0471860839999, "location": {"display_address": ["22 Lagrange St", "Boston, MA 02116"], "state": "MA", "address2": "", "address1": "22 Lagrange St", "zip_code": "02116", "city": "Boston", "country": "US", "address3": ""}, "url": "https://www.yelp.com/biz/the-glass-slipper-boston?adjust_creative=gBcvfFpabk3CnzmXKdYe3w&utm_campaign=yelp_api_v3&utm_medium=api_v3_business_search&utm_source=gBcvfFpabk3CnzmXKdYe3w", "categories": [{"alias": "adultentertainment", "title": "Adult Entertainment"}], "display_phone": "(617) 338-2290", "is_closed": false, "name": "The Glass Slipper", "price": "$$$", "review_count": 52, "coordinates": {"longitude": -71.0634541511536, "latitude": 42.3515272469574}}, {"rating": 3.0, "transactions": [], "image_url": "https://s3-media1.fl.yelpcdn.com/bphoto/pibfkA9sdWRkSNHz1H_CBg/o.jpg", "phone": "+18004685865", "id": "1-800-got-junk-boston-central-boston", "distance": 6775.278430621999, "location": {"display_address": ["50 Terminal St", "Bldg 2 Unit 715", "Boston, MA 02129"], "state": "MA", "address2": "Bldg 2 Unit 715", "address1": "50 Terminal St", "zip_code": "02129", "city": "Boston", "country": "US", "address3": null}, "url": "https://www.yelp.com/biz/1-800-got-junk-boston-central-boston?adjust_creative=gBcvfFpabk3CnzmXKdYe3w&utm_campaign=yelp_api_v3&utm_medium=api_v3_business_search&utm_source=gBcvfFpabk3CnzmXKdYe3w", "categories": [{"alias": "junkremovalandhauling", "title": "Junk Removal & Hauling"}], "display_phone": "(800) 468-5865", "is_closed": false, "name": "1-800-GOT-JUNK? Boston Central", "review_count": 36, "coordinates": {"longitude": -71.0904234023437, "latitude": 42.4071031029728}}, {"rating": 3.5, "transactions": [], "image_url": "https://s3-media4.fl.yelpcdn.com/bphoto/z1_jg7jRdedN85yzk72rCA/o.jpg", "phone": "+16175672226", "id": "loga-airport-gulf-boston-2", "distance": 4599.247490979999, "location": {"display_address": ["100 Service Rd", "Boston, MA 02128"], "state": "MA", "address2": null, "address1": "100 Service Rd", "zip_code": "02128", "city": "Boston", "country": "US", "address3": ""}, "url": "https://www.yelp.com/biz/loga-airport-gulf-boston-2?adjust_creative=gBcvfFpabk3CnzmXKdYe3w&utm_campaign=yelp_api_v3&utm_medium=api_v3_business_search&utm_source=gBcvfFpabk3CnzmXKdYe3w", "categories": [{"alias": "servicestations", "title": "Gas & Service Stations"}, {"alias": "convenience", "title": "Convenience Stores"}], "display_phone": "(617) 567-2226", "is_closed": false, "name": "Loga Airport Gulf", "price": "$$", "review_count": 12, "coordinates": {"longitude": -71.0237169, "latitude": 42.3695127}}, {"rating": 4.0, "transactions": [], "image_url": "https://s3-media1.fl.yelpcdn.com/bphoto/CBFtrNaG494oJbwQ169pIw/o.jpg", "phone": "+16177828226", "id": "lone-star-taco-bar-allston", "distance": 5451.485879897999, "location": {"display_address": ["479 Cambridge St", "Allston, MA 02134"], "state": "MA", "address2": "", "address1": "479 Cambridge St", "zip_code": "02134", "city": "Allston", "country": "US", "address3": ""}, "url": "https://www.yelp.com/biz/lone-star-taco-bar-allston?adjust_creative=gBcvfFpabk3CnzmXKdYe3w&utm_campaign=yelp_api_v3&utm_medium=api_v3_business_search&utm_source=gBcvfFpabk3CnzmXKdYe3w", "categories": [{"alias": "mexican", "title": "Mexican"}, {"alias": "bars", "title": "Bars"}], "display_phone": "(617) 782-8226", "is_closed": false, "name": "Lone Star Taco Bar", "price": "$$", "review_count": 400, "coordinates": {"longitude": -71.1370889224165, "latitude": 42.3537870975064}}, {"rating": 4.5, "transactions": [], "image_url": "https://s3-media1.fl.yelpcdn.com/bphoto/zuxWUiLZp5kqjWgkdvGnAA/o.jpg", "phone": "+16179739500", "id": "the-cheese-shop-boston", "distance": 2402.2231938399996, "location": {"display_address": ["20 Fleet St", "Boston, MA 02113"], "state": "MA", "address2": null, "address1": "20 Fleet St", "zip_code": "02113", "city": "Boston", "country": "US", "address3": ""}, "url": "https://www.yelp.com/biz/the-cheese-shop-boston?adjust_creative=gBcvfFpabk3CnzmXKdYe3w&utm_campaign=yelp_api_v3&utm_medium=api_v3_business_search&utm_source=gBcvfFpabk3CnzmXKdYe3w", "categories": [{"alias": "cheese", "title": "Cheese Shops"}, {"alias": "meats", "title": "Meat Shops"}], "display_phone": "(617) 973-9500", "is_closed": false, "name": "The Cheese Shop", "price": "$$$", "review_count": 4, "coordinates": {"longitude": -71.0528564, "latitude": 42.3647194}}, {"rating": 2.5, "transactions": [], "image_url": "https://s3-media3.fl.yelpcdn.com/bphoto/AJJG7lrbq69myC1KqiW58w/o.jpg", "phone": "+16175617777", "id": "bohemios-boston", "distance": 4106.832420358, "location": {"display_address": ["30 Benington St", "Boston, MA 02128"], "state": "MA", "address2": "", "address1": "30 Benington St", "zip_code": "02128", "city": "Boston", "country": "US", "address3": ""}, "url": "https://www.yelp.com/biz/bohemios-boston?adjust_creative=gBcvfFpabk3CnzmXKdYe3w&utm_campaign=yelp_api_v3&utm_medium=api_v3_business_search&utm_source=gBcvfFpabk3CnzmXKdYe3w", "categories": [{"alias": "colombian", "title": "Colombian"}], "display_phone": "(617) 561-7777", "is_closed": false, "name": "Bohemios", "price": "$$", "review_count": 2, "coordinates": {"longitude": -71.0381699, "latitude": 42.37542}}, {"rating": 4.0, "transactions": [], "image_url": "https://s3-media3.fl.yelpcdn.com/bphoto/NTW8H_wa5k36sXtw-xoIrg/o.jpg", "phone": "+16175613737", "id": "la-hacienda-restaurant-and-bar-east-boston", "distance": 3913.21159842, "location": {"display_address": ["150 Meridian St", "East Boston, MA 02128"], "state": "MA", "address2": "", "address1": "150 Meridian St", "zip_code": "02128", "city": "East Boston", "country": "US", "address3": ""}, "url": "https://www.yelp.com/biz/la-hacienda-restaurant-and-bar-east-boston?adjust_creative=gBcvfFpabk3CnzmXKdYe3w&utm_campaign=yelp_api_v3&utm_medium=api_v3_business_search&utm_source=gBcvfFpabk3CnzmXKdYe3w", "categories": [{"alias": "mexican", "title": "Mexican"}, {"alias": "bars", "title": "Bars"}], "display_phone": "(617) 561-3737", "is_closed": false, "name": "La Hacienda Restaurant and Bar", "price": "$$", "review_count": 110, "coordinates": {"longitude": -71.03925, "latitude": 42.37399}}, {"rating": 4.0, "transactions": [], "image_url": "https://s3-media2.fl.yelpcdn.com/bphoto/r8cFHkE5RCM13q7kFgODJw/o.jpg", "phone": "+16177872337", "id": "deep-ellum-allston", "distance": 5448.270418577999, "location": {"display_address": ["477 Cambridge St", "Allston, MA 02134"], "state": "MA", "address2": "", "address1": "477 Cambridge St", "zip_code": "02134", "city": "Allston", "country": "US", "address3": ""}, "url": "https://www.yelp.com/biz/deep-ellum-allston?adjust_creative=gBcvfFpabk3CnzmXKdYe3w&utm_campaign=yelp_api_v3&utm_medium=api_v3_business_search&utm_source=gBcvfFpabk3CnzmXKdYe3w", "categories": [{"alias": "pubs", "title": "Pubs"}, {"alias": "newamerican", "title": "American (New)"}, {"alias": "breakfast_brunch", "title": "Breakfast & Brunch"}], "display_phone": "(617) 787-2337", "is_closed": false, "name": "Deep Ellum", "price": "$$", "review_count": 983, "coordinates": {"longitude": -71.13719, "latitude": 42.3539}}, {"rating": 4.0, "transactions": [], "image_url": "https://s3-media4.fl.yelpcdn.com/bphoto/i_iWeMGMGQdMaDlot0YMyQ/o.jpg", "phone": "+16174390328", "id": "rowes-wharf-garage-boston", "distance": 1996.62928034, "location": {"display_address": ["30 Rowes Wharf", "Boston, MA 02110"], "state": "MA", "address2": "", "address1": "30 Rowes Wharf", "zip_code": "02110", "city": "Boston", "country": "US", "address3": ""}, "url": "https://www.yelp.com/biz/rowes-wharf-garage-boston?adjust_creative=gBcvfFpabk3CnzmXKdYe3w&utm_campaign=yelp_api_v3&utm_medium=api_v3_business_search&utm_source=gBcvfFpabk3CnzmXKdYe3w", "categories": [{"alias": "parking", "title": "Parking"}], "display_phone": "(617) 439-0328", "is_closed": false, "name": "Rowes Wharf Garage", "review_count": 4, "coordinates": {"longitude": -71.0503387451172, "latitude": 42.3569641113281}}, {"rating": 2.5, "transactions": [], "image_url": "https://s3-media2.fl.yelpcdn.com/bphoto/5lTrKn4XigClZ5iD3mlOzw/o.jpg", "phone": "+16175685200", "id": "hertz-rent-a-car-boston-2", "distance": 3923.53551452, "location": {"display_address": ["156 Tomahawk Dr", "Bldg 42 A", "Boston, MA 02128"], "state": "MA", "address2": "", "address1": "156 Tomahawk Dr", "zip_code": "02128", "city": "Boston", "country": "US", "address3": "Bldg 42 A"}, "url": "https://www.yelp.com/biz/hertz-rent-a-car-boston-2?adjust_creative=gBcvfFpabk3CnzmXKdYe3w&utm_campaign=yelp_api_v3&utm_medium=api_v3_business_search&utm_source=gBcvfFpabk3CnzmXKdYe3w", "categories": [{"alias": "carrental", "title": "Car Rental"}], "display_phone": "(617) 568-5200", "is_closed": false, "name": "Hertz Rent A Car", "review_count": 274, "coordinates": {"longitude": -71.0315453866992, "latitude": 42.3674544816108}}, {"rating": 3.5, "transactions": [], "image_url": "https://s3-media2.fl.yelpcdn.com/bphoto/t9a4nomMnLTecn75ZQV8Gw/o.jpg", "phone": "+16172670033", "id": "roto-rooter-plumbing-and-drain-services-boston-6", "distance": 2524.110421156, "location": {"display_address": ["50 Franklin St", "Boston, MA 02110"], "state": "MA", "address2": null, "address1": "50 Franklin St", "zip_code": "02110", "city": "Boston", "country": "US", "address3": null}, "url": "https://www.yelp.com/biz/roto-rooter-plumbing-and-drain-services-boston-6?adjust_creative=gBcvfFpabk3CnzmXKdYe3w&utm_campaign=yelp_api_v3&utm_medium=api_v3_business_search&utm_source=gBcvfFpabk3CnzmXKdYe3w", "categories": [{"alias": "plumbing", "title": "Plumbing"}, {"alias": "damagerestoration", "title": "Damage Restoration"}, {"alias": "waterheaterinstallrepair", "title": "Water Heater Installation/Repair"}], "display_phone": "(617) 267-0033", "is_closed": false, "name": "Roto-Rooter Plumbing & Drain Services", "review_count": 43, "coordinates": {"longitude": -71.086469, "latitude": 42.367557}}, {"rating": 4.5, "transactions": [], "image_url": "https://s3-media3.fl.yelpcdn.com/bphoto/aQkeDllBcndQH5wpwTVk2Q/o.jpg", "phone": "", "id": "inman-square-cambridge", "distance": 3767.30561534, "location": {"display_address": ["Cambridge & Hampshire St", "Cambridge, MA 02139"], "state": "MA", "address2": "", "address1": "Cambridge & Hampshire St", "zip_code": "02139", "city": "Cambridge", "country": "US", "address3": ""}, "url": "https://www.yelp.com/biz/inman-square-cambridge?adjust_creative=gBcvfFpabk3CnzmXKdYe3w&utm_campaign=yelp_api_v3&utm_medium=api_v3_business_search&utm_source=gBcvfFpabk3CnzmXKdYe3w", "categories": [{"alias": "landmarks", "title": "Landmarks & Historical Buildings"}], "display_phone": "", "is_closed": false, "name": "Inman Square", "review_count": 20, "coordinates": {"longitude": -71.1007973257366, "latitude": 42.3737078617104}}, {"rating": 3.0, "transactions": [], "image_url": "https://s3-media2.fl.yelpcdn.com/bphoto/aa739hNwSazKacfYaBozxw/o.jpg", "phone": "+16172488971", "id": "friend-street-hostel-boston", "distance": 2022.1025575959998, "location": {"display_address": ["234 Friend St", "Boston, MA 02114"], "state": "MA", "address2": null, "address1": "234 Friend St", "zip_code": "02114", "city": "Boston", "country": "US", "address3": ""}, "url": "https://www.yelp.com/biz/friend-street-hostel-boston?adjust_creative=gBcvfFpabk3CnzmXKdYe3w&utm_campaign=yelp_api_v3&utm_medium=api_v3_business_search&utm_source=gBcvfFpabk3CnzmXKdYe3w", "categories": [{"alias": "hostels", "title": "Hostels"}], "display_phone": "(617) 248-8971", "is_closed": false, "name": "Friend Street Hostel", "review_count": 15, "coordinates": {"longitude": -71.0610516, "latitude": 42.3643937}}, {"rating": 5.0, "transactions": [], "image_url": "https://s3-media4.fl.yelpcdn.com/bphoto/wKm0C5t76vrfF4188opnhg/o.jpg", "phone": "+17812447661", "id": "rivas-rubbish-removal-boston", "distance": 4848.858217122, "location": {"display_address": ["Boston, MA 02128"], "state": "MA", "address2": "", "address1": "", "zip_code": "02128", "city": "Boston", "country": "US", "address3": ""}, "url": "https://www.yelp.com/biz/rivas-rubbish-removal-boston?adjust_creative=gBcvfFpabk3CnzmXKdYe3w&utm_campaign=yelp_api_v3&utm_medium=api_v3_business_search&utm_source=gBcvfFpabk3CnzmXKdYe3w", "categories": [{"alias": "junkremovalandhauling", "title": "Junk Removal & Hauling"}], "display_phone": "(781) 244-7661", "is_closed": false, "name": "RIVAS rubbish removal", "review_count": 5, "coordinates": {"longitude": -71.0150146484375, "latitude": 42.3732109069824}}, {"rating": 4.0, "transactions": [], "image_url": "https://s3-media2.fl.yelpcdn.com/bphoto/Wvb_0HLJ94JUOUArVnsi4Q/o.jpg", "phone": "+16177308040", "id": "the-abbey-brookline", "distance": 5478.3301538999995, "location": {"display_address": ["1657 Beacon St", "Brookline, MA 02445"], "state": "MA", "address2": "", "address1": "1657 Beacon St", "zip_code": "02445", "city": "Brookline", "country": "US", "address3": ""}, "url": "https://www.yelp.com/biz/the-abbey-brookline?adjust_creative=gBcvfFpabk3CnzmXKdYe3w&utm_campaign=yelp_api_v3&utm_medium=api_v3_business_search&utm_source=gBcvfFpabk3CnzmXKdYe3w", "categories": [{"alias": "newamerican", "title": "American (New)"}], "display_phone": "(617) 730-8040", "is_closed": false, "name": "The Abbey", "price": "$$", "review_count": 374, "coordinates": {"longitude": -71.13674593295, "latitude": 42.338727403673}}, {"rating": 3.0, "transactions": [], "image_url": "https://s3-media4.fl.yelpcdn.com/bphoto/brXWwL5sVeTuJHaI7k2cyQ/o.jpg", "phone": "+16175866800", "id": "station-ktv-boston", "distance": 958.2787027483998, "location": {"display_address": ["20 Hudson St", "Boston, MA 02111"], "state": "MA", "address2": "", "address1": "20 Hudson St", "zip_code": "02111", "city": "Boston", "country": "US", "address3": null}, "url": "https://www.yelp.com/biz/station-ktv-boston?adjust_creative=gBcvfFpabk3CnzmXKdYe3w&utm_campaign=yelp_api_v3&utm_medium=api_v3_business_search&utm_source=gBcvfFpabk3CnzmXKdYe3w", "categories": [{"alias": "karaoke", "title": "Karaoke"}], "display_phone": "(617) 586-6800", "is_closed": false, "name": "Station KTV", "price": "$$", "review_count": 11, "coordinates": {"longitude": -71.060058218424, "latitude": 42.350281345793}}, {"rating": 3.0, "transactions": [], "image_url": "https://s3-media3.fl.yelpcdn.com/bphoto/PzHxzZYK4P0gbdp0ZjY46Q/o.jpg", "phone": "+18884374379", "id": "ultimate-shuttle-boston", "distance": 1473.87541484, "location": {"display_address": ["Boston, MA 02228"], "state": "MA", "address2": "", "address1": "", "zip_code": "02228", "city": "Boston", "country": "US", "address3": ""}, "url": "https://www.yelp.com/biz/ultimate-shuttle-boston?adjust_creative=gBcvfFpabk3CnzmXKdYe3w&utm_campaign=yelp_api_v3&utm_medium=api_v3_business_search&utm_source=gBcvfFpabk3CnzmXKdYe3w", "categories": [{"alias": "limos", "title": "Limos"}, {"alias": "airport_shuttles", "title": "Airport Shuttles"}], "display_phone": "(888) 437-4379", "is_closed": false, "name": "Ultimate Shuttle", "review_count": 18, "coordinates": {"longitude": -71.060278, "latitude": 42.358333}}, {"rating": 4.0, "transactions": [], "image_url": "https://s3-media4.fl.yelpcdn.com/bphoto/SSk69f4qyAWt5KTdTFCaiQ/o.jpg", "phone": "+16172772880", "id": "the-publick-house-brookline", "distance": 5611.222530937999, "location": {"display_address": ["1648 Beacon St", "Brookline, MA 02445"], "state": "MA", "address2": "", "address1": "1648 Beacon St", "zip_code": "02445", "city": "Brookline", "country": "US", "address3": ""}, "url": "https://www.yelp.com/biz/the-publick-house-brookline?adjust_creative=gBcvfFpabk3CnzmXKdYe3w&utm_campaign=yelp_api_v3&utm_medium=api_v3_business_search&utm_source=gBcvfFpabk3CnzmXKdYe3w", "categories": [{"alias": "pubs", "title": "Pubs"}, {"alias": "tradamerican", "title": "American (Traditional)"}, {"alias": "belgian", "title": "Belgian"}], "display_phone": "(617) 277-2880", "is_closed": false, "name": "The Publick House", "price": "$$", "review_count": 1052, "coordinates": {"longitude": -71.1384385087266, "latitude": 42.33889447942}}, {"rating": 4.0, "transactions": [], "image_url": "https://s3-media3.fl.yelpcdn.com/bphoto/bJHQyGZbjX5S3RzRN71YxQ/o.jpg", "phone": "", "id": "clover-cambridge-8", "distance": 3073.7298039459997, "location": {"display_address": ["496 Mass Ave", "Cambridge, MA 02139"], "state": "MA", "address2": "", "address1": "496 Mass Ave", "zip_code": "02139", "city": "Cambridge", "country": "US", "address3": ""}, "url": "https://www.yelp.com/biz/clover-cambridge-8?adjust_creative=gBcvfFpabk3CnzmXKdYe3w&utm_campaign=yelp_api_v3&utm_medium=api_v3_business_search&utm_source=gBcvfFpabk3CnzmXKdYe3w", "categories": [{"alias": "hotdogs", "title": "Fast Food"}], "display_phone": "", "is_closed": false, "name": "Clover", "price": "$", "review_count": 88, "coordinates": {"longitude": -71.1015986183805, "latitude": 42.3639929461171}}, {"rating": 4.0, "transactions": [], "image_url": "https://s3-media1.fl.yelpcdn.com/bphoto/-2GqeYZIct-7uFYdUvWWjQ/o.jpg", "phone": "+16172328989", "id": "the-washington-square-tavern-brookline", "distance": 5346.330799627999, "location": {"display_address": ["714 Washington St", "Brookline, MA 02445"], "state": "MA", "address2": null, "address1": "714 Washington St", "zip_code": "02445", "city": "Brookline", "country": "US", "address3": ""}, "url": "https://www.yelp.com/biz/the-washington-square-tavern-brookline?adjust_creative=gBcvfFpabk3CnzmXKdYe3w&utm_campaign=yelp_api_v3&utm_medium=api_v3_business_search&utm_source=gBcvfFpabk3CnzmXKdYe3w", "categories": [{"alias": "bars", "title": "Bars"}, {"alias": "tradamerican", "title": "American (Traditional)"}], "display_phone": "(617) 232-8989", "is_closed": false, "name": "The Washington Square Tavern", "price": "$$", "review_count": 270, "coordinates": {"longitude": -71.135212, "latitude": 42.339123}}, {"rating": 2.5, "transactions": [], "image_url": "https://s3-media3.fl.yelpcdn.com/bphoto/UUdLT_y30ZtHWh_AJCNo4w/o.jpg", "phone": "+16172361692", "id": "walgreens-boston-2", "distance": 955.9788593279999, "location": {"display_address": ["841 Boylston St", "Boston, MA 02116"], "state": "MA", "address2": "", "address1": "841 Boylston St", "zip_code": "02116", "city": "Boston", "country": "US", "address3": ""}, "url": "https://www.yelp.com/biz/walgreens-boston-2?adjust_creative=gBcvfFpabk3CnzmXKdYe3w&utm_campaign=yelp_api_v3&utm_medium=api_v3_business_search&utm_source=gBcvfFpabk3CnzmXKdYe3w", "categories": [{"alias": "drugstores", "title": "Drugstores"}, {"alias": "cosmetics", "title": "Cosmetics & Beauty Supply"}, {"alias": "convenience", "title": "Convenience Stores"}], "display_phone": "(617) 236-1692", "is_closed": false, "name": "Walgreens", "price": "$", "review_count": 16, "coordinates": {"longitude": -71.0825674, "latitude": 42.3487949}}, {"rating": 5.0, "transactions": [], "image_url": "https://s3-media1.fl.yelpcdn.com/bphoto/wqMZIb803luSG4vZ0oBqmA/o.jpg", "phone": "+16172244000", "id": "liberty-bar-boston", "distance": 1589.5131565076, "location": {"display_address": ["215 Charles St", "Boston, MA 02114"], "state": "MA", "address2": "", "address1": "215 Charles St", "zip_code": "02114", "city": "Boston", "country": "US", "address3": null}, "url": "https://www.yelp.com/biz/liberty-bar-boston?adjust_creative=gBcvfFpabk3CnzmXKdYe3w&utm_campaign=yelp_api_v3&utm_medium=api_v3_business_search&utm_source=gBcvfFpabk3CnzmXKdYe3w", "categories": [{"alias": "bars", "title": "Bars"}], "display_phone": "(617) 224-4000", "is_closed": false, "name": "Liberty Bar", "review_count": 1, "coordinates": {"longitude": -71.0705653723657, "latitude": 42.3621310891445}}, {"rating": 4.0, "transactions": [], "image_url": "https://s3-media2.fl.yelpcdn.com/bphoto/36hivXSBACtA-iQcZ-YnZQ/o.jpg", "phone": "+16175669014", "id": "great-scott-allston", "distance": 4883.75788156, "location": {"display_address": ["1222 Commonwealth Ave", "Allston, MA 02134"], "state": "MA", "address2": "", "address1": "1222 Commonwealth Ave", "zip_code": "02134", "city": "Allston", "country": "US", "address3": ""}, "url": "https://www.yelp.com/biz/great-scott-allston?adjust_creative=gBcvfFpabk3CnzmXKdYe3w&utm_campaign=yelp_api_v3&utm_medium=api_v3_business_search&utm_source=gBcvfFpabk3CnzmXKdYe3w", "categories": [{"alias": "danceclubs", "title": "Dance Clubs"}, {"alias": "lounges", "title": "Lounges"}, {"alias": "musicvenues", "title": "Music Venues"}], "display_phone": "(617) 566-9014", "is_closed": false, "name": "Great Scott", "price": "$", "review_count": 184, "coordinates": {"longitude": -71.13059276837, "latitude": 42.350110458424}}, {"rating": 2.0, "transactions": [], "image_url": "https://s3-media1.fl.yelpcdn.com/bphoto/HMPc9Ov-AyNaCyfBVTMheQ/o.jpg", "phone": "+16172626188", "id": "fedex-office-print-and-ship-center-boston-7", "distance": 417.1961927356, "location": {"display_address": ["187 Dartmouth St", "Boston, MA 02116"], "state": "MA", "address2": "", "address1": "187 Dartmouth St", "zip_code": "02116", "city": "Boston", "country": "US", "address3": ""}, "url": "https://www.yelp.com/biz/fedex-office-print-and-ship-center-boston-7?adjust_creative=gBcvfFpabk3CnzmXKdYe3w&utm_campaign=yelp_api_v3&utm_medium=api_v3_business_search&utm_source=gBcvfFpabk3CnzmXKdYe3w", "categories": [{"alias": "copyshops", "title": "Printing Services"}, {"alias": "shipping_centers", "title": "Shipping Centers"}, {"alias": "signmaking", "title": "Signmaking"}], "display_phone": "(617) 262-6188", "is_closed": false, "name": "FedEx Office Print & Ship Center", "review_count": 41, "coordinates": {"longitude": -71.076223, "latitude": 42.348565}}, {"rating": 3.0, "transactions": [], "image_url": "https://s3-media2.fl.yelpcdn.com/bphoto/0z1_3li_rYOCP6l9bOwI_Q/o.jpg", "phone": "", "id": "whaddya-need-boston", "distance": 2367.353302192, "location": {"display_address": ["148 Salem St", "Boston, MA 02113"], "state": "MA", "address2": "", "address1": "148 Salem St", "zip_code": "02113", "city": "Boston", "country": "US", "address3": ""}, "url": "https://www.yelp.com/biz/whaddya-need-boston?adjust_creative=gBcvfFpabk3CnzmXKdYe3w&utm_campaign=yelp_api_v3&utm_medium=api_v3_business_search&utm_source=gBcvfFpabk3CnzmXKdYe3w", "categories": [{"alias": "couriers", "title": "Couriers & Delivery Services"}], "display_phone": "", "is_closed": false, "name": "Whaddya Need?", "review_count": 12, "coordinates": {"longitude": -71.05543, "latitude": 42.36563}}, {"rating": 3.0, "transactions": [], "image_url": "https://s3-media2.fl.yelpcdn.com/bphoto/Uy8lbCxq7NdYSUhgDwNOMA/o.jpg", "phone": "+16172750151", "id": "100-clarendon-street-garage-boston", "distance": 313.76709742879996, "location": {"display_address": ["100 Clarendon St", "Boston, MA 02116"], "state": "MA", "address2": "", "address1": "100 Clarendon St", "zip_code": "02116", "city": "Boston", "country": "US", "address3": ""}, "url": "https://www.yelp.com/biz/100-clarendon-street-garage-boston?adjust_creative=gBcvfFpabk3CnzmXKdYe3w&utm_campaign=yelp_api_v3&utm_medium=api_v3_business_search&utm_source=gBcvfFpabk3CnzmXKdYe3w", "categories": [{"alias": "parking", "title": "Parking"}], "display_phone": "(617) 275-0151", "is_closed": false, "name": "100 Clarendon Street Garage", "review_count": 9, "coordinates": {"longitude": -71.0741001, "latitude": 42.3479869}}, {"rating": 5.0, "transactions": [], "image_url": "https://s3-media4.fl.yelpcdn.com/bphoto/GjCsDYdTVYmv1oW9nOPn0A/o.jpg", "phone": "+16179363633", "id": "beacon-street-locale-boston", "distance": 1553.3168468315998, "location": {"display_address": ["495 Beacon St", "Boston, MA 02215"], "state": "MA", "address2": null, "address1": "495 Beacon St", "zip_code": "02215", "city": "Boston", "country": "US", "address3": ""}, "url": "https://www.yelp.com/biz/beacon-street-locale-boston?adjust_creative=gBcvfFpabk3CnzmXKdYe3w&utm_campaign=yelp_api_v3&utm_medium=api_v3_business_search&utm_source=gBcvfFpabk3CnzmXKdYe3w", "categories": [{"alias": "gastropubs", "title": "Gastropubs"}, {"alias": "breakfast_brunch", "title": "Breakfast & Brunch"}, {"alias": "bars", "title": "Bars"}], "display_phone": "(617) 936-3633", "is_closed": false, "name": "Beacon Street Locale", "review_count": 1, "coordinates": {"longitude": -71.08974, "latitude": 42.35052}}, {"rating": 5.0, "transactions": [], "image_url": "https://s3-media3.fl.yelpcdn.com/bphoto/Bt8lNhXzp43R4sn5vtGshA/o.jpg", "phone": "+16177169095", "id": "tapsnap-1118-boston-3", "distance": 1208.700117822, "location": {"display_address": ["Boston, MA 02108"], "state": "MA", "address2": "", "address1": "", "zip_code": "02108", "city": "Boston", "country": "US", "address3": ""}, "url": "https://www.yelp.com/biz/tapsnap-1118-boston-3?adjust_creative=gBcvfFpabk3CnzmXKdYe3w&utm_campaign=yelp_api_v3&utm_medium=api_v3_business_search&utm_source=gBcvfFpabk3CnzmXKdYe3w", "categories": [{"alias": "photoboothrentals", "title": "Photo Booth Rentals"}, {"alias": "eventphotography", "title": "Event Photography"}], "display_phone": "(617) 716-9095", "is_closed": false, "name": "TapSnap 1118", "review_count": 4, "coordinates": {"longitude": -71.05692230165, "latitude": 42.3503237795287}}, {"rating": 5.0, "transactions": [], "image_url": "https://s3-media3.fl.yelpcdn.com/bphoto/D1T7NvGt_nhXSgz2Jcn7ig/o.jpg", "phone": "+17814362205", "id": "south-end-hospitality-boston-2", "distance": 1212.3770412936, "location": {"display_address": ["Boston, MA 02118"], "state": "MA", "address2": "", "address1": "", "zip_code": "02118", "city": "Boston", "country": "US", "address3": ""}, "url": "https://www.yelp.com/biz/south-end-hospitality-boston-2?adjust_creative=gBcvfFpabk3CnzmXKdYe3w&utm_campaign=yelp_api_v3&utm_medium=api_v3_business_search&utm_source=gBcvfFpabk3CnzmXKdYe3w", "categories": [{"alias": "propertymgmt", "title": "Property Management"}], "display_phone": "(781) 436-2205", "is_closed": false, "name": "South End Hospitality", "review_count": 2, "coordinates": {"longitude": -71.0805649647153, "latitude": 42.3393929013108}}, {"rating": 3.5, "transactions": ["delivery", "pickup"], "image_url": "https://s3-media4.fl.yelpcdn.com/bphoto/ekqX-aksh_8fOzZrp0bmLQ/o.jpg", "phone": "+16177790003", "id": "azama-grill-allston", "distance": 5064.391973434, "location": {"display_address": ["54 Harvard Ave", "Allston, MA 02134"], "state": "MA", "address2": "", "address1": "54 Harvard Ave", "zip_code": "02134", "city": "Allston", "country": "US", "address3": ""}, "url": "https://www.yelp.com/biz/azama-grill-allston?adjust_creative=gBcvfFpabk3CnzmXKdYe3w&utm_campaign=yelp_api_v3&utm_medium=api_v3_business_search&utm_source=gBcvfFpabk3CnzmXKdYe3w", "categories": [{"alias": "mideastern", "title": "Middle Eastern"}, {"alias": "halal", "title": "Halal"}], "display_phone": "(617) 779-0003", "is_closed": false, "name": "Azama Grill", "price": "$", "review_count": 220, "coordinates": {"longitude": -71.1322605, "latitude": 42.3544128}}, {"rating": 2.0, "transactions": [], "image_url": "https://s3-media4.fl.yelpcdn.com/bphoto/LEF4iACfVO_QYUgOQO81Jw/o.jpg", "phone": "+18003439999", "id": "peter-pan-bus-lines-boston", "distance": 1353.9604980676, "location": {"display_address": ["Boston South Station", "700 Atlantic Ave", "Boston, MA 02110"], "state": "MA", "address2": "700 Atlantic Ave", "address1": "Boston South Station", "zip_code": "02110", "city": "Boston", "country": "US", "address3": ""}, "url": "https://www.yelp.com/biz/peter-pan-bus-lines-boston?adjust_creative=gBcvfFpabk3CnzmXKdYe3w&utm_campaign=yelp_api_v3&utm_medium=api_v3_business_search&utm_source=gBcvfFpabk3CnzmXKdYe3w", "categories": [{"alias": "buses", "title": "Buses"}], "display_phone": "(800) 343-9999", "is_closed": false, "name": "Peter Pan Bus Lines", "review_count": 140, "coordinates": {"longitude": -71.0560984, "latitude": 42.3509868}}, {"rating": 5.0, "transactions": [], "image_url": "https://s3-media1.fl.yelpcdn.com/bphoto/bfXtR4mazgkSOjaL_MQ80Q/o.jpg", "phone": "+17814448484", "id": "gladlydo-boston", "distance": 1338.3740723544, "location": {"display_address": ["25 Dorchester Ave", "Ste 51159", "Boston, MA 02205"], "state": "MA", "address2": "Ste 51159", "address1": "25 Dorchester Ave", "zip_code": "02205", "city": "Boston", "country": "US", "address3": null}, "url": "https://www.yelp.com/biz/gladlydo-boston?adjust_creative=gBcvfFpabk3CnzmXKdYe3w&utm_campaign=yelp_api_v3&utm_medium=api_v3_business_search&utm_source=gBcvfFpabk3CnzmXKdYe3w", "categories": [{"alias": "movers", "title": "Movers"}, {"alias": "homecleaning", "title": "Home Cleaning"}, {"alias": "couriers", "title": "Couriers & Delivery Services"}], "display_phone": "(781) 444-8484", "is_closed": false, "name": "GladlyDo", "review_count": 3, "coordinates": {"longitude": -71.055061, "latitude": 42.3492015}}, {"rating": 5.0, "transactions": [], "image_url": "https://s3-media4.fl.yelpcdn.com/bphoto/1gjP7bsrlx_yW6TDkrf8lA/o.jpg", "phone": "+16179827324", "id": "airbrush-one-boston", "distance": 724.8368546523999, "location": {"display_address": ["Boston, MA 02116"], "state": "MA", "address2": null, "address1": "", "zip_code": "02116", "city": "Boston", "country": "US", "address3": ""}, "url": "https://www.yelp.com/biz/airbrush-one-boston?adjust_creative=gBcvfFpabk3CnzmXKdYe3w&utm_campaign=yelp_api_v3&utm_medium=api_v3_business_search&utm_source=gBcvfFpabk3CnzmXKdYe3w", "categories": [{"alias": "spraytanning", "title": "Spray Tanning"}], "display_phone": "(617) 982-7324", "is_closed": false, "name": "Airbrush One", "price": "$$", "review_count": 2, "coordinates": {"longitude": -71.076545715332, "latitude": 42.3507957458496}}, {"rating": 4.0, "transactions": [], "image_url": "https://s3-media3.fl.yelpcdn.com/bphoto/LNkSqiklO9JN5p-mXdH5kg/o.jpg", "phone": "+16177145226", "id": "the-automatic-food-and-drink-cambridge", "distance": 2762.3295950419997, "location": {"display_address": ["50 Hampshire St", "Cambridge, MA 02139"], "state": "MA", "address2": "", "address1": "50 Hampshire St", "zip_code": "02139", "city": "Cambridge", "country": "US", "address3": null}, "url": "https://www.yelp.com/biz/the-automatic-food-and-drink-cambridge?adjust_creative=gBcvfFpabk3CnzmXKdYe3w&utm_campaign=yelp_api_v3&utm_medium=api_v3_business_search&utm_source=gBcvfFpabk3CnzmXKdYe3w", "categories": [{"alias": "cocktailbars", "title": "Cocktail Bars"}, {"alias": "beerbar", "title": "Beer Bar"}, {"alias": "sandwiches", "title": "Sandwiches"}], "display_phone": "(617) 714-5226", "is_closed": false, "name": "The Automatic Food & Drink", "price": "$$", "review_count": 26, "coordinates": {"longitude": -71.0926888883114, "latitude": 42.3669726401567}}, {"rating": 5.0, "transactions": [], "image_url": "https://s3-media2.fl.yelpcdn.com/bphoto/LGPWPha9NI6RXbA38bBIvw/o.jpg", "phone": "+17814729898", "id": "dj-rkitek-boston", "distance": 886.1893957061999, "location": {"display_address": ["Boston, MA 02108"], "state": "MA", "address2": "", "address1": "", "zip_code": "02108", "city": "Boston", "country": "US", "address3": ""}, "url": "https://www.yelp.com/biz/dj-rkitek-boston?adjust_creative=gBcvfFpabk3CnzmXKdYe3w&utm_campaign=yelp_api_v3&utm_medium=api_v3_business_search&utm_source=gBcvfFpabk3CnzmXKdYe3w", "categories": [{"alias": "djs", "title": "DJs"}], "display_phone": "(781) 472-9898", "is_closed": false, "name": "Dj Rkitek", "review_count": 2, "coordinates": {"longitude": -71.0654220581055, "latitude": 42.3566818237305}}, {"rating": 2.0, "transactions": [], "image_url": "https://s3-media4.fl.yelpcdn.com/bphoto/RhOLqu_fWpMp6IIfTBkH7Q/o.jpg", "phone": "", "id": "lyft-boston", "distance": 4848.858217122, "location": {"display_address": ["Boston, MA 02128"], "state": "MA", "address2": null, "address1": null, "zip_code": "02128", "city": "Boston", "country": "US", "address3": null}, "url": "https://www.yelp.com/biz/lyft-boston?adjust_creative=gBcvfFpabk3CnzmXKdYe3w&utm_campaign=yelp_api_v3&utm_medium=api_v3_business_search&utm_source=gBcvfFpabk3CnzmXKdYe3w", "categories": [{"alias": "taxis", "title": "Taxis"}, {"alias": "carshares", "title": "Car Share Services"}], "display_phone": "", "is_closed": false, "name": "Lyft", "review_count": 58, "coordinates": {"longitude": -71.0155029296875, "latitude": 42.3729972839355}}], "total": 1239}