{"region": {"center": {"longitude": -71.07124328613281, "latitude": 42.34784169448538}}, "businesses": [{"rating": 4.5, "transactions": [], "image_url": "https://s3-media3.fl.yelpcdn.com/bphoto/8kEgR1yeFVStVone5j4aug/o.jpg", "phone": "+16176549944", "id": "biddy-earlys-boston", "distance": 1642.704354078, "location": {"display_address": ["141 Pearl St", "Boston, MA 02110"], "state": "MA", "address2": "", "address1": "141 Pearl St", "zip_code": "02110", "city": "Boston", "country": "US", "address3": ""}, "url": "https://www.yelp.com/biz/biddy-earlys-boston?adjust_creative=gBcvfFpabk3CnzmXKdYe3w&utm_campaign=yelp_api_v3&utm_medium=api_v3_business_search&utm_source=gBcvfFpabk3CnzmXKdYe3w", "categories": [{"alias": "divebars", "title": "Dive Bars"}], "display_phone": "(617) 654-9944", "is_closed": false, "name": "Biddy Early's", "price": "$", "review_count": 193, "coordinates": {"longitude": -71.0537415, "latitude": 42.3546486}}, {"rating": 4.0, "transactions": [], "image_url": "https://s3-media2.fl.yelpcdn.com/bphoto/S6kIwQhsGAhk5Ys3nUadxA/o.jpg", "phone": "+16172670047", "id": "yvonnes-boston", "distance": 1172.085379746, "location": {"display_address": ["2 Winter Pl", "Boston, MA 02108"], "state": "MA", "address2": null, "address1": "2 Winter Pl", "zip_code": "02108", "city": "Boston", "country": "US", "address3": ""}, "url": "https://www.yelp.com/biz/yvonnes-boston?adjust_creative=gBcvfFpabk3CnzmXKdYe3w&utm_campaign=yelp_api_v3&utm_medium=api_v3_business_search&utm_source=gBcvfFpabk3CnzmXKdYe3w", "categories": [{"alias": "lounges", "title": "Lounges"}], "display_phone": "(617) 267-0047", "is_closed": false, "name": "Yvonne's", "price": "$$$", "review_count": 445, "coordinates": {"longitude": -71.06141, "latitude": 42.35549}}, {"rating": 4.0, "transactions": [], "image_url": "https://s3-media1.fl.yelpcdn.com/bphoto/AJJUNPdbEuFwH2PSRMQgoA/o.jpg", "phone": "+16175329100", "id": "eastern-standard-kitchen-and-drinks-boston-3", "distance": 2036.70506502, "location": {"display_address": ["528 Commonwealth Ave", "Boston, MA 02215"], "state": "MA", "address2": "", "address1": "528 Commonwealth Ave", "zip_code": "02215", "city": "Boston", "country": "US", "address3": ""}, "url": "https://www.yelp.com/biz/eastern-standard-kitchen-and-drinks-boston-3?adjust_creative=gBcvfFpabk3CnzmXKdYe3w&utm_campaign=yelp_api_v3&utm_medium=api_v3_business_search&utm_source=gBcvfFpabk3CnzmXKdYe3w", "categories": [{"alias": "newamerican", "title": "American (New)"}, {"alias": "lounges", "title": "Lounges"}, {"alias": "breakfast_brunch", "title": "Breakfast & Brunch"}], "display_phone": "(617) 532-9100", "is_closed": false, "name": "Eastern Standard Kitchen and Drinks", "price": "$$$", "review_count": 1554, "coordinates": {"longitude": -71.0960168391466, "latitude": 42.348740324378}}, {"rating": 4.0, "transactions": [], "image_url": "https://s3-media3.fl.yelpcdn.com/bphoto/VlNwiC3KdAmFaj1my6jzkQ/o.jpg", "phone": "+16173695609", "id": "lolita-cocina-and-tequila-bar-boston-2", "distance": 598.3120888188, "location": {"display_address": ["271 Dartmouth St", "Boston, MA 02116"], "state": "MA", "address2": null, "address1": "271 Dartmouth St", "zip_code": "02116", "city": "Boston", "country": "US", "address3": ""}, "url": "https://www.yelp.com/biz/lolita-cocina-and-tequila-bar-boston-2?adjust_creative=gBcvfFpabk3CnzmXKdYe3w&utm_campaign=yelp_api_v3&utm_medium=api_v3_business_search&utm_source=gBcvfFpabk3CnzmXKdYe3w", "categories": [{"alias": "mexican", "title": "Mexican"}, {"alias": "lounges", "title": "Lounges"}, {"alias": "cocktailbars", "title": "Cocktail Bars"}], "display_phone": "(617) 369-5609", "is_closed": false, "name": "Lolita Cocina & Tequila Bar", "price": "$$", "review_count": 1264, "coordinates": {"longitude": -71.077508474716, "latitude": 42.3505860446405}}, {"rating": 4.0, "transactions": [], "image_url": "https://s3-media3.fl.yelpcdn.com/bphoto/5DBU9QMsfTWZIgboy5jQZQ/o.jpg", "phone": "+16172665088", "id": "anchovies-boston", "distance": 679.036390098, "location": {"display_address": ["433 Columbus Ave", "Boston, MA 02116"], "state": "MA", "address2": "", "address1": "433 Columbus Ave", "zip_code": "02116", "city": "Boston", "country": "US", "address3": ""}, "url": "https://www.yelp.com/biz/anchovies-boston?adjust_creative=gBcvfFpabk3CnzmXKdYe3w&utm_campaign=yelp_api_v3&utm_medium=api_v3_business_search&utm_source=gBcvfFpabk3CnzmXKdYe3w", "categories": [{"alias": "italian", "title": "Italian"}, {"alias": "bars", "title": "Bars"}, {"alias": "salad", "title": "Salad"}], "display_phone": "(617) 266-5088", "is_closed": false, "name": "Anchovies", "price": "$$", "review_count": 319, "coordinates": {"longitude": -71.077598, "latitude": 42.343939}}, {"rating": 4.0, "transactions": [], "image_url": "https://s3-media2.fl.yelpcdn.com/bphoto/EvYP2X4T_zALhHIGkPxeIw/o.jpg", "phone": "+16173500010", "id": "franklin-caf\u00e9-boston-4", "distance": 578.80878704, "location": {"display_address": ["278 Shawmut Ave", "Boston, MA 02118"], "state": "MA", "address2": "", "address1": "278 Shawmut Ave", "zip_code": "02118", "city": "Boston", "country": "US", "address3": ""}, "url": "https://www.yelp.com/biz/franklin-caf%C3%A9-boston-4?adjust_creative=gBcvfFpabk3CnzmXKdYe3w&utm_campaign=yelp_api_v3&utm_medium=api_v3_business_search&utm_source=gBcvfFpabk3CnzmXKdYe3w", "categories": [{"alias": "lounges", "title": "Lounges"}, {"alias": "newamerican", "title": "American (New)"}], "display_phone": "(617) 350-0010", "is_closed": false, "name": "Franklin Caf\u00e9", "price": "$$", "review_count": 479, "coordinates": {"longitude": -71.06895, "latitude": 42.34291}}, {"rating": 4.0, "transactions": [], "image_url": "https://s3-media2.fl.yelpcdn.com/bphoto/6HoLVAEkWjVAzTObv1JOqg/o.jpg", "phone": "+16172625555", "id": "corner-tavern-boston", "distance": 1520.97999197, "location": {"display_address": ["421 Marlborough St", "Boston, MA 02115"], "state": "MA", "address2": "", "address1": "421 Marlborough St", "zip_code": "02115", "city": "Boston", "country": "US", "address3": ""}, "url": "https://www.yelp.com/biz/corner-tavern-boston?adjust_creative=gBcvfFpabk3CnzmXKdYe3w&utm_campaign=yelp_api_v3&utm_medium=api_v3_business_search&utm_source=gBcvfFpabk3CnzmXKdYe3w", "categories": [{"alias": "bars", "title": "Bars"}, {"alias": "newamerican", "title": "American (New)"}], "display_phone": "(617) 262-5555", "is_closed": false, "name": "Corner Tavern", "price": "$$", "review_count": 214, "coordinates": {"longitude": -71.0894393920898, "latitude": 42.3501434326172}}, {"rating": 4.5, "transactions": [], "image_url": "https://s3-media2.fl.yelpcdn.com/bphoto/Afl64EKLNX8ZwDUd-CuMXw/o.jpg", "phone": "+16174644869", "id": "croke-park-whiteys-boston", "distance": 1900.952890802, "location": {"display_address": ["268 W Broadway", "Boston, MA 02127"], "state": "MA", "address2": null, "address1": "268 W Broadway", "zip_code": "02127", "city": "Boston", "country": "US", "address3": ""}, "url": "https://www.yelp.com/biz/croke-park-whiteys-boston?adjust_creative=gBcvfFpabk3CnzmXKdYe3w&utm_campaign=yelp_api_v3&utm_medium=api_v3_business_search&utm_source=gBcvfFpabk3CnzmXKdYe3w", "categories": [{"alias": "divebars", "title": "Dive Bars"}], "display_phone": "(617) 464-4869", "is_closed": false, "name": "Croke Park/Whitey's", "price": "$", "review_count": 81, "coordinates": {"longitude": -71.0513278841972, "latitude": 42.3391748964787}}, {"rating": 4.0, "transactions": [], "image_url": "https://s3-media1.fl.yelpcdn.com/bphoto/k0V3tncNKee3qz-fIkgA5Q/o.jpg", "phone": "+16177524191", "id": "moonshine-152-boston", "distance": 1370.297004968, "location": {"display_address": ["152 Dorchester Ave", "Boston, MA 02127"], "state": "MA", "address2": "", "address1": "152 Dorchester Ave", "zip_code": "02127", "city": "Boston", "country": "US", "address3": ""}, "url": "https://www.yelp.com/biz/moonshine-152-boston?adjust_creative=gBcvfFpabk3CnzmXKdYe3w&utm_campaign=yelp_api_v3&utm_medium=api_v3_business_search&utm_source=gBcvfFpabk3CnzmXKdYe3w", "categories": [{"alias": "newamerican", "title": "American (New)"}, {"alias": "asianfusion", "title": "Asian Fusion"}], "display_phone": "(617) 752-4191", "is_closed": false, "name": "Moonshine 152", "price": "$$", "review_count": 182, "coordinates": {"longitude": -71.0569151, "latitude": 42.34133}}, {"rating": 4.0, "transactions": [], "image_url": "https://s3-media2.fl.yelpcdn.com/bphoto/QJdTzVfjYl9RPzLtvtCnIw/o.jpg", "phone": "+16172474777", "id": "the-parish-cafe-boston", "distance": 443.523240955, "location": {"display_address": ["361 Boylston St", "Boston, MA 02116"], "state": "MA", "address2": "", "address1": "361 Boylston St", "zip_code": "02116", "city": "Boston", "country": "US", "address3": ""}, "url": "https://www.yelp.com/biz/the-parish-cafe-boston?adjust_creative=gBcvfFpabk3CnzmXKdYe3w&utm_campaign=yelp_api_v3&utm_medium=api_v3_business_search&utm_source=gBcvfFpabk3CnzmXKdYe3w", "categories": [{"alias": "sandwiches", "title": "Sandwiches"}, {"alias": "desserts", "title": "Desserts"}, {"alias": "cafes", "title": "Cafes"}], "display_phone": "(617) 247-4777", "is_closed": false, "name": "The Parish Cafe", "price": "$$", "review_count": 1181, "coordinates": {"longitude": -71.071625035216, "latitude": 42.351822284275}}, {"rating": 4.0, "transactions": [], "image_url": "https://s3-media4.fl.yelpcdn.com/bphoto/WggOb4lGky1cJ_5gAPUD3g/o.jpg", "phone": "+16173385656", "id": "mr-dooleys-boston", "distance": 1809.905124038, "location": {"display_address": ["77 Broad St", "Boston, MA 02109"], "state": "MA", "address2": "", "address1": "77 Broad St", "zip_code": "02109", "city": "Boston", "country": "US", "address3": ""}, "url": "https://www.yelp.com/biz/mr-dooleys-boston?adjust_creative=gBcvfFpabk3CnzmXKdYe3w&utm_campaign=yelp_api_v3&utm_medium=api_v3_business_search&utm_source=gBcvfFpabk3CnzmXKdYe3w", "categories": [{"alias": "irish", "title": "Irish"}, {"alias": "musicvenues", "title": "Music Venues"}, {"alias": "pubs", "title": "Pubs"}], "display_phone": "(617) 338-5656", "is_closed": false, "name": "Mr. Dooley's", "price": "$$", "review_count": 318, "coordinates": {"longitude": -71.0536599, "latitude": 42.35765}}, {"rating": 4.0, "transactions": [], "image_url": "https://s3-media3.fl.yelpcdn.com/bphoto/MGIlLATyXueEoJ_lLtvY7g/o.jpg", "phone": "+16173387887", "id": "silvertone-boston", "distance": 1333.882710189, "location": {"display_address": ["69 Bromfield St", "Boston, MA 02108"], "state": "MA", "address2": "", "address1": "69 Bromfield St", "zip_code": "02108", "city": "Boston", "country": "US", "address3": ""}, "url": "https://www.yelp.com/biz/silvertone-boston?adjust_creative=gBcvfFpabk3CnzmXKdYe3w&utm_campaign=yelp_api_v3&utm_medium=api_v3_business_search&utm_source=gBcvfFpabk3CnzmXKdYe3w", "categories": [{"alias": "tradamerican", "title": "American (Traditional)"}, {"alias": "cocktailbars", "title": "Cocktail Bars"}, {"alias": "sandwiches", "title": "Sandwiches"}], "display_phone": "(617) 338-7887", "is_closed": false, "name": "Silvertone", "price": "$$", "review_count": 751, "coordinates": {"longitude": -71.0608731, "latitude": 42.3571471}}, {"rating": 4.0, "transactions": ["pickup"], "image_url": "https://s3-media4.fl.yelpcdn.com/bphoto/CxwCM79084NpEuqI484zRA/o.jpg", "phone": "+16177289101", "id": "j-j-foleys-cafe-boston-5", "distance": 670.4518003897999, "location": {"display_address": ["117 E Berkeley St", "Boston, MA 02118"], "state": "MA", "address2": null, "address1": "117 E Berkeley St", "zip_code": "02118", "city": "Boston", "country": "US", "address3": ""}, "url": "https://www.yelp.com/biz/j-j-foleys-cafe-boston-5?adjust_creative=gBcvfFpabk3CnzmXKdYe3w&utm_campaign=yelp_api_v3&utm_medium=api_v3_business_search&utm_source=gBcvfFpabk3CnzmXKdYe3w", "categories": [{"alias": "irish", "title": "Irish"}, {"alias": "irish_pubs", "title": "Irish Pub"}], "display_phone": "(617) 728-9101", "is_closed": false, "name": "J J Foley's Cafe", "price": "$$", "review_count": 179, "coordinates": {"longitude": -71.0653314573811, "latitude": 42.3436886733629}}, {"rating": 3.5, "transactions": [], "image_url": "https://s3-media2.fl.yelpcdn.com/bphoto/sJUyfUF4lJslqqBBOLdWaA/o.jpg", "phone": "+16174379999", "id": "bukowski-tavern-boston", "distance": 1165.4570876484, "location": {"display_address": ["50 Dalton St", "Boston, MA 02115"], "state": "MA", "address2": "", "address1": "50 Dalton St", "zip_code": "02115", "city": "Boston", "country": "US", "address3": ""}, "url": "https://www.yelp.com/biz/bukowski-tavern-boston?adjust_creative=gBcvfFpabk3CnzmXKdYe3w&utm_campaign=yelp_api_v3&utm_medium=api_v3_business_search&utm_source=gBcvfFpabk3CnzmXKdYe3w", "categories": [{"alias": "tradamerican", "title": "American (Traditional)"}, {"alias": "divebars", "title": "Dive Bars"}], "display_phone": "(617) 437-9999", "is_closed": false, "name": "Bukowski Tavern", "price": "$$", "review_count": 615, "coordinates": {"longitude": -71.085402407346, "latitude": 42.34726832024}}, {"rating": 4.0, "transactions": [], "image_url": "https://s3-media1.fl.yelpcdn.com/bphoto/FnUo10j9aDb4R173Yj4vbA/o.jpg", "phone": "+16172697560", "id": "doughboy-donuts-and-deli-boston", "distance": 1462.190318968, "location": {"display_address": ["220 Dorchester Ave", "Boston, MA 02127"], "state": "MA", "address2": "", "address1": "220 Dorchester Ave", "zip_code": "02127", "city": "Boston", "country": "US", "address3": ""}, "url": "https://www.yelp.com/biz/doughboy-donuts-and-deli-boston?adjust_creative=gBcvfFpabk3CnzmXKdYe3w&utm_campaign=yelp_api_v3&utm_medium=api_v3_business_search&utm_source=gBcvfFpabk3CnzmXKdYe3w", "categories": [{"alias": "donuts", "title": "Donuts"}, {"alias": "delis", "title": "Delis"}, {"alias": "pizza", "title": "Pizza"}], "display_phone": "(617) 269-7560", "is_closed": false, "name": "Doughboy Donuts & Deli", "price": "$", "review_count": 122, "coordinates": {"longitude": -71.056792, "latitude": 42.340173}}, {"rating": 4.0, "transactions": ["delivery", "pickup"], "image_url": "https://s3-media3.fl.yelpcdn.com/bphoto/uObo--CAqOnRFArqtT1RTg/o.jpg", "phone": "+16173670033", "id": "the-tap-trailhouse-boston-2", "distance": 1872.4107631, "location": {"display_address": ["19 Union St", "Boston, MA 02108"], "state": "MA", "address2": "", "address1": "19 Union St", "zip_code": "02108", "city": "Boston", "country": "US", "address3": ""}, "url": "https://www.yelp.com/biz/the-tap-trailhouse-boston-2?adjust_creative=gBcvfFpabk3CnzmXKdYe3w&utm_campaign=yelp_api_v3&utm_medium=api_v3_business_search&utm_source=gBcvfFpabk3CnzmXKdYe3w", "categories": [{"alias": "tradamerican", "title": "American (Traditional)"}, {"alias": "pubs", "title": "Pubs"}], "display_phone": "(617) 367-0033", "is_closed": false, "name": "The Tap Trailhouse", "price": "$$", "review_count": 221, "coordinates": {"longitude": -71.056898076297, "latitude": 42.3609285960884}}, {"rating": 4.0, "transactions": [], "image_url": "https://s3-media3.fl.yelpcdn.com/bphoto/inVwDEC5s7L4Bodbbpg-bQ/o.jpg", "phone": "+16175365300", "id": "city-bar-boston", "distance": 713.1917991595999, "location": {"display_address": ["61 Exeter St", "Boston, MA 02199"], "state": "MA", "address2": null, "address1": "61 Exeter St", "zip_code": "02199", "city": "Boston", "country": "US", "address3": ""}, "url": "https://www.yelp.com/biz/city-bar-boston?adjust_creative=gBcvfFpabk3CnzmXKdYe3w&utm_campaign=yelp_api_v3&utm_medium=api_v3_business_search&utm_source=gBcvfFpabk3CnzmXKdYe3w", "categories": [{"alias": "newamerican", "title": "American (New)"}, {"alias": "cocktailbars", "title": "Cocktail Bars"}], "display_phone": "(617) 536-5300", "is_closed": false, "name": "City Bar", "price": "$$$", "review_count": 250, "coordinates": {"longitude": -71.079742038714, "latitude": 42.3491411506797}}, {"rating": 4.0, "transactions": [], "image_url": "https://s3-media4.fl.yelpcdn.com/bphoto/gjlIvYF8tUy1hDEcXM5N5w/o.jpg", "phone": "+16174254444", "id": "tasty-burger-boston", "distance": 2259.364978852, "location": {"display_address": ["1301 Boylston St", "Boston, MA 02215"], "state": "MA", "address2": "", "address1": "1301 Boylston St", "zip_code": "02215", "city": "Boston", "country": "US", "address3": ""}, "url": "https://www.yelp.com/biz/tasty-burger-boston?adjust_creative=gBcvfFpabk3CnzmXKdYe3w&utm_campaign=yelp_api_v3&utm_medium=api_v3_business_search&utm_source=gBcvfFpabk3CnzmXKdYe3w", "categories": [{"alias": "burgers", "title": "Burgers"}, {"alias": "hotdog", "title": "Hot Dogs"}, {"alias": "hotdogs", "title": "Fast Food"}], "display_phone": "(617) 425-4444", "is_closed": false, "name": "Tasty Burger", "price": "$", "review_count": 863, "coordinates": {"longitude": -71.0979707, "latitude": 42.3446525}}, {"rating": 4.0, "transactions": [], "image_url": "https://s3-media2.fl.yelpcdn.com/bphoto/jddeJbF4o6MWkZfPvatOkw/o.jpg", "phone": "+16172277280", "id": "boston-sail-loft-boston", "distance": 2346.905671888, "location": {"display_address": ["80 Atlantic Ave", "Boston, MA 02110"], "state": "MA", "address2": "", "address1": "80 Atlantic Ave", "zip_code": "02110", "city": "Boston", "country": "US", "address3": ""}, "url": "https://www.yelp.com/biz/boston-sail-loft-boston?adjust_creative=gBcvfFpabk3CnzmXKdYe3w&utm_campaign=yelp_api_v3&utm_medium=api_v3_business_search&utm_source=gBcvfFpabk3CnzmXKdYe3w", "categories": [{"alias": "bars", "title": "Bars"}, {"alias": "tradamerican", "title": "American (Traditional)"}], "display_phone": "(617) 227-7280", "is_closed": false, "name": "Boston Sail Loft", "price": "$$", "review_count": 362, "coordinates": {"longitude": -71.050748116975, "latitude": 42.362543759667}}, {"rating": 4.0, "transactions": [], "image_url": "https://s3-media3.fl.yelpcdn.com/bphoto/54kNn6xfOqDDLOwrtqzF6A/o.jpg", "phone": "+16176928888", "id": "legal-crossing-boston", "distance": 987.939305657, "location": {"display_address": ["558 Washington St", "Boston, MA 02111"], "state": "MA", "address2": "", "address1": "558 Washington St", "zip_code": "02111", "city": "Boston", "country": "US", "address3": ""}, "url": "https://www.yelp.com/biz/legal-crossing-boston?adjust_creative=gBcvfFpabk3CnzmXKdYe3w&utm_campaign=yelp_api_v3&utm_medium=api_v3_business_search&utm_source=gBcvfFpabk3CnzmXKdYe3w", "categories": [{"alias": "seafood", "title": "Seafood"}, {"alias": "italian", "title": "Italian"}], "display_phone": "(617) 692-8888", "is_closed": false, "name": "Legal Crossing", "price": "$$$", "review_count": 242, "coordinates": {"longitude": -71.06201, "latitude": 42.35338}}, {"rating": 4.0, "transactions": [], "image_url": "https://s3-media1.fl.yelpcdn.com/bphoto/F-q37O7201QO8CO0dZ7jcQ/o.jpg", "phone": "+18573503344", "id": "the-tip-tap-room-boston", "distance": 1584.90619545, "location": {"display_address": ["138 Cambridge St", "Boston, MA 02114"], "state": "MA", "address2": "", "address1": "138 Cambridge St", "zip_code": "02114", "city": "Boston", "country": "US", "address3": ""}, "url": "https://www.yelp.com/biz/the-tip-tap-room-boston?adjust_creative=gBcvfFpabk3CnzmXKdYe3w&utm_campaign=yelp_api_v3&utm_medium=api_v3_business_search&utm_source=gBcvfFpabk3CnzmXKdYe3w", "categories": [{"alias": "newamerican", "title": "American (New)"}, {"alias": "bars", "title": "Bars"}], "display_phone": "(857) 350-3344", "is_closed": false, "name": "The Tip Tap Room", "price": "$$", "review_count": 504, "coordinates": {"longitude": -71.063986, "latitude": 42.36105}}, {"rating": 4.0, "transactions": [], "image_url": "https://s3-media3.fl.yelpcdn.com/bphoto/dolqflLk3Q7JpLthmo-6Pg/o.jpg", "phone": "+16177658636", "id": "lincoln-tavern-and-restaurant-boston", "distance": 2325.654498122, "location": {"display_address": ["425 W Broadway", "Boston, MA 02127"], "state": "MA", "address2": "", "address1": "425 W Broadway", "zip_code": "02127", "city": "Boston", "country": "US", "address3": ""}, "url": "https://www.yelp.com/biz/lincoln-tavern-and-restaurant-boston?adjust_creative=gBcvfFpabk3CnzmXKdYe3w&utm_campaign=yelp_api_v3&utm_medium=api_v3_business_search&utm_source=gBcvfFpabk3CnzmXKdYe3w", "categories": [{"alias": "newamerican", "title": "American (New)"}, {"alias": "pizza", "title": "Pizza"}, {"alias": "burgers", "title": "Burgers"}], "display_phone": "(617) 765-8636", "is_closed": false, "name": "Lincoln Tavern & Restaurant", "price": "$$", "review_count": 468, "coordinates": {"longitude": -71.04763, "latitude": 42.33632}}, {"rating": 3.5, "transactions": [], "image_url": "https://s3-media4.fl.yelpcdn.com/bphoto/331Dd0SQUYS-l78BneUu0A/o.jpg", "phone": "+16174515997", "id": "intermission-tavern-boston-2", "distance": 668.9255988942, "location": {"display_address": ["228 Tremont St", "Boston, MA 02116"], "state": "MA", "address2": "", "address1": "228 Tremont St", "zip_code": "02116", "city": "Boston", "country": "US", "address3": ""}, "url": "https://www.yelp.com/biz/intermission-tavern-boston-2?adjust_creative=gBcvfFpabk3CnzmXKdYe3w&utm_campaign=yelp_api_v3&utm_medium=api_v3_business_search&utm_source=gBcvfFpabk3CnzmXKdYe3w", "categories": [{"alias": "bars", "title": "Bars"}, {"alias": "tradamerican", "title": "American (Traditional)"}, {"alias": "burgers", "title": "Burgers"}], "display_phone": "(617) 451-5997", "is_closed": false, "name": "Intermission Tavern", "price": "$$", "review_count": 312, "coordinates": {"longitude": -71.0645904541016, "latitude": 42.3513412475586}}, {"rating": 4.0, "transactions": [], "image_url": "https://s3-media2.fl.yelpcdn.com/bphoto/yG1Ch038ecPN6GAus21Q8w/o.jpg", "phone": "+16177422090", "id": "durty-nellys-boston", "distance": 1967.988339162, "location": {"display_address": ["108 Blackstone St", "Boston, MA 02109"], "state": "MA", "address2": "", "address1": "108 Blackstone St", "zip_code": "02109", "city": "Boston", "country": "US", "address3": ""}, "url": "https://www.yelp.com/biz/durty-nellys-boston?adjust_creative=gBcvfFpabk3CnzmXKdYe3w&utm_campaign=yelp_api_v3&utm_medium=api_v3_business_search&utm_source=gBcvfFpabk3CnzmXKdYe3w", "categories": [{"alias": "bars", "title": "Bars"}, {"alias": "irish", "title": "Irish"}, {"alias": "musicvenues", "title": "Music Venues"}], "display_phone": "(617) 742-2090", "is_closed": false, "name": "Durty Nelly's", "price": "$", "review_count": 147, "coordinates": {"longitude": -71.0565719604492, "latitude": 42.361701965332}}, {"rating": 3.5, "transactions": [], "image_url": "https://s3-media3.fl.yelpcdn.com/bphoto/Yk1obwLkMH_we7bcig3KNQ/o.jpg", "phone": "+16173575825", "id": "luckys-lounge-boston-2", "distance": 1886.1648264759997, "location": {"display_address": ["355 Congress St", "Boston, MA 02210"], "state": "MA", "address2": "", "address1": "355 Congress St", "zip_code": "02210", "city": "Boston", "country": "US", "address3": ""}, "url": "https://www.yelp.com/biz/luckys-lounge-boston-2?adjust_creative=gBcvfFpabk3CnzmXKdYe3w&utm_campaign=yelp_api_v3&utm_medium=api_v3_business_search&utm_source=gBcvfFpabk3CnzmXKdYe3w", "categories": [{"alias": "lounges", "title": "Lounges"}, {"alias": "tradamerican", "title": "American (Traditional)"}, {"alias": "musicvenues", "title": "Music Venues"}], "display_phone": "(617) 357-5825", "is_closed": false, "name": "Lucky's Lounge", "price": "$$", "review_count": 550, "coordinates": {"longitude": -71.04848, "latitude": 42.35004}}, {"rating": 4.0, "transactions": [], "image_url": "https://s3-media2.fl.yelpcdn.com/bphoto/VrcqNpWbgpbt0s8avBISGQ/o.jpg", "phone": "+16174565300", "id": "strip-by-strega-boston", "distance": 352.185390656, "location": {"display_address": ["64 Arlington St", "Boston, MA 02116"], "state": "MA", "address2": "", "address1": "64 Arlington St", "zip_code": "02116", "city": "Boston", "country": "US", "address3": ""}, "url": "https://www.yelp.com/biz/strip-by-strega-boston?adjust_creative=gBcvfFpabk3CnzmXKdYe3w&utm_campaign=yelp_api_v3&utm_medium=api_v3_business_search&utm_source=gBcvfFpabk3CnzmXKdYe3w", "categories": [{"alias": "tradamerican", "title": "American (Traditional)"}, {"alias": "steak", "title": "Steakhouses"}], "display_phone": "(617) 456-5300", "is_closed": false, "name": "Strip By Strega", "price": "$$$$", "review_count": 168, "coordinates": {"longitude": -71.0700607, "latitude": 42.3509903}}, {"rating": 4.0, "transactions": [], "image_url": "https://s3-media4.fl.yelpcdn.com/bphoto/0wbRrXZZwGbP3LbRc3dm0A/o.jpg", "phone": "+16172472400", "id": "lucca-back-bay-boston", "distance": 727.698164612, "location": {"display_address": ["116 Huntington Ave", "Boston, MA 02116"], "state": "MA", "address2": "", "address1": "116 Huntington Ave", "zip_code": "02116", "city": "Boston", "country": "US", "address3": ""}, "url": "https://www.yelp.com/biz/lucca-back-bay-boston?adjust_creative=gBcvfFpabk3CnzmXKdYe3w&utm_campaign=yelp_api_v3&utm_medium=api_v3_business_search&utm_source=gBcvfFpabk3CnzmXKdYe3w", "categories": [{"alias": "italian", "title": "Italian"}], "display_phone": "(617) 247-2400", "is_closed": false, "name": "Lucca Back Bay", "price": "$$$", "review_count": 250, "coordinates": {"longitude": -71.0799281, "latitude": 42.3465561}}, {"rating": 3.5, "transactions": [], "image_url": "https://s3-media3.fl.yelpcdn.com/bphoto/NC5NJucddOU3_W0rEtxN8Q/o.jpg", "phone": "+16172361767", "id": "the-pour-house-boston", "distance": 1077.5825209359998, "location": {"display_address": ["907 Boylston St", "Boston, MA 02115"], "state": "MA", "address2": "", "address1": "907 Boylston St", "zip_code": "02115", "city": "Boston", "country": "US", "address3": ""}, "url": "https://www.yelp.com/biz/the-pour-house-boston?adjust_creative=gBcvfFpabk3CnzmXKdYe3w&utm_campaign=yelp_api_v3&utm_medium=api_v3_business_search&utm_source=gBcvfFpabk3CnzmXKdYe3w", "categories": [{"alias": "bars", "title": "Bars"}, {"alias": "tradamerican", "title": "American (Traditional)"}, {"alias": "newamerican", "title": "American (New)"}], "display_phone": "(617) 236-1767", "is_closed": false, "name": "The Pour House", "price": "$", "review_count": 972, "coordinates": {"longitude": -71.0843353271484, "latitude": 42.3484840393066}}, {"rating": 3.5, "transactions": [], "image_url": "https://s3-media1.fl.yelpcdn.com/bphoto/E5edyo7D_R-ariIuwJ4RzQ/o.jpg", "phone": "+16174509000", "id": "citizen-public-house-and-oyster-bar-boston", "distance": 2256.9184601839997, "location": {"display_address": ["1310 Boylston St", "Boston, MA 02215"], "state": "MA", "address2": "", "address1": "1310 Boylston St", "zip_code": "02215", "city": "Boston", "country": "US", "address3": ""}, "url": "https://www.yelp.com/biz/citizen-public-house-and-oyster-bar-boston?adjust_creative=gBcvfFpabk3CnzmXKdYe3w&utm_campaign=yelp_api_v3&utm_medium=api_v3_business_search&utm_source=gBcvfFpabk3CnzmXKdYe3w", "categories": [{"alias": "gastropubs", "title": "Gastropubs"}], "display_phone": "(617) 450-9000", "is_closed": false, "name": "Citizen Public House & Oyster Bar", "price": "$$", "review_count": 513, "coordinates": {"longitude": -71.0983946174383, "latitude": 42.3443535715342}}, {"rating": 4.0, "transactions": [], "image_url": "https://s3-media4.fl.yelpcdn.com/bphoto/RauYeTwmqPqQceW13pwM7w/o.jpg", "phone": "+16173388770", "id": "gaga-seafood-restaurant-boston", "distance": 904.2137944919999, "location": {"display_address": ["25-27 Tyler St", "Boston, MA 02111"], "state": "MA", "address2": null, "address1": "25-27 Tyler St", "zip_code": "02111", "city": "Boston", "country": "US", "address3": ""}, "url": "https://www.yelp.com/biz/gaga-seafood-restaurant-boston?adjust_creative=gBcvfFpabk3CnzmXKdYe3w&utm_campaign=yelp_api_v3&utm_medium=api_v3_business_search&utm_source=gBcvfFpabk3CnzmXKdYe3w", "categories": [{"alias": "seafood", "title": "Seafood"}], "display_phone": "(617) 338-8770", "is_closed": false, "name": "Gaga Seafood Restaurant", "price": "$$", "review_count": 69, "coordinates": {"longitude": -71.06097, "latitude": 42.35071}}, {"rating": 3.5, "transactions": [], "image_url": "https://s3-media3.fl.yelpcdn.com/bphoto/xFm9MRsoyHC8RYl-gqAC2w/o.jpg", "phone": "+16173910501", "id": "parish-cafe-boston-2", "distance": 1236.6508130739999, "location": {"display_address": ["493 Massachusetts Ave", "Boston, MA 02118"], "state": "MA", "address2": null, "address1": "493 Massachusetts Ave", "zip_code": "02118", "city": "Boston", "country": "US", "address3": null}, "url": "https://www.yelp.com/biz/parish-cafe-boston-2?adjust_creative=gBcvfFpabk3CnzmXKdYe3w&utm_campaign=yelp_api_v3&utm_medium=api_v3_business_search&utm_source=gBcvfFpabk3CnzmXKdYe3w", "categories": [{"alias": "newamerican", "title": "American (New)"}, {"alias": "sandwiches", "title": "Sandwiches"}, {"alias": "bars", "title": "Bars"}], "display_phone": "(617) 391-0501", "is_closed": false, "name": "Parish Cafe", "price": "$$", "review_count": 228, "coordinates": {"longitude": -71.0805817, "latitude": 42.3393478}}, {"rating": 3.5, "transactions": [], "image_url": "https://s3-media4.fl.yelpcdn.com/bphoto/JLbyHv19ZDgf-MJ53YQ6ug/o.jpg", "phone": "+16173450005", "id": "pastoral-artisan-pizza-kitchen-and-bar-boston", "distance": 1864.446461308, "location": {"display_address": ["345 Congress St", "Boston, MA 02210"], "state": "MA", "address2": "", "address1": "345 Congress St", "zip_code": "02210", "city": "Boston", "country": "US", "address3": ""}, "url": "https://www.yelp.com/biz/pastoral-artisan-pizza-kitchen-and-bar-boston?adjust_creative=gBcvfFpabk3CnzmXKdYe3w&utm_campaign=yelp_api_v3&utm_medium=api_v3_business_search&utm_source=gBcvfFpabk3CnzmXKdYe3w", "categories": [{"alias": "pizza", "title": "Pizza"}, {"alias": "beerbar", "title": "Beer Bar"}, {"alias": "cocktailbars", "title": "Cocktail Bars"}], "display_phone": "(617) 345-0005", "is_closed": false, "name": "Pastoral - Artisan Pizza, Kitchen & Bar", "price": "$$", "review_count": 307, "coordinates": {"longitude": -71.0488574567263, "latitude": 42.3505763940776}}, {"rating": 4.0, "transactions": [], "image_url": "https://s3-media2.fl.yelpcdn.com/bphoto/JSdMluF73gNsqRTYDsAalA/o.jpg", "phone": "+16175238997", "id": "corner-cafe-boston", "distance": 2330.275717932, "location": {"display_address": ["87 Prince St", "Boston, MA 02113"], "state": "MA", "address2": "", "address1": "87 Prince St", "zip_code": "02113", "city": "Boston", "country": "US", "address3": ""}, "url": "https://www.yelp.com/biz/corner-cafe-boston?adjust_creative=gBcvfFpabk3CnzmXKdYe3w&utm_campaign=yelp_api_v3&utm_medium=api_v3_business_search&utm_source=gBcvfFpabk3CnzmXKdYe3w", "categories": [{"alias": "divebars", "title": "Dive Bars"}, {"alias": "newamerican", "title": "American (New)"}], "display_phone": "(617) 523-8997", "is_closed": false, "name": "Corner Cafe", "price": "$", "review_count": 50, "coordinates": {"longitude": -71.0561828613281, "latitude": 42.3656005859375}}, {"rating": 3.5, "transactions": ["delivery", "pickup"], "image_url": "https://s3-media2.fl.yelpcdn.com/bphoto/cPSizy1W-JRCGo-Jf44saw/o.jpg", "phone": "+16175422823", "id": "new-jumbo-seafood-restaurant-boston", "distance": 992.501382222, "location": {"display_address": ["5 Hudson St", "Boston, MA 02111"], "state": "MA", "address2": "", "address1": "5 Hudson St", "zip_code": "02111", "city": "Boston", "country": "US", "address3": ""}, "url": "https://www.yelp.com/biz/new-jumbo-seafood-restaurant-boston?adjust_creative=gBcvfFpabk3CnzmXKdYe3w&utm_campaign=yelp_api_v3&utm_medium=api_v3_business_search&utm_source=gBcvfFpabk3CnzmXKdYe3w", "categories": [{"alias": "seafood", "title": "Seafood"}, {"alias": "chinese", "title": "Chinese"}], "display_phone": "(617) 542-2823", "is_closed": false, "name": "New Jumbo Seafood Restaurant", "price": "$$", "review_count": 281, "coordinates": {"longitude": -71.0600296407938, "latitude": 42.3509638756514}}, {"rating": 3.5, "transactions": [], "image_url": "https://s3-media1.fl.yelpcdn.com/bphoto/_gVk6CyTvi6adC7WbIYxPA/o.jpg", "phone": "+16174512229", "id": "abby-lane-food-and-spirits-boston", "distance": 567.17325884, "location": {"display_address": ["255 Tremont St", "Boston, MA 02116"], "state": "MA", "address2": "", "address1": "255 Tremont St", "zip_code": "02116", "city": "Boston", "country": "US", "address3": ""}, "url": "https://www.yelp.com/biz/abby-lane-food-and-spirits-boston?adjust_creative=gBcvfFpabk3CnzmXKdYe3w&utm_campaign=yelp_api_v3&utm_medium=api_v3_business_search&utm_source=gBcvfFpabk3CnzmXKdYe3w", "categories": [{"alias": "newamerican", "title": "American (New)"}], "display_phone": "(617) 451-2229", "is_closed": false, "name": "Abby Lane Food & Spirits", "price": "$$", "review_count": 312, "coordinates": {"longitude": -71.065249890089, "latitude": 42.35017798841}}, {"rating": 4.0, "transactions": [], "image_url": "https://s3-media1.fl.yelpcdn.com/bphoto/a8EZjU8RaAQYmdzM6zwbAA/o.jpg", "phone": "+16177421768", "id": "caffe-paradiso-boston", "distance": 2179.953384024, "location": {"display_address": ["255 Hanover St", "Boston, MA 02113"], "state": "MA", "address2": "", "address1": "255 Hanover St", "zip_code": "02113", "city": "Boston", "country": "US", "address3": ""}, "url": "https://www.yelp.com/biz/caffe-paradiso-boston?adjust_creative=gBcvfFpabk3CnzmXKdYe3w&utm_campaign=yelp_api_v3&utm_medium=api_v3_business_search&utm_source=gBcvfFpabk3CnzmXKdYe3w", "categories": [{"alias": "desserts", "title": "Desserts"}, {"alias": "coffee", "title": "Coffee & Tea"}, {"alias": "cocktailbars", "title": "Cocktail Bars"}], "display_phone": "(617) 742-1768", "is_closed": false, "name": "Caffe Paradiso", "price": "$$", "review_count": 157, "coordinates": {"longitude": -71.0548, "latitude": 42.36322}}, {"rating": 3.5, "transactions": [], "image_url": "https://s3-media3.fl.yelpcdn.com/bphoto/Ny2YN21wSjy5ONFaO8HqIw/o.jpg", "phone": "+16174824428", "id": "trophy-room-boston-3", "distance": 97.5317734839, "location": {"display_address": ["26 Chandler St", "Boston, MA 02116"], "state": "MA", "address2": "", "address1": "26 Chandler St", "zip_code": "02116", "city": "Boston", "country": "US", "address3": ""}, "url": "https://www.yelp.com/biz/trophy-room-boston-3?adjust_creative=gBcvfFpabk3CnzmXKdYe3w&utm_campaign=yelp_api_v3&utm_medium=api_v3_business_search&utm_source=gBcvfFpabk3CnzmXKdYe3w", "categories": [{"alias": "newamerican", "title": "American (New)"}, {"alias": "cocktailbars", "title": "Cocktail Bars"}], "display_phone": "(617) 482-4428", "is_closed": false, "name": "Trophy Room", "price": "$$", "review_count": 148, "coordinates": {"longitude": -71.0711350197154, "latitude": 42.3469703698508}}, {"rating": 4.0, "transactions": [], "image_url": "https://s3-media3.fl.yelpcdn.com/bphoto/DUQf-chZyeD_Juxdh8PW4Q/o.jpg", "phone": "+16177427678", "id": "porters-bar-and-grill-boston", "distance": 1989.698818564, "location": {"display_address": ["173 Portland St", "Boston, MA 02114"], "state": "MA", "address2": "", "address1": "173 Portland St", "zip_code": "02114", "city": "Boston", "country": "US", "address3": ""}, "url": "https://www.yelp.com/biz/porters-bar-and-grill-boston?adjust_creative=gBcvfFpabk3CnzmXKdYe3w&utm_campaign=yelp_api_v3&utm_medium=api_v3_business_search&utm_source=gBcvfFpabk3CnzmXKdYe3w", "categories": [{"alias": "bars", "title": "Bars"}, {"alias": "tradamerican", "title": "American (Traditional)"}, {"alias": "newamerican", "title": "American (New)"}], "display_phone": "(617) 742-7678", "is_closed": false, "name": "Porters Bar & Grill", "price": "$$", "review_count": 158, "coordinates": {"longitude": -71.061702, "latitude": 42.3642896}}, {"rating": 3.5, "transactions": [], "image_url": "https://s3-media3.fl.yelpcdn.com/bphoto/qlOY9Jv_iOqgEeiaykEU4Q/o.jpg", "phone": "+16173500028", "id": "south-street-diner-boston", "distance": 1130.98058307, "location": {"display_address": ["178 Kneeland St", "Boston, MA 02111"], "state": "MA", "address2": "", "address1": "178 Kneeland St", "zip_code": "02111", "city": "Boston", "country": "US", "address3": ""}, "url": "https://www.yelp.com/biz/south-street-diner-boston?adjust_creative=gBcvfFpabk3CnzmXKdYe3w&utm_campaign=yelp_api_v3&utm_medium=api_v3_business_search&utm_source=gBcvfFpabk3CnzmXKdYe3w", "categories": [{"alias": "diners", "title": "Diners"}, {"alias": "breakfast_brunch", "title": "Breakfast & Brunch"}], "display_phone": "(617) 350-0028", "is_closed": false, "name": "South Street Diner", "price": "$", "review_count": 525, "coordinates": {"longitude": -71.0577515004882, "latitude": 42.3498603961442}}, {"rating": 4.0, "transactions": [], "image_url": "https://s3-media4.fl.yelpcdn.com/bphoto/cv5lWursQeSPS_Zf5Qz8gQ/o.jpg", "phone": "+16173507275", "id": "battery-park-bar-and-patio-boston-2", "distance": 1790.650819344, "location": {"display_address": ["33 Batterymarch St", "Boston, MA 02110"], "state": "MA", "address2": null, "address1": "33 Batterymarch St", "zip_code": "02110", "city": "Boston", "country": "US", "address3": ""}, "url": "https://www.yelp.com/biz/battery-park-bar-and-patio-boston-2?adjust_creative=gBcvfFpabk3CnzmXKdYe3w&utm_campaign=yelp_api_v3&utm_medium=api_v3_business_search&utm_source=gBcvfFpabk3CnzmXKdYe3w", "categories": [{"alias": "tradamerican", "title": "American (Traditional)"}, {"alias": "lounges", "title": "Lounges"}, {"alias": "sportsbars", "title": "Sports Bars"}], "display_phone": "(617) 350-7275", "is_closed": false, "name": "Battery Park Bar & Patio", "price": "$$", "review_count": 200, "coordinates": {"longitude": -71.054102, "latitude": 42.357783}}, {"rating": 3.5, "transactions": [], "image_url": "https://s3-media3.fl.yelpcdn.com/bphoto/LSNYnV_CzyLJS71SEx_UsA/o.jpg", "phone": "+16177428565", "id": "emmets-irish-pub-and-restaurant-boston", "distance": 1414.778357898, "location": {"display_address": ["6 Beacon St", "Boston, MA 02108"], "state": "MA", "address2": "", "address1": "6 Beacon St", "zip_code": "02108", "city": "Boston", "country": "US", "address3": ""}, "url": "https://www.yelp.com/biz/emmets-irish-pub-and-restaurant-boston?adjust_creative=gBcvfFpabk3CnzmXKdYe3w&utm_campaign=yelp_api_v3&utm_medium=api_v3_business_search&utm_source=gBcvfFpabk3CnzmXKdYe3w", "categories": [{"alias": "pubs", "title": "Pubs"}, {"alias": "irish", "title": "Irish"}, {"alias": "burgers", "title": "Burgers"}], "display_phone": "(617) 742-8565", "is_closed": false, "name": "Emmet's Irish Pub & Restaurant", "price": "$$", "review_count": 208, "coordinates": {"longitude": -71.0612726, "latitude": 42.3582161}}, {"rating": 3.5, "transactions": [], "image_url": "https://s3-media2.fl.yelpcdn.com/bphoto/1SE_LmRXAghlcMRz9af3sw/o.jpg", "phone": "+16172473200", "id": "back-bay-social-club-boston", "distance": 1004.5328080619998, "location": {"display_address": ["867 Boylston St", "Boston, MA 02116"], "state": "MA", "address2": "", "address1": "867 Boylston St", "zip_code": "02116", "city": "Boston", "country": "US", "address3": ""}, "url": "https://www.yelp.com/biz/back-bay-social-club-boston?adjust_creative=gBcvfFpabk3CnzmXKdYe3w&utm_campaign=yelp_api_v3&utm_medium=api_v3_business_search&utm_source=gBcvfFpabk3CnzmXKdYe3w", "categories": [{"alias": "newamerican", "title": "American (New)"}], "display_phone": "(617) 247-3200", "is_closed": false, "name": "Back Bay Social Club", "price": "$$", "review_count": 491, "coordinates": {"longitude": -71.0834503, "latitude": 42.3487206}}, {"rating": 4.0, "transactions": [], "image_url": "https://s3-media2.fl.yelpcdn.com/bphoto/WKPyHgMMaP8oBYm4RDNigw/o.jpg", "phone": "+16175628800", "id": "paradise-rock-club-boston", "distance": 3990.28530503, "location": {"display_address": ["967 Commonwealth Ave", "Boston, MA 02215"], "state": "MA", "address2": "", "address1": "967 Commonwealth Ave", "zip_code": "02215", "city": "Boston", "country": "US", "address3": ""}, "url": "https://www.yelp.com/biz/paradise-rock-club-boston?adjust_creative=gBcvfFpabk3CnzmXKdYe3w&utm_campaign=yelp_api_v3&utm_medium=api_v3_business_search&utm_source=gBcvfFpabk3CnzmXKdYe3w", "categories": [{"alias": "bars", "title": "Bars"}, {"alias": "musicvenues", "title": "Music Venues"}], "display_phone": "(617) 562-8800", "is_closed": false, "name": "Paradise Rock Club", "price": "$$", "review_count": 349, "coordinates": {"longitude": -71.1192632, "latitude": 42.35177}}, {"rating": 3.5, "transactions": [], "image_url": "https://s3-media2.fl.yelpcdn.com/bphoto/QiI-HdjrpDvi58HkfXDfRA/o.jpg", "phone": "+16173380808", "id": "hot-pot-buffet-boston", "distance": 1015.728342706, "location": {"display_address": ["70 Beach St", "Boston, MA 02111"], "state": "MA", "address2": "", "address1": "70 Beach St", "zip_code": "02111", "city": "Boston", "country": "US", "address3": ""}, "url": "https://www.yelp.com/biz/hot-pot-buffet-boston?adjust_creative=gBcvfFpabk3CnzmXKdYe3w&utm_campaign=yelp_api_v3&utm_medium=api_v3_business_search&utm_source=gBcvfFpabk3CnzmXKdYe3w", "categories": [{"alias": "chinese", "title": "Chinese"}, {"alias": "buffets", "title": "Buffets"}, {"alias": "hotpot", "title": "Hot Pot"}], "display_phone": "(617) 338-0808", "is_closed": false, "name": "Hot Pot Buffet", "price": "$$", "review_count": 437, "coordinates": {"longitude": -71.059814453125, "latitude": 42.3513488769531}}, {"rating": 3.5, "transactions": ["delivery", "pickup"], "image_url": "https://s3-media2.fl.yelpcdn.com/bphoto/mLJFzGIud6shQ-LSNZ3HPg/o.jpg", "phone": "+16175428499", "id": "el-triunfo-boston", "distance": 715.6026548532, "location": {"display_address": ["147 E Berkeley St", "Boston, MA 02118"], "state": "MA", "address2": null, "address1": "147 E Berkeley St", "zip_code": "02118", "city": "Boston", "country": "US", "address3": ""}, "url": "https://www.yelp.com/biz/el-triunfo-boston?adjust_creative=gBcvfFpabk3CnzmXKdYe3w&utm_campaign=yelp_api_v3&utm_medium=api_v3_business_search&utm_source=gBcvfFpabk3CnzmXKdYe3w", "categories": [{"alias": "mexican", "title": "Mexican"}], "display_phone": "(617) 542-8499", "is_closed": false, "name": "El Triunfo", "price": "$", "review_count": 222, "coordinates": {"longitude": -71.0647949649984, "latitude": 42.3435162508759}}, {"rating": 3.5, "transactions": [], "image_url": "https://s3-media3.fl.yelpcdn.com/bphoto/8EpwUexAlYIB9-TWq3EYqA/o.jpg", "phone": "+16174821116", "id": "peach-farm-boston", "distance": 961.5989160089999, "location": {"display_address": ["4 Tyler St", "Boston, MA 02111"], "state": "MA", "address2": "", "address1": "4 Tyler St", "zip_code": "02111", "city": "Boston", "country": "US", "address3": ""}, "url": "https://www.yelp.com/biz/peach-farm-boston?adjust_creative=gBcvfFpabk3CnzmXKdYe3w&utm_campaign=yelp_api_v3&utm_medium=api_v3_business_search&utm_source=gBcvfFpabk3CnzmXKdYe3w", "categories": [{"alias": "chinese", "title": "Chinese"}], "display_phone": "(617) 482-1116", "is_closed": false, "name": "Peach Farm", "price": "$$", "review_count": 415, "coordinates": {"longitude": -71.06041, "latitude": 42.35114}}, {"rating": 3.5, "transactions": [], "image_url": "https://s3-media1.fl.yelpcdn.com/bphoto/hTIVSYFl8lypR09ia03-JQ/o.jpg", "phone": "+16175232727", "id": "harvard-gardens-boston", "distance": 1467.364990804, "location": {"display_address": ["316 Cambridge St", "Boston, MA 02114"], "state": "MA", "address2": "", "address1": "316 Cambridge St", "zip_code": "02114", "city": "Boston", "country": "US", "address3": ""}, "url": "https://www.yelp.com/biz/harvard-gardens-boston?adjust_creative=gBcvfFpabk3CnzmXKdYe3w&utm_campaign=yelp_api_v3&utm_medium=api_v3_business_search&utm_source=gBcvfFpabk3CnzmXKdYe3w", "categories": [{"alias": "bars", "title": "Bars"}, {"alias": "tradamerican", "title": "American (Traditional)"}, {"alias": "burgers", "title": "Burgers"}], "display_phone": "(617) 523-2727", "is_closed": false, "name": "Harvard Gardens", "price": "$$", "review_count": 317, "coordinates": {"longitude": -71.0688988, "latitude": 42.3609451}}, {"rating": 3.5, "transactions": [], "image_url": "https://s3-media3.fl.yelpcdn.com/bphoto/2Vbz9F7QINsn11fa-ufg_Q/o.jpg", "phone": "+16176952529", "id": "jj-foleys-bar-and-grille-boston", "distance": 1193.734060492, "location": {"display_address": ["21 Kingston St", "Boston, MA 02111"], "state": "MA", "address2": null, "address1": "21 Kingston St", "zip_code": "02111", "city": "Boston", "country": "US", "address3": ""}, "url": "https://www.yelp.com/biz/jj-foleys-bar-and-grille-boston?adjust_creative=gBcvfFpabk3CnzmXKdYe3w&utm_campaign=yelp_api_v3&utm_medium=api_v3_business_search&utm_source=gBcvfFpabk3CnzmXKdYe3w", "categories": [{"alias": "pubs", "title": "Pubs"}], "display_phone": "(617) 695-2529", "is_closed": false, "name": "JJ Foley's Bar & Grille", "price": "$", "review_count": 155, "coordinates": {"longitude": -71.0592099, "latitude": 42.35384}}, {"rating": 3.5, "transactions": [], "image_url": "https://s3-media2.fl.yelpcdn.com/bphoto/sETb-DsF84Gm4md1__fJwA/o.jpg", "phone": "+16173388858", "id": "dumpling-cafe-boston", "distance": 765.2594681958, "location": {"display_address": ["695 Washington St", "Boston, MA 02111"], "state": "MA", "address2": "", "address1": "695 Washington St", "zip_code": "02111", "city": "Boston", "country": "US", "address3": ""}, "url": "https://www.yelp.com/biz/dumpling-cafe-boston?adjust_creative=gBcvfFpabk3CnzmXKdYe3w&utm_campaign=yelp_api_v3&utm_medium=api_v3_business_search&utm_source=gBcvfFpabk3CnzmXKdYe3w", "categories": [{"alias": "taiwanese", "title": "Taiwanese"}, {"alias": "chinese", "title": "Chinese"}, {"alias": "cafes", "title": "Cafes"}], "display_phone": "(617) 338-8858", "is_closed": false, "name": "Dumpling Cafe", "price": "$$", "review_count": 586, "coordinates": {"longitude": -71.063125, "latitude": 42.351215}}, {"rating": 3.5, "transactions": [], "image_url": "https://s3-media2.fl.yelpcdn.com/bphoto/yo1T2h45ZGSyj7_wqVAeKw/o.jpg", "phone": "+16174233288", "id": "jade-garden-boston", "distance": 931.4125578157999, "location": {"display_address": ["18-20 Tyler St", "Boston, MA 02111"], "state": "MA", "address2": "", "address1": "18-20 Tyler St", "zip_code": "02111", "city": "Boston", "country": "US", "address3": ""}, "url": "https://www.yelp.com/biz/jade-garden-boston?adjust_creative=gBcvfFpabk3CnzmXKdYe3w&utm_campaign=yelp_api_v3&utm_medium=api_v3_business_search&utm_source=gBcvfFpabk3CnzmXKdYe3w", "categories": [{"alias": "chinese", "title": "Chinese"}, {"alias": "seafood", "title": "Seafood"}], "display_phone": "(617) 423-3288", "is_closed": false, "name": "Jade Garden", "price": "$$", "review_count": 155, "coordinates": {"longitude": -71.0606135564487, "latitude": 42.3507521023507}}], "total": 1239}{"region": {"center": {"longitude": -71.07124328613281, "latitude": 42.34784169448538}}, "businesses": [{"rating": 4.5, "transactions": [], "image_url": "https://s3-media3.fl.yelpcdn.com/bphoto/8kEgR1yeFVStVone5j4aug/o.jpg", "phone": "+16176549944", "id": "biddy-earlys-boston", "distance": 1642.704354078, "location": {"display_address": ["141 Pearl St", "Boston, MA 02110"], "state": "MA", "address2": "", "address1": "141 Pearl St", "zip_code": "02110", "city": "Boston", "country": "US", "address3": ""}, "url": "https://www.yelp.com/biz/biddy-earlys-boston?adjust_creative=gBcvfFpabk3CnzmXKdYe3w&utm_campaign=yelp_api_v3&utm_medium=api_v3_business_search&utm_source=gBcvfFpabk3CnzmXKdYe3w", "categories": [{"alias": "divebars", "title": "Dive Bars"}], "display_phone": "(617) 654-9944", "is_closed": false, "name": "Biddy Early's", "price": "$", "review_count": 193, "coordinates": {"longitude": -71.0537415, "latitude": 42.3546486}}, {"rating": 4.0, "transactions": [], "image_url": "https://s3-media2.fl.yelpcdn.com/bphoto/S6kIwQhsGAhk5Ys3nUadxA/o.jpg", "phone": "+16172670047", "id": "yvonnes-boston", "distance": 1172.085379746, "location": {"display_address": ["2 Winter Pl", "Boston, MA 02108"], "state": "MA", "address2": null, "address1": "2 Winter Pl", "zip_code": "02108", "city": "Boston", "country": "US", "address3": ""}, "url": "https://www.yelp.com/biz/yvonnes-boston?adjust_creative=gBcvfFpabk3CnzmXKdYe3w&utm_campaign=yelp_api_v3&utm_medium=api_v3_business_search&utm_source=gBcvfFpabk3CnzmXKdYe3w", "categories": [{"alias": "lounges", "title": "Lounges"}], "display_phone": "(617) 267-0047", "is_closed": false, "name": "Yvonne's", "price": "$$$", "review_count": 445, "coordinates": {"longitude": -71.06141, "latitude": 42.35549}}, {"rating": 4.0, "transactions": [], "image_url": "https://s3-media1.fl.yelpcdn.com/bphoto/AJJUNPdbEuFwH2PSRMQgoA/o.jpg", "phone": "+16175329100", "id": "eastern-standard-kitchen-and-drinks-boston-3", "distance": 2036.70506502, "location": {"display_address": ["528 Commonwealth Ave", "Boston, MA 02215"], "state": "MA", "address2": "", "address1": "528 Commonwealth Ave", "zip_code": "02215", "city": "Boston", "country": "US", "address3": ""}, "url": "https://www.yelp.com/biz/eastern-standard-kitchen-and-drinks-boston-3?adjust_creative=gBcvfFpabk3CnzmXKdYe3w&utm_campaign=yelp_api_v3&utm_medium=api_v3_business_search&utm_source=gBcvfFpabk3CnzmXKdYe3w", "categories": [{"alias": "newamerican", "title": "American (New)"}, {"alias": "lounges", "title": "Lounges"}, {"alias": "breakfast_brunch", "title": "Breakfast & Brunch"}], "display_phone": "(617) 532-9100", "is_closed": false, "name": "Eastern Standard Kitchen and Drinks", "price": "$$$", "review_count": 1554, "coordinates": {"longitude": -71.0960168391466, "latitude": 42.348740324378}}, {"rating": 4.0, "transactions": [], "image_url": "https://s3-media3.fl.yelpcdn.com/bphoto/VlNwiC3KdAmFaj1my6jzkQ/o.jpg", "phone": "+16173695609", "id": "lolita-cocina-and-tequila-bar-boston-2", "distance": 598.3120888188, "location": {"display_address": ["271 Dartmouth St", "Boston, MA 02116"], "state": "MA", "address2": null, "address1": "271 Dartmouth St", "zip_code": "02116", "city": "Boston", "country": "US", "address3": ""}, "url": "https://www.yelp.com/biz/lolita-cocina-and-tequila-bar-boston-2?adjust_creative=gBcvfFpabk3CnzmXKdYe3w&utm_campaign=yelp_api_v3&utm_medium=api_v3_business_search&utm_source=gBcvfFpabk3CnzmXKdYe3w", "categories": [{"alias": "mexican", "title": "Mexican"}, {"alias": "lounges", "title": "Lounges"}, {"alias": "cocktailbars", "title": "Cocktail Bars"}], "display_phone": "(617) 369-5609", "is_closed": false, "name": "Lolita Cocina & Tequila Bar", "price": "$$", "review_count": 1264, "coordinates": {"longitude": -71.077508474716, "latitude": 42.3505860446405}}, {"rating": 4.0, "transactions": [], "image_url": "https://s3-media3.fl.yelpcdn.com/bphoto/5DBU9QMsfTWZIgboy5jQZQ/o.jpg", "phone": "+16172665088", "id": "anchovies-boston", "distance": 679.036390098, "location": {"display_address": ["433 Columbus Ave", "Boston, MA 02116"], "state": "MA", "address2": "", "address1": "433 Columbus Ave", "zip_code": "02116", "city": "Boston", "country": "US", "address3": ""}, "url": "https://www.yelp.com/biz/anchovies-boston?adjust_creative=gBcvfFpabk3CnzmXKdYe3w&utm_campaign=yelp_api_v3&utm_medium=api_v3_business_search&utm_source=gBcvfFpabk3CnzmXKdYe3w", "categories": [{"alias": "italian", "title": "Italian"}, {"alias": "bars", "title": "Bars"}, {"alias": "salad", "title": "Salad"}], "display_phone": "(617) 266-5088", "is_closed": false, "name": "Anchovies", "price": "$$", "review_count": 319, "coordinates": {"longitude": -71.077598, "latitude": 42.343939}}, {"rating": 4.0, "transactions": [], "image_url": "https://s3-media2.fl.yelpcdn.com/bphoto/EvYP2X4T_zALhHIGkPxeIw/o.jpg", "phone": "+16173500010", "id": "franklin-caf\u00e9-boston-4", "distance": 578.80878704, "location": {"display_address": ["278 Shawmut Ave", "Boston, MA 02118"], "state": "MA", "address2": "", "address1": "278 Shawmut Ave", "zip_code": "02118", "city": "Boston", "country": "US", "address3": ""}, "url": "https://www.yelp.com/biz/franklin-caf%C3%A9-boston-4?adjust_creative=gBcvfFpabk3CnzmXKdYe3w&utm_campaign=yelp_api_v3&utm_medium=api_v3_business_search&utm_source=gBcvfFpabk3CnzmXKdYe3w", "categories": [{"alias": "lounges", "title": "Lounges"}, {"alias": "newamerican", "title": "American (New)"}], "display_phone": "(617) 350-0010", "is_closed": false, "name": "Franklin Caf\u00e9", "price": "$$", "review_count": 479, "coordinates": {"longitude": -71.06895, "latitude": 42.34291}}, {"rating": 4.0, "transactions": [], "image_url": "https://s3-media2.fl.yelpcdn.com/bphoto/6HoLVAEkWjVAzTObv1JOqg/o.jpg", "phone": "+16172625555", "id": "corner-tavern-boston", "distance": 1520.97999197, "location": {"display_address": ["421 Marlborough St", "Boston, MA 02115"], "state": "MA", "address2": "", "address1": "421 Marlborough St", "zip_code": "02115", "city": "Boston", "country": "US", "address3": ""}, "url": "https://www.yelp.com/biz/corner-tavern-boston?adjust_creative=gBcvfFpabk3CnzmXKdYe3w&utm_campaign=yelp_api_v3&utm_medium=api_v3_business_search&utm_source=gBcvfFpabk3CnzmXKdYe3w", "categories": [{"alias": "bars", "title": "Bars"}, {"alias": "newamerican", "title": "American (New)"}], "display_phone": "(617) 262-5555", "is_closed": false, "name": "Corner Tavern", "price": "$$", "review_count": 214, "coordinates": {"longitude": -71.0894393920898, "latitude": 42.3501434326172}}, {"rating": 4.5, "transactions": [], "image_url": "https://s3-media2.fl.yelpcdn.com/bphoto/Afl64EKLNX8ZwDUd-CuMXw/o.jpg", "phone": "+16174644869", "id": "croke-park-whiteys-boston", "distance": 1900.952890802, "location": {"display_address": ["268 W Broadway", "Boston, MA 02127"], "state": "MA", "address2": null, "address1": "268 W Broadway", "zip_code": "02127", "city": "Boston", "country": "US", "address3": ""}, "url": "https://www.yelp.com/biz/croke-park-whiteys-boston?adjust_creative=gBcvfFpabk3CnzmXKdYe3w&utm_campaign=yelp_api_v3&utm_medium=api_v3_business_search&utm_source=gBcvfFpabk3CnzmXKdYe3w", "categories": [{"alias": "divebars", "title": "Dive Bars"}], "display_phone": "(617) 464-4869", "is_closed": false, "name": "Croke Park/Whitey's", "price": "$", "review_count": 81, "coordinates": {"longitude": -71.0513278841972, "latitude": 42.3391748964787}}, {"rating": 4.0, "transactions": [], "image_url": "https://s3-media1.fl.yelpcdn.com/bphoto/k0V3tncNKee3qz-fIkgA5Q/o.jpg", "phone": "+16177524191", "id": "moonshine-152-boston", "distance": 1370.297004968, "location": {"display_address": ["152 Dorchester Ave", "Boston, MA 02127"], "state": "MA", "address2": "", "address1": "152 Dorchester Ave", "zip_code": "02127", "city": "Boston", "country": "US", "address3": ""}, "url": "https://www.yelp.com/biz/moonshine-152-boston?adjust_creative=gBcvfFpabk3CnzmXKdYe3w&utm_campaign=yelp_api_v3&utm_medium=api_v3_business_search&utm_source=gBcvfFpabk3CnzmXKdYe3w", "categories": [{"alias": "newamerican", "title": "American (New)"}, {"alias": "asianfusion", "title": "Asian Fusion"}], "display_phone": "(617) 752-4191", "is_closed": false, "name": "Moonshine 152", "price": "$$", "review_count": 182, "coordinates": {"longitude": -71.0569151, "latitude": 42.34133}}, {"rating": 4.0, "transactions": [], "image_url": "https://s3-media2.fl.yelpcdn.com/bphoto/QJdTzVfjYl9RPzLtvtCnIw/o.jpg", "phone": "+16172474777", "id": "the-parish-cafe-boston", "distance": 443.523240955, "location": {"display_address": ["361 Boylston St", "Boston, MA 02116"], "state": "MA", "address2": "", "address1": "361 Boylston St", "zip_code": "02116", "city": "Boston", "country": "US", "address3": ""}, "url": "https://www.yelp.com/biz/the-parish-cafe-boston?adjust_creative=gBcvfFpabk3CnzmXKdYe3w&utm_campaign=yelp_api_v3&utm_medium=api_v3_business_search&utm_source=gBcvfFpabk3CnzmXKdYe3w", "categories": [{"alias": "sandwiches", "title": "Sandwiches"}, {"alias": "desserts", "title": "Desserts"}, {"alias": "cafes", "title": "Cafes"}], "display_phone": "(617) 247-4777", "is_closed": false, "name": "The Parish Cafe", "price": "$$", "review_count": 1181, "coordinates": {"longitude": -71.071625035216, "latitude": 42.351822284275}}, {"rating": 4.0, "transactions": [], "image_url": "https://s3-media4.fl.yelpcdn.com/bphoto/WggOb4lGky1cJ_5gAPUD3g/o.jpg", "phone": "+16173385656", "id": "mr-dooleys-boston", "distance": 1809.905124038, "location": {"display_address": ["77 Broad St", "Boston, MA 02109"], "state": "MA", "address2": "", "address1": "77 Broad St", "zip_code": "02109", "city": "Boston", "country": "US", "address3": ""}, "url": "https://www.yelp.com/biz/mr-dooleys-boston?adjust_creative=gBcvfFpabk3CnzmXKdYe3w&utm_campaign=yelp_api_v3&utm_medium=api_v3_business_search&utm_source=gBcvfFpabk3CnzmXKdYe3w", "categories": [{"alias": "irish", "title": "Irish"}, {"alias": "musicvenues", "title": "Music Venues"}, {"alias": "pubs", "title": "Pubs"}], "display_phone": "(617) 338-5656", "is_closed": false, "name": "Mr. Dooley's", "price": "$$", "review_count": 318, "coordinates": {"longitude": -71.0536599, "latitude": 42.35765}}, {"rating": 4.0, "transactions": [], "image_url": "https://s3-media3.fl.yelpcdn.com/bphoto/MGIlLATyXueEoJ_lLtvY7g/o.jpg", "phone": "+16173387887", "id": "silvertone-boston", "distance": 1333.882710189, "location": {"display_address": ["69 Bromfield St", "Boston, MA 02108"], "state": "MA", "address2": "", "address1": "69 Bromfield St", "zip_code": "02108", "city": "Boston", "country": "US", "address3": ""}, "url": "https://www.yelp.com/biz/silvertone-boston?adjust_creative=gBcvfFpabk3CnzmXKdYe3w&utm_campaign=yelp_api_v3&utm_medium=api_v3_business_search&utm_source=gBcvfFpabk3CnzmXKdYe3w", "categories": [{"alias": "tradamerican", "title": "American (Traditional)"}, {"alias": "cocktailbars", "title": "Cocktail Bars"}, {"alias": "sandwiches", "title": "Sandwiches"}], "display_phone": "(617) 338-7887", "is_closed": false, "name": "Silvertone", "price": "$$", "review_count": 751, "coordinates": {"longitude": -71.0608731, "latitude": 42.3571471}}, {"rating": 4.0, "transactions": ["pickup"], "image_url": "https://s3-media4.fl.yelpcdn.com/bphoto/CxwCM79084NpEuqI484zRA/o.jpg", "phone": "+16177289101", "id": "j-j-foleys-cafe-boston-5", "distance": 670.4518003897999, "location": {"display_address": ["117 E Berkeley St", "Boston, MA 02118"], "state": "MA", "address2": null, "address1": "117 E Berkeley St", "zip_code": "02118", "city": "Boston", "country": "US", "address3": ""}, "url": "https://www.yelp.com/biz/j-j-foleys-cafe-boston-5?adjust_creative=gBcvfFpabk3CnzmXKdYe3w&utm_campaign=yelp_api_v3&utm_medium=api_v3_business_search&utm_source=gBcvfFpabk3CnzmXKdYe3w", "categories": [{"alias": "irish", "title": "Irish"}, {"alias": "irish_pubs", "title": "Irish Pub"}], "display_phone": "(617) 728-9101", "is_closed": false, "name": "J J Foley's Cafe", "price": "$$", "review_count": 179, "coordinates": {"longitude": -71.0653314573811, "latitude": 42.3436886733629}}, {"rating": 3.5, "transactions": [], "image_url": "https://s3-media2.fl.yelpcdn.com/bphoto/sJUyfUF4lJslqqBBOLdWaA/o.jpg", "phone": "+16174379999", "id": "bukowski-tavern-boston", "distance": 1165.4570876484, "location": {"display_address": ["50 Dalton St", "Boston, MA 02115"], "state": "MA", "address2": "", "address1": "50 Dalton St", "zip_code": "02115", "city": "Boston", "country": "US", "address3": ""}, "url": "https://www.yelp.com/biz/bukowski-tavern-boston?adjust_creative=gBcvfFpabk3CnzmXKdYe3w&utm_campaign=yelp_api_v3&utm_medium=api_v3_business_search&utm_source=gBcvfFpabk3CnzmXKdYe3w", "categories": [{"alias": "tradamerican", "title": "American (Traditional)"}, {"alias": "divebars", "title": "Dive Bars"}], "display_phone": "(617) 437-9999", "is_closed": false, "name": "Bukowski Tavern", "price": "$$", "review_count": 615, "coordinates": {"longitude": -71.085402407346, "latitude": 42.34726832024}}, {"rating": 4.0, "transactions": [], "image_url": "https://s3-media1.fl.yelpcdn.com/bphoto/FnUo10j9aDb4R173Yj4vbA/o.jpg", "phone": "+16172697560", "id": "doughboy-donuts-and-deli-boston", "distance": 1462.190318968, "location": {"display_address": ["220 Dorchester Ave", "Boston, MA 02127"], "state": "MA", "address2": "", "address1": "220 Dorchester Ave", "zip_code": "02127", "city": "Boston", "country": "US", "address3": ""}, "url": "https://www.yelp.com/biz/doughboy-donuts-and-deli-boston?adjust_creative=gBcvfFpabk3CnzmXKdYe3w&utm_campaign=yelp_api_v3&utm_medium=api_v3_business_search&utm_source=gBcvfFpabk3CnzmXKdYe3w", "categories": [{"alias": "donuts", "title": "Donuts"}, {"alias": "delis", "title": "Delis"}, {"alias": "pizza", "title": "Pizza"}], "display_phone": "(617) 269-7560", "is_closed": false, "name": "Doughboy Donuts & Deli", "price": "$", "review_count": 122, "coordinates": {"longitude": -71.056792, "latitude": 42.340173}}, {"rating": 4.0, "transactions": ["delivery", "pickup"], "image_url": "https://s3-media3.fl.yelpcdn.com/bphoto/uObo--CAqOnRFArqtT1RTg/o.jpg", "phone": "+16173670033", "id": "the-tap-trailhouse-boston-2", "distance": 1872.4107631, "location": {"display_address": ["19 Union St", "Boston, MA 02108"], "state": "MA", "address2": "", "address1": "19 Union St", "zip_code": "02108", "city": "Boston", "country": "US", "address3": ""}, "url": "https://www.yelp.com/biz/the-tap-trailhouse-boston-2?adjust_creative=gBcvfFpabk3CnzmXKdYe3w&utm_campaign=yelp_api_v3&utm_medium=api_v3_business_search&utm_source=gBcvfFpabk3CnzmXKdYe3w", "categories": [{"alias": "tradamerican", "title": "American (Traditional)"}, {"alias": "pubs", "title": "Pubs"}], "display_phone": "(617) 367-0033", "is_closed": false, "name": "The Tap Trailhouse", "price": "$$", "review_count": 221, "coordinates": {"longitude": -71.056898076297, "latitude": 42.3609285960884}}, {"rating": 4.0, "transactions": [], "image_url": "https://s3-media3.fl.yelpcdn.com/bphoto/inVwDEC5s7L4Bodbbpg-bQ/o.jpg", "phone": "+16175365300", "id": "city-bar-boston", "distance": 713.1917991595999, "location": {"display_address": ["61 Exeter St", "Boston, MA 02199"], "state": "MA", "address2": null, "address1": "61 Exeter St", "zip_code": "02199", "city": "Boston", "country": "US", "address3": ""}, "url": "https://www.yelp.com/biz/city-bar-boston?adjust_creative=gBcvfFpabk3CnzmXKdYe3w&utm_campaign=yelp_api_v3&utm_medium=api_v3_business_search&utm_source=gBcvfFpabk3CnzmXKdYe3w", "categories": [{"alias": "newamerican", "title": "American (New)"}, {"alias": "cocktailbars", "title": "Cocktail Bars"}], "display_phone": "(617) 536-5300", "is_closed": false, "name": "City Bar", "price": "$$$", "review_count": 250, "coordinates": {"longitude": -71.079742038714, "latitude": 42.3491411506797}}, {"rating": 4.0, "transactions": [], "image_url": "https://s3-media4.fl.yelpcdn.com/bphoto/gjlIvYF8tUy1hDEcXM5N5w/o.jpg", "phone": "+16174254444", "id": "tasty-burger-boston", "distance": 2259.364978852, "location": {"display_address": ["1301 Boylston St", "Boston, MA 02215"], "state": "MA", "address2": "", "address1": "1301 Boylston St", "zip_code": "02215", "city": "Boston", "country": "US", "address3": ""}, "url": "https://www.yelp.com/biz/tasty-burger-boston?adjust_creative=gBcvfFpabk3CnzmXKdYe3w&utm_campaign=yelp_api_v3&utm_medium=api_v3_business_search&utm_source=gBcvfFpabk3CnzmXKdYe3w", "categories": [{"alias": "burgers", "title": "Burgers"}, {"alias": "hotdog", "title": "Hot Dogs"}, {"alias": "hotdogs", "title": "Fast Food"}], "display_phone": "(617) 425-4444", "is_closed": false, "name": "Tasty Burger", "price": "$", "review_count": 863, "coordinates": {"longitude": -71.0979707, "latitude": 42.3446525}}, {"rating": 4.0, "transactions": [], "image_url": "https://s3-media2.fl.yelpcdn.com/bphoto/jddeJbF4o6MWkZfPvatOkw/o.jpg", "phone": "+16172277280", "id": "boston-sail-loft-boston", "distance": 2346.905671888, "location": {"display_address": ["80 Atlantic Ave", "Boston, MA 02110"], "state": "MA", "address2": "", "address1": "80 Atlantic Ave", "zip_code": "02110", "city": "Boston", "country": "US", "address3": ""}, "url": "https://www.yelp.com/biz/boston-sail-loft-boston?adjust_creative=gBcvfFpabk3CnzmXKdYe3w&utm_campaign=yelp_api_v3&utm_medium=api_v3_business_search&utm_source=gBcvfFpabk3CnzmXKdYe3w", "categories": [{"alias": "bars", "title": "Bars"}, {"alias": "tradamerican", "title": "American (Traditional)"}], "display_phone": "(617) 227-7280", "is_closed": false, "name": "Boston Sail Loft", "price": "$$", "review_count": 362, "coordinates": {"longitude": -71.050748116975, "latitude": 42.362543759667}}, {"rating": 4.0, "transactions": [], "image_url": "https://s3-media3.fl.yelpcdn.com/bphoto/54kNn6xfOqDDLOwrtqzF6A/o.jpg", "phone": "+16176928888", "id": "legal-crossing-boston", "distance": 987.939305657, "location": {"display_address": ["558 Washington St", "Boston, MA 02111"], "state": "MA", "address2": "", "address1": "558 Washington St", "zip_code": "02111", "city": "Boston", "country": "US", "address3": ""}, "url": "https://www.yelp.com/biz/legal-crossing-boston?adjust_creative=gBcvfFpabk3CnzmXKdYe3w&utm_campaign=yelp_api_v3&utm_medium=api_v3_business_search&utm_source=gBcvfFpabk3CnzmXKdYe3w", "categories": [{"alias": "seafood", "title": "Seafood"}, {"alias": "italian", "title": "Italian"}], "display_phone": "(617) 692-8888", "is_closed": false, "name": "Legal Crossing", "price": "$$$", "review_count": 242, "coordinates": {"longitude": -71.06201, "latitude": 42.35338}}, {"rating": 4.0, "transactions": [], "image_url": "https://s3-media1.fl.yelpcdn.com/bphoto/F-q37O7201QO8CO0dZ7jcQ/o.jpg", "phone": "+18573503344", "id": "the-tip-tap-room-boston", "distance": 1584.90619545, "location": {"display_address": ["138 Cambridge St", "Boston, MA 02114"], "state": "MA", "address2": "", "address1": "138 Cambridge St", "zip_code": "02114", "city": "Boston", "country": "US", "address3": ""}, "url": "https://www.yelp.com/biz/the-tip-tap-room-boston?adjust_creative=gBcvfFpabk3CnzmXKdYe3w&utm_campaign=yelp_api_v3&utm_medium=api_v3_business_search&utm_source=gBcvfFpabk3CnzmXKdYe3w", "categories": [{"alias": "newamerican", "title": "American (New)"}, {"alias": "bars", "title": "Bars"}], "display_phone": "(857) 350-3344", "is_closed": false, "name": "The Tip Tap Room", "price": "$$", "review_count": 504, "coordinates": {"longitude": -71.063986, "latitude": 42.36105}}, {"rating": 4.0, "transactions": [], "image_url": "https://s3-media3.fl.yelpcdn.com/bphoto/dolqflLk3Q7JpLthmo-6Pg/o.jpg", "phone": "+16177658636", "id": "lincoln-tavern-and-restaurant-boston", "distance": 2325.654498122, "location": {"display_address": ["425 W Broadway", "Boston, MA 02127"], "state": "MA", "address2": "", "address1": "425 W Broadway", "zip_code": "02127", "city": "Boston", "country": "US", "address3": ""}, "url": "https://www.yelp.com/biz/lincoln-tavern-and-restaurant-boston?adjust_creative=gBcvfFpabk3CnzmXKdYe3w&utm_campaign=yelp_api_v3&utm_medium=api_v3_business_search&utm_source=gBcvfFpabk3CnzmXKdYe3w", "categories": [{"alias": "newamerican", "title": "American (New)"}, {"alias": "pizza", "title": "Pizza"}, {"alias": "burgers", "title": "Burgers"}], "display_phone": "(617) 765-8636", "is_closed": false, "name": "Lincoln Tavern & Restaurant", "price": "$$", "review_count": 468, "coordinates": {"longitude": -71.04763, "latitude": 42.33632}}, {"rating": 3.5, "transactions": [], "image_url": "https://s3-media4.fl.yelpcdn.com/bphoto/331Dd0SQUYS-l78BneUu0A/o.jpg", "phone": "+16174515997", "id": "intermission-tavern-boston-2", "distance": 668.9255988942, "location": {"display_address": ["228 Tremont St", "Boston, MA 02116"], "state": "MA", "address2": "", "address1": "228 Tremont St", "zip_code": "02116", "city": "Boston", "country": "US", "address3": ""}, "url": "https://www.yelp.com/biz/intermission-tavern-boston-2?adjust_creative=gBcvfFpabk3CnzmXKdYe3w&utm_campaign=yelp_api_v3&utm_medium=api_v3_business_search&utm_source=gBcvfFpabk3CnzmXKdYe3w", "categories": [{"alias": "bars", "title": "Bars"}, {"alias": "tradamerican", "title": "American (Traditional)"}, {"alias": "burgers", "title": "Burgers"}], "display_phone": "(617) 451-5997", "is_closed": false, "name": "Intermission Tavern", "price": "$$", "review_count": 312, "coordinates": {"longitude": -71.0645904541016, "latitude": 42.3513412475586}}, {"rating": 4.0, "transactions": [], "image_url": "https://s3-media2.fl.yelpcdn.com/bphoto/yG1Ch038ecPN6GAus21Q8w/o.jpg", "phone": "+16177422090", "id": "durty-nellys-boston", "distance": 1967.988339162, "location": {"display_address": ["108 Blackstone St", "Boston, MA 02109"], "state": "MA", "address2": "", "address1": "108 Blackstone St", "zip_code": "02109", "city": "Boston", "country": "US", "address3": ""}, "url": "https://www.yelp.com/biz/durty-nellys-boston?adjust_creative=gBcvfFpabk3CnzmXKdYe3w&utm_campaign=yelp_api_v3&utm_medium=api_v3_business_search&utm_source=gBcvfFpabk3CnzmXKdYe3w", "categories": [{"alias": "bars", "title": "Bars"}, {"alias": "irish", "title": "Irish"}, {"alias": "musicvenues", "title": "Music Venues"}], "display_phone": "(617) 742-2090", "is_closed": false, "name": "Durty Nelly's", "price": "$", "review_count": 147, "coordinates": {"longitude": -71.0565719604492, "latitude": 42.361701965332}}, {"rating": 3.5, "transactions": [], "image_url": "https://s3-media3.fl.yelpcdn.com/bphoto/Yk1obwLkMH_we7bcig3KNQ/o.jpg", "phone": "+16173575825", "id": "luckys-lounge-boston-2", "distance": 1886.1648264759997, "location": {"display_address": ["355 Congress St", "Boston, MA 02210"], "state": "MA", "address2": "", "address1": "355 Congress St", "zip_code": "02210", "city": "Boston", "country": "US", "address3": ""}, "url": "https://www.yelp.com/biz/luckys-lounge-boston-2?adjust_creative=gBcvfFpabk3CnzmXKdYe3w&utm_campaign=yelp_api_v3&utm_medium=api_v3_business_search&utm_source=gBcvfFpabk3CnzmXKdYe3w", "categories": [{"alias": "lounges", "title": "Lounges"}, {"alias": "tradamerican", "title": "American (Traditional)"}, {"alias": "musicvenues", "title": "Music Venues"}], "display_phone": "(617) 357-5825", "is_closed": false, "name": "Lucky's Lounge", "price": "$$", "review_count": 550, "coordinates": {"longitude": -71.04848, "latitude": 42.35004}}, {"rating": 4.0, "transactions": [], "image_url": "https://s3-media2.fl.yelpcdn.com/bphoto/VrcqNpWbgpbt0s8avBISGQ/o.jpg", "phone": "+16174565300", "id": "strip-by-strega-boston", "distance": 352.185390656, "location": {"display_address": ["64 Arlington St", "Boston, MA 02116"], "state": "MA", "address2": "", "address1": "64 Arlington St", "zip_code": "02116", "city": "Boston", "country": "US", "address3": ""}, "url": "https://www.yelp.com/biz/strip-by-strega-boston?adjust_creative=gBcvfFpabk3CnzmXKdYe3w&utm_campaign=yelp_api_v3&utm_medium=api_v3_business_search&utm_source=gBcvfFpabk3CnzmXKdYe3w", "categories": [{"alias": "tradamerican", "title": "American (Traditional)"}, {"alias": "steak", "title": "Steakhouses"}], "display_phone": "(617) 456-5300", "is_closed": false, "name": "Strip By Strega", "price": "$$$$", "review_count": 168, "coordinates": {"longitude": -71.0700607, "latitude": 42.3509903}}, {"rating": 4.0, "transactions": [], "image_url": "https://s3-media4.fl.yelpcdn.com/bphoto/0wbRrXZZwGbP3LbRc3dm0A/o.jpg", "phone": "+16172472400", "id": "lucca-back-bay-boston", "distance": 727.698164612, "location": {"display_address": ["116 Huntington Ave", "Boston, MA 02116"], "state": "MA", "address2": "", "address1": "116 Huntington Ave", "zip_code": "02116", "city": "Boston", "country": "US", "address3": ""}, "url": "https://www.yelp.com/biz/lucca-back-bay-boston?adjust_creative=gBcvfFpabk3CnzmXKdYe3w&utm_campaign=yelp_api_v3&utm_medium=api_v3_business_search&utm_source=gBcvfFpabk3CnzmXKdYe3w", "categories": [{"alias": "italian", "title": "Italian"}], "display_phone": "(617) 247-2400", "is_closed": false, "name": "Lucca Back Bay", "price": "$$$", "review_count": 250, "coordinates": {"longitude": -71.0799281, "latitude": 42.3465561}}, {"rating": 3.5, "transactions": [], "image_url": "https://s3-media3.fl.yelpcdn.com/bphoto/NC5NJucddOU3_W0rEtxN8Q/o.jpg", "phone": "+16172361767", "id": "the-pour-house-boston", "distance": 1077.5825209359998, "location": {"display_address": ["907 Boylston St", "Boston, MA 02115"], "state": "MA", "address2": "", "address1": "907 Boylston St", "zip_code": "02115", "city": "Boston", "country": "US", "address3": ""}, "url": "https://www.yelp.com/biz/the-pour-house-boston?adjust_creative=gBcvfFpabk3CnzmXKdYe3w&utm_campaign=yelp_api_v3&utm_medium=api_v3_business_search&utm_source=gBcvfFpabk3CnzmXKdYe3w", "categories": [{"alias": "bars", "title": "Bars"}, {"alias": "tradamerican", "title": "American (Traditional)"}, {"alias": "newamerican", "title": "American (New)"}], "display_phone": "(617) 236-1767", "is_closed": false, "name": "The Pour House", "price": "$", "review_count": 972, "coordinates": {"longitude": -71.0843353271484, "latitude": 42.3484840393066}}, {"rating": 3.5, "transactions": [], "image_url": "https://s3-media1.fl.yelpcdn.com/bphoto/E5edyo7D_R-ariIuwJ4RzQ/o.jpg", "phone": "+16174509000", "id": "citizen-public-house-and-oyster-bar-boston", "distance": 2256.9184601839997, "location": {"display_address": ["1310 Boylston St", "Boston, MA 02215"], "state": "MA", "address2": "", "address1": "1310 Boylston St", "zip_code": "02215", "city": "Boston", "country": "US", "address3": ""}, "url": "https://www.yelp.com/biz/citizen-public-house-and-oyster-bar-boston?adjust_creative=gBcvfFpabk3CnzmXKdYe3w&utm_campaign=yelp_api_v3&utm_medium=api_v3_business_search&utm_source=gBcvfFpabk3CnzmXKdYe3w", "categories": [{"alias": "gastropubs", "title": "Gastropubs"}], "display_phone": "(617) 450-9000", "is_closed": false, "name": "Citizen Public House & Oyster Bar", "price": "$$", "review_count": 513, "coordinates": {"longitude": -71.0983946174383, "latitude": 42.3443535715342}}, {"rating": 4.0, "transactions": [], "image_url": "https://s3-media4.fl.yelpcdn.com/bphoto/RauYeTwmqPqQceW13pwM7w/o.jpg", "phone": "+16173388770", "id": "gaga-seafood-restaurant-boston", "distance": 904.2137944919999, "location": {"display_address": ["25-27 Tyler St", "Boston, MA 02111"], "state": "MA", "address2": null, "address1": "25-27 Tyler St", "zip_code": "02111", "city": "Boston", "country": "US", "address3": ""}, "url": "https://www.yelp.com/biz/gaga-seafood-restaurant-boston?adjust_creative=gBcvfFpabk3CnzmXKdYe3w&utm_campaign=yelp_api_v3&utm_medium=api_v3_business_search&utm_source=gBcvfFpabk3CnzmXKdYe3w", "categories": [{"alias": "seafood", "title": "Seafood"}], "display_phone": "(617) 338-8770", "is_closed": false, "name": "Gaga Seafood Restaurant", "price": "$$", "review_count": 69, "coordinates": {"longitude": -71.06097, "latitude": 42.35071}}, {"rating": 3.5, "transactions": [], "image_url": "https://s3-media3.fl.yelpcdn.com/bphoto/xFm9MRsoyHC8RYl-gqAC2w/o.jpg", "phone": "+16173910501", "id": "parish-cafe-boston-2", "distance": 1236.6508130739999, "location": {"display_address": ["493 Massachusetts Ave", "Boston, MA 02118"], "state": "MA", "address2": null, "address1": "493 Massachusetts Ave", "zip_code": "02118", "city": "Boston", "country": "US", "address3": null}, "url": "https://www.yelp.com/biz/parish-cafe-boston-2?adjust_creative=gBcvfFpabk3CnzmXKdYe3w&utm_campaign=yelp_api_v3&utm_medium=api_v3_business_search&utm_source=gBcvfFpabk3CnzmXKdYe3w", "categories": [{"alias": "newamerican", "title": "American (New)"}, {"alias": "sandwiches", "title": "Sandwiches"}, {"alias": "bars", "title": "Bars"}], "display_phone": "(617) 391-0501", "is_closed": false, "name": "Parish Cafe", "price": "$$", "review_count": 228, "coordinates": {"longitude": -71.0805817, "latitude": 42.3393478}}, {"rating": 3.5, "transactions": [], "image_url": "https://s3-media4.fl.yelpcdn.com/bphoto/JLbyHv19ZDgf-MJ53YQ6ug/o.jpg", "phone": "+16173450005", "id": "pastoral-artisan-pizza-kitchen-and-bar-boston", "distance": 1864.446461308, "location": {"display_address": ["345 Congress St", "Boston, MA 02210"], "state": "MA", "address2": "", "address1": "345 Congress St", "zip_code": "02210", "city": "Boston", "country": "US", "address3": ""}, "url": "https://www.yelp.com/biz/pastoral-artisan-pizza-kitchen-and-bar-boston?adjust_creative=gBcvfFpabk3CnzmXKdYe3w&utm_campaign=yelp_api_v3&utm_medium=api_v3_business_search&utm_source=gBcvfFpabk3CnzmXKdYe3w", "categories": [{"alias": "pizza", "title": "Pizza"}, {"alias": "beerbar", "title": "Beer Bar"}, {"alias": "cocktailbars", "title": "Cocktail Bars"}], "display_phone": "(617) 345-0005", "is_closed": false, "name": "Pastoral - Artisan Pizza, Kitchen & Bar", "price": "$$", "review_count": 307, "coordinates": {"longitude": -71.0488574567263, "latitude": 42.3505763940776}}, {"rating": 4.0, "transactions": [], "image_url": "https://s3-media2.fl.yelpcdn.com/bphoto/JSdMluF73gNsqRTYDsAalA/o.jpg", "phone": "+16175238997", "id": "corner-cafe-boston", "distance": 2330.275717932, "location": {"display_address": ["87 Prince St", "Boston, MA 02113"], "state": "MA", "address2": "", "address1": "87 Prince St", "zip_code": "02113", "city": "Boston", "country": "US", "address3": ""}, "url": "https://www.yelp.com/biz/corner-cafe-boston?adjust_creative=gBcvfFpabk3CnzmXKdYe3w&utm_campaign=yelp_api_v3&utm_medium=api_v3_business_search&utm_source=gBcvfFpabk3CnzmXKdYe3w", "categories": [{"alias": "divebars", "title": "Dive Bars"}, {"alias": "newamerican", "title": "American (New)"}], "display_phone": "(617) 523-8997", "is_closed": false, "name": "Corner Cafe", "price": "$", "review_count": 50, "coordinates": {"longitude": -71.0561828613281, "latitude": 42.3656005859375}}, {"rating": 3.5, "transactions": ["delivery", "pickup"], "image_url": "https://s3-media2.fl.yelpcdn.com/bphoto/cPSizy1W-JRCGo-Jf44saw/o.jpg", "phone": "+16175422823", "id": "new-jumbo-seafood-restaurant-boston", "distance": 992.501382222, "location": {"display_address": ["5 Hudson St", "Boston, MA 02111"], "state": "MA", "address2": "", "address1": "5 Hudson St", "zip_code": "02111", "city": "Boston", "country": "US", "address3": ""}, "url": "https://www.yelp.com/biz/new-jumbo-seafood-restaurant-boston?adjust_creative=gBcvfFpabk3CnzmXKdYe3w&utm_campaign=yelp_api_v3&utm_medium=api_v3_business_search&utm_source=gBcvfFpabk3CnzmXKdYe3w", "categories": [{"alias": "seafood", "title": "Seafood"}, {"alias": "chinese", "title": "Chinese"}], "display_phone": "(617) 542-2823", "is_closed": false, "name": "New Jumbo Seafood Restaurant", "price": "$$", "review_count": 281, "coordinates": {"longitude": -71.0600296407938, "latitude": 42.3509638756514}}, {"rating": 3.5, "transactions": [], "image_url": "https://s3-media1.fl.yelpcdn.com/bphoto/_gVk6CyTvi6adC7WbIYxPA/o.jpg", "phone": "+16174512229", "id": "abby-lane-food-and-spirits-boston", "distance": 567.17325884, "location": {"display_address": ["255 Tremont St", "Boston, MA 02116"], "state": "MA", "address2": "", "address1": "255 Tremont St", "zip_code": "02116", "city": "Boston", "country": "US", "address3": ""}, "url": "https://www.yelp.com/biz/abby-lane-food-and-spirits-boston?adjust_creative=gBcvfFpabk3CnzmXKdYe3w&utm_campaign=yelp_api_v3&utm_medium=api_v3_business_search&utm_source=gBcvfFpabk3CnzmXKdYe3w", "categories": [{"alias": "newamerican", "title": "American (New)"}], "display_phone": "(617) 451-2229", "is_closed": false, "name": "Abby Lane Food & Spirits", "price": "$$", "review_count": 312, "coordinates": {"longitude": -71.065249890089, "latitude": 42.35017798841}}, {"rating": 4.0, "transactions": [], "image_url": "https://s3-media1.fl.yelpcdn.com/bphoto/a8EZjU8RaAQYmdzM6zwbAA/o.jpg", "phone": "+16177421768", "id": "caffe-paradiso-boston", "distance": 2179.953384024, "location": {"display_address": ["255 Hanover St", "Boston, MA 02113"], "state": "MA", "address2": "", "address1": "255 Hanover St", "zip_code": "02113", "city": "Boston", "country": "US", "address3": ""}, "url": "https://www.yelp.com/biz/caffe-paradiso-boston?adjust_creative=gBcvfFpabk3CnzmXKdYe3w&utm_campaign=yelp_api_v3&utm_medium=api_v3_business_search&utm_source=gBcvfFpabk3CnzmXKdYe3w", "categories": [{"alias": "desserts", "title": "Desserts"}, {"alias": "coffee", "title": "Coffee & Tea"}, {"alias": "cocktailbars", "title": "Cocktail Bars"}], "display_phone": "(617) 742-1768", "is_closed": false, "name": "Caffe Paradiso", "price": "$$", "review_count": 157, "coordinates": {"longitude": -71.0548, "latitude": 42.36322}}, {"rating": 3.5, "transactions": [], "image_url": "https://s3-media3.fl.yelpcdn.com/bphoto/Ny2YN21wSjy5ONFaO8HqIw/o.jpg", "phone": "+16174824428", "id": "trophy-room-boston-3", "distance": 97.5317734839, "location": {"display_address": ["26 Chandler St", "Boston, MA 02116"], "state": "MA", "address2": "", "address1": "26 Chandler St", "zip_code": "02116", "city": "Boston", "country": "US", "address3": ""}, "url": "https://www.yelp.com/biz/trophy-room-boston-3?adjust_creative=gBcvfFpabk3CnzmXKdYe3w&utm_campaign=yelp_api_v3&utm_medium=api_v3_business_search&utm_source=gBcvfFpabk3CnzmXKdYe3w", "categories": [{"alias": "newamerican", "title": "American (New)"}, {"alias": "cocktailbars", "title": "Cocktail Bars"}], "display_phone": "(617) 482-4428", "is_closed": false, "name": "Trophy Room", "price": "$$", "review_count": 148, "coordinates": {"longitude": -71.0711350197154, "latitude": 42.3469703698508}}, {"rating": 4.0, "transactions": [], "image_url": "https://s3-media3.fl.yelpcdn.com/bphoto/DUQf-chZyeD_Juxdh8PW4Q/o.jpg", "phone": "+16177427678", "id": "porters-bar-and-grill-boston", "distance": 1989.698818564, "location": {"display_address": ["173 Portland St", "Boston, MA 02114"], "state": "MA", "address2": "", "address1": "173 Portland St", "zip_code": "02114", "city": "Boston", "country": "US", "address3": ""}, "url": "https://www.yelp.com/biz/porters-bar-and-grill-boston?adjust_creative=gBcvfFpabk3CnzmXKdYe3w&utm_campaign=yelp_api_v3&utm_medium=api_v3_business_search&utm_source=gBcvfFpabk3CnzmXKdYe3w", "categories": [{"alias": "bars", "title": "Bars"}, {"alias": "tradamerican", "title": "American (Traditional)"}, {"alias": "newamerican", "title": "American (New)"}], "display_phone": "(617) 742-7678", "is_closed": false, "name": "Porters Bar & Grill", "price": "$$", "review_count": 158, "coordinates": {"longitude": -71.061702, "latitude": 42.3642896}}, {"rating": 3.5, "transactions": [], "image_url": "https://s3-media3.fl.yelpcdn.com/bphoto/qlOY9Jv_iOqgEeiaykEU4Q/o.jpg", "phone": "+16173500028", "id": "south-street-diner-boston", "distance": 1130.98058307, "location": {"display_address": ["178 Kneeland St", "Boston, MA 02111"], "state": "MA", "address2": "", "address1": "178 Kneeland St", "zip_code": "02111", "city": "Boston", "country": "US", "address3": ""}, "url": "https://www.yelp.com/biz/south-street-diner-boston?adjust_creative=gBcvfFpabk3CnzmXKdYe3w&utm_campaign=yelp_api_v3&utm_medium=api_v3_business_search&utm_source=gBcvfFpabk3CnzmXKdYe3w", "categories": [{"alias": "diners", "title": "Diners"}, {"alias": "breakfast_brunch", "title": "Breakfast & Brunch"}], "display_phone": "(617) 350-0028", "is_closed": false, "name": "South Street Diner", "price": "$", "review_count": 525, "coordinates": {"longitude": -71.0577515004882, "latitude": 42.3498603961442}}, {"rating": 4.0, "transactions": [], "image_url": "https://s3-media4.fl.yelpcdn.com/bphoto/cv5lWursQeSPS_Zf5Qz8gQ/o.jpg", "phone": "+16173507275", "id": "battery-park-bar-and-patio-boston-2", "distance": 1790.650819344, "location": {"display_address": ["33 Batterymarch St", "Boston, MA 02110"], "state": "MA", "address2": null, "address1": "33 Batterymarch St", "zip_code": "02110", "city": "Boston", "country": "US", "address3": ""}, "url": "https://www.yelp.com/biz/battery-park-bar-and-patio-boston-2?adjust_creative=gBcvfFpabk3CnzmXKdYe3w&utm_campaign=yelp_api_v3&utm_medium=api_v3_business_search&utm_source=gBcvfFpabk3CnzmXKdYe3w", "categories": [{"alias": "tradamerican", "title": "American (Traditional)"}, {"alias": "lounges", "title": "Lounges"}, {"alias": "sportsbars", "title": "Sports Bars"}], "display_phone": "(617) 350-7275", "is_closed": false, "name": "Battery Park Bar & Patio", "price": "$$", "review_count": 200, "coordinates": {"longitude": -71.054102, "latitude": 42.357783}}, {"rating": 3.5, "transactions": [], "image_url": "https://s3-media3.fl.yelpcdn.com/bphoto/LSNYnV_CzyLJS71SEx_UsA/o.jpg", "phone": "+16177428565", "id": "emmets-irish-pub-and-restaurant-boston", "distance": 1414.778357898, "location": {"display_address": ["6 Beacon St", "Boston, MA 02108"], "state": "MA", "address2": "", "address1": "6 Beacon St", "zip_code": "02108", "city": "Boston", "country": "US", "address3": ""}, "url": "https://www.yelp.com/biz/emmets-irish-pub-and-restaurant-boston?adjust_creative=gBcvfFpabk3CnzmXKdYe3w&utm_campaign=yelp_api_v3&utm_medium=api_v3_business_search&utm_source=gBcvfFpabk3CnzmXKdYe3w", "categories": [{"alias": "pubs", "title": "Pubs"}, {"alias": "irish", "title": "Irish"}, {"alias": "burgers", "title": "Burgers"}], "display_phone": "(617) 742-8565", "is_closed": false, "name": "Emmet's Irish Pub & Restaurant", "price": "$$", "review_count": 208, "coordinates": {"longitude": -71.0612726, "latitude": 42.3582161}}, {"rating": 3.5, "transactions": [], "image_url": "https://s3-media2.fl.yelpcdn.com/bphoto/1SE_LmRXAghlcMRz9af3sw/o.jpg", "phone": "+16172473200", "id": "back-bay-social-club-boston", "distance": 1004.5328080619998, "location": {"display_address": ["867 Boylston St", "Boston, MA 02116"], "state": "MA", "address2": "", "address1": "867 Boylston St", "zip_code": "02116", "city": "Boston", "country": "US", "address3": ""}, "url": "https://www.yelp.com/biz/back-bay-social-club-boston?adjust_creative=gBcvfFpabk3CnzmXKdYe3w&utm_campaign=yelp_api_v3&utm_medium=api_v3_business_search&utm_source=gBcvfFpabk3CnzmXKdYe3w", "categories": [{"alias": "newamerican", "title": "American (New)"}], "display_phone": "(617) 247-3200", "is_closed": false, "name": "Back Bay Social Club", "price": "$$", "review_count": 491, "coordinates": {"longitude": -71.0834503, "latitude": 42.3487206}}, {"rating": 4.0, "transactions": [], "image_url": "https://s3-media2.fl.yelpcdn.com/bphoto/WKPyHgMMaP8oBYm4RDNigw/o.jpg", "phone": "+16175628800", "id": "paradise-rock-club-boston", "distance": 3990.28530503, "location": {"display_address": ["967 Commonwealth Ave", "Boston, MA 02215"], "state": "MA", "address2": "", "address1": "967 Commonwealth Ave", "zip_code": "02215", "city": "Boston", "country": "US", "address3": ""}, "url": "https://www.yelp.com/biz/paradise-rock-club-boston?adjust_creative=gBcvfFpabk3CnzmXKdYe3w&utm_campaign=yelp_api_v3&utm_medium=api_v3_business_search&utm_source=gBcvfFpabk3CnzmXKdYe3w", "categories": [{"alias": "bars", "title": "Bars"}, {"alias": "musicvenues", "title": "Music Venues"}], "display_phone": "(617) 562-8800", "is_closed": false, "name": "Paradise Rock Club", "price": "$$", "review_count": 349, "coordinates": {"longitude": -71.1192632, "latitude": 42.35177}}, {"rating": 3.5, "transactions": [], "image_url": "https://s3-media2.fl.yelpcdn.com/bphoto/QiI-HdjrpDvi58HkfXDfRA/o.jpg", "phone": "+16173380808", "id": "hot-pot-buffet-boston", "distance": 1015.728342706, "location": {"display_address": ["70 Beach St", "Boston, MA 02111"], "state": "MA", "address2": "", "address1": "70 Beach St", "zip_code": "02111", "city": "Boston", "country": "US", "address3": ""}, "url": "https://www.yelp.com/biz/hot-pot-buffet-boston?adjust_creative=gBcvfFpabk3CnzmXKdYe3w&utm_campaign=yelp_api_v3&utm_medium=api_v3_business_search&utm_source=gBcvfFpabk3CnzmXKdYe3w", "categories": [{"alias": "chinese", "title": "Chinese"}, {"alias": "buffets", "title": "Buffets"}, {"alias": "hotpot", "title": "Hot Pot"}], "display_phone": "(617) 338-0808", "is_closed": false, "name": "Hot Pot Buffet", "price": "$$", "review_count": 437, "coordinates": {"longitude": -71.059814453125, "latitude": 42.3513488769531}}, {"rating": 3.5, "transactions": ["delivery", "pickup"], "image_url": "https://s3-media2.fl.yelpcdn.com/bphoto/mLJFzGIud6shQ-LSNZ3HPg/o.jpg", "phone": "+16175428499", "id": "el-triunfo-boston", "distance": 715.6026548532, "location": {"display_address": ["147 E Berkeley St", "Boston, MA 02118"], "state": "MA", "address2": null, "address1": "147 E Berkeley St", "zip_code": "02118", "city": "Boston", "country": "US", "address3": ""}, "url": "https://www.yelp.com/biz/el-triunfo-boston?adjust_creative=gBcvfFpabk3CnzmXKdYe3w&utm_campaign=yelp_api_v3&utm_medium=api_v3_business_search&utm_source=gBcvfFpabk3CnzmXKdYe3w", "categories": [{"alias": "mexican", "title": "Mexican"}], "display_phone": "(617) 542-8499", "is_closed": false, "name": "El Triunfo", "price": "$", "review_count": 222, "coordinates": {"longitude": -71.0647949649984, "latitude": 42.3435162508759}}, {"rating": 3.5, "transactions": [], "image_url": "https://s3-media3.fl.yelpcdn.com/bphoto/8EpwUexAlYIB9-TWq3EYqA/o.jpg", "phone": "+16174821116", "id": "peach-farm-boston", "distance": 961.5989160089999, "location": {"display_address": ["4 Tyler St", "Boston, MA 02111"], "state": "MA", "address2": "", "address1": "4 Tyler St", "zip_code": "02111", "city": "Boston", "country": "US", "address3": ""}, "url": "https://www.yelp.com/biz/peach-farm-boston?adjust_creative=gBcvfFpabk3CnzmXKdYe3w&utm_campaign=yelp_api_v3&utm_medium=api_v3_business_search&utm_source=gBcvfFpabk3CnzmXKdYe3w", "categories": [{"alias": "chinese", "title": "Chinese"}], "display_phone": "(617) 482-1116", "is_closed": false, "name": "Peach Farm", "price": "$$", "review_count": 415, "coordinates": {"longitude": -71.06041, "latitude": 42.35114}}, {"rating": 3.5, "transactions": [], "image_url": "https://s3-media1.fl.yelpcdn.com/bphoto/hTIVSYFl8lypR09ia03-JQ/o.jpg", "phone": "+16175232727", "id": "harvard-gardens-boston", "distance": 1467.364990804, "location": {"display_address": ["316 Cambridge St", "Boston, MA 02114"], "state": "MA", "address2": "", "address1": "316 Cambridge St", "zip_code": "02114", "city": "Boston", "country": "US", "address3": ""}, "url": "https://www.yelp.com/biz/harvard-gardens-boston?adjust_creative=gBcvfFpabk3CnzmXKdYe3w&utm_campaign=yelp_api_v3&utm_medium=api_v3_business_search&utm_source=gBcvfFpabk3CnzmXKdYe3w", "categories": [{"alias": "bars", "title": "Bars"}, {"alias": "tradamerican", "title": "American (Traditional)"}, {"alias": "burgers", "title": "Burgers"}], "display_phone": "(617) 523-2727", "is_closed": false, "name": "Harvard Gardens", "price": "$$", "review_count": 317, "coordinates": {"longitude": -71.0688988, "latitude": 42.3609451}}, {"rating": 3.5, "transactions": [], "image_url": "https://s3-media3.fl.yelpcdn.com/bphoto/2Vbz9F7QINsn11fa-ufg_Q/o.jpg", "phone": "+16176952529", "id": "jj-foleys-bar-and-grille-boston", "distance": 1193.734060492, "location": {"display_address": ["21 Kingston St", "Boston, MA 02111"], "state": "MA", "address2": null, "address1": "21 Kingston St", "zip_code": "02111", "city": "Boston", "country": "US", "address3": ""}, "url": "https://www.yelp.com/biz/jj-foleys-bar-and-grille-boston?adjust_creative=gBcvfFpabk3CnzmXKdYe3w&utm_campaign=yelp_api_v3&utm_medium=api_v3_business_search&utm_source=gBcvfFpabk3CnzmXKdYe3w", "categories": [{"alias": "pubs", "title": "Pubs"}], "display_phone": "(617) 695-2529", "is_closed": false, "name": "JJ Foley's Bar & Grille", "price": "$", "review_count": 155, "coordinates": {"longitude": -71.0592099, "latitude": 42.35384}}, {"rating": 3.5, "transactions": [], "image_url": "https://s3-media2.fl.yelpcdn.com/bphoto/sETb-DsF84Gm4md1__fJwA/o.jpg", "phone": "+16173388858", "id": "dumpling-cafe-boston", "distance": 765.2594681958, "location": {"display_address": ["695 Washington St", "Boston, MA 02111"], "state": "MA", "address2": "", "address1": "695 Washington St", "zip_code": "02111", "city": "Boston", "country": "US", "address3": ""}, "url": "https://www.yelp.com/biz/dumpling-cafe-boston?adjust_creative=gBcvfFpabk3CnzmXKdYe3w&utm_campaign=yelp_api_v3&utm_medium=api_v3_business_search&utm_source=gBcvfFpabk3CnzmXKdYe3w", "categories": [{"alias": "taiwanese", "title": "Taiwanese"}, {"alias": "chinese", "title": "Chinese"}, {"alias": "cafes", "title": "Cafes"}], "display_phone": "(617) 338-8858", "is_closed": false, "name": "Dumpling Cafe", "price": "$$", "review_count": 586, "coordinates": {"longitude": -71.063125, "latitude": 42.351215}}, {"rating": 3.5, "transactions": [], "image_url": "https://s3-media2.fl.yelpcdn.com/bphoto/yo1T2h45ZGSyj7_wqVAeKw/o.jpg", "phone": "+16174233288", "id": "jade-garden-boston", "distance": 931.4125578157999, "location": {"display_address": ["18-20 Tyler St", "Boston, MA 02111"], "state": "MA", "address2": "", "address1": "18-20 Tyler St", "zip_code": "02111", "city": "Boston", "country": "US", "address3": ""}, "url": "https://www.yelp.com/biz/jade-garden-boston?adjust_creative=gBcvfFpabk3CnzmXKdYe3w&utm_campaign=yelp_api_v3&utm_medium=api_v3_business_search&utm_source=gBcvfFpabk3CnzmXKdYe3w", "categories": [{"alias": "chinese", "title": "Chinese"}, {"alias": "seafood", "title": "Seafood"}], "display_phone": "(617) 423-3288", "is_closed": false, "name": "Jade Garden", "price": "$$", "review_count": 155, "coordinates": {"longitude": -71.0606135564487, "latitude": 42.3507521023507}}], "total": 1239}