{"region": {"center": {"longitude": -71.07124328613281, "latitude": 42.34784169448538}}, "businesses": [{"rating": 4.0, "transactions": [], "image_url": "https://s3-media4.fl.yelpcdn.com/bphoto/uFqxdK6Sfkn0FQNFuuiTww/o.jpg", "phone": "+17813960825", "id": "carters-babies-and-kids-medford-2", "distance": 6817.297815219999, "location": {"display_address": ["Fellsway Plaza", "722 Fellsway", "Medford, MA 02155"], "state": "MA", "address2": "722 Fellsway", "address1": "Fellsway Plaza", "zip_code": "02155", "city": "Medford", "country": "US", "address3": ""}, "url": "https://www.yelp.com/biz/carters-babies-and-kids-medford-2?adjust_creative=gBcvfFpabk3CnzmXKdYe3w&utm_campaign=yelp_api_v3&utm_medium=api_v3_business_search&utm_source=gBcvfFpabk3CnzmXKdYe3w", "categories": [{"alias": "accessories", "title": "Accessories"}, {"alias": "childcloth", "title": "Children's Clothing"}, {"alias": "shoes", "title": "Shoe Stores"}], "display_phone": "(781) 396-0825", "is_closed": false, "name": "Carter's Babies & Kids", "price": "$$", "review_count": 6, "coordinates": {"longitude": -71.0847778, "latitude": 42.4098206}}, {"rating": 2.0, "transactions": [], "image_url": "https://s3-media3.fl.yelpcdn.com/bphoto/eDfhtZejCB3Zoe0iKHl3Ow/o.jpg", "phone": "+16172771200", "id": "holiday-inn-boston-brookline-brookline", "distance": 3697.1287353, "location": {"display_address": ["1200 Beacon St", "Brookline, MA 02446"], "state": "MA", "address2": "", "address1": "1200 Beacon St", "zip_code": "02446", "city": "Brookline", "country": "US", "address3": ""}, "url": "https://www.yelp.com/biz/holiday-inn-boston-brookline-brookline?adjust_creative=gBcvfFpabk3CnzmXKdYe3w&utm_campaign=yelp_api_v3&utm_medium=api_v3_business_search&utm_source=gBcvfFpabk3CnzmXKdYe3w", "categories": [{"alias": "hotels", "title": "Hotels"}, {"alias": "venues", "title": "Venues & Event Spaces"}], "display_phone": "(617) 277-1200", "is_closed": false, "name": "Holiday Inn Boston-Brookline", "price": "$$", "review_count": 83, "coordinates": {"longitude": -71.1159336751234, "latitude": 42.3440517151021}}, {"rating": 5.0, "transactions": [], "image_url": "https://s3-media2.fl.yelpcdn.com/bphoto/ymCz82s_G8Qy1awQ5iq2eA/o.jpg", "phone": "+16178630609", "id": "cityside-locksmith-arlington-2", "distance": 9026.274680539998, "location": {"display_address": ["14 Arizona Ter", "Arlington, MA 02474"], "state": "MA", "address2": null, "address1": "14 Arizona Ter", "zip_code": "02474", "city": "Arlington", "country": "US", "address3": ""}, "url": "https://www.yelp.com/biz/cityside-locksmith-arlington-2?adjust_creative=gBcvfFpabk3CnzmXKdYe3w&utm_campaign=yelp_api_v3&utm_medium=api_v3_business_search&utm_source=gBcvfFpabk3CnzmXKdYe3w", "categories": [{"alias": "locksmiths", "title": "Keys & Locksmiths"}], "display_phone": "(617) 863-0609", "is_closed": false, "name": "Cityside Locksmith", "review_count": 7, "coordinates": {"longitude": -71.1337208209015, "latitude": 42.4146227810566}}, {"rating": 4.5, "transactions": [], "image_url": "https://s3-media3.fl.yelpcdn.com/bphoto/fjDZGWLYNyYy_aCSc1HfiQ/o.jpg", "phone": "+17815401243", "id": "all-about-moving-revere-5", "distance": 10150.123473399999, "location": {"display_address": ["Revere, MA 02151"], "state": "MA", "address2": "", "address1": "", "zip_code": "02151", "city": "Revere", "country": "US", "address3": null}, "url": "https://www.yelp.com/biz/all-about-moving-revere-5?adjust_creative=gBcvfFpabk3CnzmXKdYe3w&utm_campaign=yelp_api_v3&utm_medium=api_v3_business_search&utm_source=gBcvfFpabk3CnzmXKdYe3w", "categories": [{"alias": "movers", "title": "Movers"}], "display_phone": "(781) 540-1243", "is_closed": false, "name": "All About Moving", "review_count": 48, "coordinates": {"longitude": -70.9990340820312, "latitude": 42.4219214221905}}, {"rating": 5.0, "transactions": [], "image_url": "https://s3-media2.fl.yelpcdn.com/bphoto/ph2Fl4E5qXQ1odjNkw1KDQ/o.jpg", "phone": "+16177824986", "id": "atlantic-bay-contracting-allston", "distance": 5426.117048808, "location": {"display_address": ["100 Hano St", "Ste 23A", "Allston, MA 02134"], "state": "MA", "address2": "Ste 23A", "address1": "100 Hano St", "zip_code": "02134", "city": "Allston", "country": "US", "address3": ""}, "url": "https://www.yelp.com/biz/atlantic-bay-contracting-allston?adjust_creative=gBcvfFpabk3CnzmXKdYe3w&utm_campaign=yelp_api_v3&utm_medium=api_v3_business_search&utm_source=gBcvfFpabk3CnzmXKdYe3w", "categories": [{"alias": "contractors", "title": "Contractors"}, {"alias": "damagerestoration", "title": "Damage Restoration"}, {"alias": "airductcleaning", "title": "Air Duct Cleaning"}], "display_phone": "(617) 782-4986", "is_closed": false, "name": "Atlantic Bay Contracting", "review_count": 3, "coordinates": {"longitude": -71.1366332, "latitude": 42.3546159}}, {"rating": 2.5, "transactions": [], "image_url": "https://s3-media2.fl.yelpcdn.com/bphoto/bqCi34Q9Ahn8Bn3SaVRcMg/o.jpg", "phone": "+16173544420", "id": "cvs-cambridge-3", "distance": 4900.64790486, "location": {"display_address": ["1426 Massachusetts Ave", "Cambridge, MA 02138"], "state": "MA", "address2": null, "address1": "1426 Massachusetts Ave", "zip_code": "02138", "city": "Cambridge", "country": "US", "address3": ""}, "url": "https://www.yelp.com/biz/cvs-cambridge-3?adjust_creative=gBcvfFpabk3CnzmXKdYe3w&utm_campaign=yelp_api_v3&utm_medium=api_v3_business_search&utm_source=gBcvfFpabk3CnzmXKdYe3w", "categories": [{"alias": "drugstores", "title": "Drugstores"}], "display_phone": "(617) 354-4420", "is_closed": false, "name": "CVS", "price": "$$", "review_count": 33, "coordinates": {"longitude": -71.1190049, "latitude": 42.3738681}}, {"rating": 5.0, "transactions": [], "image_url": "https://s3-media1.fl.yelpcdn.com/bphoto/3g173GB-GtXG3mG3f-X5rg/o.jpg", "phone": "+16175167997", "id": "notary-service-boston-and-legal-running-service-quincy", "distance": 7536.154587739999, "location": {"display_address": ["89 Huckins Ave", "Quincy, MA 02171"], "state": "MA", "address2": "", "address1": "89 Huckins Ave", "zip_code": "02171", "city": "Quincy", "country": "US", "address3": ""}, "url": "https://www.yelp.com/biz/notary-service-boston-and-legal-running-service-quincy?adjust_creative=gBcvfFpabk3CnzmXKdYe3w&utm_campaign=yelp_api_v3&utm_medium=api_v3_business_search&utm_source=gBcvfFpabk3CnzmXKdYe3w", "categories": [{"alias": "notaries", "title": "Notaries"}, {"alias": "publicrelations", "title": "Public Relations"}], "display_phone": "(617) 516-7997", "is_closed": false, "name": "Notary Service Boston & Legal Running Service", "review_count": 5, "coordinates": {"longitude": -71.0104188323021, "latitude": 42.2971037775278}}, {"rating": 3.5, "transactions": [], "image_url": "https://s3-media2.fl.yelpcdn.com/bphoto/ZNwbjBmQBHhm_NmFUUPslw/o.jpg", "phone": "+17816437258", "id": "homewood-suites-by-hilton-boston-cambridge-arlington-ma-arlington", "distance": 8028.514457999999, "location": {"display_address": ["1 Massachusetts Ave", "Arlington, MA 02474"], "state": "MA", "address2": "", "address1": "1 Massachusetts Ave", "zip_code": "02474", "city": "Arlington", "country": "US", "address3": ""}, "url": "https://www.yelp.com/biz/homewood-suites-by-hilton-boston-cambridge-arlington-ma-arlington?adjust_creative=gBcvfFpabk3CnzmXKdYe3w&utm_campaign=yelp_api_v3&utm_medium=api_v3_business_search&utm_source=gBcvfFpabk3CnzmXKdYe3w", "categories": [{"alias": "hotels", "title": "Hotels"}], "display_phone": "(781) 643-7258", "is_closed": false, "name": "Homewood Suites by Hilton Boston/Cambridge-Arlington, MA", "price": "$$", "review_count": 25, "coordinates": {"longitude": -71.136112, "latitude": 42.4018498}}, {"rating": 5.0, "transactions": [], "image_url": "https://s3-media2.fl.yelpcdn.com/bphoto/BOurGKL6V8-iB2mI-RyuVA/o.jpg", "phone": "+16177713658", "id": "dangs-the-builder-llc-dorchester-11", "distance": 5885.011176569999, "location": {"display_address": ["Dorchester, MA 02122"], "state": "MA", "address2": null, "address1": "", "zip_code": "02122", "city": "Dorchester", "country": "US", "address3": ""}, "url": "https://www.yelp.com/biz/dangs-the-builder-llc-dorchester-11?adjust_creative=gBcvfFpabk3CnzmXKdYe3w&utm_campaign=yelp_api_v3&utm_medium=api_v3_business_search&utm_source=gBcvfFpabk3CnzmXKdYe3w", "categories": [{"alias": "contractors", "title": "Contractors"}, {"alias": "handyman", "title": "Handyman"}, {"alias": "painters", "title": "Painters"}], "display_phone": "(617) 771-3658", "is_closed": false, "name": "Dang's The Builder LLC", "review_count": 6, "coordinates": {"longitude": -71.0593643188477, "latitude": 42.2993278503418}}, {"rating": 5.0, "transactions": [], "image_url": "https://s3-media4.fl.yelpcdn.com/bphoto/-P3Lj5-xZ4lFgKRqixMhUA/o.jpg", "phone": "+18779917272", "id": "evelo-electric-bicycles-cambridge", "distance": 1933.6353675219998, "location": {"display_address": ["1 Broadway", "Fl 5", "Cambridge, MA 02142"], "state": "MA", "address2": "Fl 5", "address1": "1 Broadway", "zip_code": "02142", "city": "Cambridge", "country": "US", "address3": ""}, "url": "https://www.yelp.com/biz/evelo-electric-bicycles-cambridge?adjust_creative=gBcvfFpabk3CnzmXKdYe3w&utm_campaign=yelp_api_v3&utm_medium=api_v3_business_search&utm_source=gBcvfFpabk3CnzmXKdYe3w", "categories": [{"alias": "bikes", "title": "Bikes"}], "display_phone": "(877) 991-7272", "is_closed": false, "name": "EVELO Electric Bicycles", "review_count": 2, "coordinates": {"longitude": -71.0832825, "latitude": 42.3627396}}, {"rating": 2.5, "transactions": [], "image_url": "https://s3-media1.fl.yelpcdn.com/bphoto/E_vwq12rEWyyVL_shCSsEQ/o.jpg", "phone": "+16178768888", "id": "star-taxi-of-cambridge-cambridge", "distance": 3656.07688591, "location": {"display_address": ["207 Magazine St", "Cambridge, MA 02139"], "state": "MA", "address2": "", "address1": "207 Magazine St", "zip_code": "02139", "city": "Cambridge", "country": "US", "address3": ""}, "url": "https://www.yelp.com/biz/star-taxi-of-cambridge-cambridge?adjust_creative=gBcvfFpabk3CnzmXKdYe3w&utm_campaign=yelp_api_v3&utm_medium=api_v3_business_search&utm_source=gBcvfFpabk3CnzmXKdYe3w", "categories": [{"alias": "taxis", "title": "Taxis"}], "display_phone": "(617) 876-8888", "is_closed": false, "name": "Star Taxi of Cambridge", "review_count": 10, "coordinates": {"longitude": -71.11418, "latitude": 42.35674}}, {"rating": 2.0, "transactions": [], "image_url": "https://s3-media3.fl.yelpcdn.com/bphoto/x01r9Mk-HuKSWb_ZpS-1bg/o.jpg", "phone": "+16173272180", "id": "imperial-kitchen-roslindale", "distance": 8378.9562897, "location": {"display_address": ["50 Corinth St", "Roslindale, MA 02131"], "state": "MA", "address2": "", "address1": "50 Corinth St", "zip_code": "02131", "city": "Roslindale", "country": "US", "address3": ""}, "url": "https://www.yelp.com/biz/imperial-kitchen-roslindale?adjust_creative=gBcvfFpabk3CnzmXKdYe3w&utm_campaign=yelp_api_v3&utm_medium=api_v3_business_search&utm_source=gBcvfFpabk3CnzmXKdYe3w", "categories": [{"alias": "chinese", "title": "Chinese"}], "display_phone": "(617) 327-2180", "is_closed": false, "name": "Imperial Kitchen", "price": "$$", "review_count": 29, "coordinates": {"longitude": -71.1295075714588, "latitude": 42.2860980033875}}, {"rating": 3.0, "transactions": [], "image_url": "https://s3-media1.fl.yelpcdn.com/bphoto/YvRKG3HWcMA_o1gzI2VQJQ/o.jpg", "phone": "+16175914500", "id": "cha-somerville-hospital-campus-somerville", "distance": 5634.715515323999, "location": {"display_address": ["230 Highland Ave.", "Somerville, MA 02143"], "state": "MA", "address2": "", "address1": "230 Highland Ave.", "zip_code": "02143", "city": "Somerville", "country": "US", "address3": ""}, "url": "https://www.yelp.com/biz/cha-somerville-hospital-campus-somerville?adjust_creative=gBcvfFpabk3CnzmXKdYe3w&utm_campaign=yelp_api_v3&utm_medium=api_v3_business_search&utm_source=gBcvfFpabk3CnzmXKdYe3w", "categories": [{"alias": "hospitals", "title": "Hospitals"}, {"alias": "urgent_care", "title": "Urgent Care"}], "display_phone": "(617) 591-4500", "is_closed": false, "name": "CHA Somerville Hospital Campus", "review_count": 22, "coordinates": {"longitude": -71.1088964, "latitude": 42.3904817}}, {"rating": 5.0, "transactions": [], "image_url": "https://s3-media3.fl.yelpcdn.com/bphoto/4LI_9ZKZwjrCiECJ4ub9dQ/o.jpg", "phone": "+16176342744", "id": "always-faithful-locksmith-watertown", "distance": 9521.244900279999, "location": {"display_address": ["Watertown, MA 02472"], "state": "MA", "address2": "", "address1": "", "zip_code": "02472", "city": "Watertown", "country": "US", "address3": ""}, "url": "https://www.yelp.com/biz/always-faithful-locksmith-watertown?adjust_creative=gBcvfFpabk3CnzmXKdYe3w&utm_campaign=yelp_api_v3&utm_medium=api_v3_business_search&utm_source=gBcvfFpabk3CnzmXKdYe3w", "categories": [{"alias": "locksmiths", "title": "Keys & Locksmiths"}], "display_phone": "(617) 634-2744", "is_closed": false, "name": "Always Faithful Locksmith", "review_count": 5, "coordinates": {"longitude": -71.1828321, "latitude": 42.3709299}}, {"rating": 3.5, "transactions": [], "image_url": "https://s3-media2.fl.yelpcdn.com/bphoto/nnKER4Y7IdEcsg4zz8NMfg/o.jpg", "phone": "+17812195275", "id": "planet-fitness-medford-medford", "distance": 6950.976998583999, "location": {"display_address": ["696 Fellsway Plz", "Medford, MA 02155"], "state": "MA", "address2": "", "address1": "696 Fellsway Plz", "zip_code": "02155", "city": "Medford", "country": "US", "address3": ""}, "url": "https://www.yelp.com/biz/planet-fitness-medford-medford?adjust_creative=gBcvfFpabk3CnzmXKdYe3w&utm_campaign=yelp_api_v3&utm_medium=api_v3_business_search&utm_source=gBcvfFpabk3CnzmXKdYe3w", "categories": [{"alias": "gyms", "title": "Gyms"}, {"alias": "healthtrainers", "title": "Trainers"}], "display_phone": "(781) 219-5275", "is_closed": false, "name": "Planet Fitness - Medford", "review_count": 32, "coordinates": {"longitude": -71.084554, "latitude": 42.409575}}, {"rating": 5.0, "transactions": [], "image_url": "https://s3-media4.fl.yelpcdn.com/bphoto/i5ppxtKAdpardMdT8bAzJA/o.jpg", "phone": "+16174438603", "id": "mobile-innovation-space-south-boston", "distance": 2978.581277928, "location": {"display_address": ["110 K St", "Ste 330", "South Boston, MA 02127"], "state": "MA", "address2": "Ste 330", "address1": "110 K St", "zip_code": "02127", "city": "South Boston", "country": "US", "address3": null}, "url": "https://www.yelp.com/biz/mobile-innovation-space-south-boston?adjust_creative=gBcvfFpabk3CnzmXKdYe3w&utm_campaign=yelp_api_v3&utm_medium=api_v3_business_search&utm_source=gBcvfFpabk3CnzmXKdYe3w", "categories": [{"alias": "sharedofficespaces", "title": "Shared Office Spaces"}], "display_phone": "(617) 443-8603", "is_closed": false, "name": "Mobile Innovation Space", "review_count": 1, "coordinates": {"longitude": -71.0373743, "latitude": 42.3385535}}, {"rating": 3.0, "transactions": [], "image_url": "https://s3-media2.fl.yelpcdn.com/bphoto/B38hpzMCm83xULJL_cqXlg/o.jpg", "phone": "+18558887160", "id": "go-buses-cambridge-2", "distance": 7893.6195792, "location": {"display_address": ["Alewife Brook Parkway and Cambridge Park Drive", "Cambridge, MA 02466"], "state": "MA", "address2": "", "address1": "Alewife Brook Parkway and Cambridge Park Drive", "zip_code": "02466", "city": "Cambridge", "country": "US", "address3": ""}, "url": "https://www.yelp.com/biz/go-buses-cambridge-2?adjust_creative=gBcvfFpabk3CnzmXKdYe3w&utm_campaign=yelp_api_v3&utm_medium=api_v3_business_search&utm_source=gBcvfFpabk3CnzmXKdYe3w", "categories": [{"alias": "buses", "title": "Buses"}], "display_phone": "(855) 888-7160", "is_closed": false, "name": "Go Buses", "review_count": 163, "coordinates": {"longitude": -71.142476298647, "latitude": 42.3954844018654}}, {"rating": 4.5, "transactions": [], "image_url": "https://s3-media3.fl.yelpcdn.com/bphoto/IUzv7GMmqdEXbv2bynNN_w/o.jpg", "phone": "+16179099498", "id": "jpr-plumbing-and-heating-newton-6", "distance": 10327.086982601999, "location": {"display_address": ["31 Capital St", "Newton, MA 02458"], "state": "MA", "address2": null, "address1": "31 Capital St", "zip_code": "02458", "city": "Newton", "country": "US", "address3": ""}, "url": "https://www.yelp.com/biz/jpr-plumbing-and-heating-newton-6?adjust_creative=gBcvfFpabk3CnzmXKdYe3w&utm_campaign=yelp_api_v3&utm_medium=api_v3_business_search&utm_source=gBcvfFpabk3CnzmXKdYe3w", "categories": [{"alias": "plumbing", "title": "Plumbing"}, {"alias": "waterheaterinstallrepair", "title": "Water Heater Installation/Repair"}], "display_phone": "(617) 909-9498", "is_closed": false, "name": "JPR Plumbing and Heating", "review_count": 25, "coordinates": {"longitude": -71.1957443, "latitude": 42.3604968}}, {"rating": 2.5, "transactions": [], "image_url": "https://s3-media1.fl.yelpcdn.com/bphoto/MSRvx1UR8lyZaRPd_OORhg/o.jpg", "phone": "+17812867600", "id": "las-delicias-colombianas-revere", "distance": 9054.196729539999, "location": {"display_address": ["86 Shirley Ave", "Revere, MA 02151"], "state": "MA", "address2": null, "address1": "86 Shirley Ave", "zip_code": "02151", "city": "Revere", "country": "US", "address3": null}, "url": "https://www.yelp.com/biz/las-delicias-colombianas-revere?adjust_creative=gBcvfFpabk3CnzmXKdYe3w&utm_campaign=yelp_api_v3&utm_medium=api_v3_business_search&utm_source=gBcvfFpabk3CnzmXKdYe3w", "categories": [{"alias": "colombian", "title": "Colombian"}, {"alias": "bars", "title": "Bars"}], "display_phone": "(781) 286-7600", "is_closed": false, "name": "Las Delicias Colombianas", "price": "$$", "review_count": 5, "coordinates": {"longitude": -70.9974136352539, "latitude": 42.4083099365234}}, {"rating": 5.0, "transactions": [], "image_url": "https://s3-media4.fl.yelpcdn.com/bphoto/u2ltqsgC4fldPWGmzK-d2w/o.jpg", "phone": "+16177109011", "id": "the-kitty-butler-cambridge-2", "distance": 6629.823706478, "location": {"display_address": ["Cambridge, MA 02138"], "state": "MA", "address2": null, "address1": "", "zip_code": "02138", "city": "Cambridge", "country": "US", "address3": ""}, "url": "https://www.yelp.com/biz/the-kitty-butler-cambridge-2?adjust_creative=gBcvfFpabk3CnzmXKdYe3w&utm_campaign=yelp_api_v3&utm_medium=api_v3_business_search&utm_source=gBcvfFpabk3CnzmXKdYe3w", "categories": [{"alias": "pet_sitting", "title": "Pet Boarding/Pet Sitting"}], "display_phone": "(617) 710-9011", "is_closed": false, "name": "The Kitty Butler", "review_count": 6, "coordinates": {"longitude": -71.1347045898438, "latitude": 42.3800354003906}}, {"rating": 3.0, "transactions": [], "image_url": "https://s3-media2.fl.yelpcdn.com/bphoto/a573FKq6sE7Q5NTIK-gYnQ/o.jpg", "phone": "+16175914600", "id": "cambridge-health-alliance-assembly-square-somerville", "distance": 4889.290148743999, "location": {"display_address": ["5 Middlesex Ave", "Somerville, MA 02145"], "state": "MA", "address2": "", "address1": "5 Middlesex Ave", "zip_code": "02145", "city": "Somerville", "country": "US", "address3": ""}, "url": "https://www.yelp.com/biz/cambridge-health-alliance-assembly-square-somerville?adjust_creative=gBcvfFpabk3CnzmXKdYe3w&utm_campaign=yelp_api_v3&utm_medium=api_v3_business_search&utm_source=gBcvfFpabk3CnzmXKdYe3w", "categories": [{"alias": "physicaltherapy", "title": "Physical Therapy"}, {"alias": "orthopedists", "title": "Orthopedists"}, {"alias": "speech_therapists", "title": "Speech Therapists"}], "display_phone": "(617) 591-4600", "is_closed": false, "name": "Cambridge Health Alliance Assembly Square", "review_count": 12, "coordinates": {"longitude": -71.0816879, "latitude": 42.3914986}}, {"rating": 5.0, "transactions": [], "image_url": "https://s3-media2.fl.yelpcdn.com/bphoto/cej4ejzVQKw74f5h9xrNGQ/o.jpg", "phone": "+16174611250", "id": "cambridge-on-the-move-moving-cambridge", "distance": 3528.3377764859997, "location": {"display_address": ["11 Inman St", "Cambridge, MA 02139"], "state": "MA", "address2": null, "address1": "11 Inman St", "zip_code": "02139", "city": "Cambridge", "country": "US", "address3": ""}, "url": "https://www.yelp.com/biz/cambridge-on-the-move-moving-cambridge?adjust_creative=gBcvfFpabk3CnzmXKdYe3w&utm_campaign=yelp_api_v3&utm_medium=api_v3_business_search&utm_source=gBcvfFpabk3CnzmXKdYe3w", "categories": [{"alias": "movers", "title": "Movers"}], "display_phone": "(617) 461-1250", "is_closed": false, "name": "Cambridge On The Move Moving", "review_count": 1, "coordinates": {"longitude": -71.1051712036133, "latitude": 42.3673667907715}}, {"rating": 2.5, "transactions": [], "image_url": "https://s3-media1.fl.yelpcdn.com/bphoto/dMwObxdmRX5P0XKcrP4Ncg/o.jpg", "phone": "+16173239851", "id": "dunkin-donuts-roslindale", "distance": 8085.534983539999, "location": {"display_address": ["4165 Washington St", "Roslindale, MA 02131"], "state": "MA", "address2": "", "address1": "4165 Washington St", "zip_code": "02131", "city": "Roslindale", "country": "US", "address3": ""}, "url": "https://www.yelp.com/biz/dunkin-donuts-roslindale?adjust_creative=gBcvfFpabk3CnzmXKdYe3w&utm_campaign=yelp_api_v3&utm_medium=api_v3_business_search&utm_source=gBcvfFpabk3CnzmXKdYe3w", "categories": [{"alias": "donuts", "title": "Donuts"}, {"alias": "coffee", "title": "Coffee & Tea"}], "display_phone": "(617) 323-9851", "is_closed": false, "name": "Dunkin' Donuts", "price": "$", "review_count": 7, "coordinates": {"longitude": -71.1270077835859, "latitude": 42.2879482170964}}, {"rating": 5.0, "transactions": [], "image_url": "https://s3-media3.fl.yelpcdn.com/bphoto/qSCP6jnQTAO15qSNAHNjPg/o.jpg", "phone": "+16172277700", "id": "groundlane-boston-airport-car-service-boston", "distance": 9845.318339815998, "location": {"display_address": ["Boston, MA 02114"], "state": "MA", "address2": "", "address1": "", "zip_code": "02114", "city": "Boston", "country": "US", "address3": ""}, "url": "https://www.yelp.com/biz/groundlane-boston-airport-car-service-boston?adjust_creative=gBcvfFpabk3CnzmXKdYe3w&utm_campaign=yelp_api_v3&utm_medium=api_v3_business_search&utm_source=gBcvfFpabk3CnzmXKdYe3w", "categories": [{"alias": "taxis", "title": "Taxis"}, {"alias": "limos", "title": "Limos"}], "display_phone": "(617) 227-7700", "is_closed": false, "name": "GroundLane - Boston Airport Car Service", "review_count": 2, "coordinates": {"longitude": -71.1507400235504, "latitude": 42.4141081945504}}, {"rating": 5.0, "transactions": [], "image_url": "", "phone": "+16177704503", "id": "willards-disposal-service-quincy", "distance": 9071.849579999998, "location": {"display_address": ["38 Billings Rd", "Quincy, MA 02171"], "state": "MA", "address2": "", "address1": "38 Billings Rd", "zip_code": "02171", "city": "Quincy", "country": "US", "address3": ""}, "url": "https://www.yelp.com/biz/willards-disposal-service-quincy?adjust_creative=gBcvfFpabk3CnzmXKdYe3w&utm_campaign=yelp_api_v3&utm_medium=api_v3_business_search&utm_source=gBcvfFpabk3CnzmXKdYe3w", "categories": [{"alias": "junkremovalandhauling", "title": "Junk Removal & Hauling"}], "display_phone": "(617) 770-4503", "is_closed": false, "name": "Willard's Disposal Service", "review_count": 11, "coordinates": {"longitude": -71.0253513, "latitude": 42.2736525}}, {"rating": 1.5, "transactions": [], "image_url": "https://s3-media1.fl.yelpcdn.com/bphoto/bXgjVkWOIxdikFqCqmII2Q/o.jpg", "phone": "+16174973733", "id": "budget-rent-a-car-east-boston", "distance": 4119.649043183999, "location": {"display_address": ["20 Tomahawk Dr", "Logan International Airport", "East Boston, MA 02128"], "state": "MA", "address2": "", "address1": "20 Tomahawk Dr", "zip_code": "02128", "city": "East Boston", "country": "US", "address3": "Logan International Airport"}, "url": "https://www.yelp.com/biz/budget-rent-a-car-east-boston?adjust_creative=gBcvfFpabk3CnzmXKdYe3w&utm_campaign=yelp_api_v3&utm_medium=api_v3_business_search&utm_source=gBcvfFpabk3CnzmXKdYe3w", "categories": [{"alias": "carrental", "title": "Car Rental"}], "display_phone": "(617) 497-3733", "is_closed": false, "name": "Budget Rent a Car", "review_count": 167, "coordinates": {"longitude": -71.0293920528126, "latitude": 42.3682412637628}}, {"rating": 5.0, "transactions": [], "image_url": "https://s3-media3.fl.yelpcdn.com/bphoto/5OR25rrUt5Cu00TpBLPZRA/o.jpg", "phone": "+18778297334", "id": "tax-prep-boston-cambridge", "distance": 3554.6615899319995, "location": {"display_address": ["139 Magazine St", "Cambridge, MA 02139"], "state": "MA", "address2": null, "address1": "139 Magazine St", "zip_code": "02139", "city": "Cambridge", "country": "US", "address3": ""}, "url": "https://www.yelp.com/biz/tax-prep-boston-cambridge?adjust_creative=gBcvfFpabk3CnzmXKdYe3w&utm_campaign=yelp_api_v3&utm_medium=api_v3_business_search&utm_source=gBcvfFpabk3CnzmXKdYe3w", "categories": [{"alias": "payroll", "title": "Payroll Services"}, {"alias": "financialadvising", "title": "Financial Advising"}, {"alias": "taxservices", "title": "Tax Services"}], "display_phone": "(877) 829-7334", "is_closed": false, "name": "Tax Prep Boston", "review_count": 1, "coordinates": {"longitude": -71.111973, "latitude": 42.358605}}, {"rating": 5.0, "transactions": [], "image_url": "https://s3-media3.fl.yelpcdn.com/bphoto/AKM0XHIgooX-RfEco2JLUA/o.jpg", "phone": "+17812413557", "id": "city-service-plumbing-everett-3", "distance": 6889.7358179600005, "location": {"display_address": ["Everett, MA 02149"], "state": "MA", "address2": "", "address1": "", "zip_code": "02149", "city": "Everett", "country": "US", "address3": null}, "url": "https://www.yelp.com/biz/city-service-plumbing-everett-3?adjust_creative=gBcvfFpabk3CnzmXKdYe3w&utm_campaign=yelp_api_v3&utm_medium=api_v3_business_search&utm_source=gBcvfFpabk3CnzmXKdYe3w", "categories": [{"alias": "plumbing", "title": "Plumbing"}, {"alias": "waterheaterinstallrepair", "title": "Water Heater Installation/Repair"}], "display_phone": "(781) 241-3557", "is_closed": false, "name": "City Service Plumbing", "review_count": 2, "coordinates": {"longitude": -71.0544204711914, "latitude": 42.4066581726074}}, {"rating": 2.5, "transactions": [], "image_url": "https://s3-media3.fl.yelpcdn.com/bphoto/NR4cvOf49juJ0VCiebF5tw/o.jpg", "phone": "+17812869090", "id": "revere-hookah-and-lounge-revere", "distance": 8358.293007835999, "location": {"display_address": ["10 Winthrop Ave", "Revere, MA 02151"], "state": "MA", "address2": "", "address1": "10 Winthrop Ave", "zip_code": "02151", "city": "Revere", "country": "US", "address3": ""}, "url": "https://www.yelp.com/biz/revere-hookah-and-lounge-revere?adjust_creative=gBcvfFpabk3CnzmXKdYe3w&utm_campaign=yelp_api_v3&utm_medium=api_v3_business_search&utm_source=gBcvfFpabk3CnzmXKdYe3w", "categories": [{"alias": "tobaccoshops", "title": "Tobacco Shops"}, {"alias": "hookah_bars", "title": "Hookah Bars"}], "display_phone": "(781) 286-9090", "is_closed": false, "name": "Revere Hookah & Lounge", "price": "$$$$", "review_count": 5, "coordinates": {"longitude": -71.0120087, "latitude": 42.4089615}}, {"rating": 5.0, "transactions": [], "image_url": "", "phone": "", "id": "the-m\u00b5seum-somerville", "distance": 4046.6196079939996, "location": {"display_address": ["72 1/2 Union Square", "Somerville, MA 02144"], "state": "MA", "address2": "", "address1": "72 1/2 Union Square", "zip_code": "02144", "city": "Somerville", "country": "US", "address3": ""}, "url": "https://www.yelp.com/biz/the-m%C2%B5seum-somerville?adjust_creative=gBcvfFpabk3CnzmXKdYe3w&utm_campaign=yelp_api_v3&utm_medium=api_v3_business_search&utm_source=gBcvfFpabk3CnzmXKdYe3w", "categories": [{"alias": "museums", "title": "Museums"}], "display_phone": "", "is_closed": false, "name": "The M\u00b5seum", "review_count": 1, "coordinates": {"longitude": -71.0949703872013, "latitude": 42.3797324333587}}, {"rating": 3.5, "transactions": [], "image_url": "https://s3-media1.fl.yelpcdn.com/bphoto/L0LxeZxqxflBkn7MV29Q6A/o.jpg", "phone": "+16177318800", "id": "fedex-office-print-and-ship-center-chestnut-hill", "distance": 8329.99533888, "location": {"display_address": ["1244 Boylston St", "Chestnut Hill, MA 02467"], "state": "MA", "address2": "", "address1": "1244 Boylston St", "zip_code": "02467", "city": "Chestnut Hill", "country": "US", "address3": ""}, "url": "https://www.yelp.com/biz/fedex-office-print-and-ship-center-chestnut-hill?adjust_creative=gBcvfFpabk3CnzmXKdYe3w&utm_campaign=yelp_api_v3&utm_medium=api_v3_business_search&utm_source=gBcvfFpabk3CnzmXKdYe3w", "categories": [{"alias": "shipping_centers", "title": "Shipping Centers"}, {"alias": "copyshops", "title": "Printing Services"}, {"alias": "signmaking", "title": "Signmaking"}], "display_phone": "(617) 731-8800", "is_closed": false, "name": "FedEx Office Print & Ship Center", "review_count": 14, "coordinates": {"longitude": -71.166613, "latitude": 42.322502}}, {"rating": 3.0, "transactions": [], "image_url": "https://s3-media2.fl.yelpcdn.com/bphoto/HI9Q5l6LgLahaYSazZ8GkQ/o.jpg", "phone": "+16172422345", "id": "michael-t-famiglietti-cpa-charlestown-3", "distance": 4114.103418477999, "location": {"display_address": ["529 Main St", "Ste P200", "Schrafft's Center Powerhouse", "Charlestown, MA 02129"], "state": "MA", "address2": "Ste P200", "address1": "529 Main St", "zip_code": "02129", "city": "Charlestown", "country": "US", "address3": "Schrafft's Center Powerhouse"}, "url": "https://www.yelp.com/biz/michael-t-famiglietti-cpa-charlestown-3?adjust_creative=gBcvfFpabk3CnzmXKdYe3w&utm_campaign=yelp_api_v3&utm_medium=api_v3_business_search&utm_source=gBcvfFpabk3CnzmXKdYe3w", "categories": [{"alias": "accountants", "title": "Accountants"}, {"alias": "taxservices", "title": "Tax Services"}], "display_phone": "(617) 242-2345", "is_closed": false, "name": "Michael T Famiglietti, CPA", "review_count": 2, "coordinates": {"longitude": -71.071451, "latitude": 42.3848424}}, {"rating": 5.0, "transactions": [], "image_url": "https://s3-media4.fl.yelpcdn.com/bphoto/1t06MS5fsMPKGV2dwi-XDA/o.jpg", "phone": "+16176159695", "id": "jumbotwist-entertainment-brookline", "distance": 4141.23254566, "location": {"display_address": ["28 Juniper St", "Brookline, MA 02445"], "state": "MA", "address2": "", "address1": "28 Juniper St", "zip_code": "02445", "city": "Brookline", "country": "US", "address3": ""}, "url": "https://www.yelp.com/biz/jumbotwist-entertainment-brookline?adjust_creative=gBcvfFpabk3CnzmXKdYe3w&utm_campaign=yelp_api_v3&utm_medium=api_v3_business_search&utm_source=gBcvfFpabk3CnzmXKdYe3w", "categories": [{"alias": "eventplanning", "title": "Party & Event Planning"}], "display_phone": "(617) 615-9695", "is_closed": false, "name": "JumboTwist Entertainment", "review_count": 1, "coordinates": {"longitude": -71.11636, "latitude": 42.33038}}, {"rating": 5.0, "transactions": [], "image_url": "https://s3-media4.fl.yelpcdn.com/bphoto/MB7LoN4jZUySlXNtcVY80g/o.jpg", "phone": "+16172410016", "id": "charlestown-rehearsal-studios-charlestown", "distance": 3987.2763220319994, "location": {"display_address": ["50 Terminal St", "Charlestown, MA 02129"], "state": "MA", "address2": "", "address1": "50 Terminal St", "zip_code": "02129", "city": "Charlestown", "country": "US", "address3": ""}, "url": "https://www.yelp.com/biz/charlestown-rehearsal-studios-charlestown?adjust_creative=gBcvfFpabk3CnzmXKdYe3w&utm_campaign=yelp_api_v3&utm_medium=api_v3_business_search&utm_source=gBcvfFpabk3CnzmXKdYe3w", "categories": [{"alias": "recording_studios", "title": "Recording & Rehearsal Studios"}], "display_phone": "(617) 241-0016", "is_closed": false, "name": "Charlestown Rehearsal Studios", "review_count": 1, "coordinates": {"longitude": -71.0533495992422, "latitude": 42.381244674325}}, {"rating": 5.0, "transactions": [], "image_url": "https://s3-media3.fl.yelpcdn.com/bphoto/wGF51d2DCjxec4rSiM7MEQ/o.jpg", "phone": "+17813936969", "id": "middlesex-tree-service-medford", "distance": 8356.53657416, "location": {"display_address": ["Medford, MA 02155"], "state": "MA", "address2": "", "address1": "", "zip_code": "02155", "city": "Medford", "country": "US", "address3": ""}, "url": "https://www.yelp.com/biz/middlesex-tree-service-medford?adjust_creative=gBcvfFpabk3CnzmXKdYe3w&utm_campaign=yelp_api_v3&utm_medium=api_v3_business_search&utm_source=gBcvfFpabk3CnzmXKdYe3w", "categories": [{"alias": "treeservices", "title": "Tree Services"}], "display_phone": "(781) 393-6969", "is_closed": false, "name": "Middlesex Tree Service", "review_count": 11, "coordinates": {"longitude": -71.1078262329102, "latitude": 42.4230613708496}}, {"rating": 5.0, "transactions": [], "image_url": "https://s3-media4.fl.yelpcdn.com/bphoto/RTM6DdxCSbv5SZ_RtfOIgw/o.jpg", "phone": "+16178849545", "id": "polish-political-club-chelsea", "distance": 5009.189680226, "location": {"display_address": ["58 Broadway", "Chelsea, MA 02150"], "state": "MA", "address2": "", "address1": "58 Broadway", "zip_code": "02150", "city": "Chelsea", "country": "US", "address3": ""}, "url": "https://www.yelp.com/biz/polish-political-club-chelsea?adjust_creative=gBcvfFpabk3CnzmXKdYe3w&utm_campaign=yelp_api_v3&utm_medium=api_v3_business_search&utm_source=gBcvfFpabk3CnzmXKdYe3w", "categories": [{"alias": "bars", "title": "Bars"}, {"alias": "musicvenues", "title": "Music Venues"}, {"alias": "venues", "title": "Venues & Event Spaces"}], "display_phone": "(617) 884-9545", "is_closed": false, "name": "Polish Political Club", "review_count": 1, "coordinates": {"longitude": -71.0432410240173, "latitude": 42.3879159986973}}, {"rating": 2.5, "transactions": [], "image_url": "https://s3-media2.fl.yelpcdn.com/bphoto/FbKEMAGyBIcUB8gfM1ESWg/o.jpg", "phone": "+16179311945", "id": "wjmn-jamn-94-5-1-medford", "distance": 6618.410749999999, "location": {"display_address": ["10 Cabot Rd", "Ste 302", "Medford, MA 02155"], "state": "MA", "address2": "Ste 302", "address1": "10 Cabot Rd", "zip_code": "02155", "city": "Medford", "country": "US", "address3": ""}, "url": "https://www.yelp.com/biz/wjmn-jamn-94-5-1-medford?adjust_creative=gBcvfFpabk3CnzmXKdYe3w&utm_campaign=yelp_api_v3&utm_medium=api_v3_business_search&utm_source=gBcvfFpabk3CnzmXKdYe3w", "categories": [{"alias": "radiostations", "title": "Radio Stations"}], "display_phone": "(617) 931-1945", "is_closed": false, "name": "WJMN- JAM'N 94.5 #1", "review_count": 24, "coordinates": {"longitude": -71.07559, "latitude": 42.40743}}, {"rating": 2.5, "transactions": [], "image_url": "https://s3-media2.fl.yelpcdn.com/bphoto/088VXbER-gs8Cx1Hl5EWSw/o.jpg", "phone": "+16177386606", "id": "certified-property-management-brookline", "distance": 3674.2847977359997, "location": {"display_address": ["1195 Beacon St", "Brookline, MA 02446"], "state": "MA", "address2": "", "address1": "1195 Beacon St", "zip_code": "02446", "city": "Brookline", "country": "US", "address3": ""}, "url": "https://www.yelp.com/biz/certified-property-management-brookline?adjust_creative=gBcvfFpabk3CnzmXKdYe3w&utm_campaign=yelp_api_v3&utm_medium=api_v3_business_search&utm_source=gBcvfFpabk3CnzmXKdYe3w", "categories": [{"alias": "propertymgmt", "title": "Property Management"}], "display_phone": "(617) 738-6606", "is_closed": false, "name": "Certified Property Management", "review_count": 9, "coordinates": {"longitude": -71.1155749, "latitude": 42.3435766}}, {"rating": 5.0, "transactions": [], "image_url": "https://s3-media3.fl.yelpcdn.com/bphoto/ojxZ_g0UDgM_6oiBGjVoiA/o.jpg", "phone": "+16039784585", "id": "nystedt-photography-watertown-2", "distance": 8896.2223058, "location": {"display_address": ["4 Franklin St", "Watertown, MA 02472"], "state": "MA", "address2": "", "address1": "4 Franklin St", "zip_code": "02472", "city": "Watertown", "country": "US", "address3": ""}, "url": "https://www.yelp.com/biz/nystedt-photography-watertown-2?adjust_creative=gBcvfFpabk3CnzmXKdYe3w&utm_campaign=yelp_api_v3&utm_medium=api_v3_business_search&utm_source=gBcvfFpabk3CnzmXKdYe3w", "categories": [{"alias": "sessionphotography", "title": "Session Photography"}, {"alias": "eventphotography", "title": "Event Photography"}], "display_phone": "(603) 978-4585", "is_closed": false, "name": "Nystedt Photography", "review_count": 3, "coordinates": {"longitude": -71.1758024990559, "latitude": 42.3682956397533}}, {"rating": 5.0, "transactions": [], "image_url": "https://s3-media3.fl.yelpcdn.com/bphoto/HbTPUdKb7rMLVVRSicOSrg/o.jpg", "phone": "+16172718650", "id": "mr-paint-brookline", "distance": 4385.985479012, "location": {"display_address": ["Brookline, MA 02446"], "state": "MA", "address2": "", "address1": "", "zip_code": "02446", "city": "Brookline", "country": "US", "address3": ""}, "url": "https://www.yelp.com/biz/mr-paint-brookline?adjust_creative=gBcvfFpabk3CnzmXKdYe3w&utm_campaign=yelp_api_v3&utm_medium=api_v3_business_search&utm_source=gBcvfFpabk3CnzmXKdYe3w", "categories": [{"alias": "painters", "title": "Painters"}], "display_phone": "(617) 271-8650", "is_closed": false, "name": "Mr Paint", "review_count": 1, "coordinates": {"longitude": -71.12385, "latitude": 42.34247}}, {"rating": 2.5, "transactions": [], "image_url": "https://s3-media3.fl.yelpcdn.com/bphoto/ZNuyZC-4sUGL0PZeZgdCGA/o.jpg", "phone": "+17812967259", "id": "metric-cab-inc-medford", "distance": 6359.276271606, "location": {"display_address": ["407R Mystic Ave", "Ste 34B", "Medford, MA 02155"], "state": "MA", "address2": "Ste 34B", "address1": "407R Mystic Ave", "zip_code": "02155", "city": "Medford", "country": "US", "address3": ""}, "url": "https://www.yelp.com/biz/metric-cab-inc-medford?adjust_creative=gBcvfFpabk3CnzmXKdYe3w&utm_campaign=yelp_api_v3&utm_medium=api_v3_business_search&utm_source=gBcvfFpabk3CnzmXKdYe3w", "categories": [{"alias": "taxis", "title": "Taxis"}], "display_phone": "(781) 296-7259", "is_closed": false, "name": "Metric Cab, Inc", "review_count": 20, "coordinates": {"longitude": -71.0976715, "latitude": 42.4009514}}, {"rating": 4.0, "transactions": [], "image_url": "https://s3-media2.fl.yelpcdn.com/bphoto/OxYEpbmvFqX1QPapVhboJw/o.jpg", "phone": "+16178647378", "id": "servpro-of-cambridge-belmont-cambridge-3", "distance": 8325.451689258, "location": {"display_address": ["67 Smith Pl", "Ste 5", "Cambridge, MA 02138"], "state": "MA", "address2": "Ste 5", "address1": "67 Smith Pl", "zip_code": "02138", "city": "Cambridge", "country": "US", "address3": ""}, "url": "https://www.yelp.com/biz/servpro-of-cambridge-belmont-cambridge-3?adjust_creative=gBcvfFpabk3CnzmXKdYe3w&utm_campaign=yelp_api_v3&utm_medium=api_v3_business_search&utm_source=gBcvfFpabk3CnzmXKdYe3w", "categories": [{"alias": "damagerestoration", "title": "Damage Restoration"}], "display_phone": "(617) 864-7378", "is_closed": false, "name": "SERVPRO of Cambridge/Belmont", "review_count": 5, "coordinates": {"longitude": -71.1522903442383, "latitude": 42.3934020996094}}, {"rating": 1.0, "transactions": ["delivery", "pickup"], "image_url": "https://s3-media2.fl.yelpcdn.com/bphoto/LZKVgL3Hkq5uzkJeYYcsIA/o.jpg", "phone": "+16178222500", "id": "regal-cafe-and-pizzeria-mattapan", "distance": 7239.20078028, "location": {"display_address": ["686 Morton St", "Mattapan, MA 02126"], "state": "MA", "address2": "", "address1": "686 Morton St", "zip_code": "02126", "city": "Mattapan", "country": "US", "address3": ""}, "url": "https://www.yelp.com/biz/regal-cafe-and-pizzeria-mattapan?adjust_creative=gBcvfFpabk3CnzmXKdYe3w&utm_campaign=yelp_api_v3&utm_medium=api_v3_business_search&utm_source=gBcvfFpabk3CnzmXKdYe3w", "categories": [{"alias": "tradamerican", "title": "American (Traditional)"}, {"alias": "pizza", "title": "Pizza"}, {"alias": "donuts", "title": "Donuts"}], "display_phone": "(617) 822-2500", "is_closed": false, "name": "Regal Cafe & Pizzeria", "price": "$$$$", "review_count": 31, "coordinates": {"longitude": -71.0925111919641, "latitude": 42.2848206013441}}, {"rating": 5.0, "transactions": [], "image_url": "https://s3-media4.fl.yelpcdn.com/bphoto/2Yfm31XpxofAzqZsvj5XQQ/o.jpg", "phone": "+17816545522", "id": "mobile-sauna-quincy", "distance": 9903.71098864, "location": {"display_address": ["24 Beach St", "Quincy, MA 02170"], "state": "MA", "address2": null, "address1": "24 Beach St", "zip_code": "02170", "city": "Quincy", "country": "US", "address3": ""}, "url": "https://www.yelp.com/biz/mobile-sauna-quincy?adjust_creative=gBcvfFpabk3CnzmXKdYe3w&utm_campaign=yelp_api_v3&utm_medium=api_v3_business_search&utm_source=gBcvfFpabk3CnzmXKdYe3w", "categories": [{"alias": "saunas", "title": "Saunas"}, {"alias": "partybusrentals", "title": "Party Bus Rentals"}], "display_phone": "(781) 654-5522", "is_closed": false, "name": "Mobile Sauna", "review_count": 4, "coordinates": {"longitude": -71.0160399609803, "latitude": 42.2687835719057}}, {"rating": 4.5, "transactions": [], "image_url": "https://s3-media2.fl.yelpcdn.com/bphoto/Ickgv1z-QFU19w0tLgSeUg/o.jpg", "phone": "+17813227894", "id": "mystic-valley-gun-club-malden", "distance": 8168.57370886, "location": {"display_address": ["146 Canal St", "Malden, MA 02148"], "state": "MA", "address2": "", "address1": "146 Canal St", "zip_code": "02148", "city": "Malden", "country": "US", "address3": ""}, "url": "https://www.yelp.com/biz/mystic-valley-gun-club-malden?adjust_creative=gBcvfFpabk3CnzmXKdYe3w&utm_campaign=yelp_api_v3&utm_medium=api_v3_business_search&utm_source=gBcvfFpabk3CnzmXKdYe3w", "categories": [{"alias": "gun_ranges", "title": "Gun/Rifle Ranges"}], "display_phone": "(781) 322-7894", "is_closed": false, "name": "Mystic Valley Gun Club", "review_count": 5, "coordinates": {"longitude": -71.072012, "latitude": 42.421303}}, {"rating": 1.5, "transactions": [], "image_url": "https://s3-media3.fl.yelpcdn.com/bphoto/GhKhH-Y-qDp5Mqt1HLysLw/o.jpg", "phone": "+17812891020", "id": "dominos-pizza-revere", "distance": 8830.00923018, "location": {"display_address": ["570 Broadway", "Revere, MA 02151"], "state": "MA", "address2": null, "address1": "570 Broadway", "zip_code": "02151", "city": "Revere", "country": "US", "address3": ""}, "url": "https://www.yelp.com/biz/dominos-pizza-revere?adjust_creative=gBcvfFpabk3CnzmXKdYe3w&utm_campaign=yelp_api_v3&utm_medium=api_v3_business_search&utm_source=gBcvfFpabk3CnzmXKdYe3w", "categories": [{"alias": "pizza", "title": "Pizza"}, {"alias": "chicken_wings", "title": "Chicken Wings"}, {"alias": "sandwiches", "title": "Sandwiches"}], "display_phone": "(781) 289-1020", "is_closed": false, "name": "Domino's Pizza", "price": "$$", "review_count": 22, "coordinates": {"longitude": -71.01046, "latitude": 42.41341}}, {"rating": 5.0, "transactions": [], "image_url": "https://s3-media4.fl.yelpcdn.com/bphoto/H9LC_bi21DVoBKXIBzMHuQ/o.jpg", "phone": "+16177145413", "id": "the-bridge-sound-and-stage-cambridge", "distance": 7535.098216963999, "location": {"display_address": ["18 Edmunds St", "Cambridge, MA 02140"], "state": "MA", "address2": "", "address1": "18 Edmunds St", "zip_code": "02140", "city": "Cambridge", "country": "US", "address3": ""}, "url": "https://www.yelp.com/biz/the-bridge-sound-and-stage-cambridge?adjust_creative=gBcvfFpabk3CnzmXKdYe3w&utm_campaign=yelp_api_v3&utm_medium=api_v3_business_search&utm_source=gBcvfFpabk3CnzmXKdYe3w", "categories": [{"alias": "recording_studios", "title": "Recording & Rehearsal Studios"}], "display_phone": "(617) 714-5413", "is_closed": false, "name": "The Bridge Sound & Stage", "review_count": 2, "coordinates": {"longitude": -71.13229, "latitude": 42.39839}}, {"rating": 1.5, "transactions": [], "image_url": "https://s3-media1.fl.yelpcdn.com/bphoto/oOoVtZtQkcPLRj_G9pgMvw/o.jpg", "phone": "+16173333400", "id": "gentle-movers-boston-2", "distance": 11721.9658514, "location": {"display_address": ["100 Business St", "Boston, MA 02136"], "state": "MA", "address2": "", "address1": "100 Business St", "zip_code": "02136", "city": "Boston", "country": "US", "address3": ""}, "url": "https://www.yelp.com/biz/gentle-movers-boston-2?adjust_creative=gBcvfFpabk3CnzmXKdYe3w&utm_campaign=yelp_api_v3&utm_medium=api_v3_business_search&utm_source=gBcvfFpabk3CnzmXKdYe3w", "categories": [{"alias": "movers", "title": "Movers"}, {"alias": "selfstorage", "title": "Self Storage"}, {"alias": "packingservices", "title": "Packing Services"}], "display_phone": "(617) 333-3400", "is_closed": false, "name": "Gentle Movers", "review_count": 10, "coordinates": {"longitude": -71.1288146972656, "latitude": 42.2514610290527}}, {"rating": 5.0, "transactions": [], "image_url": "https://s3-media1.fl.yelpcdn.com/bphoto/Ht2qzG8PRvsozQ0zw6kzUw/o.jpg", "phone": "+16175966827", "id": "ideal-car-and-limo-services-everett", "distance": 7705.4072662, "location": {"display_address": ["74 Central Ave", "Everett, MA 02149"], "state": "MA", "address2": null, "address1": "74 Central Ave", "zip_code": "02149", "city": "Everett", "country": "US", "address3": null}, "url": "https://www.yelp.com/biz/ideal-car-and-limo-services-everett?adjust_creative=gBcvfFpabk3CnzmXKdYe3w&utm_campaign=yelp_api_v3&utm_medium=api_v3_business_search&utm_source=gBcvfFpabk3CnzmXKdYe3w", "categories": [{"alias": "limos", "title": "Limos"}], "display_phone": "(617) 596-6827", "is_closed": false, "name": "Ideal Car and Limo Services", "review_count": 2, "coordinates": {"longitude": -71.0544422, "latitude": 42.4160195}}, {"rating": 4.5, "transactions": [], "image_url": "https://s3-media2.fl.yelpcdn.com/bphoto/H5lesvmvkRJbUKBrdKxQpQ/o.jpg", "phone": "+16179231410", "id": "watertown-towing-watertown", "distance": 8988.553360279999, "location": {"display_address": ["115 N Beacon St", "Watertown, MA 02472"], "state": "MA", "address2": "", "address1": "115 N Beacon St", "zip_code": "02472", "city": "Watertown", "country": "US", "address3": ""}, "url": "https://www.yelp.com/biz/watertown-towing-watertown?adjust_creative=gBcvfFpabk3CnzmXKdYe3w&utm_campaign=yelp_api_v3&utm_medium=api_v3_business_search&utm_source=gBcvfFpabk3CnzmXKdYe3w", "categories": [{"alias": "towing", "title": "Towing"}], "display_phone": "(617) 923-1410", "is_closed": false, "name": "Watertown Towing", "review_count": 10, "coordinates": {"longitude": -71.1783813476563, "latitude": 42.3641548156738}}], "total": 1239}