{"region": {"center": {"longitude": -71.07124328613281, "latitude": 42.34784169448538}}, "businesses": [{"rating": 5.0, "transactions": [], "image_url": "https://s3-media1.fl.yelpcdn.com/bphoto/k-BQ3JToxw7CSerMHP6ruQ/o.jpg", "phone": "+16173074582", "id": "cozymeal-cooking-classes-boston-3", "distance": 1599.5030701839999, "location": {"display_address": ["100 Cambridge St", "Fl 14", "Boston, MA 02114"], "state": "MA", "address2": "Fl 14", "address1": "100 Cambridge St", "zip_code": "02114", "city": "Boston", "country": "US", "address3": ""}, "url": "https://www.yelp.com/biz/cozymeal-cooking-classes-boston-3?adjust_creative=gBcvfFpabk3CnzmXKdYe3w&utm_campaign=yelp_api_v3&utm_medium=api_v3_business_search&utm_source=gBcvfFpabk3CnzmXKdYe3w", "categories": [{"alias": "cookingschools", "title": "Cooking Schools"}, {"alias": "cookingclasses", "title": "Cooking Classes"}, {"alias": "teambuilding", "title": "Team Building Activities"}], "display_phone": "(617) 307-4582", "is_closed": false, "name": "Cozymeal Cooking Classes", "review_count": 7, "coordinates": {"longitude": -71.0622171, "latitude": 42.3605873}}, {"rating": 4.5, "transactions": [], "image_url": "https://s3-media3.fl.yelpcdn.com/bphoto/wbOz1_yiKj0IbMFKUz8RmQ/o.jpg", "phone": "+16175676789", "id": "hilton-garden-inn-boston-logan-boston", "distance": 6773.836622915999, "location": {"display_address": ["100 Boardman St", "Boston, MA 02128"], "state": "MA", "address2": "", "address1": "100 Boardman St", "zip_code": "02128", "city": "Boston", "country": "US", "address3": ""}, "url": "https://www.yelp.com/biz/hilton-garden-inn-boston-logan-boston?adjust_creative=gBcvfFpabk3CnzmXKdYe3w&utm_campaign=yelp_api_v3&utm_medium=api_v3_business_search&utm_source=gBcvfFpabk3CnzmXKdYe3w", "categories": [{"alias": "hotels", "title": "Hotels"}], "display_phone": "(617) 567-6789", "is_closed": false, "name": "Hilton Garden Inn Boston Logan", "price": "$$", "review_count": 30, "coordinates": {"longitude": -71.0114631, "latitude": 42.3896501}}, {"rating": 3.5, "transactions": [], "image_url": "https://s3-media3.fl.yelpcdn.com/bphoto/9FukvERMdDkDMa9mCowXPw/o.jpg", "phone": "+16174377907", "id": "symphony-market-boston-3", "distance": 1479.4072957823998, "location": {"display_address": ["291 Huntington Ave", "Boston, MA 02115"], "state": "MA", "address2": "", "address1": "291 Huntington Ave", "zip_code": "02115", "city": "Boston", "country": "US", "address3": ""}, "url": "https://www.yelp.com/biz/symphony-market-boston-3?adjust_creative=gBcvfFpabk3CnzmXKdYe3w&utm_campaign=yelp_api_v3&utm_medium=api_v3_business_search&utm_source=gBcvfFpabk3CnzmXKdYe3w", "categories": [{"alias": "convenience", "title": "Convenience Stores"}, {"alias": "grocery", "title": "Grocery"}], "display_phone": "(617) 437-7907", "is_closed": false, "name": "Symphony Market", "price": "$$", "review_count": 24, "coordinates": {"longitude": -71.0868632, "latitude": 42.3414509}}, {"rating": 2.5, "transactions": [], "image_url": "https://s3-media1.fl.yelpcdn.com/bphoto/XcDxRlAZlIu67vvEBcRugA/o.jpg", "phone": "+16174261400", "id": "courtyard-boston-downtown-boston-2", "distance": 557.7473061797999, "location": {"display_address": ["275 Tremont St", "Boston, MA 02116"], "state": "MA", "address2": "", "address1": "275 Tremont St", "zip_code": "02116", "city": "Boston", "country": "US", "address3": ""}, "url": "https://www.yelp.com/biz/courtyard-boston-downtown-boston-2?adjust_creative=gBcvfFpabk3CnzmXKdYe3w&utm_campaign=yelp_api_v3&utm_medium=api_v3_business_search&utm_source=gBcvfFpabk3CnzmXKdYe3w", "categories": [{"alias": "hotels", "title": "Hotels"}], "display_phone": "(617) 426-1400", "is_closed": false, "name": "Courtyard Boston Downtown", "price": "$$", "review_count": 167, "coordinates": {"longitude": -71.065132, "latitude": 42.350027}}, {"rating": 4.5, "transactions": [], "image_url": "https://s3-media2.fl.yelpcdn.com/bphoto/mojBPuvlg5uHlyYNHmJARw/o.jpg", "phone": "+16177239300", "id": "pepper-palace-boston", "distance": 1903.3733381619998, "location": {"display_address": ["Faneuil Hall", "4 S Market Bldg, Ste S-1155", "Boston, MA 02109"], "state": "MA", "address2": "4 S Market Bldg, Ste S-1155", "address1": "Faneuil Hall", "zip_code": "02109", "city": "Boston", "country": "US", "address3": ""}, "url": "https://www.yelp.com/biz/pepper-palace-boston?adjust_creative=gBcvfFpabk3CnzmXKdYe3w&utm_campaign=yelp_api_v3&utm_medium=api_v3_business_search&utm_source=gBcvfFpabk3CnzmXKdYe3w", "categories": [{"alias": "herbsandspices", "title": "Herbs & Spices"}], "display_phone": "(617) 723-9300", "is_closed": false, "name": "Pepper Palace", "price": "$$$", "review_count": 6, "coordinates": {"longitude": -71.0545790756476, "latitude": 42.3597335195326}}, {"rating": 5.0, "transactions": [], "image_url": "https://s3-media2.fl.yelpcdn.com/bphoto/-EtO8fOIKEZ6b8fEOqpKPw/o.jpg", "phone": "+18009327277", "id": "webpass-boston", "distance": 4177.6961667099995, "location": {"display_address": ["17 Caldwell St", "Boston, MA 02129"], "state": "MA", "address2": null, "address1": "17 Caldwell St", "zip_code": "02129", "city": "Boston", "country": "US", "address3": ""}, "url": "https://www.yelp.com/biz/webpass-boston?adjust_creative=gBcvfFpabk3CnzmXKdYe3w&utm_campaign=yelp_api_v3&utm_medium=api_v3_business_search&utm_source=gBcvfFpabk3CnzmXKdYe3w", "categories": [{"alias": "isps", "title": "Internet Service Providers"}], "display_phone": "(800) 932-7277", "is_closed": false, "name": "Webpass", "review_count": 13, "coordinates": {"longitude": -71.0777436196804, "latitude": 42.3853390663862}}, {"rating": 2.5, "transactions": [], "image_url": "https://s3-media2.fl.yelpcdn.com/bphoto/fRh0Gbf2cmemUhGWU6rYBA/o.jpg", "phone": "+16174262000", "id": "boston-park-plaza-boston", "distance": 437.97125935599996, "location": {"display_address": ["50 Park Plz", "Boston, MA 02116"], "state": "MA", "address2": "", "address1": "50 Park Plz", "zip_code": "02116", "city": "Boston", "country": "US", "address3": ""}, "url": "https://www.yelp.com/biz/boston-park-plaza-boston?adjust_creative=gBcvfFpabk3CnzmXKdYe3w&utm_campaign=yelp_api_v3&utm_medium=api_v3_business_search&utm_source=gBcvfFpabk3CnzmXKdYe3w", "categories": [{"alias": "hotels", "title": "Hotels"}, {"alias": "venues", "title": "Venues & Event Spaces"}], "display_phone": "(617) 426-2000", "is_closed": false, "name": "Boston Park Plaza", "price": "$$$", "review_count": 713, "coordinates": {"longitude": -71.069319, "latitude": 42.351516}}, {"rating": 5.0, "transactions": [], "image_url": "https://s3-media3.fl.yelpcdn.com/bphoto/Dxr_8hoOoVTb02LO8Tb9QA/o.jpg", "phone": "+16174449477", "id": "back-bay-paws-boston", "distance": 770.0423944889999, "location": {"display_address": ["174 Commonwealth Ave", "Boston, MA 02116"], "state": "MA", "address2": "", "address1": "174 Commonwealth Ave", "zip_code": "02116", "city": "Boston", "country": "US", "address3": ""}, "url": "https://www.yelp.com/biz/back-bay-paws-boston?adjust_creative=gBcvfFpabk3CnzmXKdYe3w&utm_campaign=yelp_api_v3&utm_medium=api_v3_business_search&utm_source=gBcvfFpabk3CnzmXKdYe3w", "categories": [{"alias": "dogwalkers", "title": "Dog Walkers"}, {"alias": "pet_sitting", "title": "Pet Boarding/Pet Sitting"}, {"alias": "pet_training", "title": "Pet Training"}], "display_phone": "(617) 444-9477", "is_closed": false, "name": "Back Bay Paws", "review_count": 3, "coordinates": {"longitude": -71.0793004, "latitude": 42.3513797}}, {"rating": 3.0, "transactions": [], "image_url": "https://s3-media2.fl.yelpcdn.com/bphoto/DhvFWcTIw0eHVtj7_MTwhQ/o.jpg", "phone": "+16172367050", "id": "buckminster-hotel-boston", "distance": 2180.994144202, "location": {"display_address": ["645 Beacon St", "Boston, MA 02215"], "state": "MA", "address2": "", "address1": "645 Beacon St", "zip_code": "02215", "city": "Boston", "country": "US", "address3": ""}, "url": "https://www.yelp.com/biz/buckminster-hotel-boston?adjust_creative=gBcvfFpabk3CnzmXKdYe3w&utm_campaign=yelp_api_v3&utm_medium=api_v3_business_search&utm_source=gBcvfFpabk3CnzmXKdYe3w", "categories": [{"alias": "hotels", "title": "Hotels"}], "display_phone": "(617) 236-7050", "is_closed": false, "name": "Buckminster Hotel", "price": "$$", "review_count": 122, "coordinates": {"longitude": -71.0976868, "latitude": 42.348381}}, {"rating": 3.0, "transactions": [], "image_url": "https://s3-media3.fl.yelpcdn.com/bphoto/Ez6XYxBo9Q1kEjvdKSHcbw/o.jpg", "phone": "+18888810887", "id": "lucky-star-bus-boston", "distance": 994.9859778743999, "location": {"display_address": ["700 Atlantic Ave", "Boston, MA 02111"], "state": "MA", "address2": "", "address1": "700 Atlantic Ave", "zip_code": "02111", "city": "Boston", "country": "US", "address3": ""}, "url": "https://www.yelp.com/biz/lucky-star-bus-boston?adjust_creative=gBcvfFpabk3CnzmXKdYe3w&utm_campaign=yelp_api_v3&utm_medium=api_v3_business_search&utm_source=gBcvfFpabk3CnzmXKdYe3w", "categories": [{"alias": "buses", "title": "Buses"}], "display_phone": "(888) 881-0887", "is_closed": false, "name": "Lucky Star Bus", "review_count": 114, "coordinates": {"longitude": -71.0561759769917, "latitude": 42.3510953038931}}, {"rating": 3.5, "transactions": [], "image_url": "https://s3-media3.fl.yelpcdn.com/bphoto/-q1smZgrwQla_qkGwrmx6g/o.jpg", "phone": "+16174432816", "id": "75-state-street-garage-boston-2", "distance": 1824.2768521059998, "location": {"display_address": ["5 Broad St", "Boston, MA 02109"], "state": "MA", "address2": "", "address1": "5 Broad St", "zip_code": "02109", "city": "Boston", "country": "US", "address3": ""}, "url": "https://www.yelp.com/biz/75-state-street-garage-boston-2?adjust_creative=gBcvfFpabk3CnzmXKdYe3w&utm_campaign=yelp_api_v3&utm_medium=api_v3_business_search&utm_source=gBcvfFpabk3CnzmXKdYe3w", "categories": [{"alias": "parking", "title": "Parking"}], "display_phone": "(617) 443-2816", "is_closed": false, "name": "75 State Street Garage", "review_count": 24, "coordinates": {"longitude": -71.0546028614044, "latitude": 42.3587024772707}}, {"rating": 3.0, "transactions": [], "image_url": "https://s3-media1.fl.yelpcdn.com/bphoto/YG0GLg-MSr95vbxWwbcGNQ/o.jpg", "phone": "+16174821210", "id": "planet-fitness-boston-downtown-crossing-boston", "distance": 1213.3520760259998, "location": {"display_address": ["17 Winter St", "Boston, MA 02136"], "state": "MA", "address2": "", "address1": "17 Winter St", "zip_code": "02136", "city": "Boston", "country": "US", "address3": ""}, "url": "https://www.yelp.com/biz/planet-fitness-boston-downtown-crossing-boston?adjust_creative=gBcvfFpabk3CnzmXKdYe3w&utm_campaign=yelp_api_v3&utm_medium=api_v3_business_search&utm_source=gBcvfFpabk3CnzmXKdYe3w", "categories": [{"alias": "gyms", "title": "Gyms"}, {"alias": "healthtrainers", "title": "Trainers"}], "display_phone": "(617) 482-1210", "is_closed": false, "name": "Planet Fitness - Boston - Downtown Crossing", "review_count": 49, "coordinates": {"longitude": -71.0612809265562, "latitude": 42.3558948400384}}, {"rating": 4.5, "transactions": [], "image_url": "https://s3-media1.fl.yelpcdn.com/bphoto/RPNKXuSHBMU6V04niMjd5w/o.jpg", "phone": "+16173125925", "id": "fort-hill-inn-boston", "distance": 2819.3348318519998, "location": {"display_address": ["3 Centre Pl", "Boston, MA 02119"], "state": "MA", "address2": "", "address1": "3 Centre Pl", "zip_code": "02119", "city": "Boston", "country": "US", "address3": ""}, "url": "https://www.yelp.com/biz/fort-hill-inn-boston?adjust_creative=gBcvfFpabk3CnzmXKdYe3w&utm_campaign=yelp_api_v3&utm_medium=api_v3_business_search&utm_source=gBcvfFpabk3CnzmXKdYe3w", "categories": [{"alias": "guesthouses", "title": "Guest Houses"}], "display_phone": "(617) 312-5925", "is_closed": false, "name": "Fort Hill Inn", "review_count": 7, "coordinates": {"longitude": -71.0947599, "latitude": 42.3293899}}, {"rating": 2.5, "transactions": [], "image_url": "https://s3-media2.fl.yelpcdn.com/bphoto/2C5G1SgyOb7d99nNSROihg/o.jpg", "phone": "+16176365000", "id": "tufts-medical-center-boston", "distance": 691.4592717996, "location": {"display_address": ["800 Washington St", "Boston, MA 02111"], "state": "MA", "address2": "", "address1": "800 Washington St", "zip_code": "02111", "city": "Boston", "country": "US", "address3": ""}, "url": "https://www.yelp.com/biz/tufts-medical-center-boston?adjust_creative=gBcvfFpabk3CnzmXKdYe3w&utm_campaign=yelp_api_v3&utm_medium=api_v3_business_search&utm_source=gBcvfFpabk3CnzmXKdYe3w", "categories": [{"alias": "medcenters", "title": "Medical Centers"}], "display_phone": "(617) 636-5000", "is_closed": false, "name": "Tufts Medical Center", "review_count": 107, "coordinates": {"longitude": -71.0632709, "latitude": 42.3498323}}, {"rating": 3.5, "transactions": [], "image_url": "https://s3-media1.fl.yelpcdn.com/bphoto/0oiEJiM_tEGR0yawRaMeMw/o.jpg", "phone": "+16173790039", "id": "metro-maids-boston", "distance": 924.4188972579999, "location": {"display_address": ["800 Boylston St", "Boston, MA 02199"], "state": "MA", "address2": null, "address1": "800 Boylston St", "zip_code": "02199", "city": "Boston", "country": "US", "address3": ""}, "url": "https://www.yelp.com/biz/metro-maids-boston?adjust_creative=gBcvfFpabk3CnzmXKdYe3w&utm_campaign=yelp_api_v3&utm_medium=api_v3_business_search&utm_source=gBcvfFpabk3CnzmXKdYe3w", "categories": [{"alias": "officecleaning", "title": "Office Cleaning"}, {"alias": "homecleaning", "title": "Home Cleaning"}], "display_phone": "(617) 379-0039", "is_closed": false, "name": "Metro Maids", "review_count": 13, "coordinates": {"longitude": -71.08135, "latitude": 42.34751}}, {"rating": 4.0, "transactions": [], "image_url": "https://s3-media2.fl.yelpcdn.com/bphoto/3yyAfoiP1ZaBxt9h37nbZQ/o.jpg", "phone": "+16174591293", "id": "bricco-suites-boston-3", "distance": 2165.849611066, "location": {"display_address": ["241 Hanover St", "Boston, MA 02113"], "state": "MA", "address2": "", "address1": "241 Hanover St", "zip_code": "02113", "city": "Boston", "country": "US", "address3": ""}, "url": "https://www.yelp.com/biz/bricco-suites-boston-3?adjust_creative=gBcvfFpabk3CnzmXKdYe3w&utm_campaign=yelp_api_v3&utm_medium=api_v3_business_search&utm_source=gBcvfFpabk3CnzmXKdYe3w", "categories": [{"alias": "hotels", "title": "Hotels"}], "display_phone": "(617) 459-1293", "is_closed": false, "name": "Bricco Suites", "price": "$$$", "review_count": 14, "coordinates": {"longitude": -71.0549297, "latitude": 42.3631202}}, {"rating": 3.0, "transactions": [], "image_url": "https://s3-media1.fl.yelpcdn.com/bphoto/bOfwe-m-WIwS_ghrtgRGSA/o.jpg", "phone": "+16175855600", "id": "hotel-140-boston", "distance": 286.1360975678, "location": {"display_address": ["140 Clarendon St", "Boston, MA 02116"], "state": "MA", "address2": "", "address1": "140 Clarendon St", "zip_code": "02116", "city": "Boston", "country": "US", "address3": ""}, "url": "https://www.yelp.com/biz/hotel-140-boston?adjust_creative=gBcvfFpabk3CnzmXKdYe3w&utm_campaign=yelp_api_v3&utm_medium=api_v3_business_search&utm_source=gBcvfFpabk3CnzmXKdYe3w", "categories": [{"alias": "hotels", "title": "Hotels"}], "display_phone": "(617) 585-5600", "is_closed": false, "name": "Hotel 140", "price": "$$", "review_count": 65, "coordinates": {"longitude": -71.074474, "latitude": 42.3487726}}, {"rating": 5.0, "transactions": [], "image_url": "https://s3-media3.fl.yelpcdn.com/bphoto/Za1FhN_ouJAgYxeiZgHeSQ/o.jpg", "phone": "+18573455379", "id": "the-help-boston-boston", "distance": 2744.304826108, "location": {"display_address": ["170 W 7th St", "Ste 1", "Boston, MA 02127"], "state": "MA", "address2": "Ste 1", "address1": "170 W 7th St", "zip_code": "02127", "city": "Boston", "country": "US", "address3": null}, "url": "https://www.yelp.com/biz/the-help-boston-boston?adjust_creative=gBcvfFpabk3CnzmXKdYe3w&utm_campaign=yelp_api_v3&utm_medium=api_v3_business_search&utm_source=gBcvfFpabk3CnzmXKdYe3w", "categories": [{"alias": "eventplanning", "title": "Party & Event Planning"}], "display_phone": "(857) 345-5379", "is_closed": false, "name": "The Help: Boston", "review_count": 8, "coordinates": {"longitude": -71.042874, "latitude": 42.334825}}, {"rating": 3.0, "transactions": [], "image_url": "https://s3-media1.fl.yelpcdn.com/bphoto/BoaXGQkcb0eF5hkbgAiXQQ/o.jpg", "phone": "+16172624688", "id": "star-market-boston-4", "distance": 673.3856272098, "location": {"display_address": ["53 Huntington Ave", "Boston, MA 02199"], "state": "MA", "address2": "", "address1": "53 Huntington Ave", "zip_code": "02199", "city": "Boston", "country": "US", "address3": ""}, "url": "https://www.yelp.com/biz/star-market-boston-4?adjust_creative=gBcvfFpabk3CnzmXKdYe3w&utm_campaign=yelp_api_v3&utm_medium=api_v3_business_search&utm_source=gBcvfFpabk3CnzmXKdYe3w", "categories": [{"alias": "grocery", "title": "Grocery"}], "display_phone": "(617) 262-4688", "is_closed": false, "name": "Star Market", "price": "$$", "review_count": 36, "coordinates": {"longitude": -71.0799374, "latitude": 42.3470145}}, {"rating": 4.5, "transactions": [], "image_url": "https://s3-media2.fl.yelpcdn.com/bphoto/gufLNZ-_1MbnyuvZy6qGQQ/o.jpg", "phone": "+16173301677", "id": "above-all-transportation-boston", "distance": 886.1893957061999, "location": {"display_address": ["Boston, MA 02108"], "state": "MA", "address2": "", "address1": "", "zip_code": "02108", "city": "Boston", "country": "US", "address3": ""}, "url": "https://www.yelp.com/biz/above-all-transportation-boston?adjust_creative=gBcvfFpabk3CnzmXKdYe3w&utm_campaign=yelp_api_v3&utm_medium=api_v3_business_search&utm_source=gBcvfFpabk3CnzmXKdYe3w", "categories": [{"alias": "limos", "title": "Limos"}, {"alias": "partybusrentals", "title": "Party Bus Rentals"}], "display_phone": "(617) 330-1677", "is_closed": false, "name": "Above All Transportation", "review_count": 11, "coordinates": {"longitude": -71.0654220581055, "latitude": 42.3566818237305}}, {"rating": 3.5, "transactions": [], "image_url": "https://s3-media3.fl.yelpcdn.com/bphoto/qfg0u_9mtFuYKU0vF1Oxgg/o.jpg", "phone": "+16172883030", "id": "holiday-inn-express-boston-boston-3", "distance": 2502.0737285359996, "location": {"display_address": ["69 Boston St", "Boston, MA 02125"], "state": "MA", "address2": "", "address1": "69 Boston St", "zip_code": "02125", "city": "Boston", "country": "US", "address3": ""}, "url": "https://www.yelp.com/biz/holiday-inn-express-boston-boston-3?adjust_creative=gBcvfFpabk3CnzmXKdYe3w&utm_campaign=yelp_api_v3&utm_medium=api_v3_business_search&utm_source=gBcvfFpabk3CnzmXKdYe3w", "categories": [{"alias": "hotels", "title": "Hotels"}, {"alias": "venues", "title": "Venues & Event Spaces"}], "display_phone": "(617) 288-3030", "is_closed": false, "name": "Holiday Inn Express Boston", "price": "$$", "review_count": 34, "coordinates": {"longitude": -71.0597229, "latitude": 42.3269615}}, {"rating": 3.0, "transactions": [], "image_url": "https://s3-media3.fl.yelpcdn.com/bphoto/ot4xCHtrRyAAseuut-RhGA/o.jpg", "phone": "+16174211000", "id": "harvard-vanguard-kenmore-boston", "distance": 2434.998851346, "location": {"display_address": ["133 Brookline Ave", "Boston, MA 02215"], "state": "MA", "address2": "", "address1": "133 Brookline Ave", "zip_code": "02215", "city": "Boston", "country": "US", "address3": ""}, "url": "https://www.yelp.com/biz/harvard-vanguard-kenmore-boston?adjust_creative=gBcvfFpabk3CnzmXKdYe3w&utm_campaign=yelp_api_v3&utm_medium=api_v3_business_search&utm_source=gBcvfFpabk3CnzmXKdYe3w", "categories": [{"alias": "medcenters", "title": "Medical Centers"}, {"alias": "emergencyrooms", "title": "Emergency Rooms"}, {"alias": "drugstores", "title": "Drugstores"}], "display_phone": "(617) 421-1000", "is_closed": false, "name": "Harvard Vanguard - Kenmore", "price": "$$$", "review_count": 68, "coordinates": {"longitude": -71.1009132117033, "latitude": 42.3450154066086}}, {"rating": 5.0, "transactions": [], "image_url": "https://s3-media4.fl.yelpcdn.com/bphoto/H2gLDs74-a32WVrVvrPQSg/o.jpg", "phone": "+12036486238", "id": "lees-tree-service-boston", "distance": 3242.768922988, "location": {"display_address": ["Boston, MA 02127"], "state": "MA", "address2": null, "address1": null, "zip_code": "02127", "city": "Boston", "country": "US", "address3": ""}, "url": "https://www.yelp.com/biz/lees-tree-service-boston?adjust_creative=gBcvfFpabk3CnzmXKdYe3w&utm_campaign=yelp_api_v3&utm_medium=api_v3_business_search&utm_source=gBcvfFpabk3CnzmXKdYe3w", "categories": [{"alias": "treeservices", "title": "Tree Services"}], "display_phone": "(203) 648-6238", "is_closed": false, "name": "Lee's Tree Service", "review_count": 8, "coordinates": {"longitude": -71.0393753051758, "latitude": 42.3355293273926}}, {"rating": 3.5, "transactions": [], "image_url": "https://s3-media4.fl.yelpcdn.com/bphoto/writeMG8ugiGUfxNIK_s3Q/o.jpg", "phone": "+16179949000", "id": "battery-wharf-hotel-boston-waterfront-boston", "distance": 2645.42906865, "location": {"display_address": ["Three Battery Wharf", "Boston, MA 02109"], "state": "MA", "address2": "", "address1": "Three Battery Wharf", "zip_code": "02109", "city": "Boston", "country": "US", "address3": ""}, "url": "https://www.yelp.com/biz/battery-wharf-hotel-boston-waterfront-boston?adjust_creative=gBcvfFpabk3CnzmXKdYe3w&utm_campaign=yelp_api_v3&utm_medium=api_v3_business_search&utm_source=gBcvfFpabk3CnzmXKdYe3w", "categories": [{"alias": "hotels", "title": "Hotels"}], "display_phone": "(617) 994-9000", "is_closed": false, "name": "Battery Wharf Hotel, Boston Waterfront", "price": "$$$", "review_count": 35, "coordinates": {"longitude": -71.0512514412403, "latitude": 42.3664945363998}}, {"rating": 1.5, "transactions": [], "image_url": "https://s3-media4.fl.yelpcdn.com/bphoto/nPLlV13Ury4NzlKSxU-aZg/o.jpg", "phone": "+16172480100", "id": "dominos-pizza-boston-2", "distance": 1779.2813150460001, "location": {"display_address": ["64 Staniford St", "Boston, MA 02114"], "state": "MA", "address2": "", "address1": "64 Staniford St", "zip_code": "02114", "city": "Boston", "country": "US", "address3": ""}, "url": "https://www.yelp.com/biz/dominos-pizza-boston-2?adjust_creative=gBcvfFpabk3CnzmXKdYe3w&utm_campaign=yelp_api_v3&utm_medium=api_v3_business_search&utm_source=gBcvfFpabk3CnzmXKdYe3w", "categories": [{"alias": "pizza", "title": "Pizza"}, {"alias": "chicken_wings", "title": "Chicken Wings"}, {"alias": "sandwiches", "title": "Sandwiches"}], "display_phone": "(617) 248-0100", "is_closed": false, "name": "Domino's Pizza", "price": "$$", "review_count": 47, "coordinates": {"longitude": -71.0639954, "latitude": 42.3628922}}, {"rating": 3.0, "transactions": [], "image_url": "https://s3-media1.fl.yelpcdn.com/bphoto/KOz2HMqWwMT5oAweRBgIzQ/o.jpg", "phone": "+16179569999", "id": "state-fund-insurance-boston-3", "distance": 1301.56499038, "location": {"display_address": ["100 Summer St", "Boston, MA 02110"], "state": "MA", "address2": "", "address1": "100 Summer St", "zip_code": "02110", "city": "Boston", "country": "US", "address3": ""}, "url": "https://www.yelp.com/biz/state-fund-insurance-boston-3?adjust_creative=gBcvfFpabk3CnzmXKdYe3w&utm_campaign=yelp_api_v3&utm_medium=api_v3_business_search&utm_source=gBcvfFpabk3CnzmXKdYe3w", "categories": [{"alias": "insurance", "title": "Insurance"}], "display_phone": "(617) 956-9999", "is_closed": false, "name": "State Fund Insurance", "review_count": 18, "coordinates": {"longitude": -71.0573425292969, "latitude": 42.3538246154785}}, {"rating": 5.0, "transactions": [], "image_url": "https://s3-media1.fl.yelpcdn.com/bphoto/wJYBkofb-tIp9cuP1jZEKw/o.jpg", "phone": "+17812678526", "id": "kassandras-pet-care-boston", "distance": 3233.704476372, "location": {"display_address": ["Boston, MA 02139"], "state": "MA", "address2": null, "address1": "", "zip_code": "02139", "city": "Boston", "country": "US", "address3": ""}, "url": "https://www.yelp.com/biz/kassandras-pet-care-boston?adjust_creative=gBcvfFpabk3CnzmXKdYe3w&utm_campaign=yelp_api_v3&utm_medium=api_v3_business_search&utm_source=gBcvfFpabk3CnzmXKdYe3w", "categories": [{"alias": "dogwalkers", "title": "Dog Walkers"}, {"alias": "pet_sitting", "title": "Pet Boarding/Pet Sitting"}], "display_phone": "(781) 267-8526", "is_closed": false, "name": "Kassandra's Pet Care", "review_count": 6, "coordinates": {"longitude": -71.10234, "latitude": 42.36756}}, {"rating": 3.5, "transactions": [], "image_url": "https://s3-media2.fl.yelpcdn.com/bphoto/qzGbqhQTWWktM10eHejzIA/o.jpg", "phone": "+16176368100", "id": "floating-hospital-for-children-boston", "distance": 635.603602645, "location": {"display_address": ["755 Washington St", "Tufts Medical Center", "Boston, MA 02111"], "state": "MA", "address2": "", "address1": "755 Washington St", "zip_code": "02111", "city": "Boston", "country": "US", "address3": "Tufts Medical Center"}, "url": "https://www.yelp.com/biz/floating-hospital-for-children-boston?adjust_creative=gBcvfFpabk3CnzmXKdYe3w&utm_campaign=yelp_api_v3&utm_medium=api_v3_business_search&utm_source=gBcvfFpabk3CnzmXKdYe3w", "categories": [{"alias": "hospitals", "title": "Hospitals"}], "display_phone": "(617) 636-8100", "is_closed": false, "name": "Floating Hospital For Children", "review_count": 9, "coordinates": {"longitude": -71.064052, "latitude": 42.349942}}, {"rating": 5.0, "transactions": [], "image_url": "https://s3-media2.fl.yelpcdn.com/bphoto/UKoBqXr5V75L-YtOkAdAcA/o.jpg", "phone": "+16174823450", "id": "chandler-studios-boston", "distance": 170.02480760519998, "location": {"display_address": ["54 Berkeley St", "Boston, MA 02116"], "state": "MA", "address2": "", "address1": "54 Berkeley St", "zip_code": "02116", "city": "Boston", "country": "US", "address3": ""}, "url": "https://www.yelp.com/biz/chandler-studios-boston?adjust_creative=gBcvfFpabk3CnzmXKdYe3w&utm_campaign=yelp_api_v3&utm_medium=api_v3_business_search&utm_source=gBcvfFpabk3CnzmXKdYe3w", "categories": [{"alias": "hotels", "title": "Hotels"}], "display_phone": "(617) 482-3450", "is_closed": false, "name": "Chandler Studios", "price": "$$$", "review_count": 2, "coordinates": {"longitude": -71.0708237, "latitude": 42.3463364}}, {"rating": 3.0, "transactions": [], "image_url": "https://s3-media1.fl.yelpcdn.com/bphoto/tgXQviaCsJHxotStyXLJig/o.jpg", "phone": "+16175675000", "id": "embassy-suites-boston-boston-2", "distance": 4090.3168904759996, "location": {"display_address": ["207 Porter St", "Boston, MA 02128"], "state": "MA", "address2": "", "address1": "207 Porter St", "zip_code": "02128", "city": "Boston", "country": "US", "address3": ""}, "url": "https://www.yelp.com/biz/embassy-suites-boston-boston-2?adjust_creative=gBcvfFpabk3CnzmXKdYe3w&utm_campaign=yelp_api_v3&utm_medium=api_v3_business_search&utm_source=gBcvfFpabk3CnzmXKdYe3w", "categories": [{"alias": "hotels", "title": "Hotels"}], "display_phone": "(617) 567-5000", "is_closed": false, "name": "Embassy Suites Boston", "price": "$$$", "review_count": 95, "coordinates": {"longitude": -71.0316813, "latitude": 42.3701726}}, {"rating": 5.0, "transactions": [], "image_url": "https://s3-media2.fl.yelpcdn.com/bphoto/jV7PoH8cv9rZsbVvGH0OSw/o.jpg", "phone": "+16175157769", "id": "downtown-boston-locksmith-boston", "distance": 1277.846215592, "location": {"display_address": ["76 Summer St", "Boston, MA 02110"], "state": "MA", "address2": null, "address1": "76 Summer St", "zip_code": "02110", "city": "Boston", "country": "US", "address3": ""}, "url": "https://www.yelp.com/biz/downtown-boston-locksmith-boston?adjust_creative=gBcvfFpabk3CnzmXKdYe3w&utm_campaign=yelp_api_v3&utm_medium=api_v3_business_search&utm_source=gBcvfFpabk3CnzmXKdYe3w", "categories": [{"alias": "locksmiths", "title": "Keys & Locksmiths"}], "display_phone": "(617) 515-7769", "is_closed": false, "name": "Downtown Boston Locksmith", "review_count": 2, "coordinates": {"longitude": -71.0581771, "latitude": 42.3539714}}, {"rating": 3.0, "transactions": [], "image_url": "https://s3-media2.fl.yelpcdn.com/bphoto/B25kSESx6znCH7UUGINSbQ/o.jpg", "phone": "+16177835878", "id": "star-market-boston-8", "distance": 4332.35454538, "location": {"display_address": ["1065 Commonwealth Ave", "Boston, MA 02215"], "state": "MA", "address2": "", "address1": "1065 Commonwealth Ave", "zip_code": "02215", "city": "Boston", "country": "US", "address3": ""}, "url": "https://www.yelp.com/biz/star-market-boston-8?adjust_creative=gBcvfFpabk3CnzmXKdYe3w&utm_campaign=yelp_api_v3&utm_medium=api_v3_business_search&utm_source=gBcvfFpabk3CnzmXKdYe3w", "categories": [{"alias": "grocery", "title": "Grocery"}, {"alias": "drugstores", "title": "Drugstores"}], "display_phone": "(617) 783-5878", "is_closed": false, "name": "Star Market", "price": "$$", "review_count": 111, "coordinates": {"longitude": -71.1233367919922, "latitude": 42.3526763916016}}, {"rating": 4.5, "transactions": [], "image_url": "https://s3-media1.fl.yelpcdn.com/bphoto/b4EYguGNw2jjKhu0-Z_HqQ/o.jpg", "phone": "+18553433456", "id": "sleepafloat-boston-boston", "distance": 2418.5713523619997, "location": {"display_address": ["28 Atlantic Ave", "Boston, MA 02110"], "state": "MA", "address2": null, "address1": "28 Atlantic Ave", "zip_code": "02110", "city": "Boston", "country": "US", "address3": ""}, "url": "https://www.yelp.com/biz/sleepafloat-boston-boston?adjust_creative=gBcvfFpabk3CnzmXKdYe3w&utm_campaign=yelp_api_v3&utm_medium=api_v3_business_search&utm_source=gBcvfFpabk3CnzmXKdYe3w", "categories": [{"alias": "hotels", "title": "Hotels"}, {"alias": "vacation_rentals", "title": "Vacation Rentals"}], "display_phone": "(855) 343-3456", "is_closed": false, "name": "SleepAfloat - Boston", "price": "$$$", "review_count": 3, "coordinates": {"longitude": -71.050599, "latitude": 42.363346}}, {"rating": 5.0, "transactions": [], "image_url": "https://s3-media2.fl.yelpcdn.com/bphoto/PvWMSXWkXWC0TA3JKaSwDw/o.jpg", "phone": "+16173834599", "id": "timothy-anaya-photography-boston", "distance": 886.1893957061999, "location": {"display_address": ["Boston, MA 02108"], "state": "MA", "address2": null, "address1": null, "zip_code": "02108", "city": "Boston", "country": "US", "address3": ""}, "url": "https://www.yelp.com/biz/timothy-anaya-photography-boston?adjust_creative=gBcvfFpabk3CnzmXKdYe3w&utm_campaign=yelp_api_v3&utm_medium=api_v3_business_search&utm_source=gBcvfFpabk3CnzmXKdYe3w", "categories": [{"alias": "eventphotography", "title": "Event Photography"}, {"alias": "sessionphotography", "title": "Session Photography"}], "display_phone": "(617) 383-4599", "is_closed": false, "name": "Timothy Anaya Photography", "review_count": 4, "coordinates": {"longitude": -71.0654220581055, "latitude": 42.3566818237305}}, {"rating": 4.5, "transactions": [], "image_url": "https://s3-media2.fl.yelpcdn.com/bphoto/adpzMtr8Su9FcjLKp9Gk5A/o.jpg", "phone": "+16178211757", "id": "colon-constable-services-boston", "distance": 5565.623330443999, "location": {"display_address": ["Boston, MA 02130"], "state": "MA", "address2": null, "address1": "", "zip_code": "02130", "city": "Boston", "country": "US", "address3": ""}, "url": "https://www.yelp.com/biz/colon-constable-services-boston?adjust_creative=gBcvfFpabk3CnzmXKdYe3w&utm_campaign=yelp_api_v3&utm_medium=api_v3_business_search&utm_source=gBcvfFpabk3CnzmXKdYe3w", "categories": [{"alias": "notaries", "title": "Notaries"}, {"alias": "legalservices", "title": "Legal Services"}], "display_phone": "(617) 821-1757", "is_closed": false, "name": "Colon Constable Services", "review_count": 11, "coordinates": {"longitude": -71.1173934936523, "latitude": 42.3105201721191}}, {"rating": 5.0, "transactions": [], "image_url": "https://s3-media1.fl.yelpcdn.com/bphoto/Zhgd6-BRgGbw5xL8ijaWvQ/o.jpg", "phone": "+16177283669", "id": "b-and-b-parking-boston", "distance": 653.184596074, "location": {"display_address": ["1 Nassau St", "Boston, MA 02111"], "state": "MA", "address2": "", "address1": "1 Nassau St", "zip_code": "02111", "city": "Boston", "country": "US", "address3": ""}, "url": "https://www.yelp.com/biz/b-and-b-parking-boston?adjust_creative=gBcvfFpabk3CnzmXKdYe3w&utm_campaign=yelp_api_v3&utm_medium=api_v3_business_search&utm_source=gBcvfFpabk3CnzmXKdYe3w", "categories": [{"alias": "parking", "title": "Parking"}], "display_phone": "(617) 728-3669", "is_closed": false, "name": "B&B Parking", "review_count": 6, "coordinates": {"longitude": -71.0633827373386, "latitude": 42.348723580643}}, {"rating": 4.5, "transactions": [], "image_url": "https://s3-media1.fl.yelpcdn.com/bphoto/Pz2z2j91HuI_Y_uaVFf_Vw/o.jpg", "phone": "+16173672900", "id": "law-offices-of-jeffrey-s-glassman-llc-boston-3", "distance": 1476.9856253239998, "location": {"display_address": ["1 International Pl", "18th Fl", "Boston, MA 02110"], "state": "MA", "address2": "18th Fl", "address1": "1 International Pl", "zip_code": "02110", "city": "Boston", "country": "US", "address3": ""}, "url": "https://www.yelp.com/biz/law-offices-of-jeffrey-s-glassman-llc-boston-3?adjust_creative=gBcvfFpabk3CnzmXKdYe3w&utm_campaign=yelp_api_v3&utm_medium=api_v3_business_search&utm_source=gBcvfFpabk3CnzmXKdYe3w", "categories": [{"alias": "personal_injury", "title": "Personal Injury Law"}], "display_phone": "(617) 367-2900", "is_closed": false, "name": "Law Offices of Jeffrey S Glassman, LLC", "review_count": 4, "coordinates": {"longitude": -71.060825586319, "latitude": 42.358670765348}}, {"rating": 5.0, "transactions": [], "image_url": "https://s3-media1.fl.yelpcdn.com/bphoto/iK04U4IQCcw37-q8H2-OZQ/o.jpg", "phone": "+17743380828", "id": "red-fox-limo-boston", "distance": 1049.210983274, "location": {"display_address": ["800 Boylston St", "Boston, MA 02199"], "state": "MA", "address2": null, "address1": "800 Boylston St", "zip_code": "02199", "city": "Boston", "country": "US", "address3": ""}, "url": "https://www.yelp.com/biz/red-fox-limo-boston?adjust_creative=gBcvfFpabk3CnzmXKdYe3w&utm_campaign=yelp_api_v3&utm_medium=api_v3_business_search&utm_source=gBcvfFpabk3CnzmXKdYe3w", "categories": [{"alias": "airport_shuttles", "title": "Airport Shuttles"}, {"alias": "limos", "title": "Limos"}], "display_phone": "(774) 338-0828", "is_closed": false, "name": "Red Fox Limo", "review_count": 2, "coordinates": {"longitude": -71.0813522, "latitude": 42.3475113}}, {"rating": 4.0, "transactions": [], "image_url": "https://s3-media2.fl.yelpcdn.com/bphoto/3F4P1M5UuJO5CGGHLfGC4Q/o.jpg", "phone": "+18572856179", "id": "lone-star-taco-bar-cambridge", "distance": 2989.721934078, "location": {"display_address": ["635 Cambridge St", "Cambridge, MA 02141"], "state": "MA", "address2": "", "address1": "635 Cambridge St", "zip_code": "02141", "city": "Cambridge", "country": "US", "address3": ""}, "url": "https://www.yelp.com/biz/lone-star-taco-bar-cambridge?adjust_creative=gBcvfFpabk3CnzmXKdYe3w&utm_campaign=yelp_api_v3&utm_medium=api_v3_business_search&utm_source=gBcvfFpabk3CnzmXKdYe3w", "categories": [{"alias": "bars", "title": "Bars"}, {"alias": "tacos", "title": "Tacos"}], "display_phone": "(857) 285-6179", "is_closed": false, "name": "Lone Star Taco Bar", "price": "$$", "review_count": 162, "coordinates": {"longitude": -71.08687, "latitude": 42.37212}}, {"rating": 5.0, "transactions": [], "image_url": "https://s3-media2.fl.yelpcdn.com/bphoto/b_9lPy0NOL5O5EkSkNLWlA/o.jpg", "phone": "+12345678901", "id": "jenniferrose-photography-boston-2", "distance": 724.8368546523999, "location": {"display_address": ["Boston, MA 02116"], "state": "MA", "address2": null, "address1": null, "zip_code": "02116", "city": "Boston", "country": "US", "address3": ""}, "url": "https://www.yelp.com/biz/jenniferrose-photography-boston-2?adjust_creative=gBcvfFpabk3CnzmXKdYe3w&utm_campaign=yelp_api_v3&utm_medium=api_v3_business_search&utm_source=gBcvfFpabk3CnzmXKdYe3w", "categories": [{"alias": "photographers", "title": "Photographers"}], "display_phone": "(234) 567-8901", "is_closed": false, "name": "JenniferRose Photography", "review_count": 2, "coordinates": {"longitude": -71.0741, "latitude": 42.35191}}, {"rating": 5.0, "transactions": [], "image_url": "https://s3-media1.fl.yelpcdn.com/bphoto/7wCtGaLtFZsmvxomDrsgMg/o.jpg", "phone": "+16174809976", "id": "emily-ingardia-boston", "distance": 500.111578238, "location": {"display_address": ["18 Arlington St", "Boston, MA 02116"], "state": "MA", "address2": "", "address1": "18 Arlington St", "zip_code": "02116", "city": "Boston", "country": "US", "address3": ""}, "url": "https://www.yelp.com/biz/emily-ingardia-boston?adjust_creative=gBcvfFpabk3CnzmXKdYe3w&utm_campaign=yelp_api_v3&utm_medium=api_v3_business_search&utm_source=gBcvfFpabk3CnzmXKdYe3w", "categories": [{"alias": "realestateagents", "title": "Real Estate Agents"}], "display_phone": "(617) 480-9976", "is_closed": false, "name": "Emily Ingardia", "review_count": 4, "coordinates": {"longitude": -71.0712798, "latitude": 42.3523401}}, {"rating": 5.0, "transactions": [], "image_url": "https://s3-media4.fl.yelpcdn.com/bphoto/CSHxGUEKp9NhLU2cd8DXnw/o.jpg", "phone": "+16175297634", "id": "boston-dog-lodge-boston-5", "distance": 1481.2514384884, "location": {"display_address": ["Boston, MA 02115"], "state": "MA", "address2": null, "address1": null, "zip_code": "02115", "city": "Boston", "country": "US", "address3": ""}, "url": "https://www.yelp.com/biz/boston-dog-lodge-boston-5?adjust_creative=gBcvfFpabk3CnzmXKdYe3w&utm_campaign=yelp_api_v3&utm_medium=api_v3_business_search&utm_source=gBcvfFpabk3CnzmXKdYe3w", "categories": [{"alias": "pet_sitting", "title": "Pet Boarding/Pet Sitting"}], "display_phone": "(617) 529-7634", "is_closed": false, "name": "Boston Dog Lodge", "review_count": 5, "coordinates": {"longitude": -71.0605648894179, "latitude": 42.3585754700531}}, {"rating": 5.0, "transactions": [], "image_url": "https://s3-media2.fl.yelpcdn.com/bphoto/qlDVi9z0GYTvlr7lagBjPQ/o.jpg", "phone": "+16172540574", "id": "night-star-convenience-boston", "distance": 5072.1488313, "location": {"display_address": ["63 Harvard Ave", "Boston, MA 02134"], "state": "MA", "address2": "", "address1": "63 Harvard Ave", "zip_code": "02134", "city": "Boston", "country": "US", "address3": ""}, "url": "https://www.yelp.com/biz/night-star-convenience-boston?adjust_creative=gBcvfFpabk3CnzmXKdYe3w&utm_campaign=yelp_api_v3&utm_medium=api_v3_business_search&utm_source=gBcvfFpabk3CnzmXKdYe3w", "categories": [{"alias": "convenience", "title": "Convenience Stores"}], "display_phone": "(617) 254-0574", "is_closed": false, "name": "Night Star Convenience", "price": "$", "review_count": 6, "coordinates": {"longitude": -71.1323798, "latitude": 42.3541261}}, {"rating": 3.0, "transactions": [], "image_url": "https://s3-media2.fl.yelpcdn.com/bphoto/J2ZigvpXd9FQHXQ2LlvX5w/o.jpg", "phone": "+16174449203", "id": "garda-nee-land-improvement-boston-11", "distance": 3242.768922988, "location": {"display_address": ["Boston, MA 02127"], "state": "MA", "address2": "", "address1": "", "zip_code": "02127", "city": "Boston", "country": "US", "address3": ""}, "url": "https://www.yelp.com/biz/garda-nee-land-improvement-boston-11?adjust_creative=gBcvfFpabk3CnzmXKdYe3w&utm_campaign=yelp_api_v3&utm_medium=api_v3_business_search&utm_source=gBcvfFpabk3CnzmXKdYe3w", "categories": [{"alias": "landscaping", "title": "Landscaping"}, {"alias": "snowremoval", "title": "Snow Removal"}], "display_phone": "(617) 444-9203", "is_closed": false, "name": "Garda Nee Land Improvement", "review_count": 8, "coordinates": {"longitude": -71.0349193, "latitude": 42.3364553}}, {"rating": 5.0, "transactions": [], "image_url": "https://s3-media4.fl.yelpcdn.com/bphoto/H1FozNFvSZafOvBqIsp7kQ/o.jpg", "phone": "+16172691930", "id": "casper-funeral-and-cremation-services-boston", "distance": 2372.5635404419995, "location": {"display_address": ["187 Dorchester St", "Boston, MA 02127"], "state": "MA", "address2": "", "address1": "187 Dorchester St", "zip_code": "02127", "city": "Boston", "country": "US", "address3": ""}, "url": "https://www.yelp.com/biz/casper-funeral-and-cremation-services-boston?adjust_creative=gBcvfFpabk3CnzmXKdYe3w&utm_campaign=yelp_api_v3&utm_medium=api_v3_business_search&utm_source=gBcvfFpabk3CnzmXKdYe3w", "categories": [{"alias": "funeralservices", "title": "Funeral Services & Cemeteries"}], "display_phone": "(617) 269-1930", "is_closed": false, "name": "Casper Funeral & Cremation Services", "review_count": 6, "coordinates": {"longitude": -71.0494247, "latitude": 42.3338726}}, {"rating": 5.0, "transactions": [], "image_url": "https://s3-media3.fl.yelpcdn.com/bphoto/Z-y5M1m_oK3x8OMpkwtl3g/o.jpg", "phone": "+16172023919", "id": "whiting-environmental-building-inspection-boston", "distance": 1759.0634984939998, "location": {"display_address": ["265 Franklin St", "Boston, MA 02110"], "state": "MA", "address2": null, "address1": "265 Franklin St", "zip_code": "02110", "city": "Boston", "country": "US", "address3": null}, "url": "https://www.yelp.com/biz/whiting-environmental-building-inspection-boston?adjust_creative=gBcvfFpabk3CnzmXKdYe3w&utm_campaign=yelp_api_v3&utm_medium=api_v3_business_search&utm_source=gBcvfFpabk3CnzmXKdYe3w", "categories": [{"alias": "home_inspectors", "title": "Home Inspectors"}, {"alias": "environmentaltesting", "title": "Environmental Testing"}, {"alias": "homeenergyauditors", "title": "Home Energy Auditors"}], "display_phone": "(617) 202-3919", "is_closed": false, "name": "Metro Boston Property Inspections", "review_count": 3, "coordinates": {"longitude": -71.053352, "latitude": 42.356529}}, {"rating": 4.0, "transactions": [], "image_url": "https://s3-media3.fl.yelpcdn.com/bphoto/uf1ZUhe27dnRBQ1rHVprFg/o.jpg", "phone": "+16174424600", "id": "slades-bar-and-grill-roxbury-crossing", "distance": 1556.8046567597999, "location": {"display_address": ["958 Tremont St", "Roxbury Crossing, MA 02120"], "state": "MA", "address2": "", "address1": "958 Tremont St", "zip_code": "02120", "city": "Roxbury Crossing", "country": "US", "address3": ""}, "url": "https://www.yelp.com/biz/slades-bar-and-grill-roxbury-crossing?adjust_creative=gBcvfFpabk3CnzmXKdYe3w&utm_campaign=yelp_api_v3&utm_medium=api_v3_business_search&utm_source=gBcvfFpabk3CnzmXKdYe3w", "categories": [{"alias": "soulfood", "title": "Soul Food"}], "display_phone": "(617) 442-4600", "is_closed": false, "name": "Slades Bar & Grill", "price": "$$", "review_count": 71, "coordinates": {"longitude": -71.0837960243225, "latitude": 42.3373567344458}}, {"rating": 4.5, "transactions": [], "image_url": "https://s3-media1.fl.yelpcdn.com/bphoto/Xo9E98bIY0mtAfmWPrgJOQ/o.jpg", "phone": "+16172215668", "id": "infinite-beauty-med-spa-boston", "distance": 2358.350010496, "location": {"display_address": ["157 Seaport Blvd", "Boston, MA 02210"], "state": "MA", "address2": null, "address1": "157 Seaport Blvd", "zip_code": "02210", "city": "Boston", "country": "US", "address3": ""}, "url": "https://www.yelp.com/biz/infinite-beauty-med-spa-boston?adjust_creative=gBcvfFpabk3CnzmXKdYe3w&utm_campaign=yelp_api_v3&utm_medium=api_v3_business_search&utm_source=gBcvfFpabk3CnzmXKdYe3w", "categories": [{"alias": "medicalspa", "title": "Medical Spas"}, {"alias": "skincare", "title": "Skin Care"}], "display_phone": "(617) 221-5668", "is_closed": false, "name": "Infinite Beauty Med Spa", "price": "$$", "review_count": 7, "coordinates": {"longitude": -71.0425052, "latitude": 42.35019}}, {"rating": 2.0, "transactions": [], "image_url": "https://s3-media3.fl.yelpcdn.com/bphoto/MC-LsNSOxpZDt4MM-xTM3A/o.jpg", "phone": "+16172270385", "id": "government-center-garage-boston-2", "distance": 1866.5064165079998, "location": {"display_address": ["50 New Sudbury St", "Boston, MA 02114"], "state": "MA", "address2": "", "address1": "50 New Sudbury St", "zip_code": "02114", "city": "Boston", "country": "US", "address3": ""}, "url": "https://www.yelp.com/biz/government-center-garage-boston-2?adjust_creative=gBcvfFpabk3CnzmXKdYe3w&utm_campaign=yelp_api_v3&utm_medium=api_v3_business_search&utm_source=gBcvfFpabk3CnzmXKdYe3w", "categories": [{"alias": "parking", "title": "Parking"}], "display_phone": "(617) 227-0385", "is_closed": false, "name": "Government Center Garage", "review_count": 34, "coordinates": {"longitude": -71.0597427614133, "latitude": 42.3623215016796}}, {"rating": 4.0, "transactions": [], "image_url": "https://s3-media3.fl.yelpcdn.com/bphoto/JgqqzCaicU54PUuNvKghEw/o.jpg", "phone": "+18576001914", "id": "mlr-artist-management-boston", "distance": 994.9859778743999, "location": {"display_address": ["Boston, MA 02111"], "state": "MA", "address2": "", "address1": "", "zip_code": "02111", "city": "Boston", "country": "US", "address3": ""}, "url": "https://www.yelp.com/biz/mlr-artist-management-boston?adjust_creative=gBcvfFpabk3CnzmXKdYe3w&utm_campaign=yelp_api_v3&utm_medium=api_v3_business_search&utm_source=gBcvfFpabk3CnzmXKdYe3w", "categories": [{"alias": "makeupartists", "title": "Makeup Artists"}, {"alias": "sessionphotography", "title": "Session Photography"}, {"alias": "talentagencies", "title": "Talent Agencies"}], "display_phone": "(857) 600-1914", "is_closed": false, "name": "MLR Artist Management", "price": "$$", "review_count": 5, "coordinates": {"longitude": -71.06058, "latitude": 42.35213}}], "total": 1239}