{"region": {"center": {"longitude": -71.07124328613281, "latitude": 42.34784169448538}}, "businesses": [{"rating": 2.5, "transactions": [], "image_url": "https://s3-media2.fl.yelpcdn.com/bphoto/BZTZ_yJwChdwXkbPbHVc7g/o.jpg", "phone": "+16173540999", "id": "ihop-cambridge", "distance": 4929.21690854, "location": {"display_address": ["16 Eliot St", "Unit 18", "Cambridge, MA 02138"], "state": "MA", "address2": "Unit 18", "address1": "16 Eliot St", "zip_code": "02138", "city": "Cambridge", "country": "US", "address3": ""}, "url": "https://www.yelp.com/biz/ihop-cambridge?adjust_creative=gBcvfFpabk3CnzmXKdYe3w&utm_campaign=yelp_api_v3&utm_medium=api_v3_business_search&utm_source=gBcvfFpabk3CnzmXKdYe3w", "categories": [{"alias": "diners", "title": "Diners"}, {"alias": "breakfast_brunch", "title": "Breakfast & Brunch"}], "display_phone": "(617) 354-0999", "is_closed": false, "name": "IHOP", "price": "$", "review_count": 114, "coordinates": {"longitude": -71.12152, "latitude": 42.37202}}, {"rating": 3.0, "transactions": ["delivery"], "image_url": "https://s3-media1.fl.yelpcdn.com/bphoto/XhBDyJDdH-jFcd-Cc10Cog/o.jpg", "phone": "+16175661002", "id": "cityside-brighton", "distance": 6634.351262699999, "location": {"display_address": ["1960 Beacon St", "Brighton, MA 02135"], "state": "MA", "address2": "", "address1": "1960 Beacon St", "zip_code": "02135", "city": "Brighton", "country": "US", "address3": ""}, "url": "https://www.yelp.com/biz/cityside-brighton?adjust_creative=gBcvfFpabk3CnzmXKdYe3w&utm_campaign=yelp_api_v3&utm_medium=api_v3_business_search&utm_source=gBcvfFpabk3CnzmXKdYe3w", "categories": [{"alias": "bars", "title": "Bars"}, {"alias": "burgers", "title": "Burgers"}, {"alias": "sandwiches", "title": "Sandwiches"}], "display_phone": "(617) 566-1002", "is_closed": false, "name": "CitySide", "price": "$$", "review_count": 257, "coordinates": {"longitude": -71.15016, "latitude": 42.33643}}, {"rating": 3.0, "transactions": [], "image_url": "https://s3-media1.fl.yelpcdn.com/bphoto/xG8YPSGeWztvnFlIZzzSlA/o.jpg", "phone": "+14133208823", "id": "paal-boston", "distance": 3841.8492785359995, "location": {"display_address": ["42 Gove St", "Boston, MA 02128"], "state": "MA", "address2": "", "address1": "42 Gove St", "zip_code": "02128", "city": "Boston", "country": "US", "address3": ""}, "url": "https://www.yelp.com/biz/paal-boston?adjust_creative=gBcvfFpabk3CnzmXKdYe3w&utm_campaign=yelp_api_v3&utm_medium=api_v3_business_search&utm_source=gBcvfFpabk3CnzmXKdYe3w", "categories": [{"alias": "waterdelivery", "title": "Water Delivery"}, {"alias": "fooddeliveryservices", "title": "Food Delivery Services"}], "display_phone": "(413) 320-8823", "is_closed": false, "name": "Paal", "price": "$$", "review_count": 1, "coordinates": {"longitude": -71.0373401, "latitude": 42.371634}}, {"rating": 5.0, "transactions": [], "image_url": "https://s3-media1.fl.yelpcdn.com/bphoto/DGzwxrsB4f0y6Aw_GvRHgQ/o.jpg", "phone": "+16176809474", "id": "jeffrey-r-shargel-cambridge", "distance": 3958.003393036, "location": {"display_address": ["625 Massachusetts Ave", "Cambridge, MA 02139"], "state": "MA", "address2": "", "address1": "625 Massachusetts Ave", "zip_code": "02139", "city": "Cambridge", "country": "US", "address3": ""}, "url": "https://www.yelp.com/biz/jeffrey-r-shargel-cambridge?adjust_creative=gBcvfFpabk3CnzmXKdYe3w&utm_campaign=yelp_api_v3&utm_medium=api_v3_business_search&utm_source=gBcvfFpabk3CnzmXKdYe3w", "categories": [{"alias": "realestatelawyers", "title": "Real Estate Law"}, {"alias": "willstrustsprobates", "title": "Wills, Trusts, & Probates"}], "display_phone": "(617) 680-9474", "is_closed": false, "name": "Jeffrey R Shargel", "review_count": 17, "coordinates": {"longitude": -71.1098787918488, "latitude": 42.3691038269075}}, {"rating": 3.0, "transactions": [], "image_url": "https://s3-media1.fl.yelpcdn.com/bphoto/5O7yuS5wdcglDUGjN96pGA/o.jpg", "phone": "+16175610081", "id": "neptune-convenience-and-liquor-boston", "distance": 5184.739223304, "location": {"display_address": ["3 Neptune Rd", "Boston, MA 02128"], "state": "MA", "address2": null, "address1": "3 Neptune Rd", "zip_code": "02128", "city": "Boston", "country": "US", "address3": null}, "url": "https://www.yelp.com/biz/neptune-convenience-and-liquor-boston?adjust_creative=gBcvfFpabk3CnzmXKdYe3w&utm_campaign=yelp_api_v3&utm_medium=api_v3_business_search&utm_source=gBcvfFpabk3CnzmXKdYe3w", "categories": [{"alias": "convenience", "title": "Convenience Stores"}, {"alias": "beer_and_wine", "title": "Beer, Wine & Spirits"}], "display_phone": "(617) 561-0081", "is_closed": false, "name": "Neptune Convenience & Liquor", "price": "$$$$", "review_count": 2, "coordinates": {"longitude": -71.0258966, "latitude": 42.3802693}}, {"rating": 5.0, "transactions": [], "image_url": "https://s3-media1.fl.yelpcdn.com/bphoto/asJMXiQEEKuGvva45ljQOw/o.jpg", "phone": "+16172381371", "id": "prime-locksmith-mobile-service-quincy", "distance": 7333.091928956, "location": {"display_address": ["Quincy, MA 02171"], "state": "MA", "address2": null, "address1": null, "zip_code": "02171", "city": "Quincy", "country": "US", "address3": ""}, "url": "https://www.yelp.com/biz/prime-locksmith-mobile-service-quincy?adjust_creative=gBcvfFpabk3CnzmXKdYe3w&utm_campaign=yelp_api_v3&utm_medium=api_v3_business_search&utm_source=gBcvfFpabk3CnzmXKdYe3w", "categories": [{"alias": "locksmiths", "title": "Keys & Locksmiths"}], "display_phone": "(617) 238-1371", "is_closed": false, "name": "Prime Locksmith Mobile Service", "review_count": 66, "coordinates": {"longitude": -71.02677, "latitude": 42.2784}}, {"rating": 1.0, "transactions": [], "image_url": "https://s3-media1.fl.yelpcdn.com/bphoto/JR-HBColA2NbUpzDPeSwaA/o.jpg", "phone": "+16178332333", "id": "quick-livery-boston-2", "distance": 1507.7886665117999, "location": {"display_address": ["Boston, MA"], "state": "MA", "address2": "", "address1": "", "zip_code": "", "city": "Boston", "country": "US", "address3": ""}, "url": "https://www.yelp.com/biz/quick-livery-boston-2?adjust_creative=gBcvfFpabk3CnzmXKdYe3w&utm_campaign=yelp_api_v3&utm_medium=api_v3_business_search&utm_source=gBcvfFpabk3CnzmXKdYe3w", "categories": [{"alias": "limos", "title": "Limos"}, {"alias": "taxis", "title": "Taxis"}], "display_phone": "(617) 833-2333", "is_closed": false, "name": "Quick Livery", "review_count": 12, "coordinates": {"longitude": -71.0597732, "latitude": 42.3584308}}, {"rating": 3.0, "transactions": [], "image_url": "", "phone": "+16175693350", "id": "pockets-billiard-club-boston", "distance": 6763.19582777, "location": {"display_address": ["981 Bennington St", "Boston, MA 02128"], "state": "MA", "address2": "", "address1": "981 Bennington St", "zip_code": "02128", "city": "Boston", "country": "US", "address3": ""}, "url": "https://www.yelp.com/biz/pockets-billiard-club-boston?adjust_creative=gBcvfFpabk3CnzmXKdYe3w&utm_campaign=yelp_api_v3&utm_medium=api_v3_business_search&utm_source=gBcvfFpabk3CnzmXKdYe3w", "categories": [{"alias": "poolhalls", "title": "Pool Halls"}], "display_phone": "(617) 569-3350", "is_closed": false, "name": "Pockets Billiard Club", "price": "$", "review_count": 7, "coordinates": {"longitude": -71.0071487, "latitude": 42.3863869}}, {"rating": 3.0, "transactions": [], "image_url": "", "phone": "+18572502785", "id": "boston-fenway-inn-boston-2", "distance": 1456.3522771839998, "location": {"display_address": ["12 Hemenway St", "Boston, MA 02115"], "state": "MA", "address2": "", "address1": "12 Hemenway St", "zip_code": "02115", "city": "Boston", "country": "US", "address3": null}, "url": "https://www.yelp.com/biz/boston-fenway-inn-boston-2?adjust_creative=gBcvfFpabk3CnzmXKdYe3w&utm_campaign=yelp_api_v3&utm_medium=api_v3_business_search&utm_source=gBcvfFpabk3CnzmXKdYe3w", "categories": [{"alias": "bedbreakfast", "title": "Bed & Breakfast"}], "display_phone": "(857) 250-2785", "is_closed": false, "name": "Boston Fenway Inn", "review_count": 4, "coordinates": {"longitude": -71.08902, "latitude": 42.34639}}, {"rating": 1.5, "transactions": [], "image_url": "https://s3-media4.fl.yelpcdn.com/bphoto/cY0mcQvyDCvB_b850YOaJQ/o.jpg", "phone": "+16175219099", "id": "laz-parking-boston-7", "distance": 1680.4163401659998, "location": {"display_address": ["225 Franklin St", "Boston, MA 02110"], "state": "MA", "address2": null, "address1": "225 Franklin St", "zip_code": "02110", "city": "Boston", "country": "US", "address3": ""}, "url": "https://www.yelp.com/biz/laz-parking-boston-7?adjust_creative=gBcvfFpabk3CnzmXKdYe3w&utm_campaign=yelp_api_v3&utm_medium=api_v3_business_search&utm_source=gBcvfFpabk3CnzmXKdYe3w", "categories": [{"alias": "parking", "title": "Parking"}], "display_phone": "(617) 521-9099", "is_closed": false, "name": "LAZ Parking", "review_count": 2, "coordinates": {"longitude": -71.0541049, "latitude": 42.3563005}}, {"rating": 3.5, "transactions": [], "image_url": "https://s3-media2.fl.yelpcdn.com/bphoto/8cVBW1oBgr4Q01ZRjNyapQ/o.jpg", "phone": "+16178064200", "id": "royal-sonesta-hotel-cambridge", "distance": 2136.38919396, "location": {"display_address": ["40 Edwin H Land Blvd", "Cambridge, MA 02142"], "state": "MA", "address2": "", "address1": "40 Edwin H Land Blvd", "zip_code": "02142", "city": "Cambridge", "country": "US", "address3": ""}, "url": "https://www.yelp.com/biz/royal-sonesta-hotel-cambridge?adjust_creative=gBcvfFpabk3CnzmXKdYe3w&utm_campaign=yelp_api_v3&utm_medium=api_v3_business_search&utm_source=gBcvfFpabk3CnzmXKdYe3w", "categories": [{"alias": "hotels", "title": "Hotels"}], "display_phone": "(617) 806-4200", "is_closed": false, "name": "Royal Sonesta Hotel", "price": "$$$", "review_count": 185, "coordinates": {"longitude": -71.0756088806039, "latitude": 42.366576922861}}, {"rating": 3.0, "transactions": [], "image_url": "https://s3-media1.fl.yelpcdn.com/bphoto/kGRWYdkAGkpAavs83MQRzA/o.jpg", "phone": "+16175663782", "id": "magnolia-smokehouse-brookline", "distance": 4229.143386896, "location": {"display_address": ["6 Harvard Square", "Brookline, MA 02445"], "state": "MA", "address2": "", "address1": "6 Harvard Square", "zip_code": "02445", "city": "Brookline", "country": "US", "address3": null}, "url": "https://www.yelp.com/biz/magnolia-smokehouse-brookline?adjust_creative=gBcvfFpabk3CnzmXKdYe3w&utm_campaign=yelp_api_v3&utm_medium=api_v3_business_search&utm_source=gBcvfFpabk3CnzmXKdYe3w", "categories": [{"alias": "bbq", "title": "Barbeque"}, {"alias": "cocktailbars", "title": "Cocktail Bars"}, {"alias": "newamerican", "title": "American (New)"}], "display_phone": "(617) 566-3782", "is_closed": false, "name": "Magnolia Smokehouse", "price": "$$", "review_count": 33, "coordinates": {"longitude": -71.1186867305384, "latitude": 42.3331242423566}}, {"rating": 3.5, "transactions": [], "image_url": "https://s3-media2.fl.yelpcdn.com/bphoto/vfpLNhkqXYlEzOA8WjSRJQ/o.jpg", "phone": "+16177384874", "id": "tedeschi-food-shops-boston-4", "distance": 6496.516763455999, "location": {"display_address": ["1912 Beacon St", "Boston, MA 02135"], "state": "MA", "address2": "", "address1": "1912 Beacon St", "zip_code": "02135", "city": "Boston", "country": "US", "address3": ""}, "url": "https://www.yelp.com/biz/tedeschi-food-shops-boston-4?adjust_creative=gBcvfFpabk3CnzmXKdYe3w&utm_campaign=yelp_api_v3&utm_medium=api_v3_business_search&utm_source=gBcvfFpabk3CnzmXKdYe3w", "categories": [{"alias": "convenience", "title": "Convenience Stores"}], "display_phone": "(617) 738-4874", "is_closed": false, "name": "Tedeschi Food Shops", "price": "$$", "review_count": 2, "coordinates": {"longitude": -71.1488057287792, "latitude": 42.3365758711941}}, {"rating": 3.5, "transactions": [], "image_url": "https://s3-media3.fl.yelpcdn.com/bphoto/KoKdshPs-onuPkCS9bG9kQ/o.jpg", "phone": "+16175770200", "id": "le-m\u00e9ridien-cambridge-2", "distance": 2849.45556116, "location": {"display_address": ["20 Sidney St", "Cambridge, MA 02139"], "state": "MA", "address2": "", "address1": "20 Sidney St", "zip_code": "02139", "city": "Cambridge", "country": "US", "address3": ""}, "url": "https://www.yelp.com/biz/le-m%C3%A9ridien-cambridge-2?adjust_creative=gBcvfFpabk3CnzmXKdYe3w&utm_campaign=yelp_api_v3&utm_medium=api_v3_business_search&utm_source=gBcvfFpabk3CnzmXKdYe3w", "categories": [{"alias": "hotels", "title": "Hotels"}], "display_phone": "(617) 577-0200", "is_closed": false, "name": "Le M\u00e9ridien", "price": "$$$", "review_count": 150, "coordinates": {"longitude": -71.1001253128052, "latitude": 42.3620242125342}}, {"rating": 1.5, "transactions": [], "image_url": "https://s3-media2.fl.yelpcdn.com/bphoto/rQcBa2EzFn3HGcANpY1apg/o.jpg", "phone": "+16178198701", "id": "oncabs-boston-boston", "distance": 563.7538941419999, "location": {"display_address": ["398 Columbus Ave", "Boston, MA 02116"], "state": "MA", "address2": null, "address1": "398 Columbus Ave", "zip_code": "02116", "city": "Boston", "country": "US", "address3": ""}, "url": "https://www.yelp.com/biz/oncabs-boston-boston?adjust_creative=gBcvfFpabk3CnzmXKdYe3w&utm_campaign=yelp_api_v3&utm_medium=api_v3_business_search&utm_source=gBcvfFpabk3CnzmXKdYe3w", "categories": [{"alias": "airport_shuttles", "title": "Airport Shuttles"}, {"alias": "taxis", "title": "Taxis"}, {"alias": "limos", "title": "Limos"}], "display_phone": "(617) 819-8701", "is_closed": false, "name": "OnCabs Boston", "review_count": 4, "coordinates": {"longitude": -71.0762863, "latitude": 42.3447952}}, {"rating": 2.5, "transactions": [], "image_url": "https://s3-media2.fl.yelpcdn.com/bphoto/YcI8tGnMhdtgaO-4jQQyNw/o.jpg", "phone": "+16175666260", "id": "hotel-boston-boston", "distance": 5984.817132548, "location": {"display_address": ["1650 Commonwealth Ave", "Boston, MA 02135"], "state": "MA", "address2": "", "address1": "1650 Commonwealth Ave", "zip_code": "02135", "city": "Boston", "country": "US", "address3": null}, "url": "https://www.yelp.com/biz/hotel-boston-boston?adjust_creative=gBcvfFpabk3CnzmXKdYe3w&utm_campaign=yelp_api_v3&utm_medium=api_v3_business_search&utm_source=gBcvfFpabk3CnzmXKdYe3w", "categories": [{"alias": "hotels", "title": "Hotels"}], "display_phone": "(617) 566-6260", "is_closed": false, "name": "Hotel Boston", "price": "$$", "review_count": 7, "coordinates": {"longitude": -71.1441192626953, "latitude": 42.3418769836426}}, {"rating": 1.0, "transactions": [], "image_url": "https://s3-media3.fl.yelpcdn.com/bphoto/RlIcb4wAr0t3xdZPzrIDxg/o.jpg", "phone": "+16177125060", "id": "kellz-heating-co-inc-boston-2", "distance": 591.04459906, "location": {"display_address": ["125 Newbury St", "Boston, MA 02116"], "state": "MA", "address2": "", "address1": "125 Newbury St", "zip_code": "02116", "city": "Boston", "country": "US", "address3": ""}, "url": "https://www.yelp.com/biz/kellz-heating-co-inc-boston-2?adjust_creative=gBcvfFpabk3CnzmXKdYe3w&utm_campaign=yelp_api_v3&utm_medium=api_v3_business_search&utm_source=gBcvfFpabk3CnzmXKdYe3w", "categories": [{"alias": "hvac", "title": "Heating & Air Conditioning/HVAC"}, {"alias": "plumbing", "title": "Plumbing"}], "display_phone": "(617) 712-5060", "is_closed": false, "name": "Kellz Heating Co Inc", "review_count": 4, "coordinates": {"longitude": -71.0766024, "latitude": 42.3513926}}, {"rating": 4.5, "transactions": [], "image_url": "https://s3-media3.fl.yelpcdn.com/bphoto/E1v5wKiN6kC_5OR3ZnswFA/o.jpg", "phone": "+16178842294", "id": "preflight-airport-parking-chelsea", "distance": 6063.338279554, "location": {"display_address": ["111 Eastern Ave", "Chelsea, MA 02150"], "state": "MA", "address2": "", "address1": "111 Eastern Ave", "zip_code": "02150", "city": "Chelsea", "country": "US", "address3": ""}, "url": "https://www.yelp.com/biz/preflight-airport-parking-chelsea?adjust_creative=gBcvfFpabk3CnzmXKdYe3w&utm_campaign=yelp_api_v3&utm_medium=api_v3_business_search&utm_source=gBcvfFpabk3CnzmXKdYe3w", "categories": [{"alias": "parking", "title": "Parking"}], "display_phone": "(617) 884-2294", "is_closed": false, "name": "PreFlight Airport Parking", "review_count": 150, "coordinates": {"longitude": -71.02176, "latitude": 42.3894}}, {"rating": 5.0, "transactions": [], "image_url": "https://s3-media4.fl.yelpcdn.com/bphoto/9RrCKKbHWUZQKT1b5-gl9Q/o.jpg", "phone": "+18573187739", "id": "the-drain-man-boston-2", "distance": 1118.6066896779998, "location": {"display_address": ["Boston, MA 02118"], "state": "MA", "address2": null, "address1": "", "zip_code": "02118", "city": "Boston", "country": "US", "address3": ""}, "url": "https://www.yelp.com/biz/the-drain-man-boston-2?adjust_creative=gBcvfFpabk3CnzmXKdYe3w&utm_campaign=yelp_api_v3&utm_medium=api_v3_business_search&utm_source=gBcvfFpabk3CnzmXKdYe3w", "categories": [{"alias": "plumbing", "title": "Plumbing"}], "display_phone": "(857) 318-7739", "is_closed": false, "name": "The Drain Man", "review_count": 2, "coordinates": {"longitude": -71.0699996948242, "latitude": 42.3379669189453}}, {"rating": 1.0, "transactions": [], "image_url": "https://s3-media1.fl.yelpcdn.com/bphoto/gQc4tp5YuHh4L9dr_3yMSg/o.jpg", "phone": "+16173061932", "id": "baystate-express-boston-2", "distance": 1338.3740723544, "location": {"display_address": ["25 Dorchester Ave", "Ste 52172", "Boston, MA 02205"], "state": "MA", "address2": "Ste 52172", "address1": "25 Dorchester Ave", "zip_code": "02205", "city": "Boston", "country": "US", "address3": ""}, "url": "https://www.yelp.com/biz/baystate-express-boston-2?adjust_creative=gBcvfFpabk3CnzmXKdYe3w&utm_campaign=yelp_api_v3&utm_medium=api_v3_business_search&utm_source=gBcvfFpabk3CnzmXKdYe3w", "categories": [{"alias": "selfstorage", "title": "Self Storage"}, {"alias": "furnitureassembly", "title": "Furniture Assembly"}, {"alias": "transport", "title": "Transportation"}], "display_phone": "(617) 306-1932", "is_closed": false, "name": "Baystate Express", "review_count": 1, "coordinates": {"longitude": -71.055061, "latitude": 42.3492015}}, {"rating": 5.0, "transactions": [], "image_url": "https://s3-media3.fl.yelpcdn.com/bphoto/WtxmGIhBckyJX_0Lb8ZumA/o.jpg", "phone": "+16174928837", "id": "carlmont-lock-cambridge-2", "distance": 6629.823706478, "location": {"display_address": ["Cambridge, MA 02138"], "state": "MA", "address2": "", "address1": "", "zip_code": "02138", "city": "Cambridge", "country": "US", "address3": ""}, "url": "https://www.yelp.com/biz/carlmont-lock-cambridge-2?adjust_creative=gBcvfFpabk3CnzmXKdYe3w&utm_campaign=yelp_api_v3&utm_medium=api_v3_business_search&utm_source=gBcvfFpabk3CnzmXKdYe3w", "categories": [{"alias": "locksmiths", "title": "Keys & Locksmiths"}], "display_phone": "(617) 492-8837", "is_closed": false, "name": "Carlmont Lock", "review_count": 59, "coordinates": {"longitude": -71.1389101, "latitude": 42.3803274}}, {"rating": 5.0, "transactions": [], "image_url": "https://s3-media3.fl.yelpcdn.com/bphoto/pjuoNPm-qlDo5sWVamxAzA/o.jpg", "phone": "+16175887111", "id": "flat-rate-sewer-drain-cleaning-services-boston", "distance": 1194.176870393, "location": {"display_address": ["745 Atlantic Ave", "Boston, MA 02111"], "state": "MA", "address2": null, "address1": "745 Atlantic Ave", "zip_code": "02111", "city": "Boston", "country": "US", "address3": ""}, "url": "https://www.yelp.com/biz/flat-rate-sewer-drain-cleaning-services-boston?adjust_creative=gBcvfFpabk3CnzmXKdYe3w&utm_campaign=yelp_api_v3&utm_medium=api_v3_business_search&utm_source=gBcvfFpabk3CnzmXKdYe3w", "categories": [{"alias": "plumbing", "title": "Plumbing"}, {"alias": "septicservices", "title": "Septic Services"}], "display_phone": "(617) 588-7111", "is_closed": false, "name": "Flat Rate Sewer Drain Cleaning Services", "review_count": 4, "coordinates": {"longitude": -71.05712890625, "latitude": 42.3502922058105}}, {"rating": 1.0, "transactions": [], "image_url": "https://s3-media3.fl.yelpcdn.com/bphoto/O2ACnHkQWxCdOmT_XlvKkw/o.jpg", "phone": "+18574884818", "id": "my-local-locksmiths-boston", "distance": 1461.4096281339998, "location": {"display_address": ["10 Milk St", "Boston, MA 02109"], "state": "MA", "address2": null, "address1": "10 Milk St", "zip_code": "02109", "city": "Boston", "country": "US", "address3": ""}, "url": "https://www.yelp.com/biz/my-local-locksmiths-boston?adjust_creative=gBcvfFpabk3CnzmXKdYe3w&utm_campaign=yelp_api_v3&utm_medium=api_v3_business_search&utm_source=gBcvfFpabk3CnzmXKdYe3w", "categories": [{"alias": "locksmiths", "title": "Keys & Locksmiths"}], "display_phone": "(857) 488-4818", "is_closed": false, "name": "My Local Locksmiths", "review_count": 1, "coordinates": {"longitude": -71.0579744, "latitude": 42.3568723}}, {"rating": 5.0, "transactions": [], "image_url": "https://s3-media3.fl.yelpcdn.com/bphoto/nB-JhYiSk0Q6Tr6L7HuK1Q/o.jpg", "phone": "+16175951984", "id": "pet-city-sitters-somerville", "distance": 4992.625387342, "location": {"display_address": ["Somerville, MA"], "state": "MA", "address2": null, "address1": "", "zip_code": "", "city": "Somerville", "country": "US", "address3": ""}, "url": "https://www.yelp.com/biz/pet-city-sitters-somerville?adjust_creative=gBcvfFpabk3CnzmXKdYe3w&utm_campaign=yelp_api_v3&utm_medium=api_v3_business_search&utm_source=gBcvfFpabk3CnzmXKdYe3w", "categories": [{"alias": "pet_sitting", "title": "Pet Boarding/Pet Sitting"}, {"alias": "dogwalkers", "title": "Dog Walkers"}], "display_phone": "(617) 595-1984", "is_closed": false, "name": "Pet City Sitters", "review_count": 22, "coordinates": {"longitude": -71.0994968, "latitude": 42.3875968}}, {"rating": 5.0, "transactions": [], "image_url": "https://s3-media2.fl.yelpcdn.com/bphoto/YN64ARk-QMasxE070hgqzg/o.jpg", "phone": "+16175911199", "id": "the-drain-guy-cambridge", "distance": 2978.927286028, "location": {"display_address": ["82 Berkshire St", "Cambridge, MA 02141"], "state": "MA", "address2": null, "address1": "82 Berkshire St", "zip_code": "02141", "city": "Cambridge", "country": "US", "address3": ""}, "url": "https://www.yelp.com/biz/the-drain-guy-cambridge?adjust_creative=gBcvfFpabk3CnzmXKdYe3w&utm_campaign=yelp_api_v3&utm_medium=api_v3_business_search&utm_source=gBcvfFpabk3CnzmXKdYe3w", "categories": [{"alias": "contractors", "title": "Contractors"}], "display_phone": "(617) 591-1199", "is_closed": false, "name": "The Drain Guy", "review_count": 12, "coordinates": {"longitude": -71.0908073186874, "latitude": 42.3703321069479}}, {"rating": 1.0, "transactions": [], "image_url": "https://s3-media4.fl.yelpcdn.com/bphoto/LLc5FpfKBzyzah2kUJPPJA/o.jpg", "phone": "+16175447746", "id": "spin-services-boston", "distance": 442.69966120999993, "location": {"display_address": ["229 Berkeley St", "Boston, MA 02116"], "state": "MA", "address2": "", "address1": "229 Berkeley St", "zip_code": "02116", "city": "Boston", "country": "US", "address3": ""}, "url": "https://www.yelp.com/biz/spin-services-boston?adjust_creative=gBcvfFpabk3CnzmXKdYe3w&utm_campaign=yelp_api_v3&utm_medium=api_v3_business_search&utm_source=gBcvfFpabk3CnzmXKdYe3w", "categories": [{"alias": "valetservices", "title": "Valet Services"}, {"alias": "carwash", "title": "Car Wash"}, {"alias": "parking", "title": "Parking"}], "display_phone": "(617) 544-7746", "is_closed": false, "name": "Spin Services", "review_count": 5, "coordinates": {"longitude": -71.0730209, "latitude": 42.3515511}}, {"rating": 5.0, "transactions": [], "image_url": "https://s3-media2.fl.yelpcdn.com/bphoto/VVDXC00old1h3Gmro6lHNA/o.jpg", "phone": "+16172366961", "id": "14-union-park-boston-2", "distance": 591.3162073717999, "location": {"display_address": ["14 Union Park", "Boston, MA 02118"], "state": "MA", "address2": "", "address1": "14 Union Park", "zip_code": "02118", "city": "Boston", "country": "US", "address3": ""}, "url": "https://www.yelp.com/biz/14-union-park-boston-2?adjust_creative=gBcvfFpabk3CnzmXKdYe3w&utm_campaign=yelp_api_v3&utm_medium=api_v3_business_search&utm_source=gBcvfFpabk3CnzmXKdYe3w", "categories": [{"alias": "guesthouses", "title": "Guest Houses"}], "display_phone": "(617) 236-6961", "is_closed": false, "name": "14 Union Park", "review_count": 1, "coordinates": {"longitude": -71.0708507, "latitude": 42.342533}}, {"rating": 1.0, "transactions": [], "image_url": "", "phone": "+16175362000", "id": "all-area-taxi-boston", "distance": 1145.161362947, "location": {"display_address": ["66 Charles St", "Boston, MA 02114"], "state": "MA", "address2": "", "address1": "66 Charles St", "zip_code": "02114", "city": "Boston", "country": "US", "address3": ""}, "url": "https://www.yelp.com/biz/all-area-taxi-boston?adjust_creative=gBcvfFpabk3CnzmXKdYe3w&utm_campaign=yelp_api_v3&utm_medium=api_v3_business_search&utm_source=gBcvfFpabk3CnzmXKdYe3w", "categories": [{"alias": "taxis", "title": "Taxis"}], "display_phone": "(617) 536-2000", "is_closed": false, "name": "All Area Taxi", "review_count": 1, "coordinates": {"longitude": -71.07026, "latitude": 42.358116}}, {"rating": 1.0, "transactions": [], "image_url": "https://s3-media4.fl.yelpcdn.com/bphoto/hKg0qj4oty_Sg-L88Ueosw/o.jpg", "phone": "+16176993126", "id": "boston-limousine-boston-3", "distance": 1594.753103174, "location": {"display_address": ["113 High St", "Boston, MA 02110"], "state": "MA", "address2": "", "address1": "113 High St", "zip_code": "02110", "city": "Boston", "country": "US", "address3": ""}, "url": "https://www.yelp.com/biz/boston-limousine-boston-3?adjust_creative=gBcvfFpabk3CnzmXKdYe3w&utm_campaign=yelp_api_v3&utm_medium=api_v3_business_search&utm_source=gBcvfFpabk3CnzmXKdYe3w", "categories": [{"alias": "limos", "title": "Limos"}], "display_phone": "(617) 699-3126", "is_closed": false, "name": "Boston Limousine", "review_count": 3, "coordinates": {"longitude": -71.054271, "latitude": 42.354745}}, {"rating": 1.0, "transactions": [], "image_url": "https://s3-media2.fl.yelpcdn.com/bphoto/2WT_WjdMm6Ms2LBe1g2u8Q/o.jpg", "phone": "+16178614733", "id": "plus-locksmith-boston", "distance": 1576.366393674, "location": {"display_address": ["3 Center Plz", "Boston, MA 02108"], "state": "MA", "address2": null, "address1": "3 Center Plz", "zip_code": "02108", "city": "Boston", "country": "US", "address3": ""}, "url": "https://www.yelp.com/biz/plus-locksmith-boston?adjust_creative=gBcvfFpabk3CnzmXKdYe3w&utm_campaign=yelp_api_v3&utm_medium=api_v3_business_search&utm_source=gBcvfFpabk3CnzmXKdYe3w", "categories": [{"alias": "locksmiths", "title": "Keys & Locksmiths"}], "display_phone": "(617) 861-4733", "is_closed": false, "name": "Plus Locksmith", "review_count": 3, "coordinates": {"longitude": -71.0601196289062, "latitude": 42.3590850830078}}, {"rating": 1.0, "transactions": [], "image_url": "https://s3-media1.fl.yelpcdn.com/bphoto/lhOX8jndFPgVBWhT4BCp1A/o.jpg", "phone": "+16178488577", "id": "boston-lx-limo-boston", "distance": 1341.685353778, "location": {"display_address": ["45 Franklin St", "Boston, MA 21100"], "state": "MA", "address2": null, "address1": "45 Franklin St", "zip_code": "21100", "city": "Boston", "country": "US", "address3": ""}, "url": "https://www.yelp.com/biz/boston-lx-limo-boston?adjust_creative=gBcvfFpabk3CnzmXKdYe3w&utm_campaign=yelp_api_v3&utm_medium=api_v3_business_search&utm_source=gBcvfFpabk3CnzmXKdYe3w", "categories": [{"alias": "limos", "title": "Limos"}], "display_phone": "(617) 848-8577", "is_closed": false, "name": "Boston LX Limo", "review_count": 2, "coordinates": {"longitude": -71.0589676, "latitude": 42.3554993}}, {"rating": 4.0, "transactions": ["delivery", "pickup"], "image_url": "https://s3-media4.fl.yelpcdn.com/bphoto/HT1w1Rs3EalJhqfdhXfChg/o.jpg", "phone": "+16172088773", "id": "miyuki-sushi-brighton", "distance": 7602.61389238, "location": {"display_address": ["547 Washington St", "Brighton, MA 02135"], "state": "MA", "address2": null, "address1": "547 Washington St", "zip_code": "02135", "city": "Brighton", "country": "US", "address3": ""}, "url": "https://www.yelp.com/biz/miyuki-sushi-brighton?adjust_creative=gBcvfFpabk3CnzmXKdYe3w&utm_campaign=yelp_api_v3&utm_medium=api_v3_business_search&utm_source=gBcvfFpabk3CnzmXKdYe3w", "categories": [{"alias": "japanese", "title": "Japanese"}, {"alias": "sushi", "title": "Sushi Bars"}], "display_phone": "(617) 208-8773", "is_closed": false, "name": "Miyuki Sushi", "price": "$$", "review_count": 26, "coordinates": {"longitude": -71.1637263, "latitude": 42.3495501}}, {"rating": 1.0, "transactions": [], "image_url": "https://s3-media2.fl.yelpcdn.com/bphoto/ruVnlj2fueXWmnQLepF_3Q/o.jpg", "phone": "+18882621518", "id": "nishkul-technologies-boston-2", "distance": 1756.1539727079999, "location": {"display_address": ["265 Franklin St", "Ste 1702", "Boston, MA 02110"], "state": "MA", "address2": "Ste 1702", "address1": "265 Franklin St", "zip_code": "02110", "city": "Boston", "country": "US", "address3": ""}, "url": "https://www.yelp.com/biz/nishkul-technologies-boston-2?adjust_creative=gBcvfFpabk3CnzmXKdYe3w&utm_campaign=yelp_api_v3&utm_medium=api_v3_business_search&utm_source=gBcvfFpabk3CnzmXKdYe3w", "categories": [{"alias": "web_design", "title": "Web Design"}, {"alias": "softwaredevelopment", "title": "Software Development"}, {"alias": "itservices", "title": "IT Services & Computer Repair"}], "display_phone": "(888) 262-1518", "is_closed": false, "name": "Nishkul Technologies", "review_count": 1, "coordinates": {"longitude": -71.0533679, "latitude": 42.3565001}}, {"rating": 1.0, "transactions": [], "image_url": "https://s3-media1.fl.yelpcdn.com/bphoto/JbimIqm3ty_ugEELp1Ozqw/o.jpg", "phone": "+16179327510", "id": "24-hours-locksmith-boston", "distance": 1438.7197044079999, "location": {"display_address": ["56 High St", "Boston, MA 02110"], "state": "MA", "address2": null, "address1": "56 High St", "zip_code": "02110", "city": "Boston", "country": "US", "address3": null}, "url": "https://www.yelp.com/biz/24-hours-locksmith-boston?adjust_creative=gBcvfFpabk3CnzmXKdYe3w&utm_campaign=yelp_api_v3&utm_medium=api_v3_business_search&utm_source=gBcvfFpabk3CnzmXKdYe3w", "categories": [{"alias": "locksmiths", "title": "Keys & Locksmiths"}], "display_phone": "(617) 932-7510", "is_closed": false, "name": "24 Hours Locksmith", "review_count": 3, "coordinates": {"longitude": -71.0557394474745, "latitude": 42.3538548268346}}, {"rating": 2.0, "transactions": [], "image_url": "https://s3-media2.fl.yelpcdn.com/bphoto/3JhjxNAnVIKOQSILZtgVJw/o.jpg", "phone": "+18553362465", "id": "homeserve-usa-boston", "distance": 8525.458211382, "location": {"display_address": ["Boston, MA 02131"], "state": "MA", "address2": "", "address1": "", "zip_code": "02131", "city": "Boston", "country": "US", "address3": ""}, "url": "https://www.yelp.com/biz/homeserve-usa-boston?adjust_creative=gBcvfFpabk3CnzmXKdYe3w&utm_campaign=yelp_api_v3&utm_medium=api_v3_business_search&utm_source=gBcvfFpabk3CnzmXKdYe3w", "categories": [{"alias": "hvac", "title": "Heating & Air Conditioning/HVAC"}, {"alias": "plumbing", "title": "Plumbing"}, {"alias": "electricians", "title": "Electricians"}], "display_phone": "(855) 336-2465", "is_closed": false, "name": "HomeServe USA", "review_count": 29, "coordinates": {"longitude": -71.1251678466797, "latitude": 42.2837791442871}}, {"rating": 5.0, "transactions": [], "image_url": "https://s3-media3.fl.yelpcdn.com/bphoto/lavCHCbHKJpluVn9QmVAkQ/o.jpg", "phone": "+16178198855", "id": "best-boston-limo-boston", "distance": 1174.5509851863999, "location": {"display_address": ["109 East Canton St", "Boston, MA 02118"], "state": "MA", "address2": null, "address1": "109 East Canton St", "zip_code": "02118", "city": "Boston", "country": "US", "address3": ""}, "url": "https://www.yelp.com/biz/best-boston-limo-boston?adjust_creative=gBcvfFpabk3CnzmXKdYe3w&utm_campaign=yelp_api_v3&utm_medium=api_v3_business_search&utm_source=gBcvfFpabk3CnzmXKdYe3w", "categories": [{"alias": "limos", "title": "Limos"}], "display_phone": "(617) 819-8855", "is_closed": false, "name": "Best Boston Limo", "review_count": 1, "coordinates": {"longitude": -71.0693588, "latitude": 42.3377304}}, {"rating": 1.0, "transactions": [], "image_url": "https://s3-media2.fl.yelpcdn.com/bphoto/BJSk8tmfgtjMLwjPhArjiA/o.jpg", "phone": "+16178488288", "id": "uts-locksmith-boston-boston", "distance": 1490.7947281279999, "location": {"display_address": ["49 Symphony Rd", "Boston, MA 02115"], "state": "MA", "address2": null, "address1": "49 Symphony Rd", "zip_code": "02115", "city": "Boston", "country": "US", "address3": null}, "url": "https://www.yelp.com/biz/uts-locksmith-boston-boston?adjust_creative=gBcvfFpabk3CnzmXKdYe3w&utm_campaign=yelp_api_v3&utm_medium=api_v3_business_search&utm_source=gBcvfFpabk3CnzmXKdYe3w", "categories": [{"alias": "locksmiths", "title": "Keys & Locksmiths"}], "display_phone": "(617) 848-8288", "is_closed": false, "name": "UTS Locksmith Boston", "review_count": 2, "coordinates": {"longitude": -71.08829, "latitude": 42.3432536}}, {"rating": 5.0, "transactions": [], "image_url": "https://s3-media4.fl.yelpcdn.com/bphoto/TyhWtSyPYB3bcqDW1mVCCw/o.jpg", "phone": "+18885516765", "id": "pretty-instant-boston-3", "distance": 1820.454991474, "location": {"display_address": ["300 Summer St", "Ste 14B", "Boston, MA 02210"], "state": "MA", "address2": "Ste 14B", "address1": "300 Summer St", "zip_code": "02210", "city": "Boston", "country": "US", "address3": ""}, "url": "https://www.yelp.com/biz/pretty-instant-boston-3?adjust_creative=gBcvfFpabk3CnzmXKdYe3w&utm_campaign=yelp_api_v3&utm_medium=api_v3_business_search&utm_source=gBcvfFpabk3CnzmXKdYe3w", "categories": [{"alias": "eventphotography", "title": "Event Photography"}, {"alias": "sessionphotography", "title": "Session Photography"}], "display_phone": "(888) 551-6765", "is_closed": false, "name": "Pretty Instant", "review_count": 1, "coordinates": {"longitude": -71.0492827, "latitude": 42.3500111}}, {"rating": 1.0, "transactions": [], "image_url": "", "phone": "+16178782004", "id": "shofur-limo-boston-7", "distance": 1758.30694776, "location": {"display_address": ["60 State St", "Ste 700", "Boston, MA 02109"], "state": "MA", "address2": "Ste 700", "address1": "60 State St", "zip_code": "02109", "city": "Boston", "country": "US", "address3": ""}, "url": "https://www.yelp.com/biz/shofur-limo-boston-7?adjust_creative=gBcvfFpabk3CnzmXKdYe3w&utm_campaign=yelp_api_v3&utm_medium=api_v3_business_search&utm_source=gBcvfFpabk3CnzmXKdYe3w", "categories": [{"alias": "limos", "title": "Limos"}, {"alias": "buses", "title": "Buses"}, {"alias": "partybusrentals", "title": "Party Bus Rentals"}], "display_phone": "(617) 878-2004", "is_closed": false, "name": "Shofur Limo", "review_count": 2, "coordinates": {"longitude": -71.0566017, "latitude": 42.3593752}}, {"rating": 5.0, "transactions": [], "image_url": "https://s3-media2.fl.yelpcdn.com/bphoto/NG6Ex5igu1PxBchaoEc-Ig/o.jpg", "phone": "+17817990579", "id": "ilana-melkonian-boston-3", "distance": 1890.7170056, "location": {"display_address": ["484 Commonwealth Ave", "Marc Roos Realty", "Boston, MA 02215"], "state": "MA", "address2": null, "address1": "484 Commonwealth Ave", "zip_code": "02215", "city": "Boston", "country": "US", "address3": "Marc Roos Realty"}, "url": "https://www.yelp.com/biz/ilana-melkonian-boston-3?adjust_creative=gBcvfFpabk3CnzmXKdYe3w&utm_campaign=yelp_api_v3&utm_medium=api_v3_business_search&utm_source=gBcvfFpabk3CnzmXKdYe3w", "categories": [{"alias": "realestateagents", "title": "Real Estate Agents"}], "display_phone": "(781) 799-0579", "is_closed": false, "name": "Ilana Melkonian", "review_count": 1, "coordinates": {"longitude": -71.094223, "latitude": 42.348503}}, {"rating": 2.5, "transactions": [], "image_url": "https://s3-media1.fl.yelpcdn.com/bphoto/Fd7DyMVWJRaW8QAeQUa7Sg/o.jpg", "phone": "+15082700500", "id": "mann-law-firm-boston", "distance": 1629.578094236, "location": {"display_address": ["One State St", "Ste 1500", "Boston, MA 02109"], "state": "MA", "address2": "Ste 1500", "address1": "One State St", "zip_code": "02109", "city": "Boston", "country": "US", "address3": ""}, "url": "https://www.yelp.com/biz/mann-law-firm-boston?adjust_creative=gBcvfFpabk3CnzmXKdYe3w&utm_campaign=yelp_api_v3&utm_medium=api_v3_business_search&utm_source=gBcvfFpabk3CnzmXKdYe3w", "categories": [{"alias": "personal_injury", "title": "Personal Injury Law"}, {"alias": "divorce", "title": "Divorce & Family Law"}, {"alias": "criminaldefense", "title": "Criminal Defense Law"}], "display_phone": "(508) 270-0500", "is_closed": false, "name": "Mann Law Firm", "review_count": 3, "coordinates": {"longitude": -71.0575571, "latitude": 42.3584473}}, {"rating": 1.0, "transactions": [], "image_url": "https://s3-media3.fl.yelpcdn.com/bphoto/IGb5sDcjf9zr3Ude9RyqSg/o.jpg", "phone": "+16176147816", "id": "boston-airport-limousine-boston-2", "distance": 1646.654640042, "location": {"display_address": ["1 Harborside Dr", "Boston, MA 02128"], "state": "MA", "address2": "", "address1": "1 Harborside Dr", "zip_code": "02128", "city": "Boston", "country": "US", "address3": ""}, "url": "https://www.yelp.com/biz/boston-airport-limousine-boston-2?adjust_creative=gBcvfFpabk3CnzmXKdYe3w&utm_campaign=yelp_api_v3&utm_medium=api_v3_business_search&utm_source=gBcvfFpabk3CnzmXKdYe3w", "categories": [{"alias": "limos", "title": "Limos"}], "display_phone": "(617) 614-7816", "is_closed": false, "name": "Boston Airport Limousine", "review_count": 1, "coordinates": {"longitude": -71.0570144, "latitude": 42.3374163}}, {"rating": 5.0, "transactions": [], "image_url": "https://s3-media4.fl.yelpcdn.com/bphoto/qihLKEBLl1QHSIlKpXtjrQ/o.jpg", "phone": "+16175009900", "id": "617-living-boston", "distance": 578.387542295, "location": {"display_address": ["234 Clarendon St", "Fl 4", "Boston, MA 02116"], "state": "MA", "address2": "Fl 4", "address1": "234 Clarendon St", "zip_code": "02116", "city": "Boston", "country": "US", "address3": ""}, "url": "https://www.yelp.com/biz/617-living-boston?adjust_creative=gBcvfFpabk3CnzmXKdYe3w&utm_campaign=yelp_api_v3&utm_medium=api_v3_business_search&utm_source=gBcvfFpabk3CnzmXKdYe3w", "categories": [{"alias": "realestatesvcs", "title": "Real Estate Services"}, {"alias": "apartments", "title": "Apartments"}], "display_phone": "(617) 500-9900", "is_closed": false, "name": "617 Living", "review_count": 1, "coordinates": {"longitude": -71.07599, "latitude": 42.3517}}, {"rating": 5.0, "transactions": [], "image_url": "https://s3-media2.fl.yelpcdn.com/bphoto/WWbr6eBCB_eI1eEfr2zjdw/o.jpg", "phone": "+18572511074", "id": "corporate-shuttle-boston-2", "distance": 886.1893957061999, "location": {"display_address": ["Boston, MA 02108"], "state": "MA", "address2": "", "address1": "", "zip_code": "02108", "city": "Boston", "country": "US", "address3": null}, "url": "https://www.yelp.com/biz/corporate-shuttle-boston-2?adjust_creative=gBcvfFpabk3CnzmXKdYe3w&utm_campaign=yelp_api_v3&utm_medium=api_v3_business_search&utm_source=gBcvfFpabk3CnzmXKdYe3w", "categories": [{"alias": "transport", "title": "Transportation"}], "display_phone": "(857) 251-1074", "is_closed": false, "name": "Corporate Shuttle", "review_count": 1, "coordinates": {"longitude": -71.0654220581055, "latitude": 42.3566818237305}}, {"rating": 1.0, "transactions": [], "image_url": "https://s3-media2.fl.yelpcdn.com/bphoto/mwR3b5ejRn6p7mwC1f0ifw/o.jpg", "phone": "+16175386804", "id": "lux-limo-boston-boston", "distance": 704.9543601828, "location": {"display_address": ["61 Exeter St", "Boston, MA 02116"], "state": "MA", "address2": null, "address1": "61 Exeter St", "zip_code": "02116", "city": "Boston", "country": "US", "address3": ""}, "url": "https://www.yelp.com/biz/lux-limo-boston-boston?adjust_creative=gBcvfFpabk3CnzmXKdYe3w&utm_campaign=yelp_api_v3&utm_medium=api_v3_business_search&utm_source=gBcvfFpabk3CnzmXKdYe3w", "categories": [{"alias": "airport_shuttles", "title": "Airport Shuttles"}, {"alias": "limos", "title": "Limos"}], "display_phone": "(617) 538-6804", "is_closed": false, "name": "Lux Limo Boston", "review_count": 1, "coordinates": {"longitude": -71.0794754, "latitude": 42.3490677}}, {"rating": 1.0, "transactions": [], "image_url": "https://s3-media2.fl.yelpcdn.com/bphoto/gZU5J6zO5vA1ju4JjbZeDw/o.jpg", "phone": "+16178509029", "id": "labur-consulting-boston", "distance": 1734.4668287359998, "location": {"display_address": ["2 Oliver St", "Fl 9", "Boston, MA 02109"], "state": "MA", "address2": "Fl 9", "address1": "2 Oliver St", "zip_code": "02109", "city": "Boston", "country": "US", "address3": ""}, "url": "https://www.yelp.com/biz/labur-consulting-boston?adjust_creative=gBcvfFpabk3CnzmXKdYe3w&utm_campaign=yelp_api_v3&utm_medium=api_v3_business_search&utm_source=gBcvfFpabk3CnzmXKdYe3w", "categories": [{"alias": "employmentagencies", "title": "Employment Agencies"}], "display_phone": "(617) 850-9029", "is_closed": false, "name": "LABUR Consulting", "review_count": 1, "coordinates": {"longitude": -71.0546494, "latitude": 42.3573494}}, {"rating": 5.0, "transactions": [], "image_url": "https://s3-media2.fl.yelpcdn.com/bphoto/pXgLMtm_282EGHo4vCRx5A/o.jpg", "phone": "+16179399894", "id": "faneuf-law-group-boston", "distance": 1592.982507306, "location": {"display_address": ["One Boston Pl", "Ste 2600", "Boston, MA 02108"], "state": "MA", "address2": "Ste 2600", "address1": "One Boston Pl", "zip_code": "02108", "city": "Boston", "country": "US", "address3": ""}, "url": "https://www.yelp.com/biz/faneuf-law-group-boston?adjust_creative=gBcvfFpabk3CnzmXKdYe3w&utm_campaign=yelp_api_v3&utm_medium=api_v3_business_search&utm_source=gBcvfFpabk3CnzmXKdYe3w", "categories": [{"alias": "personal_injury", "title": "Personal Injury Law"}], "display_phone": "(617) 939-9894", "is_closed": false, "name": "Faneuf Law Group", "review_count": 1, "coordinates": {"longitude": -71.0583671, "latitude": 42.3585498}}, {"rating": 1.0, "transactions": [], "image_url": "https://s3-media4.fl.yelpcdn.com/bphoto/E1iO2LB4S1uOiOAALxiP_g/o.jpg", "phone": "+16172221100", "id": "transit-police-boston", "distance": 1902.0741179799998, "location": {"display_address": ["240 Southampton St", "Boston, MA 02118"], "state": "MA", "address2": "", "address1": "240 Southampton St", "zip_code": "02118", "city": "Boston", "country": "US", "address3": ""}, "url": "https://www.yelp.com/biz/transit-police-boston?adjust_creative=gBcvfFpabk3CnzmXKdYe3w&utm_campaign=yelp_api_v3&utm_medium=api_v3_business_search&utm_source=gBcvfFpabk3CnzmXKdYe3w", "categories": [{"alias": "policedepartments", "title": "Police Departments"}], "display_phone": "(617) 222-1100", "is_closed": false, "name": "Transit Police", "review_count": 2, "coordinates": {"longitude": -71.0645722450439, "latitude": 42.3314609594044}}, {"rating": 5.0, "transactions": [], "image_url": "https://s3-media2.fl.yelpcdn.com/bphoto/i-Kip927cw1LBpDSI6bqPA/o.jpg", "phone": "+18448766246", "id": "yourponcho-boston", "distance": 1194.4689656029998, "location": {"display_address": ["745 Atlantic Avenue 8th", "Boston, MA 02111"], "state": "MA", "address2": null, "address1": "745 Atlantic Avenue 8th", "zip_code": "02111", "city": "Boston", "country": "US", "address3": ""}, "url": "https://www.yelp.com/biz/yourponcho-boston?adjust_creative=gBcvfFpabk3CnzmXKdYe3w&utm_campaign=yelp_api_v3&utm_medium=api_v3_business_search&utm_source=gBcvfFpabk3CnzmXKdYe3w", "categories": [{"alias": "autoinsurance", "title": "Auto Insurance"}, {"alias": "lifeinsurance", "title": "Life Insurance"}, {"alias": "homeinsurance", "title": "Home & Rental Insurance"}], "display_phone": "(844) 876-6246", "is_closed": false, "name": "YourPoncho", "review_count": 1, "coordinates": {"longitude": -71.05712890625, "latitude": 42.3502922058105}}, {"rating": 1.0, "transactions": [], "image_url": "https://s3-media2.fl.yelpcdn.com/bphoto/InKm1aT7HmD5spsSqw8-QA/o.jpg", "phone": "+16179339077", "id": "boston-limo-boston", "distance": 1386.9348929701998, "location": {"display_address": ["Boston, MA 02205"], "state": "MA", "address2": "", "address1": "", "zip_code": "02205", "city": "Boston", "country": "US", "address3": ""}, "url": "https://www.yelp.com/biz/boston-limo-boston?adjust_creative=gBcvfFpabk3CnzmXKdYe3w&utm_campaign=yelp_api_v3&utm_medium=api_v3_business_search&utm_source=gBcvfFpabk3CnzmXKdYe3w", "categories": [{"alias": "limos", "title": "Limos"}], "display_phone": "(617) 933-9077", "is_closed": false, "name": "Boston Limo", "review_count": 1, "coordinates": {"longitude": -71.05358, "latitude": 42.35036}}], "total": 1239}