{"region": {"center": {"longitude": -71.07124328613281, "latitude": 42.34784169448538}}, "businesses": [{"rating": 3.0, "transactions": [], "image_url": "https://s3-media1.fl.yelpcdn.com/bphoto/ibMlE2SPGqj4nfHaUt-8HQ/o.jpg", "phone": "+16178676526", "id": "the-baseball-tavern-boston", "distance": 2090.603149092, "location": {"display_address": ["1270 Boylston St", "Boston, MA 02215"], "state": "MA", "address2": "", "address1": "1270 Boylston St", "zip_code": "02215", "city": "Boston", "country": "US", "address3": ""}, "url": "https://www.yelp.com/biz/the-baseball-tavern-boston?adjust_creative=gBcvfFpabk3CnzmXKdYe3w&utm_campaign=yelp_api_v3&utm_medium=api_v3_business_search&utm_source=gBcvfFpabk3CnzmXKdYe3w", "categories": [{"alias": "sportsbars", "title": "Sports Bars"}], "display_phone": "(617) 867-6526", "is_closed": false, "name": "The Baseball Tavern", "price": "$", "review_count": 150, "coordinates": {"longitude": -71.0963, "latitude": 42.34464}}, {"rating": 3.0, "transactions": ["delivery"], "image_url": "https://s3-media3.fl.yelpcdn.com/bphoto/vHwkjbr5CTkOkWpvm3s0nw/o.jpg", "phone": "+16172637771", "id": "paddy-os-boston", "distance": 1898.7666024119999, "location": {"display_address": ["33 Union St", "Boston, MA 02108"], "state": "MA", "address2": "", "address1": "33 Union St", "zip_code": "02108", "city": "Boston", "country": "US", "address3": ""}, "url": "https://www.yelp.com/biz/paddy-os-boston?adjust_creative=gBcvfFpabk3CnzmXKdYe3w&utm_campaign=yelp_api_v3&utm_medium=api_v3_business_search&utm_source=gBcvfFpabk3CnzmXKdYe3w", "categories": [{"alias": "sportsbars", "title": "Sports Bars"}, {"alias": "irish", "title": "Irish"}, {"alias": "musicvenues", "title": "Music Venues"}], "display_phone": "(617) 263-7771", "is_closed": false, "name": "Paddy O's", "price": "$$", "review_count": 135, "coordinates": {"longitude": -71.056744, "latitude": 42.36114}}, {"rating": 3.0, "transactions": [], "image_url": "https://s3-media4.fl.yelpcdn.com/bphoto/Ib_SyvZj_p3JRHTYGO4HBg/o.jpg", "phone": "+16177233222", "id": "the-north-star-boston", "distance": 2017.784537442, "location": {"display_address": ["222 Friend St", "Boston, MA 02114"], "state": "MA", "address2": "", "address1": "222 Friend St", "zip_code": "02114", "city": "Boston", "country": "US", "address3": ""}, "url": "https://www.yelp.com/biz/the-north-star-boston?adjust_creative=gBcvfFpabk3CnzmXKdYe3w&utm_campaign=yelp_api_v3&utm_medium=api_v3_business_search&utm_source=gBcvfFpabk3CnzmXKdYe3w", "categories": [{"alias": "tradamerican", "title": "American (Traditional)"}, {"alias": "sportsbars", "title": "Sports Bars"}], "display_phone": "(617) 723-3222", "is_closed": false, "name": "The North Star", "price": "$$", "review_count": 81, "coordinates": {"longitude": -71.0610733, "latitude": 42.3641281}}, {"rating": 4.5, "transactions": [], "image_url": "https://s3-media2.fl.yelpcdn.com/bphoto/dHr2JlveNlY2dyPFwcCcLw/o.jpg", "phone": "+16175365300", "id": "lenox-hotel-boston-4", "distance": 704.2456712203999, "location": {"display_address": ["61 Exeter St", "Boston, MA 02116"], "state": "MA", "address2": "", "address1": "61 Exeter St", "zip_code": "02116", "city": "Boston", "country": "US", "address3": ""}, "url": "https://www.yelp.com/biz/lenox-hotel-boston-4?adjust_creative=gBcvfFpabk3CnzmXKdYe3w&utm_campaign=yelp_api_v3&utm_medium=api_v3_business_search&utm_source=gBcvfFpabk3CnzmXKdYe3w", "categories": [{"alias": "hotels", "title": "Hotels"}], "display_phone": "(617) 536-5300", "is_closed": false, "name": "Lenox Hotel", "price": "$$$", "review_count": 173, "coordinates": {"longitude": -71.0796295, "latitude": 42.3491529}}, {"rating": 3.0, "transactions": [], "image_url": "https://s3-media1.fl.yelpcdn.com/bphoto/Cicpehza_z0WEMKOOqlsYA/o.jpg", "phone": "+16177422121", "id": "hennessys-boston-2", "distance": 1881.565171822, "location": {"display_address": ["25 Union St", "Boston, MA 02108"], "state": "MA", "address2": "", "address1": "25 Union St", "zip_code": "02108", "city": "Boston", "country": "US", "address3": ""}, "url": "https://www.yelp.com/biz/hennessys-boston-2?adjust_creative=gBcvfFpabk3CnzmXKdYe3w&utm_campaign=yelp_api_v3&utm_medium=api_v3_business_search&utm_source=gBcvfFpabk3CnzmXKdYe3w", "categories": [{"alias": "bars", "title": "Bars"}, {"alias": "irish", "title": "Irish"}, {"alias": "musicvenues", "title": "Music Venues"}], "display_phone": "(617) 742-2121", "is_closed": false, "name": "Hennessy's", "price": "$$", "review_count": 233, "coordinates": {"longitude": -71.05683, "latitude": 42.360994}}, {"rating": 3.5, "transactions": ["delivery", "pickup"], "image_url": "https://s3-media3.fl.yelpcdn.com/bphoto/jLtlnbSxChjwVJJVZ7_pqg/o.jpg", "phone": "+16175668888", "id": "kayuga-boston", "distance": 4201.50554734, "location": {"display_address": ["1030 Commonwealth Ave", "Boston, MA 02215"], "state": "MA", "address2": "", "address1": "1030 Commonwealth Ave", "zip_code": "02215", "city": "Boston", "country": "US", "address3": ""}, "url": "https://www.yelp.com/biz/kayuga-boston?adjust_creative=gBcvfFpabk3CnzmXKdYe3w&utm_campaign=yelp_api_v3&utm_medium=api_v3_business_search&utm_source=gBcvfFpabk3CnzmXKdYe3w", "categories": [{"alias": "japanese", "title": "Japanese"}, {"alias": "asianfusion", "title": "Asian Fusion"}, {"alias": "seafood", "title": "Seafood"}], "display_phone": "(617) 566-8888", "is_closed": false, "name": "Kayuga", "price": "$$", "review_count": 167, "coordinates": {"longitude": -71.1221237182617, "latitude": 42.3514709472656}}, {"rating": 3.0, "transactions": [], "image_url": "https://s3-media3.fl.yelpcdn.com/bphoto/-TPSpRt2EE17OizkPuH7EQ/o.jpg", "phone": "+16174393502", "id": "temazcal-tequila-cantina-boston", "distance": 2703.9042766159996, "location": {"display_address": ["250 Northern Ave", "Boston, MA 02210"], "state": "MA", "address2": "", "address1": "250 Northern Ave", "zip_code": "02210", "city": "Boston", "country": "US", "address3": ""}, "url": "https://www.yelp.com/biz/temazcal-tequila-cantina-boston?adjust_creative=gBcvfFpabk3CnzmXKdYe3w&utm_campaign=yelp_api_v3&utm_medium=api_v3_business_search&utm_source=gBcvfFpabk3CnzmXKdYe3w", "categories": [{"alias": "mexican", "title": "Mexican"}], "display_phone": "(617) 439-3502", "is_closed": false, "name": "Temazcal Tequila Cantina", "price": "$$$", "review_count": 608, "coordinates": {"longitude": -71.03836869201, "latitude": 42.348829346236}}, {"rating": 3.0, "transactions": ["delivery", "pickup"], "image_url": "https://s3-media3.fl.yelpcdn.com/bphoto/c7hJ6x413N6IMHcEEbJfgg/o.jpg", "phone": "+16172478252", "id": "supreme-pizza-and-subs-boston", "distance": 1346.101382738, "location": {"display_address": ["177B Massachusetts Ave", "Boston, MA 02115"], "state": "MA", "address2": "", "address1": "177B Massachusetts Ave", "zip_code": "02115", "city": "Boston", "country": "US", "address3": ""}, "url": "https://www.yelp.com/biz/supreme-pizza-and-subs-boston?adjust_creative=gBcvfFpabk3CnzmXKdYe3w&utm_campaign=yelp_api_v3&utm_medium=api_v3_business_search&utm_source=gBcvfFpabk3CnzmXKdYe3w", "categories": [{"alias": "pizza", "title": "Pizza"}, {"alias": "sandwiches", "title": "Sandwiches"}], "display_phone": "(617) 247-8252", "is_closed": false, "name": "Supreme Pizza & Subs", "price": "$", "review_count": 89, "coordinates": {"longitude": -71.0873718261719, "latitude": 42.3457679748535}}, {"rating": 3.0, "transactions": ["delivery"], "image_url": "https://s3-media2.fl.yelpcdn.com/bphoto/AL4kOhLJCxXgCLlQCXIpzg/o.jpg", "phone": "+16172665566", "id": "little-steves-pizzeria-boston-36", "distance": 1426.671380498, "location": {"display_address": ["1114 Boylston St", "Boston, MA 02215"], "state": "MA", "address2": "", "address1": "1114 Boylston St", "zip_code": "02215", "city": "Boston", "country": "US", "address3": ""}, "url": "https://www.yelp.com/biz/little-steves-pizzeria-boston-36?adjust_creative=gBcvfFpabk3CnzmXKdYe3w&utm_campaign=yelp_api_v3&utm_medium=api_v3_business_search&utm_source=gBcvfFpabk3CnzmXKdYe3w", "categories": [{"alias": "pizza", "title": "Pizza"}, {"alias": "sandwiches", "title": "Sandwiches"}], "display_phone": "(617) 266-5566", "is_closed": false, "name": "Little Steve's Pizzeria", "price": "$", "review_count": 189, "coordinates": {"longitude": -71.0886469, "latitude": 42.3468992}}, {"rating": 3.0, "transactions": [], "image_url": "https://s3-media2.fl.yelpcdn.com/bphoto/r3hCca0Q8B4e-thWh85IWQ/o.jpg", "phone": "+16172629874", "id": "clerys-bar-and-restaurant-boston", "distance": 372.658931334, "location": {"display_address": ["113 Dartmouth St", "Boston, MA 02116"], "state": "MA", "address2": "", "address1": "113 Dartmouth St", "zip_code": "02116", "city": "Boston", "country": "US", "address3": ""}, "url": "https://www.yelp.com/biz/clerys-bar-and-restaurant-boston?adjust_creative=gBcvfFpabk3CnzmXKdYe3w&utm_campaign=yelp_api_v3&utm_medium=api_v3_business_search&utm_source=gBcvfFpabk3CnzmXKdYe3w", "categories": [{"alias": "bars", "title": "Bars"}, {"alias": "tradamerican", "title": "American (Traditional)"}], "display_phone": "(617) 262-9874", "is_closed": false, "name": "Clerys Bar & Restaurant", "price": "$$", "review_count": 358, "coordinates": {"longitude": -71.0753643, "latitude": 42.3463636}}, {"rating": 4.5, "transactions": [], "image_url": "https://s3-media2.fl.yelpcdn.com/bphoto/iq5qH6L_lN5YNlD2zCxGYg/o.jpg", "phone": "+16173188553", "id": "the-others-guys-moving-company-boston", "distance": 996.5182948619998, "location": {"display_address": ["151 Tremont St", "Ste 110", "Boston, MA 02111"], "state": "MA", "address2": "Ste 110", "address1": "151 Tremont St", "zip_code": "02111", "city": "Boston", "country": "US", "address3": ""}, "url": "https://www.yelp.com/biz/the-others-guys-moving-company-boston?adjust_creative=gBcvfFpabk3CnzmXKdYe3w&utm_campaign=yelp_api_v3&utm_medium=api_v3_business_search&utm_source=gBcvfFpabk3CnzmXKdYe3w", "categories": [{"alias": "movers", "title": "Movers"}], "display_phone": "(617) 318-8553", "is_closed": false, "name": "The Others Guys Moving Company", "review_count": 147, "coordinates": {"longitude": -71.06347, "latitude": 42.354722}}, {"rating": 3.5, "transactions": [], "image_url": "https://s3-media1.fl.yelpcdn.com/bphoto/hhnNVp6R_FIBSWqABFZeKA/o.jpg", "phone": "+16175237020", "id": "the-point-boston", "distance": 1935.63690368, "location": {"display_address": ["147 Hanover St", "Boston, MA 02018"], "state": "MA", "address2": null, "address1": "147 Hanover St", "zip_code": "02018", "city": "Boston", "country": "US", "address3": ""}, "url": "https://www.yelp.com/biz/the-point-boston?adjust_creative=gBcvfFpabk3CnzmXKdYe3w&utm_campaign=yelp_api_v3&utm_medium=api_v3_business_search&utm_source=gBcvfFpabk3CnzmXKdYe3w", "categories": [{"alias": "tradamerican", "title": "American (Traditional)"}, {"alias": "sportsbars", "title": "Sports Bars"}], "display_phone": "(617) 523-7020", "is_closed": false, "name": "The Point", "price": "$$", "review_count": 111, "coordinates": {"longitude": -71.0570352, "latitude": 42.3616788}}, {"rating": 3.0, "transactions": ["delivery"], "image_url": "https://s3-media1.fl.yelpcdn.com/bphoto/DVgoRi9nKXotUJse17DHBw/o.jpg", "phone": "+16174211818", "id": "dillons-boston", "distance": 1202.639101981, "location": {"display_address": ["955 Boylston St", "Boston, MA 02115"], "state": "MA", "address2": null, "address1": "955 Boylston St", "zip_code": "02115", "city": "Boston", "country": "US", "address3": ""}, "url": "https://www.yelp.com/biz/dillons-boston?adjust_creative=gBcvfFpabk3CnzmXKdYe3w&utm_campaign=yelp_api_v3&utm_medium=api_v3_business_search&utm_source=gBcvfFpabk3CnzmXKdYe3w", "categories": [{"alias": "bars", "title": "Bars"}, {"alias": "tradamerican", "title": "American (Traditional)"}], "display_phone": "(617) 421-1818", "is_closed": false, "name": "Dillon's", "price": "$$", "review_count": 367, "coordinates": {"longitude": -71.0858754834292, "latitude": 42.3479653914953}}, {"rating": 4.0, "transactions": [], "image_url": "https://s3-media2.fl.yelpcdn.com/bphoto/P3aGPXaG_nA5PBTHhypMnQ/o.jpg", "phone": "+16175679395", "id": "eddie-cs-bar-boston", "distance": 3593.703534596, "location": {"display_address": ["34 Maverick Sq", "Boston, MA 02128"], "state": "MA", "address2": "", "address1": "34 Maverick Sq", "zip_code": "02128", "city": "Boston", "country": "US", "address3": ""}, "url": "https://www.yelp.com/biz/eddie-cs-bar-boston?adjust_creative=gBcvfFpabk3CnzmXKdYe3w&utm_campaign=yelp_api_v3&utm_medium=api_v3_business_search&utm_source=gBcvfFpabk3CnzmXKdYe3w", "categories": [{"alias": "divebars", "title": "Dive Bars"}], "display_phone": "(617) 567-9395", "is_closed": false, "name": "Eddie C's Bar", "price": "$", "review_count": 21, "coordinates": {"longitude": -71.0393524169922, "latitude": 42.3699607849121}}, {"rating": 3.0, "transactions": [], "image_url": "https://s3-media2.fl.yelpcdn.com/bphoto/MZT0VEtTCw0Mux0UECGXTQ/o.jpg", "phone": "+16172924695", "id": "howl-at-the-moon-boston-2", "distance": 1828.768359112, "location": {"display_address": ["184 High St", "Boston, MA 02110"], "state": "MA", "address2": "", "address1": "184 High St", "zip_code": "02110", "city": "Boston", "country": "US", "address3": ""}, "url": "https://www.yelp.com/biz/howl-at-the-moon-boston-2?adjust_creative=gBcvfFpabk3CnzmXKdYe3w&utm_campaign=yelp_api_v3&utm_medium=api_v3_business_search&utm_source=gBcvfFpabk3CnzmXKdYe3w", "categories": [{"alias": "bars", "title": "Bars"}, {"alias": "musicvenues", "title": "Music Venues"}, {"alias": "venues", "title": "Venues & Event Spaces"}], "display_phone": "(617) 292-4695", "is_closed": false, "name": "Howl at the Moon", "price": "$$", "review_count": 301, "coordinates": {"longitude": -71.0523694, "latitude": 42.3565569}}, {"rating": 5.0, "transactions": [], "image_url": "https://s3-media2.fl.yelpcdn.com/bphoto/cRnTy8PrbKGEwmq2Ot8ILg/o.jpg", "phone": "+17816405994", "id": "without-a-hitch-boston", "distance": 886.1893957061999, "location": {"display_address": ["Boston, MA 02108"], "state": "MA", "address2": "", "address1": "", "zip_code": "02108", "city": "Boston", "country": "US", "address3": ""}, "url": "https://www.yelp.com/biz/without-a-hitch-boston?adjust_creative=gBcvfFpabk3CnzmXKdYe3w&utm_campaign=yelp_api_v3&utm_medium=api_v3_business_search&utm_source=gBcvfFpabk3CnzmXKdYe3w", "categories": [{"alias": "wedding_planning", "title": "Wedding Planning"}, {"alias": "eventplanning", "title": "Party & Event Planning"}], "display_phone": "(781) 640-5994", "is_closed": false, "name": "Without A Hitch", "review_count": 44, "coordinates": {"longitude": -71.0651321411133, "latitude": 42.3580169677734}}, {"rating": 3.0, "transactions": [], "image_url": "https://s3-media1.fl.yelpcdn.com/bphoto/4TRyV_JXWSRowH8v4S455g/o.jpg", "phone": "+16172488800", "id": "ned-devines-pub-boston", "distance": 1982.204604986, "location": {"display_address": ["1 Faneuil Hall Marketplace", "Boston, MA 02109"], "state": "MA", "address2": "", "address1": "1 Faneuil Hall Marketplace", "zip_code": "02109", "city": "Boston", "country": "US", "address3": ""}, "url": "https://www.yelp.com/biz/ned-devines-pub-boston?adjust_creative=gBcvfFpabk3CnzmXKdYe3w&utm_campaign=yelp_api_v3&utm_medium=api_v3_business_search&utm_source=gBcvfFpabk3CnzmXKdYe3w", "categories": [{"alias": "pubs", "title": "Pubs"}, {"alias": "musicvenues", "title": "Music Venues"}], "display_phone": "(617) 248-8800", "is_closed": false, "name": "Ned Devine's Pub", "price": "$$", "review_count": 369, "coordinates": {"longitude": -71.0539537012135, "latitude": 42.3602734854772}}, {"rating": 3.0, "transactions": [], "image_url": "https://s3-media2.fl.yelpcdn.com/bphoto/AZPcalB7Ol1QrZ1SpVuPKQ/o.jpg", "phone": "+16173106790", "id": "w-lounge-boston", "distance": 571.1334261515999, "location": {"display_address": ["100 Stuart St", "W Hotel", "Boston, MA 02116"], "state": "MA", "address2": null, "address1": "100 Stuart St", "zip_code": "02116", "city": "Boston", "country": "US", "address3": "W Hotel"}, "url": "https://www.yelp.com/biz/w-lounge-boston?adjust_creative=gBcvfFpabk3CnzmXKdYe3w&utm_campaign=yelp_api_v3&utm_medium=api_v3_business_search&utm_source=gBcvfFpabk3CnzmXKdYe3w", "categories": [{"alias": "lounges", "title": "Lounges"}], "display_phone": "(617) 310-6790", "is_closed": false, "name": "W Lounge", "price": "$$$", "review_count": 84, "coordinates": {"longitude": -71.0646892, "latitude": 42.3509251}}, {"rating": 3.0, "transactions": [], "image_url": "https://s3-media2.fl.yelpcdn.com/bphoto/0CH97IG45L5S-t57vnA9fg/o.jpg", "phone": "+16174430800", "id": "m-j-o-connors-boston-3", "distance": 2289.976074058, "location": {"display_address": ["425 Summer St", "Boston, MA 02210"], "state": "MA", "address2": "", "address1": "425 Summer St", "zip_code": "02210", "city": "Boston", "country": "US", "address3": ""}, "url": "https://www.yelp.com/biz/m-j-o-connors-boston-3?adjust_creative=gBcvfFpabk3CnzmXKdYe3w&utm_campaign=yelp_api_v3&utm_medium=api_v3_business_search&utm_source=gBcvfFpabk3CnzmXKdYe3w", "categories": [{"alias": "pubs", "title": "Pubs"}, {"alias": "tradamerican", "title": "American (Traditional)"}], "display_phone": "(617) 443-0800", "is_closed": false, "name": "M.J. O'Connor's", "price": "$$", "review_count": 147, "coordinates": {"longitude": -71.0435594, "latitude": 42.3468687}}, {"rating": 4.0, "transactions": [], "image_url": "https://s3-media4.fl.yelpcdn.com/bphoto/_XsQ1cmR7UZtpP-5KGMznw/o.jpg", "phone": "+16177725800", "id": "kimpton-nine-zero-hotel-boston", "distance": 1409.7083414422, "location": {"display_address": ["90 Tremont St", "Boston, MA 02108"], "state": "MA", "address2": "", "address1": "90 Tremont St", "zip_code": "02108", "city": "Boston", "country": "US", "address3": ""}, "url": "https://www.yelp.com/biz/kimpton-nine-zero-hotel-boston?adjust_creative=gBcvfFpabk3CnzmXKdYe3w&utm_campaign=yelp_api_v3&utm_medium=api_v3_business_search&utm_source=gBcvfFpabk3CnzmXKdYe3w", "categories": [{"alias": "hotels", "title": "Hotels"}, {"alias": "venues", "title": "Venues & Event Spaces"}], "display_phone": "(617) 772-5800", "is_closed": false, "name": "Kimpton Nine Zero Hotel", "price": "$$$", "review_count": 248, "coordinates": {"longitude": -71.060581134926, "latitude": 42.357771499057}}, {"rating": 2.5, "transactions": [], "image_url": "https://s3-media3.fl.yelpcdn.com/bphoto/O847PN2FBAaA9M1FaZeSZw/o.jpg", "phone": "+16174370300", "id": "lucky-strike-boston", "distance": 1904.1791347, "location": {"display_address": ["145 Ipswich St", "Boston, MA 02215"], "state": "MA", "address2": null, "address1": "145 Ipswich St", "zip_code": "02215", "city": "Boston", "country": "US", "address3": ""}, "url": "https://www.yelp.com/biz/lucky-strike-boston?adjust_creative=gBcvfFpabk3CnzmXKdYe3w&utm_campaign=yelp_api_v3&utm_medium=api_v3_business_search&utm_source=gBcvfFpabk3CnzmXKdYe3w", "categories": [{"alias": "bowling", "title": "Bowling"}, {"alias": "tradamerican", "title": "American (Traditional)"}, {"alias": "sportsbars", "title": "Sports Bars"}], "display_phone": "(617) 437-0300", "is_closed": false, "name": "Lucky Strike", "price": "$$", "review_count": 397, "coordinates": {"longitude": -71.0943042, "latitude": 42.3474085}}, {"rating": 5.0, "transactions": [], "image_url": "https://s3-media4.fl.yelpcdn.com/bphoto/UswKhhw4K0nY2FJrlnu25w/o.jpg", "phone": "+14012847685", "id": "dj-cookie-policy-boston-3", "distance": 724.8368546523999, "location": {"display_address": ["Boston, MA 02116"], "state": "MA", "address2": null, "address1": "", "zip_code": "02116", "city": "Boston", "country": "US", "address3": ""}, "url": "https://www.yelp.com/biz/dj-cookie-policy-boston-3?adjust_creative=gBcvfFpabk3CnzmXKdYe3w&utm_campaign=yelp_api_v3&utm_medium=api_v3_business_search&utm_source=gBcvfFpabk3CnzmXKdYe3w", "categories": [{"alias": "djs", "title": "DJs"}], "display_phone": "(401) 284-7685", "is_closed": false, "name": "DJ Cookie Policy", "review_count": 21, "coordinates": {"longitude": -71.076545715332, "latitude": 42.3507957458496}}, {"rating": 3.0, "transactions": [], "image_url": "https://s3-media3.fl.yelpcdn.com/bphoto/3gly3tjPc18UM8uzfykvTA/o.jpg", "phone": "+16172471222", "id": "bills-bar-and-lounge-boston", "distance": 1954.712732568, "location": {"display_address": ["5 Lansdowne St", "Boston, MA 02215"], "state": "MA", "address2": "", "address1": "5 Lansdowne St", "zip_code": "02215", "city": "Boston", "country": "US", "address3": ""}, "url": "https://www.yelp.com/biz/bills-bar-and-lounge-boston?adjust_creative=gBcvfFpabk3CnzmXKdYe3w&utm_campaign=yelp_api_v3&utm_medium=api_v3_business_search&utm_source=gBcvfFpabk3CnzmXKdYe3w", "categories": [{"alias": "sportsbars", "title": "Sports Bars"}, {"alias": "musicvenues", "title": "Music Venues"}], "display_phone": "(617) 247-1222", "is_closed": false, "name": "Bill's Bar & Lounge", "price": "$$", "review_count": 49, "coordinates": {"longitude": -71.0950178, "latitude": 42.3472771}}, {"rating": 3.0, "transactions": ["delivery", "pickup"], "image_url": "https://s3-media4.fl.yelpcdn.com/bphoto/R9dj_-zwhkDGeO3A90h5sQ/o.jpg", "phone": "+16174232061", "id": "moon-villa-restaurant-boston", "distance": 1037.122586798, "location": {"display_address": ["19 Edinboro St", "Boston, MA 02111"], "state": "MA", "address2": "", "address1": "19 Edinboro St", "zip_code": "02111", "city": "Boston", "country": "US", "address3": ""}, "url": "https://www.yelp.com/biz/moon-villa-restaurant-boston?adjust_creative=gBcvfFpabk3CnzmXKdYe3w&utm_campaign=yelp_api_v3&utm_medium=api_v3_business_search&utm_source=gBcvfFpabk3CnzmXKdYe3w", "categories": [{"alias": "chinese", "title": "Chinese"}], "display_phone": "(617) 423-2061", "is_closed": false, "name": "Moon Villa Restaurant", "price": "$$", "review_count": 51, "coordinates": {"longitude": -71.05989, "latitude": 42.3519099}}, {"rating": 2.5, "transactions": [], "image_url": "https://s3-media1.fl.yelpcdn.com/bphoto/pBIrE8OxnZ62i95he_njFQ/o.jpg", "phone": "+16172625551", "id": "whiskeys-food-and-spirits-boston", "distance": 1019.430146574, "location": {"display_address": ["885 Boylston St", "Boston, MA 02116"], "state": "MA", "address2": "", "address1": "885 Boylston St", "zip_code": "02116", "city": "Boston", "country": "US", "address3": ""}, "url": "https://www.yelp.com/biz/whiskeys-food-and-spirits-boston?adjust_creative=gBcvfFpabk3CnzmXKdYe3w&utm_campaign=yelp_api_v3&utm_medium=api_v3_business_search&utm_source=gBcvfFpabk3CnzmXKdYe3w", "categories": [{"alias": "tradamerican", "title": "American (Traditional)"}, {"alias": "pubs", "title": "Pubs"}, {"alias": "whiskeybars", "title": "Whiskey Bars"}], "display_phone": "(617) 262-5551", "is_closed": false, "name": "Whiskey's Food & Spirits", "price": "$$", "review_count": 505, "coordinates": {"longitude": -71.0836099, "latitude": 42.3486}}, {"rating": 4.5, "transactions": [], "image_url": "https://s3-media4.fl.yelpcdn.com/bphoto/tGqZJNbkWiSAFjlLDK_9aw/o.jpg", "phone": "+16174397000", "id": "boston-harbor-hotel-boston", "distance": 1979.691620576, "location": {"display_address": ["70 Rowes Wharf", "Boston, MA 02110"], "state": "MA", "address2": "", "address1": "70 Rowes Wharf", "zip_code": "02110", "city": "Boston", "country": "US", "address3": ""}, "url": "https://www.yelp.com/biz/boston-harbor-hotel-boston?adjust_creative=gBcvfFpabk3CnzmXKdYe3w&utm_campaign=yelp_api_v3&utm_medium=api_v3_business_search&utm_source=gBcvfFpabk3CnzmXKdYe3w", "categories": [{"alias": "hotels", "title": "Hotels"}, {"alias": "venues", "title": "Venues & Event Spaces"}], "display_phone": "(617) 439-7000", "is_closed": false, "name": "Boston Harbor Hotel", "price": "$$$", "review_count": 151, "coordinates": {"longitude": -71.0502147674561, "latitude": 42.3565322996605}}, {"rating": 4.0, "transactions": [], "image_url": "https://s3-media3.fl.yelpcdn.com/bphoto/j6QPJEFgOgznDVYJnfbSaw/o.jpg", "phone": "+16172699894", "id": "dunkin-donuts-boston-21", "distance": 2309.26449676, "location": {"display_address": ["510 Southampton St", "Boston, MA 02127"], "state": "MA", "address2": "", "address1": "510 Southampton St", "zip_code": "02127", "city": "Boston", "country": "US", "address3": ""}, "url": "https://www.yelp.com/biz/dunkin-donuts-boston-21?adjust_creative=gBcvfFpabk3CnzmXKdYe3w&utm_campaign=yelp_api_v3&utm_medium=api_v3_business_search&utm_source=gBcvfFpabk3CnzmXKdYe3w", "categories": [{"alias": "donuts", "title": "Donuts"}, {"alias": "coffee", "title": "Coffee & Tea"}], "display_phone": "(617) 269-9894", "is_closed": false, "name": "Dunkin' Donuts", "price": "$", "review_count": 14, "coordinates": {"longitude": -71.05726, "latitude": 42.32974}}, {"rating": 3.0, "transactions": [], "image_url": "https://s3-media2.fl.yelpcdn.com/bphoto/EmqBk3MamEhziXKCoGVu4w/o.jpg", "phone": "+16174517415", "id": "coogans-boston", "distance": 1890.037381318, "location": {"display_address": ["171 Milk St", "Boston, MA 02109"], "state": "MA", "address2": "", "address1": "171 Milk St", "zip_code": "02109", "city": "Boston", "country": "US", "address3": ""}, "url": "https://www.yelp.com/biz/coogans-boston?adjust_creative=gBcvfFpabk3CnzmXKdYe3w&utm_campaign=yelp_api_v3&utm_medium=api_v3_business_search&utm_source=gBcvfFpabk3CnzmXKdYe3w", "categories": [{"alias": "bars", "title": "Bars"}, {"alias": "tradamerican", "title": "American (Traditional)"}, {"alias": "pizza", "title": "Pizza"}], "display_phone": "(617) 451-7415", "is_closed": false, "name": "Coogan's", "price": "$", "review_count": 196, "coordinates": {"longitude": -71.053212799305, "latitude": 42.358399789122}}, {"rating": 4.0, "transactions": [], "image_url": "https://s3-media2.fl.yelpcdn.com/bphoto/Bzsl7PxWEqKlS20LwwamEA/o.jpg", "phone": "+16174241408", "id": "wallys-cafe-boston", "distance": 1207.382068362, "location": {"display_address": ["427 Massachusetts Ave", "Boston, MA 02118"], "state": "MA", "address2": "", "address1": "427 Massachusetts Ave", "zip_code": "02118", "city": "Boston", "country": "US", "address3": ""}, "url": "https://www.yelp.com/biz/wallys-cafe-boston?adjust_creative=gBcvfFpabk3CnzmXKdYe3w&utm_campaign=yelp_api_v3&utm_medium=api_v3_business_search&utm_source=gBcvfFpabk3CnzmXKdYe3w", "categories": [{"alias": "jazzandblues", "title": "Jazz & Blues"}, {"alias": "musicvenues", "title": "Music Venues"}], "display_phone": "(617) 424-1408", "is_closed": false, "name": "Wally's Cafe", "price": "$", "review_count": 245, "coordinates": {"longitude": -71.0823364257812, "latitude": 42.340648651123}}, {"rating": 4.0, "transactions": [], "image_url": "https://s3-media3.fl.yelpcdn.com/bphoto/XKHRUaBherBvVVjHMfbkSQ/o.jpg", "phone": "+16173384400", "id": "four-seasons-boston-4", "distance": 533.3561008595999, "location": {"display_address": ["200 Boylston St", "Boston, MA 02116"], "state": "MA", "address2": "", "address1": "200 Boylston St", "zip_code": "02116", "city": "Boston", "country": "US", "address3": ""}, "url": "https://www.yelp.com/biz/four-seasons-boston-4?adjust_creative=gBcvfFpabk3CnzmXKdYe3w&utm_campaign=yelp_api_v3&utm_medium=api_v3_business_search&utm_source=gBcvfFpabk3CnzmXKdYe3w", "categories": [{"alias": "hotels", "title": "Hotels"}], "display_phone": "(617) 338-4400", "is_closed": false, "name": "Four Seasons", "price": "$$$$", "review_count": 107, "coordinates": {"longitude": -71.0685237, "latitude": 42.3521986}}, {"rating": 5.0, "transactions": [], "image_url": "https://s3-media4.fl.yelpcdn.com/bphoto/9pBVdV3ZJYIvOFp8CovEVg/o.jpg", "phone": "+14077486940", "id": "daniela-dawson-photography-boston-2", "distance": 3242.768922988, "location": {"display_address": ["Boston, MA 02127"], "state": "MA", "address2": "", "address1": "", "zip_code": "02127", "city": "Boston", "country": "US", "address3": ""}, "url": "https://www.yelp.com/biz/daniela-dawson-photography-boston-2?adjust_creative=gBcvfFpabk3CnzmXKdYe3w&utm_campaign=yelp_api_v3&utm_medium=api_v3_business_search&utm_source=gBcvfFpabk3CnzmXKdYe3w", "categories": [{"alias": "eventphotography", "title": "Event Photography"}, {"alias": "sessionphotography", "title": "Session Photography"}, {"alias": "estatephotography", "title": "Real Estate Photography"}], "display_phone": "(407) 748-6940", "is_closed": false, "name": "Daniela Dawson Photography", "review_count": 34, "coordinates": {"longitude": -71.0514526367188, "latitude": 42.3337631225586}}, {"rating": 3.0, "transactions": [], "image_url": "https://s3-media1.fl.yelpcdn.com/bphoto/SNvdWY48Sn6edCDBldpuiw/o.jpg", "phone": "+16175424494", "id": "the-boston-eagle-boston", "distance": 361.627790771, "location": {"display_address": ["520 Tremont St", "Boston, MA 02116"], "state": "MA", "address2": "", "address1": "520 Tremont St", "zip_code": "02116", "city": "Boston", "country": "US", "address3": ""}, "url": "https://www.yelp.com/biz/the-boston-eagle-boston?adjust_creative=gBcvfFpabk3CnzmXKdYe3w&utm_campaign=yelp_api_v3&utm_medium=api_v3_business_search&utm_source=gBcvfFpabk3CnzmXKdYe3w", "categories": [{"alias": "gaybars", "title": "Gay Bars"}], "display_phone": "(617) 542-4494", "is_closed": false, "name": "The Boston Eagle", "price": "$", "review_count": 70, "coordinates": {"longitude": -71.0699844360352, "latitude": 42.3446731567383}}, {"rating": 4.5, "transactions": [], "image_url": "https://s3-media2.fl.yelpcdn.com/bphoto/y4nUB25Yf5T8bTah4p3hvw/o.jpg", "phone": "+16173106300", "id": "marriott-custom-house-boston", "distance": 1914.1303276559997, "location": {"display_address": ["3 McKinley Square", "Boston, MA 02109"], "state": "MA", "address2": "", "address1": "3 McKinley Square", "zip_code": "02109", "city": "Boston", "country": "US", "address3": ""}, "url": "https://www.yelp.com/biz/marriott-custom-house-boston?adjust_creative=gBcvfFpabk3CnzmXKdYe3w&utm_campaign=yelp_api_v3&utm_medium=api_v3_business_search&utm_source=gBcvfFpabk3CnzmXKdYe3w", "categories": [{"alias": "hotels", "title": "Hotels"}], "display_phone": "(617) 310-6300", "is_closed": false, "name": "Marriott Custom House", "price": "$$$", "review_count": 63, "coordinates": {"longitude": -71.05356, "latitude": 42.359047}}, {"rating": 4.0, "transactions": [], "image_url": "https://s3-media1.fl.yelpcdn.com/bphoto/5CHcONaApWmr-uh-q0ZxgA/o.jpg", "phone": "+16175235601", "id": "bovas-bakery-boston", "distance": 2320.09776897, "location": {"display_address": ["134 Salem St", "Boston, MA 02113"], "state": "MA", "address2": "", "address1": "134 Salem St", "zip_code": "02113", "city": "Boston", "country": "US", "address3": ""}, "url": "https://www.yelp.com/biz/bovas-bakery-boston?adjust_creative=gBcvfFpabk3CnzmXKdYe3w&utm_campaign=yelp_api_v3&utm_medium=api_v3_business_search&utm_source=gBcvfFpabk3CnzmXKdYe3w", "categories": [{"alias": "bakeries", "title": "Bakeries"}], "display_phone": "(617) 523-5601", "is_closed": false, "name": "Bova's Bakery", "price": "$", "review_count": 675, "coordinates": {"longitude": -71.0555430856871, "latitude": 42.3651847483192}}, {"rating": 3.0, "transactions": ["delivery", "pickup"], "image_url": "https://s3-media2.fl.yelpcdn.com/bphoto/_1B-v_OyVt5CuGjreBJQ_w/o.jpg", "phone": "+16172478801", "id": "cappys-pizza-and-subs-boston-2", "distance": 1578.9922893783998, "location": {"display_address": ["82 Westland Ave", "Boston, MA 02115"], "state": "MA", "address2": "", "address1": "82 Westland Ave", "zip_code": "02115", "city": "Boston", "country": "US", "address3": ""}, "url": "https://www.yelp.com/biz/cappys-pizza-and-subs-boston-2?adjust_creative=gBcvfFpabk3CnzmXKdYe3w&utm_campaign=yelp_api_v3&utm_medium=api_v3_business_search&utm_source=gBcvfFpabk3CnzmXKdYe3w", "categories": [{"alias": "pizza", "title": "Pizza"}, {"alias": "seafood", "title": "Seafood"}, {"alias": "breakfast_brunch", "title": "Breakfast & Brunch"}], "display_phone": "(617) 247-8801", "is_closed": false, "name": "Cappy's Pizza & Subs", "price": "$", "review_count": 105, "coordinates": {"longitude": -71.0896107, "latitude": 42.343776}}, {"rating": 4.0, "transactions": [], "image_url": "https://s3-media3.fl.yelpcdn.com/bphoto/bqhQMlYUPwgrgMCxtcZJGw/o.jpg", "phone": "+16175002075", "id": "check-maid-cleaning-services-boston-2", "distance": 171.8644602526, "location": {"display_address": ["9 Appleton St", "Ste 206", "Boston, MA 02116"], "state": "MA", "address2": "Ste 206", "address1": "9 Appleton St", "zip_code": "02116", "city": "Boston", "country": "US", "address3": ""}, "url": "https://www.yelp.com/biz/check-maid-cleaning-services-boston-2?adjust_creative=gBcvfFpabk3CnzmXKdYe3w&utm_campaign=yelp_api_v3&utm_medium=api_v3_business_search&utm_source=gBcvfFpabk3CnzmXKdYe3w", "categories": [{"alias": "homecleaning", "title": "Home Cleaning"}], "display_phone": "(617) 500-2075", "is_closed": false, "name": "Check Maid Cleaning Services", "review_count": 115, "coordinates": {"longitude": -71.0703735, "latitude": 42.3465195}}, {"rating": 3.5, "transactions": [], "image_url": "https://s3-media2.fl.yelpcdn.com/bphoto/PYtSv31A7uV2F9jQmm-3pA/o.jpg", "phone": "+16179334800", "id": "city-bar-boston-2", "distance": 2289.976074058, "location": {"display_address": ["425 Summer St", "Boston, MA 02210"], "state": "MA", "address2": "", "address1": "425 Summer St", "zip_code": "02210", "city": "Boston", "country": "US", "address3": ""}, "url": "https://www.yelp.com/biz/city-bar-boston-2?adjust_creative=gBcvfFpabk3CnzmXKdYe3w&utm_campaign=yelp_api_v3&utm_medium=api_v3_business_search&utm_source=gBcvfFpabk3CnzmXKdYe3w", "categories": [{"alias": "lounges", "title": "Lounges"}], "display_phone": "(617) 933-4800", "is_closed": false, "name": "City Bar", "price": "$$", "review_count": 38, "coordinates": {"longitude": -71.04266, "latitude": 42.34642}}, {"rating": 2.5, "transactions": [], "image_url": "https://s3-media3.fl.yelpcdn.com/bphoto/oiWTcDdvFeXw8q2vpqSoug/o.jpg", "phone": "+16172270150", "id": "cheers-faneuil-hall-boston", "distance": 1915.598528538, "location": {"display_address": ["Quincy Market S", "Boston, MA 02109"], "state": "MA", "address2": "", "address1": "Quincy Market S", "zip_code": "02109", "city": "Boston", "country": "US", "address3": ""}, "url": "https://www.yelp.com/biz/cheers-faneuil-hall-boston?adjust_creative=gBcvfFpabk3CnzmXKdYe3w&utm_campaign=yelp_api_v3&utm_medium=api_v3_business_search&utm_source=gBcvfFpabk3CnzmXKdYe3w", "categories": [{"alias": "pubs", "title": "Pubs"}, {"alias": "tradamerican", "title": "American (Traditional)"}, {"alias": "burgers", "title": "Burgers"}], "display_phone": "(617) 227-0150", "is_closed": false, "name": "Cheers - Faneuil Hall", "price": "$$", "review_count": 265, "coordinates": {"longitude": -71.0544602, "latitude": 42.3597994}}, {"rating": 4.5, "transactions": [], "image_url": "https://s3-media3.fl.yelpcdn.com/bphoto/VOOp8T0c3NO1M3ZEAkWpTw/o.jpg", "phone": "+16174231430", "id": "garage-at-post-office-square-boston-2", "distance": 1580.249248292, "location": {"display_address": ["0 Post Office Sq", "Boston, MA 02109"], "state": "MA", "address2": "", "address1": "0 Post Office Sq", "zip_code": "02109", "city": "Boston", "country": "US", "address3": ""}, "url": "https://www.yelp.com/biz/garage-at-post-office-square-boston-2?adjust_creative=gBcvfFpabk3CnzmXKdYe3w&utm_campaign=yelp_api_v3&utm_medium=api_v3_business_search&utm_source=gBcvfFpabk3CnzmXKdYe3w", "categories": [{"alias": "parking", "title": "Parking"}], "display_phone": "(617) 423-1430", "is_closed": false, "name": "Garage at Post Office Square", "review_count": 29, "coordinates": {"longitude": -71.0562102081486, "latitude": 42.3567083871896}}, {"rating": 3.0, "transactions": [], "image_url": "https://s3-media1.fl.yelpcdn.com/bphoto/3q8_xwSlRERYS2m6DJwyKA/o.jpg", "phone": "+18572638715", "id": "the-wild-rover-boston", "distance": 1926.8577930459999, "location": {"display_address": ["61-63 Chatham St", "Boston, MA 02109"], "state": "MA", "address2": "", "address1": "61-63 Chatham St", "zip_code": "02109", "city": "Boston", "country": "US", "address3": ""}, "url": "https://www.yelp.com/biz/the-wild-rover-boston?adjust_creative=gBcvfFpabk3CnzmXKdYe3w&utm_campaign=yelp_api_v3&utm_medium=api_v3_business_search&utm_source=gBcvfFpabk3CnzmXKdYe3w", "categories": [{"alias": "bars", "title": "Bars"}, {"alias": "danceclubs", "title": "Dance Clubs"}], "display_phone": "(857) 263-8715", "is_closed": false, "name": "The Wild Rover", "price": "$$", "review_count": 69, "coordinates": {"longitude": -71.05398, "latitude": 42.35959}}, {"rating": 4.5, "transactions": [], "image_url": "https://s3-media1.fl.yelpcdn.com/bphoto/wMWObq912QZdnOHDgkLI4w/o.jpg", "phone": "+16172671607", "id": "the-eliot-hotel-boston", "distance": 1444.8623298803998, "location": {"display_address": ["370 Commonwealth Ave", "Boston, MA 02215"], "state": "MA", "address2": "", "address1": "370 Commonwealth Ave", "zip_code": "02215", "city": "Boston", "country": "US", "address3": ""}, "url": "https://www.yelp.com/biz/the-eliot-hotel-boston?adjust_creative=gBcvfFpabk3CnzmXKdYe3w&utm_campaign=yelp_api_v3&utm_medium=api_v3_business_search&utm_source=gBcvfFpabk3CnzmXKdYe3w", "categories": [{"alias": "hotels", "title": "Hotels"}], "display_phone": "(617) 267-1607", "is_closed": false, "name": "The Eliot Hotel", "price": "$$$", "review_count": 81, "coordinates": {"longitude": -71.08877, "latitude": 42.34889}}, {"rating": 2.5, "transactions": [], "image_url": "https://s3-media2.fl.yelpcdn.com/bphoto/apmBkZ2Fqx4QYsaKY1qb3w/o.jpg", "phone": "+16173578000", "id": "atlantic-beer-garden-boston", "distance": 2340.2582930179997, "location": {"display_address": ["146 Northern Ave", "Boston, MA 02110"], "state": "MA", "address2": "", "address1": "146 Northern Ave", "zip_code": "02110", "city": "Boston", "country": "US", "address3": ""}, "url": "https://www.yelp.com/biz/atlantic-beer-garden-boston?adjust_creative=gBcvfFpabk3CnzmXKdYe3w&utm_campaign=yelp_api_v3&utm_medium=api_v3_business_search&utm_source=gBcvfFpabk3CnzmXKdYe3w", "categories": [{"alias": "tradamerican", "title": "American (Traditional)"}, {"alias": "sportsbars", "title": "Sports Bars"}, {"alias": "beergardens", "title": "Beer Gardens"}], "display_phone": "(617) 357-8000", "is_closed": false, "name": "Atlantic Beer Garden", "price": "$$", "review_count": 330, "coordinates": {"longitude": -71.0430485720996, "latitude": 42.3507840062346}}, {"rating": 4.5, "transactions": [], "image_url": "https://s3-media2.fl.yelpcdn.com/bphoto/URCgFuEz8Zdvrw-z-4r_Xw/o.jpg", "phone": "+18574961635", "id": "thirst-boston", "distance": 3017.5535381699997, "location": {"display_address": ["645 E 2nd St", "Boston, MA 02127"], "state": "MA", "address2": "", "address1": "645 E 2nd St", "zip_code": "02127", "city": "Boston", "country": "US", "address3": ""}, "url": "https://www.yelp.com/biz/thirst-boston?adjust_creative=gBcvfFpabk3CnzmXKdYe3w&utm_campaign=yelp_api_v3&utm_medium=api_v3_business_search&utm_source=gBcvfFpabk3CnzmXKdYe3w", "categories": [{"alias": "pubs", "title": "Pubs"}], "display_phone": "(857) 496-1635", "is_closed": false, "name": "thirst", "price": "$$", "review_count": 6, "coordinates": {"longitude": -71.0372824966908, "latitude": 42.3372504115105}}, {"rating": 5.0, "transactions": [], "image_url": "https://s3-media2.fl.yelpcdn.com/bphoto/pKcLi0afjR045pnKT5qPtw/o.jpg", "phone": "+16174202506", "id": "boston-mobile-notary-boston", "distance": 724.8368546523999, "location": {"display_address": ["Boston, MA 02116"], "state": "MA", "address2": "", "address1": "", "zip_code": "02116", "city": "Boston", "country": "US", "address3": ""}, "url": "https://www.yelp.com/biz/boston-mobile-notary-boston?adjust_creative=gBcvfFpabk3CnzmXKdYe3w&utm_campaign=yelp_api_v3&utm_medium=api_v3_business_search&utm_source=gBcvfFpabk3CnzmXKdYe3w", "categories": [{"alias": "notaries", "title": "Notaries"}], "display_phone": "(617) 420-2506", "is_closed": false, "name": "Boston Mobile Notary", "review_count": 17, "coordinates": {"longitude": -71.076545715332, "latitude": 42.3507957458496}}, {"rating": 4.0, "transactions": [], "image_url": "https://s3-media3.fl.yelpcdn.com/bphoto/jSB5XpVZPrdUWoadOswVAg/o.jpg", "phone": "+16175369455", "id": "hostelling-international-boston", "distance": 738.8813073379999, "location": {"display_address": ["19 Stuart St", "Boston, MA 02116"], "state": "MA", "address2": "", "address1": "19 Stuart St", "zip_code": "02116", "city": "Boston", "country": "US", "address3": ""}, "url": "https://www.yelp.com/biz/hostelling-international-boston?adjust_creative=gBcvfFpabk3CnzmXKdYe3w&utm_campaign=yelp_api_v3&utm_medium=api_v3_business_search&utm_source=gBcvfFpabk3CnzmXKdYe3w", "categories": [{"alias": "hostels", "title": "Hostels"}], "display_phone": "(617) 536-9455", "is_closed": false, "name": "Hostelling International", "review_count": 98, "coordinates": {"longitude": -71.0634226351976, "latitude": 42.3509994149208}}, {"rating": 5.0, "transactions": [], "image_url": "https://s3-media3.fl.yelpcdn.com/bphoto/ccpPxWyHJgSdJvHgK01-mg/o.jpg", "phone": "+16172306676", "id": "boston-notary-service-boston", "distance": 1118.6066896779998, "location": {"display_address": ["Boston, MA 02118"], "state": "MA", "address2": "", "address1": "", "zip_code": "02118", "city": "Boston", "country": "US", "address3": ""}, "url": "https://www.yelp.com/biz/boston-notary-service-boston?adjust_creative=gBcvfFpabk3CnzmXKdYe3w&utm_campaign=yelp_api_v3&utm_medium=api_v3_business_search&utm_source=gBcvfFpabk3CnzmXKdYe3w", "categories": [{"alias": "notaries", "title": "Notaries"}, {"alias": "legalservices", "title": "Legal Services"}], "display_phone": "(617) 230-6676", "is_closed": false, "name": "Boston Notary Service", "review_count": 18, "coordinates": {"longitude": -71.0699996948242, "latitude": 42.3379669189453}}, {"rating": 3.5, "transactions": [], "image_url": "https://s3-media4.fl.yelpcdn.com/bphoto/EYhx-94JuQxjQ-xd4CNVqg/o.jpg", "phone": "+16175696200", "id": "la-chiva-restaurant-boston", "distance": 4813.951310654, "location": {"display_address": ["259 Bennington St", "Boston, MA 02128"], "state": "MA", "address2": "", "address1": "259 Bennington St", "zip_code": "02128", "city": "Boston", "country": "US", "address3": ""}, "url": "https://www.yelp.com/biz/la-chiva-restaurant-boston?adjust_creative=gBcvfFpabk3CnzmXKdYe3w&utm_campaign=yelp_api_v3&utm_medium=api_v3_business_search&utm_source=gBcvfFpabk3CnzmXKdYe3w", "categories": [{"alias": "colombian", "title": "Colombian"}], "display_phone": "(617) 569-6200", "is_closed": false, "name": "La Chiva Restaurant", "price": "$", "review_count": 31, "coordinates": {"longitude": -71.0294647216797, "latitude": 42.3782234191895}}, {"rating": 4.5, "transactions": [], "image_url": "https://s3-media2.fl.yelpcdn.com/bphoto/K_DwvjssBCIEFd-LFKL5jg/o.jpg", "phone": "+16176701500", "id": "xv-beacon-boston", "distance": 1404.2492509479998, "location": {"display_address": ["15 Beacon St", "Boston, MA 02108"], "state": "MA", "address2": "", "address1": "15 Beacon St", "zip_code": "02108", "city": "Boston", "country": "US", "address3": ""}, "url": "https://www.yelp.com/biz/xv-beacon-boston?adjust_creative=gBcvfFpabk3CnzmXKdYe3w&utm_campaign=yelp_api_v3&utm_medium=api_v3_business_search&utm_source=gBcvfFpabk3CnzmXKdYe3w", "categories": [{"alias": "hotels", "title": "Hotels"}], "display_phone": "(617) 670-1500", "is_closed": false, "name": "XV Beacon", "price": "$$$", "review_count": 61, "coordinates": {"longitude": -71.0617626521149, "latitude": 42.3583480858649}}, {"rating": 2.5, "transactions": [], "image_url": "https://s3-media3.fl.yelpcdn.com/bphoto/97VmIoKEjsNzeogBdfakFg/o.jpg", "phone": "+16172486511", "id": "sissy-ks-boston", "distance": 1940.09316614, "location": {"display_address": ["6 Commercial St", "Boston, MA 02109"], "state": "MA", "address2": "", "address1": "6 Commercial St", "zip_code": "02109", "city": "Boston", "country": "US", "address3": ""}, "url": "https://www.yelp.com/biz/sissy-ks-boston?adjust_creative=gBcvfFpabk3CnzmXKdYe3w&utm_campaign=yelp_api_v3&utm_medium=api_v3_business_search&utm_source=gBcvfFpabk3CnzmXKdYe3w", "categories": [{"alias": "danceclubs", "title": "Dance Clubs"}, {"alias": "sportsbars", "title": "Sports Bars"}], "display_phone": "(617) 248-6511", "is_closed": false, "name": "Sissy K's", "price": "$", "review_count": 221, "coordinates": {"longitude": -71.0536962, "latitude": 42.3594748}}, {"rating": 3.5, "transactions": [], "image_url": "https://s3-media2.fl.yelpcdn.com/bphoto/g4PtgnMrLQJ6gaWqXZHl4w/o.jpg", "phone": "+18572399276", "id": "lions-tail-boston", "distance": 700.6170601356, "location": {"display_address": ["354 Harrison Ave", "Boston, MA 02118"], "state": "MA", "address2": "", "address1": "354 Harrison Ave", "zip_code": "02118", "city": "Boston", "country": "US", "address3": null}, "url": "https://www.yelp.com/biz/lions-tail-boston?adjust_creative=gBcvfFpabk3CnzmXKdYe3w&utm_campaign=yelp_api_v3&utm_medium=api_v3_business_search&utm_source=gBcvfFpabk3CnzmXKdYe3w", "categories": [{"alias": "beer_and_wine", "title": "Beer, Wine & Spirits"}, {"alias": "cocktailbars", "title": "Cocktail Bars"}], "display_phone": "(857) 239-9276", "is_closed": false, "name": "Lion's Tail", "price": "$$", "review_count": 28, "coordinates": {"longitude": -71.0637223720551, "latitude": 42.344857826829}}], "total": 1239}