{"region": {"center": {"longitude": -71.07124328613281, "latitude": 42.34784169448538}}, "businesses": [{"rating": 2.0, "transactions": [], "image_url": "https://s3-media2.fl.yelpcdn.com/bphoto/NRbZLeb4E30kp8-Qx3TuIg/o.jpg", "phone": "+16178675309", "id": "gem-plumbing-and-heating-co-boston-2", "distance": 1163.0841158183998, "location": {"display_address": ["41 Belvidere St", "Boston, MA 02115"], "state": "MA", "address2": "", "address1": "41 Belvidere St", "zip_code": "02115", "city": "Boston", "country": "US", "address3": ""}, "url": "https://www.yelp.com/biz/gem-plumbing-and-heating-co-boston-2?adjust_creative=gBcvfFpabk3CnzmXKdYe3w&utm_campaign=yelp_api_v3&utm_medium=api_v3_business_search&utm_source=gBcvfFpabk3CnzmXKdYe3w", "categories": [{"alias": "plumbing", "title": "Plumbing"}, {"alias": "hvac", "title": "Heating & Air Conditioning/HVAC"}, {"alias": "electricians", "title": "Electricians"}], "display_phone": "(617) 867-5309", "is_closed": false, "name": "Gem Plumbing & Heating Co", "review_count": 4, "coordinates": {"longitude": -71.0851748, "latitude": 42.3460003}}, {"rating": 5.0, "transactions": [], "image_url": "https://s3-media2.fl.yelpcdn.com/bphoto/M7_jhQXOPoMjDnbd-BH4XA/o.jpg", "phone": "+16178633770", "id": "ngin-workplace-cambridge", "distance": 2711.412652386, "location": {"display_address": ["210 Broadway", "Ste 201", "Cambridge, MA 02139"], "state": "MA", "address2": "Ste 201", "address1": "210 Broadway", "zip_code": "02139", "city": "Cambridge", "country": "US", "address3": ""}, "url": "https://www.yelp.com/biz/ngin-workplace-cambridge?adjust_creative=gBcvfFpabk3CnzmXKdYe3w&utm_campaign=yelp_api_v3&utm_medium=api_v3_business_search&utm_source=gBcvfFpabk3CnzmXKdYe3w", "categories": [{"alias": "sharedofficespaces", "title": "Shared Office Spaces"}], "display_phone": "(617) 863-3770", "is_closed": false, "name": "NGIN Workplace", "review_count": 21, "coordinates": {"longitude": -71.0934677124023, "latitude": 42.3658676147461}}, {"rating": 4.0, "transactions": [], "image_url": "https://s3-media1.fl.yelpcdn.com/bphoto/8RCqysRwanDte-32sLOSsQ/o.jpg", "phone": "+16173305243", "id": "international-place-garage-boston", "distance": 1775.498078574, "location": {"display_address": ["1 International Pl", "Boston, MA 02110"], "state": "MA", "address2": "", "address1": "1 International Pl", "zip_code": "02110", "city": "Boston", "country": "US", "address3": ""}, "url": "https://www.yelp.com/biz/international-place-garage-boston?adjust_creative=gBcvfFpabk3CnzmXKdYe3w&utm_campaign=yelp_api_v3&utm_medium=api_v3_business_search&utm_source=gBcvfFpabk3CnzmXKdYe3w", "categories": [{"alias": "parking", "title": "Parking"}], "display_phone": "(617) 330-5243", "is_closed": false, "name": "International Place Garage", "review_count": 2, "coordinates": {"longitude": -71.0527295, "latitude": 42.3560716}}, {"rating": 3.0, "transactions": ["pickup"], "image_url": "https://s3-media1.fl.yelpcdn.com/bphoto/0HBpGny3b6hzA1ud3rNuOw/o.jpg", "phone": "+16174254444", "id": "tasty-burger-cambridge", "distance": 4853.030431072, "location": {"display_address": ["40 Jfk St", "Cambridge, MA 02138"], "state": "MA", "address2": "", "address1": "40 Jfk St", "zip_code": "02138", "city": "Cambridge", "country": "US", "address3": ""}, "url": "https://www.yelp.com/biz/tasty-burger-cambridge?adjust_creative=gBcvfFpabk3CnzmXKdYe3w&utm_campaign=yelp_api_v3&utm_medium=api_v3_business_search&utm_source=gBcvfFpabk3CnzmXKdYe3w", "categories": [{"alias": "burgers", "title": "Burgers"}, {"alias": "tradamerican", "title": "American (Traditional)"}, {"alias": "bars", "title": "Bars"}], "display_phone": "(617) 425-4444", "is_closed": false, "name": "Tasty Burger", "price": "$", "review_count": 409, "coordinates": {"longitude": -71.119904, "latitude": 42.372583}}, {"rating": 4.0, "transactions": [], "image_url": "https://s3-media2.fl.yelpcdn.com/bphoto/BXI4864bYcdHR5eAzA-L9w/o.jpg", "phone": "+18766353388", "id": "great-hut-resort-boston", "distance": 1834.5265776319998, "location": {"display_address": ["8 Bay State Rd", "Boston, MA 02215"], "state": "MA", "address2": "", "address1": "8 Bay State Rd", "zip_code": "02215", "city": "Boston", "country": "US", "address3": ""}, "url": "https://www.yelp.com/biz/great-hut-resort-boston?adjust_creative=gBcvfFpabk3CnzmXKdYe3w&utm_campaign=yelp_api_v3&utm_medium=api_v3_business_search&utm_source=gBcvfFpabk3CnzmXKdYe3w", "categories": [{"alias": "resorts", "title": "Resorts"}], "display_phone": "(876) 635-3388", "is_closed": false, "name": "Great Hut Resort", "review_count": 1, "coordinates": {"longitude": -71.0930322110653, "latitude": 42.3498896509409}}, {"rating": 4.0, "transactions": [], "image_url": "https://s3-media2.fl.yelpcdn.com/bphoto/fNZCJWZ_iU2cSUPKlfXjeg/o.jpg", "phone": "+16173670034", "id": "tedeschi-food-shops-boston-6", "distance": 1969.8086636359997, "location": {"display_address": ["177 State St", "Boston, MA 02109"], "state": "MA", "address2": "", "address1": "177 State St", "zip_code": "02109", "city": "Boston", "country": "US", "address3": ""}, "url": "https://www.yelp.com/biz/tedeschi-food-shops-boston-6?adjust_creative=gBcvfFpabk3CnzmXKdYe3w&utm_campaign=yelp_api_v3&utm_medium=api_v3_business_search&utm_source=gBcvfFpabk3CnzmXKdYe3w", "categories": [{"alias": "convenience", "title": "Convenience Stores"}], "display_phone": "(617) 367-0034", "is_closed": false, "name": "Tedeschi Food Shops", "review_count": 1, "coordinates": {"longitude": -71.0531348, "latitude": 42.3592564}}, {"rating": 4.0, "transactions": [], "image_url": "https://s3-media4.fl.yelpcdn.com/bphoto/SWd9pFwRMfcJc-yyURKW6A/o.jpg", "phone": "+18882219029", "id": "espresso-daves-coffee-catering-boston-2", "distance": 3242.768922988, "location": {"display_address": ["Boston, MA 02127"], "state": "MA", "address2": "", "address1": "", "zip_code": "02127", "city": "Boston", "country": "US", "address3": ""}, "url": "https://www.yelp.com/biz/espresso-daves-coffee-catering-boston-2?adjust_creative=gBcvfFpabk3CnzmXKdYe3w&utm_campaign=yelp_api_v3&utm_medium=api_v3_business_search&utm_source=gBcvfFpabk3CnzmXKdYe3w", "categories": [{"alias": "catering", "title": "Caterers"}], "display_phone": "(888) 221-9029", "is_closed": false, "name": "Espresso Dave's Coffee Catering", "review_count": 3, "coordinates": {"longitude": -71.05054, "latitude": 42.33302}}, {"rating": 5.0, "transactions": [], "image_url": "https://s3-media2.fl.yelpcdn.com/bphoto/GvIDYYMKwsCgsCQjJQneTQ/o.jpg", "phone": "+18572105684", "id": "my-boston-ride-boston", "distance": 4848.858217122, "location": {"display_address": ["Boston, MA 02128"], "state": "MA", "address2": null, "address1": null, "zip_code": "02128", "city": "Boston", "country": "US", "address3": null}, "url": "https://www.yelp.com/biz/my-boston-ride-boston?adjust_creative=gBcvfFpabk3CnzmXKdYe3w&utm_campaign=yelp_api_v3&utm_medium=api_v3_business_search&utm_source=gBcvfFpabk3CnzmXKdYe3w", "categories": [{"alias": "airport_shuttles", "title": "Airport Shuttles"}, {"alias": "limos", "title": "Limos"}], "display_phone": "(857) 210-5684", "is_closed": false, "name": "My Boston Ride", "review_count": 2, "coordinates": {"longitude": -71.0150146484375, "latitude": 42.3732109069824}}, {"rating": 3.0, "transactions": [], "image_url": "https://s3-media1.fl.yelpcdn.com/bphoto/0AdlopY2xmkZOSeQHAuNBQ/o.jpg", "phone": "+16177247807", "id": "one-center-plaza-parking-boston", "distance": 1605.2687882284, "location": {"display_address": ["1 Center Plz", "Boston, MA 02108"], "state": "MA", "address2": null, "address1": "1 Center Plz", "zip_code": "02108", "city": "Boston", "country": "US", "address3": ""}, "url": "https://www.yelp.com/biz/one-center-plaza-parking-boston?adjust_creative=gBcvfFpabk3CnzmXKdYe3w&utm_campaign=yelp_api_v3&utm_medium=api_v3_business_search&utm_source=gBcvfFpabk3CnzmXKdYe3w", "categories": [{"alias": "parking", "title": "Parking"}], "display_phone": "(617) 724-7807", "is_closed": false, "name": "One Center Plaza Parking", "review_count": 4, "coordinates": {"longitude": -71.0609283, "latitude": 42.3603592}}, {"rating": 3.5, "transactions": [], "image_url": "https://s3-media1.fl.yelpcdn.com/bphoto/R2humvEfZ0P01jG-Xo4--g/o.jpg", "phone": "+16173892333", "id": "mikes-roast-beef-everett", "distance": 5580.693833939999, "location": {"display_address": ["115 Broadway", "Everett, MA 02149"], "state": "MA", "address2": "", "address1": "115 Broadway", "zip_code": "02149", "city": "Everett", "country": "US", "address3": ""}, "url": "https://www.yelp.com/biz/mikes-roast-beef-everett?adjust_creative=gBcvfFpabk3CnzmXKdYe3w&utm_campaign=yelp_api_v3&utm_medium=api_v3_business_search&utm_source=gBcvfFpabk3CnzmXKdYe3w", "categories": [{"alias": "tradamerican", "title": "American (Traditional)"}], "display_phone": "(617) 389-2333", "is_closed": false, "name": "Mike's Roast Beef", "price": "$", "review_count": 85, "coordinates": {"longitude": -71.06379, "latitude": 42.39778}}, {"rating": 5.0, "transactions": [], "image_url": "https://s3-media1.fl.yelpcdn.com/bphoto/S1HYn1PjV0HZjziVavNxWA/o.jpg", "phone": "+17818881985", "id": "logan-dependable-ride-boston-2", "distance": 4848.858217122, "location": {"display_address": ["Boston, MA 02128"], "state": "MA", "address2": "", "address1": null, "zip_code": "02128", "city": "Boston", "country": "US", "address3": ""}, "url": "https://www.yelp.com/biz/logan-dependable-ride-boston-2?adjust_creative=gBcvfFpabk3CnzmXKdYe3w&utm_campaign=yelp_api_v3&utm_medium=api_v3_business_search&utm_source=gBcvfFpabk3CnzmXKdYe3w", "categories": [{"alias": "taxis", "title": "Taxis"}], "display_phone": "(781) 888-1985", "is_closed": false, "name": "Logan Dependable Ride", "review_count": 1, "coordinates": {"longitude": -71.0155029296875, "latitude": 42.3729972839355}}, {"rating": 5.0, "transactions": [], "image_url": "https://s3-media1.fl.yelpcdn.com/bphoto/Mkz7CcjkA1xdCs2UK-RCPA/o.jpg", "phone": "+16178239780", "id": "the-rasner-group-cambridge", "distance": 3958.03654544, "location": {"display_address": ["955 Massachusetts Ave", "Cambridge, MA 02139"], "state": "MA", "address2": "", "address1": "955 Massachusetts Ave", "zip_code": "02139", "city": "Cambridge", "country": "US", "address3": ""}, "url": "https://www.yelp.com/biz/the-rasner-group-cambridge?adjust_creative=gBcvfFpabk3CnzmXKdYe3w&utm_campaign=yelp_api_v3&utm_medium=api_v3_business_search&utm_source=gBcvfFpabk3CnzmXKdYe3w", "categories": [{"alias": "realestateagents", "title": "Real Estate Agents"}, {"alias": "realestatesvcs", "title": "Real Estate Services"}], "display_phone": "(617) 823-9780", "is_closed": false, "name": "The Rasner Group", "review_count": 31, "coordinates": {"longitude": -71.1098279, "latitude": 42.369155}}, {"rating": 3.0, "transactions": ["delivery"], "image_url": "https://s3-media3.fl.yelpcdn.com/bphoto/iNhhNWmWwBQIRu02VsM7Og/o.jpg", "phone": "+16175664948", "id": "coolidge-corner-clubhouse-brookline", "distance": 4270.061500132, "location": {"display_address": ["307 Harvard St", "Brookline, MA 02446"], "state": "MA", "address2": "", "address1": "307 Harvard St", "zip_code": "02446", "city": "Brookline", "country": "US", "address3": ""}, "url": "https://www.yelp.com/biz/coolidge-corner-clubhouse-brookline?adjust_creative=gBcvfFpabk3CnzmXKdYe3w&utm_campaign=yelp_api_v3&utm_medium=api_v3_business_search&utm_source=gBcvfFpabk3CnzmXKdYe3w", "categories": [{"alias": "sportsbars", "title": "Sports Bars"}, {"alias": "tradamerican", "title": "American (Traditional)"}], "display_phone": "(617) 566-4948", "is_closed": false, "name": "Coolidge Corner Clubhouse", "price": "$$", "review_count": 377, "coordinates": {"longitude": -71.1227847, "latitude": 42.3432707}}, {"rating": 4.0, "transactions": [], "image_url": "https://s3-media2.fl.yelpcdn.com/bphoto/voJIcT4zSbTtVJ3pDY4WZg/o.jpg", "phone": "+16172328787", "id": "grainne-o-malleys-brookline-2", "distance": 4160.770094194, "location": {"display_address": ["201 Harvard St", "Brookline, MA 02446"], "state": "MA", "address2": "", "address1": "201 Harvard St", "zip_code": "02446", "city": "Brookline", "country": "US", "address3": ""}, "url": "https://www.yelp.com/biz/grainne-o-malleys-brookline-2?adjust_creative=gBcvfFpabk3CnzmXKdYe3w&utm_campaign=yelp_api_v3&utm_medium=api_v3_business_search&utm_source=gBcvfFpabk3CnzmXKdYe3w", "categories": [{"alias": "irish_pubs", "title": "Irish Pub"}], "display_phone": "(617) 232-8787", "is_closed": false, "name": "Grainne O Malleys", "price": "$$", "review_count": 25, "coordinates": {"longitude": -71.1207357, "latitude": 42.3396614}}, {"rating": 2.5, "transactions": [], "image_url": "https://s3-media3.fl.yelpcdn.com/bphoto/CPNaECvGmTdoDTuYrCcoVQ/o.jpg", "phone": "+16175675147", "id": "cvs-pharmacy-boston-49", "distance": 4039.43615797, "location": {"display_address": ["210 Border St", "Boston, MA 02128"], "state": "MA", "address2": "", "address1": "210 Border St", "zip_code": "02128", "city": "Boston", "country": "US", "address3": ""}, "url": "https://www.yelp.com/biz/cvs-pharmacy-boston-49?adjust_creative=gBcvfFpabk3CnzmXKdYe3w&utm_campaign=yelp_api_v3&utm_medium=api_v3_business_search&utm_source=gBcvfFpabk3CnzmXKdYe3w", "categories": [{"alias": "drugstores", "title": "Drugstores"}], "display_phone": "(617) 567-5147", "is_closed": false, "name": "CVS Pharmacy", "price": "$", "review_count": 5, "coordinates": {"longitude": -71.039217710495, "latitude": 42.3754054987878}}, {"rating": 3.0, "transactions": ["delivery", "pickup"], "image_url": "https://s3-media4.fl.yelpcdn.com/bphoto/RwEezUyh3qX5MgHtLKC78w/o.jpg", "phone": "+16174412000", "id": "market-in-the-square-cambridge", "distance": 5028.347263586, "location": {"display_address": ["60 Church St", "Cambridge, MA 02138"], "state": "MA", "address2": "", "address1": "60 Church St", "zip_code": "02138", "city": "Cambridge", "country": "US", "address3": ""}, "url": "https://www.yelp.com/biz/market-in-the-square-cambridge?adjust_creative=gBcvfFpabk3CnzmXKdYe3w&utm_campaign=yelp_api_v3&utm_medium=api_v3_business_search&utm_source=gBcvfFpabk3CnzmXKdYe3w", "categories": [{"alias": "grocery", "title": "Grocery"}, {"alias": "bakeries", "title": "Bakeries"}, {"alias": "delis", "title": "Delis"}], "display_phone": "(617) 441-2000", "is_closed": false, "name": "Market In the Square", "price": "$$$", "review_count": 132, "coordinates": {"longitude": -71.121228656129, "latitude": 42.373933579687}}, {"rating": 4.0, "transactions": [], "image_url": "https://s3-media2.fl.yelpcdn.com/bphoto/0kt3LvW84nIY2ruD-u_jEw/o.jpg", "phone": "+16177835252", "id": "studio-52-boston", "distance": 5615.736729638, "location": {"display_address": ["52 Everett St", "Boston, MA 02134"], "state": "MA", "address2": null, "address1": "52 Everett St", "zip_code": "02134", "city": "Boston", "country": "US", "address3": ""}, "url": "https://www.yelp.com/biz/studio-52-boston?adjust_creative=gBcvfFpabk3CnzmXKdYe3w&utm_campaign=yelp_api_v3&utm_medium=api_v3_business_search&utm_source=gBcvfFpabk3CnzmXKdYe3w", "categories": [{"alias": "theater", "title": "Performing Arts"}, {"alias": "recording_studios", "title": "Recording & Rehearsal Studios"}], "display_phone": "(617) 783-5252", "is_closed": false, "name": "Studio 52", "review_count": 2, "coordinates": {"longitude": -71.1387746036053, "latitude": 42.3555985969614}}, {"rating": 5.0, "transactions": [], "image_url": "https://s3-media1.fl.yelpcdn.com/bphoto/GUegwSax1a6IoyKPYY8BVA/o.jpg", "phone": "+16176008030", "id": "boston-transportation-group-boston-5", "distance": 5444.905449572, "location": {"display_address": ["Boston, MA 02116"], "state": "MA", "address2": "", "address1": "", "zip_code": "02116", "city": "Boston", "country": "US", "address3": ""}, "url": "https://www.yelp.com/biz/boston-transportation-group-boston-5?adjust_creative=gBcvfFpabk3CnzmXKdYe3w&utm_campaign=yelp_api_v3&utm_medium=api_v3_business_search&utm_source=gBcvfFpabk3CnzmXKdYe3w", "categories": [{"alias": "limos", "title": "Limos"}, {"alias": "airport_shuttles", "title": "Airport Shuttles"}], "display_phone": "(617) 600-8030", "is_closed": false, "name": "Boston Transportation Group", "review_count": 1, "coordinates": {"longitude": -71.0094421169556, "latitude": 42.3655148098075}}, {"rating": 2.0, "transactions": [], "image_url": "https://s3-media2.fl.yelpcdn.com/bphoto/tSUlwphIiob-GNhvmwvcbg/o.jpg", "phone": "+16174572625", "id": "200-stuart-street-garage-boston-2", "distance": 462.8558400399999, "location": {"display_address": ["200 Stuart St", "Boston, MA 02116"], "state": "MA", "address2": null, "address1": "200 Stuart St", "zip_code": "02116", "city": "Boston", "country": "US", "address3": ""}, "url": "https://www.yelp.com/biz/200-stuart-street-garage-boston-2?adjust_creative=gBcvfFpabk3CnzmXKdYe3w&utm_campaign=yelp_api_v3&utm_medium=api_v3_business_search&utm_source=gBcvfFpabk3CnzmXKdYe3w", "categories": [{"alias": "parking", "title": "Parking"}], "display_phone": "(617) 457-2625", "is_closed": false, "name": "200 Stuart Street Garage", "review_count": 9, "coordinates": {"longitude": -71.0671616, "latitude": 42.3507385}}, {"rating": 3.0, "transactions": ["delivery", "pickup"], "image_url": "https://s3-media4.fl.yelpcdn.com/bphoto/cGEeRn6_pHTiat8fZoPbdQ/o.jpg", "phone": "+16178645311", "id": "hong-kong-cambridge-3", "distance": 4579.0412616759995, "location": {"display_address": ["1238 Massachusetts Ave", "Cambridge, MA 31210"], "state": "MA", "address2": "", "address1": "1238 Massachusetts Ave", "zip_code": "31210", "city": "Cambridge", "country": "US", "address3": ""}, "url": "https://www.yelp.com/biz/hong-kong-cambridge-3?adjust_creative=gBcvfFpabk3CnzmXKdYe3w&utm_campaign=yelp_api_v3&utm_medium=api_v3_business_search&utm_source=gBcvfFpabk3CnzmXKdYe3w", "categories": [{"alias": "chinese", "title": "Chinese"}, {"alias": "bars", "title": "Bars"}], "display_phone": "(617) 864-5311", "is_closed": false, "name": "Hong Kong", "price": "$$", "review_count": 445, "coordinates": {"longitude": -71.116014, "latitude": 42.372368}}, {"rating": 3.5, "transactions": [], "image_url": "https://s3-media2.fl.yelpcdn.com/bphoto/WhL5sMXdWMzXGgOrvf8KYQ/o.jpg", "phone": "+16177875575", "id": "commonwealth-worldwide-chauffeured-transportation-boston", "distance": 5555.014078362, "location": {"display_address": ["250 Everett St", "Boston, MA 02134"], "state": "MA", "address2": "", "address1": "250 Everett St", "zip_code": "02134", "city": "Boston", "country": "US", "address3": ""}, "url": "https://www.yelp.com/biz/commonwealth-worldwide-chauffeured-transportation-boston?adjust_creative=gBcvfFpabk3CnzmXKdYe3w&utm_campaign=yelp_api_v3&utm_medium=api_v3_business_search&utm_source=gBcvfFpabk3CnzmXKdYe3w", "categories": [{"alias": "limos", "title": "Limos"}, {"alias": "taxis", "title": "Taxis"}], "display_phone": "(617) 787-5575", "is_closed": false, "name": "Commonwealth Worldwide Chauffeured Transportation", "review_count": 2, "coordinates": {"longitude": -71.136122, "latitude": 42.361877}}, {"rating": 5.0, "transactions": [], "image_url": "https://s3-media2.fl.yelpcdn.com/bphoto/Qs94DizwyJJpBzuvEQdpfQ/o.jpg", "phone": "", "id": "midnight-munchies-boston", "distance": 8235.09577776, "location": {"display_address": ["41 Hunnewell Ave", "Boston, MA 02135"], "state": "MA", "address2": "", "address1": "41 Hunnewell Ave", "zip_code": "02135", "city": "Boston", "country": "US", "address3": ""}, "url": "https://www.yelp.com/biz/midnight-munchies-boston?adjust_creative=gBcvfFpabk3CnzmXKdYe3w&utm_campaign=yelp_api_v3&utm_medium=api_v3_business_search&utm_source=gBcvfFpabk3CnzmXKdYe3w", "categories": [{"alias": "convenience", "title": "Convenience Stores"}, {"alias": "fooddeliveryservices", "title": "Food Delivery Services"}], "display_phone": "", "is_closed": false, "name": "Midnight Munchies", "price": "$", "review_count": 3, "coordinates": {"longitude": -71.171191, "latitude": 42.3532415}}, {"rating": 3.0, "transactions": [], "image_url": "https://s3-media1.fl.yelpcdn.com/bphoto/r_e85vzw9cAsDDxrSh15RA/o.jpg", "phone": "+16172546633", "id": "white-horse-tavern-allston", "distance": 4914.848721019999, "location": {"display_address": ["116 Brighton Ave", "Allston, MA 02134"], "state": "MA", "address2": "", "address1": "116 Brighton Ave", "zip_code": "02134", "city": "Allston", "country": "US", "address3": ""}, "url": "https://www.yelp.com/biz/white-horse-tavern-allston?adjust_creative=gBcvfFpabk3CnzmXKdYe3w&utm_campaign=yelp_api_v3&utm_medium=api_v3_business_search&utm_source=gBcvfFpabk3CnzmXKdYe3w", "categories": [{"alias": "bars", "title": "Bars"}, {"alias": "tradamerican", "title": "American (Traditional)"}], "display_phone": "(617) 254-6633", "is_closed": false, "name": "White Horse Tavern", "price": "$$", "review_count": 321, "coordinates": {"longitude": -71.13072, "latitude": 42.35258}}, {"rating": 3.0, "transactions": ["delivery", "pickup"], "image_url": "https://s3-media3.fl.yelpcdn.com/bphoto/qqOw7sngodZfTUk9XCChSA/o.jpg", "phone": "+16175628888", "id": "dumpling-kingdom-allston", "distance": 5017.768749897999, "location": {"display_address": ["137 Harvard Ave", "Allston, MA 02134"], "state": "MA", "address2": "", "address1": "137 Harvard Ave", "zip_code": "02134", "city": "Allston", "country": "US", "address3": null}, "url": "https://www.yelp.com/biz/dumpling-kingdom-allston?adjust_creative=gBcvfFpabk3CnzmXKdYe3w&utm_campaign=yelp_api_v3&utm_medium=api_v3_business_search&utm_source=gBcvfFpabk3CnzmXKdYe3w", "categories": [{"alias": "chinese", "title": "Chinese"}, {"alias": "taiwanese", "title": "Taiwanese"}, {"alias": "noodles", "title": "Noodles"}], "display_phone": "(617) 562-8888", "is_closed": false, "name": "Dumpling Kingdom", "price": "$$", "review_count": 77, "coordinates": {"longitude": -71.1318674440211, "latitude": 42.3520269712611}}, {"rating": 3.0, "transactions": ["delivery", "pickup"], "image_url": "https://s3-media2.fl.yelpcdn.com/bphoto/0cpQHTLk4-dvWqJSx2-w6A/o.jpg", "phone": "+16174278068", "id": "sunrise-chinese-food-roxbury-crossing", "distance": 1699.1204115140001, "location": {"display_address": ["1033 Tremont St", "Roxbury Crossing, MA 02120"], "state": "MA", "address2": "", "address1": "1033 Tremont St", "zip_code": "02120", "city": "Roxbury Crossing", "country": "US", "address3": ""}, "url": "https://www.yelp.com/biz/sunrise-chinese-food-roxbury-crossing?adjust_creative=gBcvfFpabk3CnzmXKdYe3w&utm_campaign=yelp_api_v3&utm_medium=api_v3_business_search&utm_source=gBcvfFpabk3CnzmXKdYe3w", "categories": [{"alias": "chinese", "title": "Chinese"}], "display_phone": "(617) 427-8068", "is_closed": false, "name": "Sunrise Chinese Food", "price": "$$", "review_count": 53, "coordinates": {"longitude": -71.08547, "latitude": 42.336757}}, {"rating": 5.0, "transactions": [], "image_url": "https://s3-media3.fl.yelpcdn.com/bphoto/kbkwvNSnCCRixvDpdhlkGw/o.jpg", "phone": "+16173043686", "id": "paul-campano-keller-williams-realty-cambridge", "distance": 3957.2601998239998, "location": {"display_address": ["955 Massachusetts Ave", "Cambridge, MA 02139"], "state": "MA", "address2": "", "address1": "955 Massachusetts Ave", "zip_code": "02139", "city": "Cambridge", "country": "US", "address3": ""}, "url": "https://www.yelp.com/biz/paul-campano-keller-williams-realty-cambridge?adjust_creative=gBcvfFpabk3CnzmXKdYe3w&utm_campaign=yelp_api_v3&utm_medium=api_v3_business_search&utm_source=gBcvfFpabk3CnzmXKdYe3w", "categories": [{"alias": "realestateagents", "title": "Real Estate Agents"}, {"alias": "realestatesvcs", "title": "Real Estate Services"}], "display_phone": "(617) 304-3686", "is_closed": false, "name": "Paul Campano - Keller Williams Realty", "review_count": 19, "coordinates": {"longitude": -71.10984, "latitude": 42.36915}}, {"rating": 3.0, "transactions": [], "image_url": "https://s3-media4.fl.yelpcdn.com/bphoto/DN7Qi0X41B4AuUy2MGWeUA/o.jpg", "phone": "+16175229263", "id": "costellos-tavern-jamaica-plain", "distance": 5416.172293211999, "location": {"display_address": ["723 Centre St", "Jamaica Plain, MA 02130"], "state": "MA", "address2": "", "address1": "723 Centre St", "zip_code": "02130", "city": "Jamaica Plain", "country": "US", "address3": ""}, "url": "https://www.yelp.com/biz/costellos-tavern-jamaica-plain?adjust_creative=gBcvfFpabk3CnzmXKdYe3w&utm_campaign=yelp_api_v3&utm_medium=api_v3_business_search&utm_source=gBcvfFpabk3CnzmXKdYe3w", "categories": [{"alias": "pubs", "title": "Pubs"}, {"alias": "sportsbars", "title": "Sports Bars"}], "display_phone": "(617) 522-9263", "is_closed": false, "name": "Costello's Tavern", "price": "$", "review_count": 124, "coordinates": {"longitude": -71.11476, "latitude": 42.31127}}, {"rating": 2.0, "transactions": [], "image_url": "https://s3-media4.fl.yelpcdn.com/bphoto/c1g4fxTAUstrVJ9rGAtPIg/o.jpg", "phone": "+16175613452", "id": "rental-car-center-logan-airport-boston", "distance": 4074.934496888, "location": {"display_address": ["15 Transportation Way", "Boston, MA 02128"], "state": "MA", "address2": "", "address1": "15 Transportation Way", "zip_code": "02128", "city": "Boston", "country": "US", "address3": ""}, "url": "https://www.yelp.com/biz/rental-car-center-logan-airport-boston?adjust_creative=gBcvfFpabk3CnzmXKdYe3w&utm_campaign=yelp_api_v3&utm_medium=api_v3_business_search&utm_source=gBcvfFpabk3CnzmXKdYe3w", "categories": [{"alias": "carrental", "title": "Car Rental"}], "display_phone": "(617) 561-3452", "is_closed": false, "name": "Rental Car Center - Logan Airport", "review_count": 10, "coordinates": {"longitude": -71.0251770019531, "latitude": 42.3651008605957}}, {"rating": 2.5, "transactions": [], "image_url": "https://s3-media4.fl.yelpcdn.com/bphoto/LjhHZk62W8slKuah0zzu-w/o.jpg", "phone": "+18552872427", "id": "us-coachways-boston", "distance": 1853.135054184, "location": {"display_address": ["Boston, MA 02109"], "state": "MA", "address2": "", "address1": "", "zip_code": "02109", "city": "Boston", "country": "US", "address3": ""}, "url": "https://www.yelp.com/biz/us-coachways-boston?adjust_creative=gBcvfFpabk3CnzmXKdYe3w&utm_campaign=yelp_api_v3&utm_medium=api_v3_business_search&utm_source=gBcvfFpabk3CnzmXKdYe3w", "categories": [{"alias": "educationservices", "title": "Educational Services"}, {"alias": "airport_shuttles", "title": "Airport Shuttles"}, {"alias": "partybusrentals", "title": "Party Bus Rentals"}, {"alias": "buses", "title": "Buses"}], "display_phone": "(855) 287-2427", "is_closed": false, "name": "US Coachways", "review_count": 5, "coordinates": {"longitude": -71.0557637348711, "latitude": 42.3599613296938}}, {"rating": 5.0, "transactions": [], "image_url": "https://s3-media4.fl.yelpcdn.com/bphoto/4nO8fMKS08Y0n014Sik1IA/o.jpg", "phone": "+16177999670", "id": "austin-transportation-boston", "distance": 5828.737062922, "location": {"display_address": ["33 Regina Rd", "Boston, MA 02124"], "state": "MA", "address2": null, "address1": "33 Regina Rd", "zip_code": "02124", "city": "Boston", "country": "US", "address3": null}, "url": "https://www.yelp.com/biz/austin-transportation-boston?adjust_creative=gBcvfFpabk3CnzmXKdYe3w&utm_campaign=yelp_api_v3&utm_medium=api_v3_business_search&utm_source=gBcvfFpabk3CnzmXKdYe3w", "categories": [{"alias": "limos", "title": "Limos"}, {"alias": "airport_shuttles", "title": "Airport Shuttles"}], "display_phone": "(617) 799-9670", "is_closed": false, "name": "Austin Transportation", "review_count": 1, "coordinates": {"longitude": -71.0702434, "latitude": 42.2954281}}, {"rating": 5.0, "transactions": [], "image_url": "https://s3-media1.fl.yelpcdn.com/bphoto/MHlby7AbvQetlElewfBIlg/o.jpg", "phone": "+16172611818", "id": "a-affordable-towing-and-junk-car-removal-boston", "distance": 6005.211332763999, "location": {"display_address": ["228 Harvard St", "Boston, MA 02124"], "state": "MA", "address2": "", "address1": "228 Harvard St", "zip_code": "02124", "city": "Boston", "country": "US", "address3": ""}, "url": "https://www.yelp.com/biz/a-affordable-towing-and-junk-car-removal-boston?adjust_creative=gBcvfFpabk3CnzmXKdYe3w&utm_campaign=yelp_api_v3&utm_medium=api_v3_business_search&utm_source=gBcvfFpabk3CnzmXKdYe3w", "categories": [{"alias": "towing", "title": "Towing"}], "display_phone": "(617) 261-1818", "is_closed": false, "name": "A Affordable Towing & Junk Car Removal", "review_count": 1, "coordinates": {"longitude": -71.0862350463867, "latitude": 42.2949905395508}}, {"rating": 2.0, "transactions": [], "image_url": "https://s3-media1.fl.yelpcdn.com/bphoto/Th_2mAeZgxdS8ftZw4tHsg/o.jpg", "phone": "+17816410202", "id": "boston-limousine-boston-5", "distance": 3586.6549472639995, "location": {"display_address": ["33 Paris St", "Boston, MA 02128"], "state": "MA", "address2": "", "address1": "33 Paris St", "zip_code": "02128", "city": "Boston", "country": "US", "address3": ""}, "url": "https://www.yelp.com/biz/boston-limousine-boston-5?adjust_creative=gBcvfFpabk3CnzmXKdYe3w&utm_campaign=yelp_api_v3&utm_medium=api_v3_business_search&utm_source=gBcvfFpabk3CnzmXKdYe3w", "categories": [{"alias": "limos", "title": "Limos"}], "display_phone": "(781) 641-0202", "is_closed": false, "name": "Boston Limousine", "review_count": 12, "coordinates": {"longitude": -71.0376, "latitude": 42.37532}}, {"rating": 2.5, "transactions": [], "image_url": "", "phone": "+16172628887", "id": "hemenway-variety-boston", "distance": 1578.737514763, "location": {"display_address": ["95 Westland Ave", "Boston, MA 02115"], "state": "MA", "address2": "", "address1": "95 Westland Ave", "zip_code": "02115", "city": "Boston", "country": "US", "address3": ""}, "url": "https://www.yelp.com/biz/hemenway-variety-boston?adjust_creative=gBcvfFpabk3CnzmXKdYe3w&utm_campaign=yelp_api_v3&utm_medium=api_v3_business_search&utm_source=gBcvfFpabk3CnzmXKdYe3w", "categories": [{"alias": "convenience", "title": "Convenience Stores"}], "display_phone": "(617) 262-8887", "is_closed": false, "name": "Hemenway Variety", "review_count": 3, "coordinates": {"longitude": -71.0897573272607, "latitude": 42.344063522171}}, {"rating": 5.0, "transactions": [], "image_url": "https://s3-media3.fl.yelpcdn.com/bphoto/KnqLGs8yddhwkcrk05xZEA/o.jpg", "phone": "+16176060853", "id": "pereira-cleaning-services-boston", "distance": 6066.446236962, "location": {"display_address": ["135 Washington St", "Boston, MA 02135"], "state": "MA", "address2": "", "address1": "135 Washington St", "zip_code": "02135", "city": "Boston", "country": "US", "address3": ""}, "url": "https://www.yelp.com/biz/pereira-cleaning-services-boston?adjust_creative=gBcvfFpabk3CnzmXKdYe3w&utm_campaign=yelp_api_v3&utm_medium=api_v3_business_search&utm_source=gBcvfFpabk3CnzmXKdYe3w", "categories": [{"alias": "homecleaning", "title": "Home Cleaning"}], "display_phone": "(617) 606-0853", "is_closed": false, "name": "Pereira Cleaning Services", "review_count": 1, "coordinates": {"longitude": -71.144928, "latitude": 42.3453407}}, {"rating": 2.5, "transactions": ["delivery", "pickup"], "image_url": "https://s3-media1.fl.yelpcdn.com/bphoto/N22ewFoHuGnvUa0FhMELhg/o.jpg", "phone": "+16174878262", "id": "wok-n-talk-jamaica-plain", "distance": 3797.758673358, "location": {"display_address": ["23 S Huntington Ave", "Jamaica Plain, MA 02130"], "state": "MA", "address2": "", "address1": "23 S Huntington Ave", "zip_code": "02130", "city": "Jamaica Plain", "country": "US", "address3": ""}, "url": "https://www.yelp.com/biz/wok-n-talk-jamaica-plain?adjust_creative=gBcvfFpabk3CnzmXKdYe3w&utm_campaign=yelp_api_v3&utm_medium=api_v3_business_search&utm_source=gBcvfFpabk3CnzmXKdYe3w", "categories": [{"alias": "chinese", "title": "Chinese"}, {"alias": "thai", "title": "Thai"}, {"alias": "japanese", "title": "Japanese"}], "display_phone": "(617) 487-8262", "is_closed": false, "name": "Wok N Talk", "price": "$", "review_count": 184, "coordinates": {"longitude": -71.1119270324707, "latitude": 42.3316463919157}}, {"rating": 3.0, "transactions": [], "image_url": "https://s3-media2.fl.yelpcdn.com/bphoto/fQQVOs-pugOfAjO4Q55tiw/o.jpg", "phone": "+16176322881", "id": "masco-parking-garage-boston", "distance": 3179.4590967279996, "location": {"display_address": ["375 Longwood Ave", "Boston, MA 02215"], "state": "MA", "address2": "", "address1": "375 Longwood Ave", "zip_code": "02215", "city": "Boston", "country": "US", "address3": ""}, "url": "https://www.yelp.com/biz/masco-parking-garage-boston?adjust_creative=gBcvfFpabk3CnzmXKdYe3w&utm_campaign=yelp_api_v3&utm_medium=api_v3_business_search&utm_source=gBcvfFpabk3CnzmXKdYe3w", "categories": [{"alias": "parking", "title": "Parking"}], "display_phone": "(617) 632-2881", "is_closed": false, "name": "MASCO - Parking Garage", "review_count": 2, "coordinates": {"longitude": -71.1082374, "latitude": 42.339481}}, {"rating": 2.5, "transactions": [], "image_url": "https://s3-media2.fl.yelpcdn.com/bphoto/MJWMK3E06jfbMOn2n5tRYg/o.jpg", "phone": "+16177993337", "id": "fenway-back-bay-snow-plowing-boston", "distance": 3590.211105862, "location": {"display_address": ["880 Commonwealth Ave", "Boston, MA 02215"], "state": "MA", "address2": null, "address1": "880 Commonwealth Ave", "zip_code": "02215", "city": "Boston", "country": "US", "address3": ""}, "url": "https://www.yelp.com/biz/fenway-back-bay-snow-plowing-boston?adjust_creative=gBcvfFpabk3CnzmXKdYe3w&utm_campaign=yelp_api_v3&utm_medium=api_v3_business_search&utm_source=gBcvfFpabk3CnzmXKdYe3w", "categories": [{"alias": "snowremoval", "title": "Snow Removal"}], "display_phone": "(617) 799-3337", "is_closed": false, "name": "Fenway Back Bay Snow Plowing", "review_count": 11, "coordinates": {"longitude": -71.1147538, "latitude": 42.3507501}}, {"rating": 4.0, "transactions": [], "image_url": "https://s3-media4.fl.yelpcdn.com/bphoto/Z06hq6JABhhfU13rioZKiw/o.jpg", "phone": "+16179352015", "id": "bay-state-locksmith-boston", "distance": 8421.179416742, "location": {"display_address": ["121B Tremont St", "Ste 24", "Boston, MA 02135"], "state": "MA", "address2": "Ste 24", "address1": "121B Tremont St", "zip_code": "02135", "city": "Boston", "country": "US", "address3": ""}, "url": "https://www.yelp.com/biz/bay-state-locksmith-boston?adjust_creative=gBcvfFpabk3CnzmXKdYe3w&utm_campaign=yelp_api_v3&utm_medium=api_v3_business_search&utm_source=gBcvfFpabk3CnzmXKdYe3w", "categories": [{"alias": "locksmiths", "title": "Keys & Locksmiths"}], "display_phone": "(617) 935-2015", "is_closed": false, "name": "Bay State Locksmith", "review_count": 9, "coordinates": {"longitude": -71.1735762, "latitude": 42.3518256}}, {"rating": 1.5, "transactions": [], "image_url": "https://s3-media3.fl.yelpcdn.com/bphoto/2TsBzsWsgPSTlNr8tannFA/o.jpg", "phone": "+16175674140", "id": "advantage-rental-cars-boston", "distance": 4122.110045912, "location": {"display_address": ["100 Tomahawk Dr", "Boston, MA 02128"], "state": "MA", "address2": "", "address1": "100 Tomahawk Dr", "zip_code": "02128", "city": "Boston", "country": "US", "address3": ""}, "url": "https://www.yelp.com/biz/advantage-rental-cars-boston?adjust_creative=gBcvfFpabk3CnzmXKdYe3w&utm_campaign=yelp_api_v3&utm_medium=api_v3_business_search&utm_source=gBcvfFpabk3CnzmXKdYe3w", "categories": [{"alias": "carrental", "title": "Car Rental"}], "display_phone": "(617) 567-4140", "is_closed": false, "name": "Advantage Rental Cars", "review_count": 35, "coordinates": {"longitude": -71.0308838, "latitude": 42.3671608}}, {"rating": 5.0, "transactions": [], "image_url": "https://s3-media1.fl.yelpcdn.com/bphoto/yXEm9D96vyuaByWtjJc_ww/o.jpg", "phone": "+16172541101", "id": "brighton-lockshop-brighton-2", "distance": 6842.341720563999, "location": {"display_address": ["383 Washington St", "Brighton, MA 02135"], "state": "MA", "address2": null, "address1": "383 Washington St", "zip_code": "02135", "city": "Brighton", "country": "US", "address3": null}, "url": "https://www.yelp.com/biz/brighton-lockshop-brighton-2?adjust_creative=gBcvfFpabk3CnzmXKdYe3w&utm_campaign=yelp_api_v3&utm_medium=api_v3_business_search&utm_source=gBcvfFpabk3CnzmXKdYe3w", "categories": [{"alias": "locksmiths", "title": "Keys & Locksmiths"}], "display_phone": "(617) 254-1101", "is_closed": false, "name": "Brighton Lockshop", "review_count": 114, "coordinates": {"longitude": -71.154479, "latitude": 42.3493221}}, {"rating": 2.0, "transactions": [], "image_url": "", "phone": "+16174450200", "id": "caseys-towing-boston", "distance": 2206.2538620399996, "location": {"display_address": ["46 Newmarket Sq", "Boston, MA 02118"], "state": "MA", "address2": null, "address1": "46 Newmarket Sq", "zip_code": "02118", "city": "Boston", "country": "US", "address3": null}, "url": "https://www.yelp.com/biz/caseys-towing-boston?adjust_creative=gBcvfFpabk3CnzmXKdYe3w&utm_campaign=yelp_api_v3&utm_medium=api_v3_business_search&utm_source=gBcvfFpabk3CnzmXKdYe3w", "categories": [{"alias": "towing", "title": "Towing"}], "display_phone": "(617) 445-0200", "is_closed": false, "name": "Casey's Towing", "review_count": 18, "coordinates": {"longitude": -71.0660782, "latitude": 42.3287811}}, {"rating": 4.0, "transactions": [], "image_url": "https://s3-media1.fl.yelpcdn.com/bphoto/eu_EbNr4STrpE_onFMeBng/o.jpg", "phone": "+17816294762", "id": "volare-restaurant-and-bar-revere", "distance": 8449.871534932, "location": {"display_address": ["388 Broadway", "Revere, MA 02151"], "state": "MA", "address2": "", "address1": "388 Broadway", "zip_code": "02151", "city": "Revere", "country": "US", "address3": ""}, "url": "https://www.yelp.com/biz/volare-restaurant-and-bar-revere?adjust_creative=gBcvfFpabk3CnzmXKdYe3w&utm_campaign=yelp_api_v3&utm_medium=api_v3_business_search&utm_source=gBcvfFpabk3CnzmXKdYe3w", "categories": [{"alias": "italian", "title": "Italian"}, {"alias": "lounges", "title": "Lounges"}], "display_phone": "(781) 629-4762", "is_closed": false, "name": "Volare Restaurant and Bar", "price": "$$", "review_count": 116, "coordinates": {"longitude": -71.01247, "latitude": 42.41021}}, {"rating": 3.0, "transactions": [], "image_url": "https://s3-media1.fl.yelpcdn.com/bphoto/28Dp4Tu9zqCxdCnaSeFo2g/o.jpg", "phone": "+16172686371", "id": "speedway-boston-3", "distance": 1968.203186052, "location": {"display_address": ["151 Old Colony Ave", "Boston, MA 02127"], "state": "MA", "address2": "", "address1": "151 Old Colony Ave", "zip_code": "02127", "city": "Boston", "country": "US", "address3": null}, "url": "https://www.yelp.com/biz/speedway-boston-3?adjust_creative=gBcvfFpabk3CnzmXKdYe3w&utm_campaign=yelp_api_v3&utm_medium=api_v3_business_search&utm_source=gBcvfFpabk3CnzmXKdYe3w", "categories": [{"alias": "servicestations", "title": "Gas & Service Stations"}], "display_phone": "(617) 268-6371", "is_closed": false, "name": "Speedway", "review_count": 1, "coordinates": {"longitude": -71.0553512573242, "latitude": 42.3345756530762}}, {"rating": 5.0, "transactions": [], "image_url": "https://s3-media3.fl.yelpcdn.com/bphoto/nagiUQ60HMtaSpzY7fWOHA/o.jpg", "phone": "+14138966039", "id": "steph-stevens-photo-cambridge-3", "distance": 5813.672031182, "location": {"display_address": ["Cambridge, MA 02140"], "state": "MA", "address2": "", "address1": "", "zip_code": "02140", "city": "Cambridge", "country": "US", "address3": ""}, "url": "https://www.yelp.com/biz/steph-stevens-photo-cambridge-3?adjust_creative=gBcvfFpabk3CnzmXKdYe3w&utm_campaign=yelp_api_v3&utm_medium=api_v3_business_search&utm_source=gBcvfFpabk3CnzmXKdYe3w", "categories": [{"alias": "eventphotography", "title": "Event Photography"}, {"alias": "sessionphotography", "title": "Session Photography"}], "display_phone": "(413) 896-6039", "is_closed": false, "name": "Steph Stevens Photo", "review_count": 29, "coordinates": {"longitude": -71.1193943023682, "latitude": 42.3861589941568}}, {"rating": 1.5, "transactions": [], "image_url": "https://s3-media3.fl.yelpcdn.com/bphoto/3TXid0Y3hH9pgykFjfEvOw/o.jpg", "phone": "+18558444388", "id": "directv-boston-2", "distance": 2387.0801091099997, "location": {"display_address": ["Boston, MA 02215"], "state": "MA", "address2": null, "address1": null, "zip_code": "02215", "city": "Boston", "country": "US", "address3": null}, "url": "https://www.yelp.com/biz/directv-boston-2?adjust_creative=gBcvfFpabk3CnzmXKdYe3w&utm_campaign=yelp_api_v3&utm_medium=api_v3_business_search&utm_source=gBcvfFpabk3CnzmXKdYe3w", "categories": [{"alias": "televisionserviceproviders", "title": "Television Service Providers"}, {"alias": "isps", "title": "Internet Service Providers"}], "display_phone": "(855) 844-4388", "is_closed": false, "name": "DIRECTV", "review_count": 37, "coordinates": {"longitude": -71.1020126342773, "latitude": 42.3475456237793}}, {"rating": 3.5, "transactions": [], "image_url": "https://s3-media1.fl.yelpcdn.com/bphoto/2GDTxCpM7bqvLFlrh3vKcA/o.jpg", "phone": "+16172658888", "id": "boston-drain-company-boston-2", "distance": 7415.6718314419995, "location": {"display_address": ["651 Gallivan Blvd", "Boston, MA 02124"], "state": "MA", "address2": "", "address1": "651 Gallivan Blvd", "zip_code": "02124", "city": "Boston", "country": "US", "address3": ""}, "url": "https://www.yelp.com/biz/boston-drain-company-boston-2?adjust_creative=gBcvfFpabk3CnzmXKdYe3w&utm_campaign=yelp_api_v3&utm_medium=api_v3_business_search&utm_source=gBcvfFpabk3CnzmXKdYe3w", "categories": [{"alias": "plumbing", "title": "Plumbing"}], "display_phone": "(617) 265-8888", "is_closed": false, "name": "Boston Drain Company", "review_count": 15, "coordinates": {"longitude": -71.0485892, "latitude": 42.2833033}}, {"rating": 2.5, "transactions": [], "image_url": "https://s3-media2.fl.yelpcdn.com/bphoto/13hlIDAdvva0YK5_AD73tA/o.jpg", "phone": "+16173512665", "id": "wonder-bar-allston", "distance": 4928.352692959999, "location": {"display_address": ["186 Harvard Ave", "Allston, MA 02134"], "state": "MA", "address2": "", "address1": "186 Harvard Ave", "zip_code": "02134", "city": "Allston", "country": "US", "address3": ""}, "url": "https://www.yelp.com/biz/wonder-bar-allston?adjust_creative=gBcvfFpabk3CnzmXKdYe3w&utm_campaign=yelp_api_v3&utm_medium=api_v3_business_search&utm_source=gBcvfFpabk3CnzmXKdYe3w", "categories": [{"alias": "bars", "title": "Bars"}, {"alias": "danceclubs", "title": "Dance Clubs"}, {"alias": "musicvenues", "title": "Music Venues"}], "display_phone": "(617) 351-2665", "is_closed": false, "name": "Wonder Bar", "price": "$$", "review_count": 201, "coordinates": {"longitude": -71.1312194913626, "latitude": 42.3508867621422}}, {"rating": 4.5, "transactions": [], "image_url": "https://s3-media1.fl.yelpcdn.com/bphoto/JUqetNssrYv3ZHiUeruXIA/o.jpg", "phone": "+16173837290", "id": "rf-locks-brookline-3", "distance": 4385.985479012, "location": {"display_address": ["Brookline, MA 02446"], "state": "MA", "address2": null, "address1": "", "zip_code": "02446", "city": "Brookline", "country": "US", "address3": ""}, "url": "https://www.yelp.com/biz/rf-locks-brookline-3?adjust_creative=gBcvfFpabk3CnzmXKdYe3w&utm_campaign=yelp_api_v3&utm_medium=api_v3_business_search&utm_source=gBcvfFpabk3CnzmXKdYe3w", "categories": [{"alias": "locksmiths", "title": "Keys & Locksmiths"}], "display_phone": "(617) 383-7290", "is_closed": false, "name": "RF Locks", "review_count": 46, "coordinates": {"longitude": -71.1227722167969, "latitude": 42.3433418273926}}, {"rating": 3.5, "transactions": [], "image_url": "https://s3-media3.fl.yelpcdn.com/bphoto/jKBhIFSqiZCgudZvuthszQ/o.jpg", "phone": "+16172659236", "id": "peggy-o-neils-dorchester-2", "distance": 4773.1460121519995, "location": {"display_address": ["1310 Dorchester Ave", "Dorchester, MA 02122"], "state": "MA", "address2": "", "address1": "1310 Dorchester Ave", "zip_code": "02122", "city": "Dorchester", "country": "US", "address3": ""}, "url": "https://www.yelp.com/biz/peggy-o-neils-dorchester-2?adjust_creative=gBcvfFpabk3CnzmXKdYe3w&utm_campaign=yelp_api_v3&utm_medium=api_v3_business_search&utm_source=gBcvfFpabk3CnzmXKdYe3w", "categories": [{"alias": "bars", "title": "Bars"}], "display_phone": "(617) 265-9236", "is_closed": false, "name": "Peggy O'Neil's", "price": "$$", "review_count": 13, "coordinates": {"longitude": -71.0587723553181, "latitude": 42.3058155924082}}, {"rating": 4.5, "transactions": [], "image_url": "https://s3-media1.fl.yelpcdn.com/bphoto/irHkPhfw7VLk_GfNJJCXHQ/o.jpg", "phone": "+16173490700", "id": "residence-inn-boston-cambridge-cambridge-2", "distance": 2250.710913936, "location": {"display_address": ["6 Cambridge Ctr", "Cambridge, MA 02142"], "state": "MA", "address2": "", "address1": "6 Cambridge Ctr", "zip_code": "02142", "city": "Cambridge", "country": "US", "address3": ""}, "url": "https://www.yelp.com/biz/residence-inn-boston-cambridge-cambridge-2?adjust_creative=gBcvfFpabk3CnzmXKdYe3w&utm_campaign=yelp_api_v3&utm_medium=api_v3_business_search&utm_source=gBcvfFpabk3CnzmXKdYe3w", "categories": [{"alias": "hotels", "title": "Hotels"}], "display_phone": "(617) 349-0700", "is_closed": false, "name": "Residence Inn Boston Cambridge", "price": "$$", "review_count": 27, "coordinates": {"longitude": -71.08815, "latitude": 42.3638916}}], "total": 1239}