{"region": {"center": {"longitude": -71.07124328613281, "latitude": 42.34784169448538}}, "businesses": [{"rating": 2.5, "transactions": ["delivery"], "image_url": "https://s3-media1.fl.yelpcdn.com/bphoto/PcQZScRWxwq_dbtk-YRGIQ/o.jpg", "phone": "+18572847382", "id": "mija-cantina-and-tequila-bar-boston", "distance": 1886.409928958, "location": {"display_address": ["1 Faneuil Hall Sq", "Boston, MA 02109"], "state": "MA", "address2": "", "address1": "1 Faneuil Hall Sq", "zip_code": "02109", "city": "Boston", "country": "US", "address3": ""}, "url": "https://www.yelp.com/biz/mija-cantina-and-tequila-bar-boston?adjust_creative=gBcvfFpabk3CnzmXKdYe3w&utm_campaign=yelp_api_v3&utm_medium=api_v3_business_search&utm_source=gBcvfFpabk3CnzmXKdYe3w", "categories": [{"alias": "bars", "title": "Bars"}, {"alias": "mexican", "title": "Mexican"}], "display_phone": "(857) 284-7382", "is_closed": false, "name": "Mija Cantina & Tequila Bar", "price": "$$", "review_count": 364, "coordinates": {"longitude": -71.0555356543643, "latitude": 42.3602147891928}}, {"rating": 4.0, "transactions": [], "image_url": "https://s3-media1.fl.yelpcdn.com/bphoto/zY1uxrpFv1scWAJ_vIq3cA/o.jpg", "phone": "+16178042000", "id": "godfrey-hotel-boston-boston", "distance": 1115.313819104, "location": {"display_address": ["505 Washington St", "Boston, MA 02111"], "state": "MA", "address2": null, "address1": "505 Washington St", "zip_code": "02111", "city": "Boston", "country": "US", "address3": null}, "url": "https://www.yelp.com/biz/godfrey-hotel-boston-boston?adjust_creative=gBcvfFpabk3CnzmXKdYe3w&utm_campaign=yelp_api_v3&utm_medium=api_v3_business_search&utm_source=gBcvfFpabk3CnzmXKdYe3w", "categories": [{"alias": "hotels", "title": "Hotels"}, {"alias": "venues", "title": "Venues & Event Spaces"}], "display_phone": "(617) 804-2000", "is_closed": false, "name": "Godfrey Hotel Boston", "price": "$$$", "review_count": 55, "coordinates": {"longitude": -71.061678, "latitude": 42.354958}}, {"rating": 4.0, "transactions": [], "image_url": "https://s3-media4.fl.yelpcdn.com/bphoto/SIbZXoZlTFIuOEbLxdXRbg/o.jpg", "phone": "+16175358888", "id": "mandarin-oriental-hotel-boston", "distance": 840.765243124, "location": {"display_address": ["776 Boylston St", "Boston, MA 02199"], "state": "MA", "address2": "", "address1": "776 Boylston St", "zip_code": "02199", "city": "Boston", "country": "US", "address3": ""}, "url": "https://www.yelp.com/biz/mandarin-oriental-hotel-boston?adjust_creative=gBcvfFpabk3CnzmXKdYe3w&utm_campaign=yelp_api_v3&utm_medium=api_v3_business_search&utm_source=gBcvfFpabk3CnzmXKdYe3w", "categories": [{"alias": "hotels", "title": "Hotels"}], "display_phone": "(617) 535-8888", "is_closed": false, "name": "Mandarin Oriental Hotel", "price": "$$$$", "review_count": 70, "coordinates": {"longitude": -71.081388, "latitude": 42.34881}}, {"rating": 5.0, "transactions": [], "image_url": "https://s3-media2.fl.yelpcdn.com/bphoto/ge6Mr7xtw2U8xrWeSNOpXQ/o.jpg", "phone": "+16174404676", "id": "beaupix-boston-4", "distance": 1673.088693278, "location": {"display_address": ["15 Channel Center St", "Boston, MA 02210"], "state": "MA", "address2": "", "address1": "15 Channel Center St", "zip_code": "02210", "city": "Boston", "country": "US", "address3": ""}, "url": "https://www.yelp.com/biz/beaupix-boston-4?adjust_creative=gBcvfFpabk3CnzmXKdYe3w&utm_campaign=yelp_api_v3&utm_medium=api_v3_business_search&utm_source=gBcvfFpabk3CnzmXKdYe3w", "categories": [{"alias": "eventphotography", "title": "Event Photography"}, {"alias": "sessionphotography", "title": "Session Photography"}], "display_phone": "(617) 440-4676", "is_closed": false, "name": "Beaupix", "review_count": 40, "coordinates": {"longitude": -71.0511046, "latitude": 42.3456546}}, {"rating": 2.5, "transactions": [], "image_url": "https://s3-media1.fl.yelpcdn.com/bphoto/Z8ocHsgHOU3gvQlN4zRCpQ/o.jpg", "phone": "+16174497010", "id": "bar-louie-boston", "distance": 2392.955648516, "location": {"display_address": ["121 Brookline Ave", "Boston, MA 02215"], "state": "MA", "address2": "", "address1": "121 Brookline Ave", "zip_code": "02215", "city": "Boston", "country": "US", "address3": ""}, "url": "https://www.yelp.com/biz/bar-louie-boston?adjust_creative=gBcvfFpabk3CnzmXKdYe3w&utm_campaign=yelp_api_v3&utm_medium=api_v3_business_search&utm_source=gBcvfFpabk3CnzmXKdYe3w", "categories": [{"alias": "bars", "title": "Bars"}, {"alias": "newamerican", "title": "American (New)"}], "display_phone": "(617) 449-7010", "is_closed": false, "name": "Bar Louie", "price": "$$", "review_count": 169, "coordinates": {"longitude": -71.1002261164867, "latitude": 42.3457824742608}}, {"rating": 4.0, "transactions": [], "image_url": "https://s3-media4.fl.yelpcdn.com/bphoto/aPnGH06bi3I7thT1gP9vyw/o.jpg", "phone": "+16177471000", "id": "intercontinental-boston-boston", "distance": 1722.662641704, "location": {"display_address": ["510 Atlantic Avenue", "Boston, MA 02210"], "state": "MA", "address2": null, "address1": "510 Atlantic Avenue", "zip_code": "02210", "city": "Boston", "country": "US", "address3": ""}, "url": "https://www.yelp.com/biz/intercontinental-boston-boston?adjust_creative=gBcvfFpabk3CnzmXKdYe3w&utm_campaign=yelp_api_v3&utm_medium=api_v3_business_search&utm_source=gBcvfFpabk3CnzmXKdYe3w", "categories": [{"alias": "hotels", "title": "Hotels"}, {"alias": "venues", "title": "Venues & Event Spaces"}], "display_phone": "(617) 747-1000", "is_closed": false, "name": "InterContinental Boston", "price": "$$$", "review_count": 234, "coordinates": {"longitude": -71.0520225310366, "latitude": 42.3540322819045}}, {"rating": 4.5, "transactions": [], "image_url": "https://s3-media4.fl.yelpcdn.com/bphoto/ldvd54VbzArWa3KpwjoWZQ/o.jpg", "phone": "+16174780840", "id": "residence-inn-boston-downtown-seaport-boston-2", "distance": 1934.960015276, "location": {"display_address": ["370 Congress St", "Boston, MA 02210"], "state": "MA", "address2": "", "address1": "370 Congress St", "zip_code": "02210", "city": "Boston", "country": "US", "address3": ""}, "url": "https://www.yelp.com/biz/residence-inn-boston-downtown-seaport-boston-2?adjust_creative=gBcvfFpabk3CnzmXKdYe3w&utm_campaign=yelp_api_v3&utm_medium=api_v3_business_search&utm_source=gBcvfFpabk3CnzmXKdYe3w", "categories": [{"alias": "hotels", "title": "Hotels"}], "display_phone": "(617) 478-0840", "is_closed": false, "name": "Residence Inn Boston Downtown/Seaport", "price": "$$$", "review_count": 40, "coordinates": {"longitude": -71.047909031177, "latitude": 42.3501877929046}}, {"rating": 3.0, "transactions": ["delivery"], "image_url": "https://s3-media2.fl.yelpcdn.com/bphoto/r0iZg7dA1EGbzl0WmejscA/o.jpg", "phone": "+16172540807", "id": "ts-pub-boston-2", "distance": 4014.2659194359994, "location": {"display_address": ["973 Commonwealth Ave", "Boston, MA 02215"], "state": "MA", "address2": "", "address1": "973 Commonwealth Ave", "zip_code": "02215", "city": "Boston", "country": "US", "address3": ""}, "url": "https://www.yelp.com/biz/ts-pub-boston-2?adjust_creative=gBcvfFpabk3CnzmXKdYe3w&utm_campaign=yelp_api_v3&utm_medium=api_v3_business_search&utm_source=gBcvfFpabk3CnzmXKdYe3w", "categories": [{"alias": "bars", "title": "Bars"}, {"alias": "tradamerican", "title": "American (Traditional)"}], "display_phone": "(617) 254-0807", "is_closed": false, "name": "T's Pub", "price": "$$", "review_count": 99, "coordinates": {"longitude": -71.1193429, "latitude": 42.3517792}}, {"rating": 3.5, "transactions": [], "image_url": "https://s3-media3.fl.yelpcdn.com/bphoto/uU4YcEK5d3Mm77DI-p6jvA/o.jpg", "phone": "+16172662986", "id": "boston-ramrod-boston", "distance": 2045.0557693459998, "location": {"display_address": ["1254 Boylston St", "Boston, MA 02215"], "state": "MA", "address2": "", "address1": "1254 Boylston St", "zip_code": "02215", "city": "Boston", "country": "US", "address3": ""}, "url": "https://www.yelp.com/biz/boston-ramrod-boston?adjust_creative=gBcvfFpabk3CnzmXKdYe3w&utm_campaign=yelp_api_v3&utm_medium=api_v3_business_search&utm_source=gBcvfFpabk3CnzmXKdYe3w", "categories": [{"alias": "gaybars", "title": "Gay Bars"}], "display_phone": "(617) 266-2986", "is_closed": false, "name": "Boston Ramrod", "price": "$", "review_count": 13, "coordinates": {"longitude": -71.0957673, "latitude": 42.3449547}}, {"rating": 5.0, "transactions": [], "image_url": "https://s3-media1.fl.yelpcdn.com/bphoto/BIRzFEpLZIBQ1RgHxchcmA/o.jpg", "phone": "+16178388006", "id": "freedom-tail-pet-services-boston", "distance": 990.5402404979999, "location": {"display_address": ["Boston, MA 02129"], "state": "MA", "address2": "", "address1": "", "zip_code": "02129", "city": "Boston", "country": "US", "address3": ""}, "url": "https://www.yelp.com/biz/freedom-tail-pet-services-boston?adjust_creative=gBcvfFpabk3CnzmXKdYe3w&utm_campaign=yelp_api_v3&utm_medium=api_v3_business_search&utm_source=gBcvfFpabk3CnzmXKdYe3w", "categories": [{"alias": "dogwalkers", "title": "Dog Walkers"}, {"alias": "pet_sitting", "title": "Pet Boarding/Pet Sitting"}], "display_phone": "(617) 838-8006", "is_closed": false, "name": "Freedom Tail Pet Services", "review_count": 14, "coordinates": {"longitude": -71.0831731287109, "latitude": 42.3491001847883}}, {"rating": 2.5, "transactions": [], "image_url": "https://s3-media2.fl.yelpcdn.com/bphoto/LYnIqMsAxn8pxcomJW5cmg/o.jpg", "phone": "+16178567369", "id": "tony-cs-sports-bar-and-grill-boston-2", "distance": 2681.0685466859995, "location": {"display_address": ["250 Northern Ave", "Boston, MA 02210"], "state": "MA", "address2": null, "address1": "250 Northern Ave", "zip_code": "02210", "city": "Boston", "country": "US", "address3": ""}, "url": "https://www.yelp.com/biz/tony-cs-sports-bar-and-grill-boston-2?adjust_creative=gBcvfFpabk3CnzmXKdYe3w&utm_campaign=yelp_api_v3&utm_medium=api_v3_business_search&utm_source=gBcvfFpabk3CnzmXKdYe3w", "categories": [{"alias": "tradamerican", "title": "American (Traditional)"}, {"alias": "sportsbars", "title": "Sports Bars"}], "display_phone": "(617) 856-7369", "is_closed": false, "name": "Tony C's Sports Bar & Grill", "price": "$$", "review_count": 400, "coordinates": {"longitude": -71.0386595361491, "latitude": 42.3490269297948}}, {"rating": 4.0, "transactions": [], "image_url": "https://s3-media2.fl.yelpcdn.com/bphoto/GESynOjSktcpYtP-bJurYg/o.jpg", "phone": "+16173556000", "id": "boston-childrens-hospital-boston", "distance": 3088.568240614, "location": {"display_address": ["300 Longwood Ave", "Boston, MA 02115"], "state": "MA", "address2": "", "address1": "300 Longwood Ave", "zip_code": "02115", "city": "Boston", "country": "US", "address3": ""}, "url": "https://www.yelp.com/biz/boston-childrens-hospital-boston?adjust_creative=gBcvfFpabk3CnzmXKdYe3w&utm_campaign=yelp_api_v3&utm_medium=api_v3_business_search&utm_source=gBcvfFpabk3CnzmXKdYe3w", "categories": [{"alias": "hospitals", "title": "Hospitals"}], "display_phone": "(617) 355-6000", "is_closed": false, "name": "Boston Children's Hospital", "review_count": 57, "coordinates": {"longitude": -71.1059970977132, "latitude": 42.3372730209928}}, {"rating": 4.0, "transactions": [], "image_url": "https://s3-media2.fl.yelpcdn.com/bphoto/OMs74pSsy9Njwbxyk3w4tQ/o.jpg", "phone": "+16174247000", "id": "the-colonnade-hotel-boston-2", "distance": 828.32810267, "location": {"display_address": ["120 Huntington Ave", "Boston, MA 02116"], "state": "MA", "address2": "", "address1": "120 Huntington Ave", "zip_code": "02116", "city": "Boston", "country": "US", "address3": ""}, "url": "https://www.yelp.com/biz/the-colonnade-hotel-boston-2?adjust_creative=gBcvfFpabk3CnzmXKdYe3w&utm_campaign=yelp_api_v3&utm_medium=api_v3_business_search&utm_source=gBcvfFpabk3CnzmXKdYe3w", "categories": [{"alias": "hotels", "title": "Hotels"}], "display_phone": "(617) 424-7000", "is_closed": false, "name": "The Colonnade Hotel", "price": "$$$", "review_count": 147, "coordinates": {"longitude": -71.0809277, "latitude": 42.3457705}}, {"rating": 5.0, "transactions": [], "image_url": "", "phone": "+16172696630", "id": "hub-lock-and-door-closer-company-boston-2", "distance": 2337.357457668, "location": {"display_address": ["281 Dorchester St", "Boston, MA 02127"], "state": "MA", "address2": "", "address1": "281 Dorchester St", "zip_code": "02127", "city": "Boston", "country": "US", "address3": ""}, "url": "https://www.yelp.com/biz/hub-lock-and-door-closer-company-boston-2?adjust_creative=gBcvfFpabk3CnzmXKdYe3w&utm_campaign=yelp_api_v3&utm_medium=api_v3_business_search&utm_source=gBcvfFpabk3CnzmXKdYe3w", "categories": [{"alias": "locksmiths", "title": "Keys & Locksmiths"}], "display_phone": "(617) 269-6630", "is_closed": false, "name": "Hub Lock & Door Closer Company", "review_count": 16, "coordinates": {"longitude": -71.05246, "latitude": 42.33219}}, {"rating": 4.5, "transactions": [], "image_url": "https://s3-media3.fl.yelpcdn.com/bphoto/hIH6zhomhDk0hv8Mk0HtvQ/o.jpg", "phone": "+18572436900", "id": "element-boston-seaport-boston", "distance": 2211.610067428, "location": {"display_address": ["391-395 D St", "Boston, MA 02210"], "state": "MA", "address2": null, "address1": "391-395 D St", "zip_code": "02210", "city": "Boston", "country": "US", "address3": null}, "url": "https://www.yelp.com/biz/element-boston-seaport-boston?adjust_creative=gBcvfFpabk3CnzmXKdYe3w&utm_campaign=yelp_api_v3&utm_medium=api_v3_business_search&utm_source=gBcvfFpabk3CnzmXKdYe3w", "categories": [{"alias": "hotels", "title": "Hotels"}], "display_phone": "(857) 243-6900", "is_closed": false, "name": "Element Boston Seaport", "price": "$$", "review_count": 19, "coordinates": {"longitude": -71.045135, "latitude": 42.343023}}, {"rating": 2.5, "transactions": [], "image_url": "https://s3-media1.fl.yelpcdn.com/bphoto/n4kQZvvF2F85OKtHCZq-UQ/o.jpg", "phone": "+16174268111", "id": "whiskey-priest-boston", "distance": 2358.88447231, "location": {"display_address": ["150 Northern Ave", "Boston, MA 02210"], "state": "MA", "address2": "", "address1": "150 Northern Ave", "zip_code": "02210", "city": "Boston", "country": "US", "address3": ""}, "url": "https://www.yelp.com/biz/whiskey-priest-boston?adjust_creative=gBcvfFpabk3CnzmXKdYe3w&utm_campaign=yelp_api_v3&utm_medium=api_v3_business_search&utm_source=gBcvfFpabk3CnzmXKdYe3w", "categories": [{"alias": "whiskeybars", "title": "Whiskey Bars"}, {"alias": "sportsbars", "title": "Sports Bars"}, {"alias": "irish_pubs", "title": "Irish Pub"}], "display_phone": "(617) 426-8111", "is_closed": false, "name": "Whiskey Priest", "price": "$$", "review_count": 360, "coordinates": {"longitude": -71.042812819937, "latitude": 42.350785104764}}, {"rating": 4.0, "transactions": [], "image_url": "https://s3-media1.fl.yelpcdn.com/bphoto/S-NwUE_elSGlxzl0Wyt1rQ/o.jpg", "phone": "+16175664500", "id": "the-verb-hotel-boston", "distance": 2103.12413616, "location": {"display_address": ["1271 Boylston St", "Boston, MA 02116"], "state": "MA", "address2": "", "address1": "1271 Boylston St", "zip_code": "02116", "city": "Boston", "country": "US", "address3": ""}, "url": "https://www.yelp.com/biz/the-verb-hotel-boston?adjust_creative=gBcvfFpabk3CnzmXKdYe3w&utm_campaign=yelp_api_v3&utm_medium=api_v3_business_search&utm_source=gBcvfFpabk3CnzmXKdYe3w", "categories": [{"alias": "hotels", "title": "Hotels"}, {"alias": "musicians", "title": "Musicians"}], "display_phone": "(617) 566-4500", "is_closed": false, "name": "The Verb Hotel", "price": "$$", "review_count": 109, "coordinates": {"longitude": -71.0965609, "latitude": 42.345068}}, {"rating": 3.5, "transactions": [], "image_url": "https://s3-media1.fl.yelpcdn.com/bphoto/uZ3oyO8p1sfONaEBBj_XKA/o.jpg", "phone": "+16175747100", "id": "the-ritz-carlton-boston-boston", "distance": 874.095961996, "location": {"display_address": ["10 Avery St", "Boston, MA 02111"], "state": "MA", "address2": "", "address1": "10 Avery St", "zip_code": "02111", "city": "Boston", "country": "US", "address3": ""}, "url": "https://www.yelp.com/biz/the-ritz-carlton-boston-boston?adjust_creative=gBcvfFpabk3CnzmXKdYe3w&utm_campaign=yelp_api_v3&utm_medium=api_v3_business_search&utm_source=gBcvfFpabk3CnzmXKdYe3w", "categories": [{"alias": "hotels", "title": "Hotels"}, {"alias": "venues", "title": "Venues & Event Spaces"}], "display_phone": "(617) 574-7100", "is_closed": false, "name": "The Ritz-Carlton, Boston", "price": "$$$$", "review_count": 100, "coordinates": {"longitude": -71.06313, "latitude": 42.35314}}, {"rating": 5.0, "transactions": [], "image_url": "https://s3-media1.fl.yelpcdn.com/bphoto/fluctxOwhsbTkeU1KNp2Lw/o.jpg", "phone": "+16178994212", "id": "daisy-cares-boston-2", "distance": 2408.2043059499997, "location": {"display_address": ["Boston, MA 02110"], "state": "MA", "address2": null, "address1": "", "zip_code": "02110", "city": "Boston", "country": "US", "address3": ""}, "url": "https://www.yelp.com/biz/daisy-cares-boston-2?adjust_creative=gBcvfFpabk3CnzmXKdYe3w&utm_campaign=yelp_api_v3&utm_medium=api_v3_business_search&utm_source=gBcvfFpabk3CnzmXKdYe3w", "categories": [{"alias": "dogwalkers", "title": "Dog Walkers"}, {"alias": "pet_sitting", "title": "Pet Boarding/Pet Sitting"}, {"alias": "groomer", "title": "Pet Groomers"}], "display_phone": "(617) 899-4212", "is_closed": false, "name": "Daisy Cares", "review_count": 18, "coordinates": {"longitude": -71.05323, "latitude": 42.35734}}, {"rating": 3.0, "transactions": ["delivery"], "image_url": "https://s3-media1.fl.yelpcdn.com/bphoto/Ez_ulhLkhiWc268zrpS13A/o.jpg", "phone": "+16172923355", "id": "vanderbilt-kitchen-and-bar-boston", "distance": 1777.935424004, "location": {"display_address": ["105 Water St", "Boston, MA 02109"], "state": "MA", "address2": "", "address1": "105 Water St", "zip_code": "02109", "city": "Boston", "country": "US", "address3": ""}, "url": "https://www.yelp.com/biz/vanderbilt-kitchen-and-bar-boston?adjust_creative=gBcvfFpabk3CnzmXKdYe3w&utm_campaign=yelp_api_v3&utm_medium=api_v3_business_search&utm_source=gBcvfFpabk3CnzmXKdYe3w", "categories": [{"alias": "bars", "title": "Bars"}, {"alias": "tradamerican", "title": "American (Traditional)"}, {"alias": "breakfast_brunch", "title": "Breakfast & Brunch"}], "display_phone": "(617) 292-3355", "is_closed": false, "name": "Vanderbilt Kitchen & Bar", "price": "$$", "review_count": 31, "coordinates": {"longitude": -71.0548294, "latitude": 42.3579089}}, {"rating": 5.0, "transactions": [], "image_url": "https://s3-media1.fl.yelpcdn.com/bphoto/nKZ5kMPvBaXCZHMpbcN73w/o.jpg", "phone": "+16173567802", "id": "east-coast-soul-boston", "distance": 3873.441266472, "location": {"display_address": ["940 Commonwealth Ave", "Boston, MA 02215"], "state": "MA", "address2": "", "address1": "940 Commonwealth Ave", "zip_code": "02215", "city": "Boston", "country": "US", "address3": ""}, "url": "https://www.yelp.com/biz/east-coast-soul-boston?adjust_creative=gBcvfFpabk3CnzmXKdYe3w&utm_campaign=yelp_api_v3&utm_medium=api_v3_business_search&utm_source=gBcvfFpabk3CnzmXKdYe3w", "categories": [{"alias": "theater", "title": "Performing Arts"}, {"alias": "musicians", "title": "Musicians"}], "display_phone": "(617) 356-7802", "is_closed": false, "name": "East Coast Soul", "review_count": 25, "coordinates": {"longitude": -71.1183413, "latitude": 42.3512054}}, {"rating": 4.0, "transactions": [], "image_url": "https://s3-media3.fl.yelpcdn.com/bphoto/yBRlIDjixmoP5gKlDf0LXQ/o.jpg", "phone": "+16173383030", "id": "the-envoy-hotel-autograph-collection-boston", "distance": 1982.8890572879998, "location": {"display_address": ["70 Sleeper St", "Boston, MA 02210"], "state": "MA", "address2": null, "address1": "70 Sleeper St", "zip_code": "02210", "city": "Boston", "country": "US", "address3": ""}, "url": "https://www.yelp.com/biz/the-envoy-hotel-autograph-collection-boston?adjust_creative=gBcvfFpabk3CnzmXKdYe3w&utm_campaign=yelp_api_v3&utm_medium=api_v3_business_search&utm_source=gBcvfFpabk3CnzmXKdYe3w", "categories": [{"alias": "hotels", "title": "Hotels"}, {"alias": "venues", "title": "Venues & Event Spaces"}], "display_phone": "(617) 338-3030", "is_closed": false, "name": "The Envoy Hotel, Autograph Collection", "price": "$$$", "review_count": 66, "coordinates": {"longitude": -71.0483747720718, "latitude": 42.3533054441214}}, {"rating": 3.0, "transactions": [], "image_url": "https://s3-media2.fl.yelpcdn.com/bphoto/dyL_Goe4tUdrN5d1pDkOEg/o.jpg", "phone": "+16177396860", "id": "au-bon-pain-boston-25", "distance": 3201.047749092, "location": {"display_address": ["75 Francis St", "Boston, MA 02115"], "state": "MA", "address2": "", "address1": "75 Francis St", "zip_code": "02115", "city": "Boston", "country": "US", "address3": ""}, "url": "https://www.yelp.com/biz/au-bon-pain-boston-25?adjust_creative=gBcvfFpabk3CnzmXKdYe3w&utm_campaign=yelp_api_v3&utm_medium=api_v3_business_search&utm_source=gBcvfFpabk3CnzmXKdYe3w", "categories": [{"alias": "delis", "title": "Delis"}, {"alias": "salad", "title": "Salad"}, {"alias": "sandwiches", "title": "Sandwiches"}, {"alias": "bakeries", "title": "Bakeries"}], "display_phone": "(617) 739-6860", "is_closed": false, "name": "Au Bon Pain", "price": "$", "review_count": 17, "coordinates": {"longitude": -71.1074882, "latitude": 42.3360306}}, {"rating": 3.0, "transactions": [], "image_url": "https://s3-media4.fl.yelpcdn.com/bphoto/SKKvLIvqz0nsp6J4uY_MxQ/o.jpg", "phone": "+16175420412", "id": "au-bon-pain-boston-16", "distance": 1644.3682507039998, "location": {"display_address": ["300 Congress St", "Children's Museum", "Boston, MA 02210"], "state": "MA", "address2": "", "address1": "300 Congress St", "zip_code": "02210", "city": "Boston", "country": "US", "address3": "Children's Museum"}, "url": "https://www.yelp.com/biz/au-bon-pain-boston-16?adjust_creative=gBcvfFpabk3CnzmXKdYe3w&utm_campaign=yelp_api_v3&utm_medium=api_v3_business_search&utm_source=gBcvfFpabk3CnzmXKdYe3w", "categories": [{"alias": "bakeries", "title": "Bakeries"}, {"alias": "breakfast_brunch", "title": "Breakfast & Brunch"}], "display_phone": "(617) 542-0412", "is_closed": false, "name": "Au Bon Pain", "price": "$", "review_count": 44, "coordinates": {"longitude": -71.0500148, "latitude": 42.3515446}}, {"rating": 3.5, "transactions": [], "image_url": "https://s3-media2.fl.yelpcdn.com/bphoto/zUkz7SsIImvv1CLUJGuIQA/o.jpg", "phone": "+16179121234", "id": "hyatt-regency-boston-boston", "distance": 1068.419180377, "location": {"display_address": ["One Ave De Lafayette", "Boston, MA 02111"], "state": "MA", "address2": "", "address1": "One Ave De Lafayette", "zip_code": "02111", "city": "Boston", "country": "US", "address3": ""}, "url": "https://www.yelp.com/biz/hyatt-regency-boston-boston?adjust_creative=gBcvfFpabk3CnzmXKdYe3w&utm_campaign=yelp_api_v3&utm_medium=api_v3_business_search&utm_source=gBcvfFpabk3CnzmXKdYe3w", "categories": [{"alias": "hotels", "title": "Hotels"}, {"alias": "venues", "title": "Venues & Event Spaces"}], "display_phone": "(617) 912-1234", "is_closed": false, "name": "Hyatt Regency Boston", "price": "$$$", "review_count": 254, "coordinates": {"longitude": -71.0607944300414, "latitude": 42.3535559421832}}, {"rating": 3.5, "transactions": [], "image_url": "https://s3-media3.fl.yelpcdn.com/bphoto/xsONcrZZDcPRwt0dqgbyfQ/o.jpg", "phone": "+16174821800", "id": "revere-hotel-boston-common-boston-2", "distance": 421.96453840839996, "location": {"display_address": ["200 Stuart St", "Boston, MA 02116"], "state": "MA", "address2": "", "address1": "200 Stuart St", "zip_code": "02116", "city": "Boston", "country": "US", "address3": ""}, "url": "https://www.yelp.com/biz/revere-hotel-boston-common-boston-2?adjust_creative=gBcvfFpabk3CnzmXKdYe3w&utm_campaign=yelp_api_v3&utm_medium=api_v3_business_search&utm_source=gBcvfFpabk3CnzmXKdYe3w", "categories": [{"alias": "hotels", "title": "Hotels"}, {"alias": "venues", "title": "Venues & Event Spaces"}], "display_phone": "(617) 482-1800", "is_closed": false, "name": "Revere Hotel Boston Common", "price": "$$$", "review_count": 281, "coordinates": {"longitude": -71.0671586, "latitude": 42.3507393}}, {"rating": 3.5, "transactions": [], "image_url": "https://s3-media3.fl.yelpcdn.com/bphoto/OswE8snNQsJAUPcPaz78qA/o.jpg", "phone": "+16172278600", "id": "omni-parker-house-boston", "distance": 1424.904164244, "location": {"display_address": ["60 School St", "Boston, MA 02108"], "state": "MA", "address2": "", "address1": "60 School St", "zip_code": "02108", "city": "Boston", "country": "US", "address3": ""}, "url": "https://www.yelp.com/biz/omni-parker-house-boston?adjust_creative=gBcvfFpabk3CnzmXKdYe3w&utm_campaign=yelp_api_v3&utm_medium=api_v3_business_search&utm_source=gBcvfFpabk3CnzmXKdYe3w", "categories": [{"alias": "hotels", "title": "Hotels"}], "display_phone": "(617) 227-8600", "is_closed": false, "name": "Omni Parker House", "price": "$$$", "review_count": 521, "coordinates": {"longitude": -71.0599632561207, "latitude": 42.35779479146}}, {"rating": 4.5, "transactions": [], "image_url": "https://s3-media3.fl.yelpcdn.com/bphoto/feFJ5BVh6TW7-MPIUBOHsg/o.jpg", "phone": "+16177149984", "id": "hellotech-boston", "distance": 1507.7886665117999, "location": {"display_address": ["Boston, MA 02108"], "state": "MA", "address2": "", "address1": "", "zip_code": "02108", "city": "Boston", "country": "US", "address3": ""}, "url": "https://www.yelp.com/biz/hellotech-boston?adjust_creative=gBcvfFpabk3CnzmXKdYe3w&utm_campaign=yelp_api_v3&utm_medium=api_v3_business_search&utm_source=gBcvfFpabk3CnzmXKdYe3w", "categories": [{"alias": "itservices", "title": "IT Services & Computer Repair"}, {"alias": "hometheatreinstallation", "title": "Home Theatre Installation"}], "display_phone": "(617) 714-9984", "is_closed": false, "name": "HelloTech", "review_count": 33, "coordinates": {"longitude": -71.0597732, "latitude": 42.3584308}}, {"rating": 5.0, "transactions": [], "image_url": "https://s3-media2.fl.yelpcdn.com/bphoto/LzhpEjDev6927W0XfU9GJg/o.jpg", "phone": "+16175699999", "id": "boston-car-keys-inc-boston", "distance": 5186.914407247999, "location": {"display_address": ["512 Saratoga St", "Boston, MA 02128"], "state": "MA", "address2": null, "address1": "512 Saratoga St", "zip_code": "02128", "city": "Boston", "country": "US", "address3": null}, "url": "https://www.yelp.com/biz/boston-car-keys-inc-boston?adjust_creative=gBcvfFpabk3CnzmXKdYe3w&utm_campaign=yelp_api_v3&utm_medium=api_v3_business_search&utm_source=gBcvfFpabk3CnzmXKdYe3w", "categories": [{"alias": "locksmiths", "title": "Keys & Locksmiths"}], "display_phone": "(617) 569-9999", "is_closed": false, "name": "Boston Car Keys, Inc.", "review_count": 49, "coordinates": {"longitude": -71.0261765, "latitude": 42.3805389}}, {"rating": 5.0, "transactions": [], "image_url": "https://s3-media3.fl.yelpcdn.com/bphoto/03IwnfrOq8AVSgDanoMjSQ/o.jpg", "phone": "+16175447078", "id": "walk-my-dog-boston", "distance": 520.0868189718, "location": {"display_address": ["583 Tremont St", "Boston, MA 02118"], "state": "MA", "address2": null, "address1": "583 Tremont St", "zip_code": "02118", "city": "Boston", "country": "US", "address3": ""}, "url": "https://www.yelp.com/biz/walk-my-dog-boston?adjust_creative=gBcvfFpabk3CnzmXKdYe3w&utm_campaign=yelp_api_v3&utm_medium=api_v3_business_search&utm_source=gBcvfFpabk3CnzmXKdYe3w", "categories": [{"alias": "dogwalkers", "title": "Dog Walkers"}, {"alias": "pet_sitting", "title": "Pet Boarding/Pet Sitting"}, {"alias": "pet_training", "title": "Pet Training"}], "display_phone": "(617) 544-7078", "is_closed": false, "name": "Walk My Dog", "review_count": 10, "coordinates": {"longitude": -71.0728674, "latitude": 42.3433237}}, {"rating": 5.0, "transactions": [], "image_url": "https://s3-media3.fl.yelpcdn.com/bphoto/pAWZ5OmFgkdYEhCVOjNiFA/o.jpg", "phone": "+16173311931", "id": "silk-events-dj-lighting-boston-2", "distance": 1507.7886665117999, "location": {"display_address": ["Boston, MA 02132"], "state": "MA", "address2": null, "address1": null, "zip_code": "02132", "city": "Boston", "country": "US", "address3": ""}, "url": "https://www.yelp.com/biz/silk-events-dj-lighting-boston-2?adjust_creative=gBcvfFpabk3CnzmXKdYe3w&utm_campaign=yelp_api_v3&utm_medium=api_v3_business_search&utm_source=gBcvfFpabk3CnzmXKdYe3w", "categories": [{"alias": "djs", "title": "DJs"}, {"alias": "eventplanning", "title": "Party & Event Planning"}, {"alias": "wedding_planning", "title": "Wedding Planning"}], "display_phone": "(617) 331-1931", "is_closed": false, "name": "Silk Events DJ + Lighting", "review_count": 9, "coordinates": {"longitude": -71.15781, "latitude": 42.27774}}, {"rating": 4.0, "transactions": [], "image_url": "https://s3-media3.fl.yelpcdn.com/bphoto/TH5jW6qQ1y0ZwmvzeI93sg/o.jpg", "phone": "+16175579955", "id": "kimpton-onyx-hotel-boston", "distance": 1991.3002727979997, "location": {"display_address": ["155 Portland St", "Boston, MA 02114"], "state": "MA", "address2": "", "address1": "155 Portland St", "zip_code": "02114", "city": "Boston", "country": "US", "address3": ""}, "url": "https://www.yelp.com/biz/kimpton-onyx-hotel-boston?adjust_creative=gBcvfFpabk3CnzmXKdYe3w&utm_campaign=yelp_api_v3&utm_medium=api_v3_business_search&utm_source=gBcvfFpabk3CnzmXKdYe3w", "categories": [{"alias": "hotels", "title": "Hotels"}, {"alias": "venues", "title": "Venues & Event Spaces"}], "display_phone": "(617) 557-9955", "is_closed": false, "name": "Kimpton Onyx Hotel", "price": "$$$", "review_count": 131, "coordinates": {"longitude": -71.061279296875, "latitude": 42.3641357421875}}, {"rating": 5.0, "transactions": [], "image_url": "https://s3-media4.fl.yelpcdn.com/bphoto/2u8hz_QryObct-YswWnN3A/o.jpg", "phone": "+16176511075", "id": "kate-l-photography-boston", "distance": 1752.712238184, "location": {"display_address": ["51 Melcher St", "Boston, MA 02210"], "state": "MA", "address2": "", "address1": "51 Melcher St", "zip_code": "02210", "city": "Boston", "country": "US", "address3": ""}, "url": "https://www.yelp.com/biz/kate-l-photography-boston?adjust_creative=gBcvfFpabk3CnzmXKdYe3w&utm_campaign=yelp_api_v3&utm_medium=api_v3_business_search&utm_source=gBcvfFpabk3CnzmXKdYe3w", "categories": [{"alias": "sessionphotography", "title": "Session Photography"}], "display_phone": "(617) 651-1075", "is_closed": false, "name": "Kate L Photography", "review_count": 13, "coordinates": {"longitude": -71.0500565171242, "latitude": 42.3494122177362}}, {"rating": 4.0, "transactions": [], "image_url": "https://s3-media3.fl.yelpcdn.com/bphoto/ZJLOYCDvofAYj5POGKkG3Q/o.jpg", "phone": "+16176706000", "id": "newbury-guest-house-boston", "distance": 1009.90752086, "location": {"display_address": ["261 Newbury St", "Boston, MA 02116"], "state": "MA", "address2": "", "address1": "261 Newbury St", "zip_code": "02116", "city": "Boston", "country": "US", "address3": ""}, "url": "https://www.yelp.com/biz/newbury-guest-house-boston?adjust_creative=gBcvfFpabk3CnzmXKdYe3w&utm_campaign=yelp_api_v3&utm_medium=api_v3_business_search&utm_source=gBcvfFpabk3CnzmXKdYe3w", "categories": [{"alias": "hotels", "title": "Hotels"}], "display_phone": "(617) 670-6000", "is_closed": false, "name": "Newbury Guest House", "price": "$$", "review_count": 44, "coordinates": {"longitude": -71.0832099, "latitude": 42.34967}}, {"rating": 4.0, "transactions": [], "image_url": "https://s3-media1.fl.yelpcdn.com/bphoto/MeyaVhyyhoqsPm5yvaBKlw/o.jpg", "phone": "+16173384111", "id": "renaissance-boston-waterfront-hotel-boston-2", "distance": 2622.146907804, "location": {"display_address": ["606 Congress St", "Boston, MA 02210"], "state": "MA", "address2": "", "address1": "606 Congress St", "zip_code": "02210", "city": "Boston", "country": "US", "address3": ""}, "url": "https://www.yelp.com/biz/renaissance-boston-waterfront-hotel-boston-2?adjust_creative=gBcvfFpabk3CnzmXKdYe3w&utm_campaign=yelp_api_v3&utm_medium=api_v3_business_search&utm_source=gBcvfFpabk3CnzmXKdYe3w", "categories": [{"alias": "hotels", "title": "Hotels"}, {"alias": "venues", "title": "Venues & Event Spaces"}], "display_phone": "(617) 338-4111", "is_closed": false, "name": "Renaissance Boston Waterfront Hotel", "price": "$$$", "review_count": 156, "coordinates": {"longitude": -71.0393365900914, "latitude": 42.3480324626421}}, {"rating": 4.0, "transactions": [], "image_url": "https://s3-media3.fl.yelpcdn.com/bphoto/9CEx5JEdzPpoP1B1YNBBDg/o.jpg", "phone": "+16176240202", "id": "the-boxer-boston-hotel-boston", "distance": 1925.73061131, "location": {"display_address": ["107 Merrimac St", "Boston, MA 02114"], "state": "MA", "address2": "", "address1": "107 Merrimac St", "zip_code": "02114", "city": "Boston", "country": "US", "address3": ""}, "url": "https://www.yelp.com/biz/the-boxer-boston-hotel-boston?adjust_creative=gBcvfFpabk3CnzmXKdYe3w&utm_campaign=yelp_api_v3&utm_medium=api_v3_business_search&utm_source=gBcvfFpabk3CnzmXKdYe3w", "categories": [{"alias": "hotels", "title": "Hotels"}], "display_phone": "(617) 624-0202", "is_closed": false, "name": "The Boxer Boston Hotel", "price": "$$", "review_count": 135, "coordinates": {"longitude": -71.062086, "latitude": 42.3637612}}, {"rating": 3.5, "transactions": [], "image_url": "https://s3-media3.fl.yelpcdn.com/bphoto/NjRDIM0FuPVehzUiX6u33A/o.jpg", "phone": "+16175369000", "id": "copley-square-hotel-boston", "distance": 608.1873370202, "location": {"display_address": ["47 Huntington Avenue", "Boston, MA 02116"], "state": "MA", "address2": "", "address1": "47 Huntington Avenue", "zip_code": "02116", "city": "Boston", "country": "US", "address3": ""}, "url": "https://www.yelp.com/biz/copley-square-hotel-boston?adjust_creative=gBcvfFpabk3CnzmXKdYe3w&utm_campaign=yelp_api_v3&utm_medium=api_v3_business_search&utm_source=gBcvfFpabk3CnzmXKdYe3w", "categories": [{"alias": "hotels", "title": "Hotels"}], "display_phone": "(617) 536-9000", "is_closed": false, "name": "Copley Square Hotel", "price": "$$$", "review_count": 136, "coordinates": {"longitude": -71.0786133, "latitude": 42.3483315}}, {"rating": 3.5, "transactions": [], "image_url": "https://s3-media1.fl.yelpcdn.com/bphoto/_30m5N2WIJSjBKe1Aez-Xg/o.jpg", "phone": "+18882934112", "id": "ames-hotel-boston-2", "distance": 1650.5485991059998, "location": {"display_address": ["1 Court St", "Boston, MA 02108"], "state": "MA", "address2": "", "address1": "1 Court St", "zip_code": "02108", "city": "Boston", "country": "US", "address3": ""}, "url": "https://www.yelp.com/biz/ames-hotel-boston-2?adjust_creative=gBcvfFpabk3CnzmXKdYe3w&utm_campaign=yelp_api_v3&utm_medium=api_v3_business_search&utm_source=gBcvfFpabk3CnzmXKdYe3w", "categories": [{"alias": "hotels", "title": "Hotels"}], "display_phone": "(888) 293-4112", "is_closed": false, "name": "Ames Hotel", "price": "$$$", "review_count": 170, "coordinates": {"longitude": -71.05803, "latitude": 42.35904}}, {"rating": 2.0, "transactions": [], "image_url": "https://s3-media2.fl.yelpcdn.com/bphoto/AC_8eQe2WHxwx8KT-1xiSQ/o.jpg", "phone": "+16174824475", "id": "cure-boston", "distance": 621.897819469, "location": {"display_address": ["246 Tremont St", "Boston, MA 02116"], "state": "MA", "address2": "", "address1": "246 Tremont St", "zip_code": "02116", "city": "Boston", "country": "US", "address3": ""}, "url": "https://www.yelp.com/biz/cure-boston?adjust_creative=gBcvfFpabk3CnzmXKdYe3w&utm_campaign=yelp_api_v3&utm_medium=api_v3_business_search&utm_source=gBcvfFpabk3CnzmXKdYe3w", "categories": [{"alias": "lounges", "title": "Lounges"}], "display_phone": "(617) 482-4475", "is_closed": false, "name": "Cure", "price": "$$$", "review_count": 85, "coordinates": {"longitude": -71.0650768876076, "latitude": 42.3503328859806}}, {"rating": 2.0, "transactions": [], "image_url": "https://s3-media4.fl.yelpcdn.com/bphoto/GkZOeuDSK_fxyNsGUWktVA/o.jpg", "phone": "+16173670544", "id": "the-greatest-bar-boston", "distance": 2028.486487508, "location": {"display_address": ["262 Friend St", "Boston, MA 02114"], "state": "MA", "address2": "", "address1": "262 Friend St", "zip_code": "02114", "city": "Boston", "country": "US", "address3": ""}, "url": "https://www.yelp.com/biz/the-greatest-bar-boston?adjust_creative=gBcvfFpabk3CnzmXKdYe3w&utm_campaign=yelp_api_v3&utm_medium=api_v3_business_search&utm_source=gBcvfFpabk3CnzmXKdYe3w", "categories": [{"alias": "sportsbars", "title": "Sports Bars"}], "display_phone": "(617) 367-0544", "is_closed": false, "name": "The Greatest Bar", "price": "$$", "review_count": 201, "coordinates": {"longitude": -71.0614, "latitude": 42.36457}}, {"rating": 5.0, "transactions": [], "image_url": "https://s3-media2.fl.yelpcdn.com/bphoto/fYrEFz-emoEqlDQ-qqOFxw/o.jpg", "phone": "+16177999033", "id": "giovanni-the-photographer-boston", "distance": 994.9859778743999, "location": {"display_address": ["Boston, MA 02111"], "state": "MA", "address2": null, "address1": null, "zip_code": "02111", "city": "Boston", "country": "US", "address3": ""}, "url": "https://www.yelp.com/biz/giovanni-the-photographer-boston?adjust_creative=gBcvfFpabk3CnzmXKdYe3w&utm_campaign=yelp_api_v3&utm_medium=api_v3_business_search&utm_source=gBcvfFpabk3CnzmXKdYe3w", "categories": [{"alias": "videographers", "title": "Videographers"}, {"alias": "eventphotography", "title": "Event Photography"}, {"alias": "photoboothrentals", "title": "Photo Booth Rentals"}], "display_phone": "(617) 799-9033", "is_closed": false, "name": "Giovanni The Photographer", "review_count": 20, "coordinates": {"longitude": -71.06015, "latitude": 42.35095}}, {"rating": 3.5, "transactions": [], "image_url": "https://s3-media2.fl.yelpcdn.com/bphoto/GMNv9QGXrlBvnB9AJ7D4vQ/o.jpg", "phone": "+16174379300", "id": "courtyard-by-marriott-copley-square-boston", "distance": 627.0064600848, "location": {"display_address": ["88 Exeter St", "Boston, MA 02116"], "state": "MA", "address2": "", "address1": "88 Exeter St", "zip_code": "02116", "city": "Boston", "country": "US", "address3": ""}, "url": "https://www.yelp.com/biz/courtyard-by-marriott-copley-square-boston?adjust_creative=gBcvfFpabk3CnzmXKdYe3w&utm_campaign=yelp_api_v3&utm_medium=api_v3_business_search&utm_source=gBcvfFpabk3CnzmXKdYe3w", "categories": [{"alias": "hotels", "title": "Hotels"}], "display_phone": "(617) 437-9300", "is_closed": false, "name": "Courtyard by Marriott Copley Square", "price": "$$", "review_count": 57, "coordinates": {"longitude": -71.0788040161133, "latitude": 42.3485908508301}}, {"rating": 4.0, "transactions": [], "image_url": "https://s3-media2.fl.yelpcdn.com/bphoto/YXDzglHRy2emqzsR03iZdg/o.jpg", "phone": "+16179804500", "id": "shine-on-boston-boston-4", "distance": 2128.354242142, "location": {"display_address": ["190 Old Colony Ave", "Ste 1", "Boston, MA 02127"], "state": "MA", "address2": "Ste 1", "address1": "190 Old Colony Ave", "zip_code": "02127", "city": "Boston", "country": "US", "address3": ""}, "url": "https://www.yelp.com/biz/shine-on-boston-boston-4?adjust_creative=gBcvfFpabk3CnzmXKdYe3w&utm_campaign=yelp_api_v3&utm_medium=api_v3_business_search&utm_source=gBcvfFpabk3CnzmXKdYe3w", "categories": [{"alias": "homecleaning", "title": "Home Cleaning"}, {"alias": "officecleaning", "title": "Office Cleaning"}, {"alias": "carpet_cleaning", "title": "Carpet Cleaning"}], "display_phone": "(617) 980-4500", "is_closed": false, "name": "Shine On Boston", "review_count": 33, "coordinates": {"longitude": -71.0539635, "latitude": 42.3335882}}, {"rating": 5.0, "transactions": [], "image_url": "https://s3-media3.fl.yelpcdn.com/bphoto/qvmNf8WVytx2JgzuvUgTCQ/o.jpg", "phone": "+16175150051", "id": "lice-happens-boston", "distance": 1507.7886665117999, "location": {"display_address": ["Boston, MA"], "state": "MA", "address2": null, "address1": null, "zip_code": "", "city": "Boston", "country": "US", "address3": ""}, "url": "https://www.yelp.com/biz/lice-happens-boston?adjust_creative=gBcvfFpabk3CnzmXKdYe3w&utm_campaign=yelp_api_v3&utm_medium=api_v3_business_search&utm_source=gBcvfFpabk3CnzmXKdYe3w", "categories": [{"alias": "liceservices", "title": "Lice Services"}], "display_phone": "(617) 515-0051", "is_closed": false, "name": "Lice Happens", "review_count": 12, "coordinates": {"longitude": null, "latitude": null}}, {"rating": 3.0, "transactions": [], "image_url": "https://s3-media4.fl.yelpcdn.com/bphoto/KhFADU5wOO_8F46w5IyunA/o.jpg", "phone": "+16172367369", "id": "tony-cs-sports-bar-and-grill-boston", "distance": 2084.181882492, "location": {"display_address": ["1265 Boylston St", "Boston, MA 02215"], "state": "MA", "address2": "", "address1": "1265 Boylston St", "zip_code": "02215", "city": "Boston", "country": "US", "address3": ""}, "url": "https://www.yelp.com/biz/tony-cs-sports-bar-and-grill-boston?adjust_creative=gBcvfFpabk3CnzmXKdYe3w&utm_campaign=yelp_api_v3&utm_medium=api_v3_business_search&utm_source=gBcvfFpabk3CnzmXKdYe3w", "categories": [{"alias": "sportsbars", "title": "Sports Bars"}, {"alias": "newamerican", "title": "American (New)"}], "display_phone": "(617) 236-7369", "is_closed": false, "name": "Tony C's Sports Bar & Grill", "price": "$$", "review_count": 26, "coordinates": {"longitude": -71.0963745117188, "latitude": 42.3452529907227}}, {"rating": 3.0, "transactions": [], "image_url": "https://s3-media1.fl.yelpcdn.com/bphoto/azclGXGLQ4VB_HAeP8hjwQ/o.jpg", "phone": "+16172691970", "id": "south-boston-chinese-restaurant-boston", "distance": 2337.712478072, "location": {"display_address": ["429 W Broadway", "Boston, MA 02127"], "state": "MA", "address2": "", "address1": "429 W Broadway", "zip_code": "02127", "city": "Boston", "country": "US", "address3": ""}, "url": "https://www.yelp.com/biz/south-boston-chinese-restaurant-boston?adjust_creative=gBcvfFpabk3CnzmXKdYe3w&utm_campaign=yelp_api_v3&utm_medium=api_v3_business_search&utm_source=gBcvfFpabk3CnzmXKdYe3w", "categories": [{"alias": "chinese", "title": "Chinese"}], "display_phone": "(617) 269-1970", "is_closed": false, "name": "South Boston Chinese Restaurant", "price": "$", "review_count": 24, "coordinates": {"longitude": -71.0473085939884, "latitude": 42.3364832997322}}, {"rating": 3.5, "transactions": [], "image_url": "https://s3-media4.fl.yelpcdn.com/bphoto/ko4rdQzCjrZf5VeaLKH8aA/o.jpg", "phone": "+16172270800", "id": "boston-marriott-long-wharf-boston-3", "distance": 2169.424759876, "location": {"display_address": ["296 State St", "Boston, MA 02109"], "state": "MA", "address2": "", "address1": "296 State St", "zip_code": "02109", "city": "Boston", "country": "US", "address3": ""}, "url": "https://www.yelp.com/biz/boston-marriott-long-wharf-boston-3?adjust_creative=gBcvfFpabk3CnzmXKdYe3w&utm_campaign=yelp_api_v3&utm_medium=api_v3_business_search&utm_source=gBcvfFpabk3CnzmXKdYe3w", "categories": [{"alias": "hotels", "title": "Hotels"}, {"alias": "venues", "title": "Venues & Event Spaces"}], "display_phone": "(617) 227-0800", "is_closed": false, "name": "Boston Marriott Long Wharf", "price": "$$$", "review_count": 176, "coordinates": {"longitude": -71.050773, "latitude": 42.360163}}, {"rating": 3.5, "transactions": [], "image_url": "https://s3-media3.fl.yelpcdn.com/bphoto/Qeh2T0NgQf3S9UfLWZVbzg/o.jpg", "phone": "+16175365700", "id": "taj-boston-boston", "distance": 559.5760957821999, "location": {"display_address": ["15 Arlington St", "Boston, MA 02116"], "state": "MA", "address2": "", "address1": "15 Arlington St", "zip_code": "02116", "city": "Boston", "country": "US", "address3": ""}, "url": "https://www.yelp.com/biz/taj-boston-boston?adjust_creative=gBcvfFpabk3CnzmXKdYe3w&utm_campaign=yelp_api_v3&utm_medium=api_v3_business_search&utm_source=gBcvfFpabk3CnzmXKdYe3w", "categories": [{"alias": "hotels", "title": "Hotels"}], "display_phone": "(617) 536-5700", "is_closed": false, "name": "Taj Boston", "price": "$$$", "review_count": 184, "coordinates": {"longitude": -71.0713676560669, "latitude": 42.3528735294954}}, {"rating": 5.0, "transactions": [], "image_url": "", "phone": "+15089511273", "id": "lisa-rigby-photography-boston", "distance": 1642.7861085499999, "location": {"display_address": ["Boston, MA 02228"], "state": "MA", "address2": "", "address1": "", "zip_code": "02228", "city": "Boston", "country": "US", "address3": ""}, "url": "https://www.yelp.com/biz/lisa-rigby-photography-boston?adjust_creative=gBcvfFpabk3CnzmXKdYe3w&utm_campaign=yelp_api_v3&utm_medium=api_v3_business_search&utm_source=gBcvfFpabk3CnzmXKdYe3w", "categories": [{"alias": "eventphotography", "title": "Event Photography"}], "display_phone": "(508) 951-1273", "is_closed": false, "name": "Lisa Rigby Photography", "review_count": 12, "coordinates": {"longitude": -71.064054550293, "latitude": 42.361630971974}}, {"rating": 3.5, "transactions": [], "image_url": "https://s3-media2.fl.yelpcdn.com/bphoto/I8swfjBSH7eYPYdXVzyKXA/o.jpg", "phone": "+16177262000", "id": "massachusetts-general-hospital-boston-4", "distance": 1731.255390766, "location": {"display_address": ["55 Fruit St", "Boston, MA 02114"], "state": "MA", "address2": "", "address1": "55 Fruit St", "zip_code": "02114", "city": "Boston", "country": "US", "address3": ""}, "url": "https://www.yelp.com/biz/massachusetts-general-hospital-boston-4?adjust_creative=gBcvfFpabk3CnzmXKdYe3w&utm_campaign=yelp_api_v3&utm_medium=api_v3_business_search&utm_source=gBcvfFpabk3CnzmXKdYe3w", "categories": [{"alias": "hospitals", "title": "Hospitals"}], "display_phone": "(617) 726-2000", "is_closed": false, "name": "Massachusetts General Hospital", "review_count": 156, "coordinates": {"longitude": -71.068844, "latitude": 42.363313}}], "total": 1239}