{"region": {"center": {"longitude": -73.99429321289062, "latitude": 40.70544486444615}}, "total": 2613, "businesses": [{"transactions": ["delivery", "pickup"], "distance": 9000.433508159998, "phone": "+17182055360", "categories": [{"alias": "chinese", "title": "Chinese"}, {"alias": "halal", "title": "Halal"}], "id": "halal-kitchen-maspeth", "display_phone": "(718) 205-5360", "is_closed": false, "location": {"address2": "", "country": "US", "display_address": ["7112 Grand Ave", "Maspeth, NY 11378"], "address1": "7112 Grand Ave", "city": "Maspeth", "zip_code": "11378", "address3": "", "state": "NY"}, "coordinates": {"longitude": -73.8916473388672, "latitude": 40.7278022766113}, "review_count": 27, "image_url": "https://s3-media3.fl.yelpcdn.com/bphoto/ccX42kBcpqheXj_Ua5Cj0Q/o.jpg", "price": "$", "rating": 3.5, "name": "Halal Kitchen", "url": "https://www.yelp.com/biz/halal-kitchen-maspeth?adjust_creative=gBcvfFpabk3CnzmXKdYe3w&utm_campaign=yelp_api_v3&utm_medium=api_v3_business_search&utm_source=gBcvfFpabk3CnzmXKdYe3w"}, {"transactions": [], "distance": 13781.570215279999, "phone": "+12122839988", "categories": [{"alias": "chinese", "title": "Chinese"}], "id": "hong-garden-new-york", "display_phone": "(212) 283-9988", "is_closed": false, "location": {"address2": "", "country": "US", "display_address": ["2515 Adam Clayton Powell", "New York, NY 10039"], "address1": "2515 Adam Clayton Powell", "city": "New York", "zip_code": "10039", "address3": "", "state": "NY"}, "coordinates": {"longitude": -73.9383544921875, "latitude": 40.8219299316406}, "review_count": 7, "image_url": "https://s3-media1.fl.yelpcdn.com/bphoto/rQqcsJ_OLqb9ZrOf3q9kbA/o.jpg", "price": "$", "rating": 3.0, "name": "Hong Garden", "url": "https://www.yelp.com/biz/hong-garden-new-york?adjust_creative=gBcvfFpabk3CnzmXKdYe3w&utm_campaign=yelp_api_v3&utm_medium=api_v3_business_search&utm_source=gBcvfFpabk3CnzmXKdYe3w"}, {"transactions": ["pickup"], "distance": 14852.869229119999, "phone": "+17187622664", "categories": [{"alias": "szechuan", "title": "Szechuan"}], "id": "szechuan-house-flushing", "display_phone": "(718) 762-2664", "is_closed": false, "location": {"address2": "", "country": "US", "display_address": ["133-47 Roosevelt Ave", "Flushing, NY 11354"], "address1": "133-47 Roosevelt Ave", "city": "Flushing", "zip_code": "11354", "address3": "", "state": "NY"}, "coordinates": {"longitude": -73.832753, "latitude": 40.758913}, "review_count": 56, "image_url": "https://s3-media3.fl.yelpcdn.com/bphoto/0CpZ-PtGTCTGJ4En1C7lhw/o.jpg", "price": "$$", "rating": 4.0, "name": "Szechuan House", "url": "https://www.yelp.com/biz/szechuan-house-flushing?adjust_creative=gBcvfFpabk3CnzmXKdYe3w&utm_campaign=yelp_api_v3&utm_medium=api_v3_business_search&utm_source=gBcvfFpabk3CnzmXKdYe3w"}, {"transactions": [], "distance": 11070.42294306, "phone": "+17187159539", "categories": [{"alias": "thai", "title": "Thai"}, {"alias": "chinese", "title": "Chinese"}, {"alias": "sushi", "title": "Sushi Bars"}], "id": "bay-house-bistro-staten-island", "display_phone": "(718) 715-9539", "is_closed": false, "location": {"address2": null, "country": "US", "display_address": ["574 Bay St", "Staten Island, NY 10304"], "address1": "574 Bay St", "city": "Staten Island", "zip_code": "10304", "address3": "", "state": "NY"}, "coordinates": {"longitude": -74.0764928, "latitude": 40.6278259}, "review_count": 50, "image_url": "https://s3-media3.fl.yelpcdn.com/bphoto/8lm7GT9hdDu2ZWjvasG2bw/o.jpg", "price": "$$", "rating": 3.5, "name": "Bay House Bistro", "url": "https://www.yelp.com/biz/bay-house-bistro-staten-island?adjust_creative=gBcvfFpabk3CnzmXKdYe3w&utm_campaign=yelp_api_v3&utm_medium=api_v3_business_search&utm_source=gBcvfFpabk3CnzmXKdYe3w"}, {"transactions": [], "distance": 11538.35946948, "phone": "+12122227888", "categories": [{"alias": "chinese", "title": "Chinese"}], "id": "peking-kitchen-ii-new-york", "display_phone": "(212) 222-7888", "is_closed": false, "location": {"address2": "", "country": "US", "display_address": ["2162 8th Ave", "New York, NY 10026"], "address1": "2162 8th Ave", "city": "New York", "zip_code": "10026", "address3": "", "state": "NY"}, "coordinates": {"longitude": -73.954735, "latitude": 40.80479}, "review_count": 17, "image_url": "https://s3-media2.fl.yelpcdn.com/bphoto/HmvM7VK5mt69CybOHVtH0w/o.jpg", "price": "$", "rating": 3.5, "name": "Peking Kitchen II", "url": "https://www.yelp.com/biz/peking-kitchen-ii-new-york?adjust_creative=gBcvfFpabk3CnzmXKdYe3w&utm_campaign=yelp_api_v3&utm_medium=api_v3_business_search&utm_source=gBcvfFpabk3CnzmXKdYe3w"}, {"transactions": ["delivery", "pickup"], "distance": 18123.40860128, "phone": "+17188633900", "categories": [{"alias": "chinese", "title": "Chinese"}], "id": "lucky-star-chinese-restaurant-bronx", "display_phone": "(718) 863-3900", "is_closed": false, "location": {"address2": "", "country": "US", "display_address": ["1924 Cross Bronx Expy", "Bronx, NY 10472"], "address1": "1924 Cross Bronx Expy", "city": "Bronx", "zip_code": "10472", "address3": "", "state": "NY"}, "coordinates": {"longitude": -73.8595581054688, "latitude": 40.8324699401855}, "review_count": 19, "image_url": "https://s3-media3.fl.yelpcdn.com/bphoto/InfMcq7IhebA3uBnfyDT0g/o.jpg", "price": "$", "rating": 3.5, "name": "Lucky Star Chinese Restaurant", "url": "https://www.yelp.com/biz/lucky-star-chinese-restaurant-bronx?adjust_creative=gBcvfFpabk3CnzmXKdYe3w&utm_campaign=yelp_api_v3&utm_medium=api_v3_business_search&utm_source=gBcvfFpabk3CnzmXKdYe3w"}, {"transactions": ["delivery"], "distance": 9359.09343457, "phone": "+17183386060", "categories": [{"alias": "chinese", "title": "Chinese"}], "id": "dynasty-chinese-restaurant-brooklyn", "display_phone": "(718) 338-6060", "is_closed": false, "location": {"address2": "", "country": "US", "display_address": ["1669 Flatbush Ave", "Brooklyn, NY 11210"], "address1": "1669 Flatbush Ave", "city": "Brooklyn", "zip_code": "11210", "address3": "", "state": "NY"}, "coordinates": {"longitude": -73.944, "latitude": 40.630418}, "review_count": 32, "image_url": "https://s3-media3.fl.yelpcdn.com/bphoto/uRB2BxcxXkFKy7DXNi5A2A/o.jpg", "price": "$", "rating": 3.0, "name": "Dynasty Chinese Restaurant", "url": "https://www.yelp.com/biz/dynasty-chinese-restaurant-brooklyn?adjust_creative=gBcvfFpabk3CnzmXKdYe3w&utm_campaign=yelp_api_v3&utm_medium=api_v3_business_search&utm_source=gBcvfFpabk3CnzmXKdYe3w"}, {"transactions": [], "distance": 12612.400798679999, "phone": "+17186657593", "categories": [{"alias": "chinese", "title": "Chinese"}], "id": "foo-hing-chinese-kitchen-bronx", "display_phone": "(718) 665-7593", "is_closed": false, "location": {"address2": "", "country": "US", "display_address": ["2706 3rd Ave", "Bronx, NY 10454"], "address1": "2706 3rd Ave", "city": "Bronx", "zip_code": "10454", "address3": "", "state": "NY"}, "coordinates": {"longitude": -73.9222373, "latitude": 40.8135071}, "review_count": 3, "image_url": "https://s3-media2.fl.yelpcdn.com/bphoto/w3x6k6CEjTCY5grtctw3sg/o.jpg", "price": "$", "rating": 4.5, "name": "Foo-Hing Chinese Kitchen", "url": "https://www.yelp.com/biz/foo-hing-chinese-kitchen-bronx?adjust_creative=gBcvfFpabk3CnzmXKdYe3w&utm_campaign=yelp_api_v3&utm_medium=api_v3_business_search&utm_source=gBcvfFpabk3CnzmXKdYe3w"}, {"transactions": [], "distance": 4773.655529195999, "phone": "+17183998181", "categories": [{"alias": "chinese", "title": "Chinese"}], "id": "china-king-brooklyn-2", "display_phone": "(718) 399-8181", "is_closed": false, "location": {"address2": "", "country": "US", "display_address": ["582 Nostrand Ave", "Brooklyn, NY 11216"], "address1": "582 Nostrand Ave", "city": "Brooklyn", "zip_code": "11216", "address3": "", "state": "NY"}, "coordinates": {"longitude": -73.9498367, "latitude": 40.6788788}, "review_count": 8, "image_url": "https://s3-media2.fl.yelpcdn.com/bphoto/sOg2YYjmTeUX57n4bpHHow/o.jpg", "price": "$", "rating": 3.5, "name": "China King", "url": "https://www.yelp.com/biz/china-king-brooklyn-2?adjust_creative=gBcvfFpabk3CnzmXKdYe3w&utm_campaign=yelp_api_v3&utm_medium=api_v3_business_search&utm_source=gBcvfFpabk3CnzmXKdYe3w"}, {"transactions": ["delivery", "pickup"], "distance": 8652.979738037999, "phone": "+17186725300", "categories": [{"alias": "chinese", "title": "Chinese"}], "id": "new-china-3-woodside-2", "display_phone": "(718) 672-5300", "is_closed": false, "location": {"address2": "", "country": "US", "display_address": ["5814 Roosevelt Ave", "Woodside, NY 11377"], "address1": "5814 Roosevelt Ave", "city": "Woodside", "zip_code": "11377", "address3": "", "state": "NY"}, "coordinates": {"longitude": -73.906067, "latitude": 40.745144}, "review_count": 35, "image_url": "https://s3-media3.fl.yelpcdn.com/bphoto/E1od4Djdu1mDvup11tKG8A/o.jpg", "price": "$", "rating": 3.0, "name": "New China 3", "url": "https://www.yelp.com/biz/new-china-3-woodside-2?adjust_creative=gBcvfFpabk3CnzmXKdYe3w&utm_campaign=yelp_api_v3&utm_medium=api_v3_business_search&utm_source=gBcvfFpabk3CnzmXKdYe3w"}, {"transactions": [], "distance": 17146.64543772, "phone": "+12127811979", "categories": [{"alias": "chinese", "title": "Chinese"}], "id": "golden-city-chinese-restaurant-new-york-2", "display_phone": "(212) 781-1979", "is_closed": false, "location": {"address2": "", "country": "US", "display_address": ["2545 Amsterdam Ave", "New York, NY 10033"], "address1": "2545 Amsterdam Ave", "city": "New York", "zip_code": "10033", "address3": "", "state": "NY"}, "coordinates": {"longitude": -73.9283376, "latitude": 40.8513247}, "review_count": 5, "image_url": "https://s3-media4.fl.yelpcdn.com/bphoto/mnmI6Cd5liyIPl3oqb-bGg/o.jpg", "price": "$", "rating": 4.5, "name": "Golden City Chinese Restaurant", "url": "https://www.yelp.com/biz/golden-city-chinese-restaurant-new-york-2?adjust_creative=gBcvfFpabk3CnzmXKdYe3w&utm_campaign=yelp_api_v3&utm_medium=api_v3_business_search&utm_source=gBcvfFpabk3CnzmXKdYe3w"}, {"transactions": [], "distance": 10140.782864039998, "phone": "+17188370366", "categories": [{"alias": "chinese", "title": "Chinese"}], "id": "golden-dynasty-restaurant-brooklyn", "display_phone": "(718) 837-0366", "is_closed": false, "location": {"address2": "", "country": "US", "display_address": ["6316 Bay Pkwy", "Brooklyn, NY 11204"], "address1": "6316 Bay Pkwy", "city": "Brooklyn", "zip_code": "11204", "address3": "", "state": "NY"}, "coordinates": {"longitude": -73.980857, "latitude": 40.61483}, "review_count": 7, "image_url": "https://s3-media2.fl.yelpcdn.com/bphoto/yE39um4C6pj7iV_WKcPQjw/o.jpg", "price": "$", "rating": 4.0, "name": "Golden Dynasty Restaurant", "url": "https://www.yelp.com/biz/golden-dynasty-restaurant-brooklyn?adjust_creative=gBcvfFpabk3CnzmXKdYe3w&utm_campaign=yelp_api_v3&utm_medium=api_v3_business_search&utm_source=gBcvfFpabk3CnzmXKdYe3w"}, {"transactions": [], "distance": 5498.137588752, "phone": "+17184939321", "categories": [{"alias": "chinese", "title": "Chinese"}], "id": "new-cheung-lee-kitchen-brooklyn", "display_phone": "(718) 493-9321", "is_closed": false, "location": {"address2": "", "country": "US", "display_address": ["108 Kingston Ave", "Brooklyn, NY 11213"], "address1": "108 Kingston Ave", "city": "Brooklyn", "zip_code": "11213", "address3": "", "state": "NY"}, "coordinates": {"longitude": -73.941871, "latitude": 40.676002}, "review_count": 4, "image_url": "https://s3-media3.fl.yelpcdn.com/bphoto/gnG4rQPdOQnJr-zQUOXQiA/o.jpg", "price": "$", "rating": 4.0, "name": "New Cheung Lee Kitchen", "url": "https://www.yelp.com/biz/new-cheung-lee-kitchen-brooklyn?adjust_creative=gBcvfFpabk3CnzmXKdYe3w&utm_campaign=yelp_api_v3&utm_medium=api_v3_business_search&utm_source=gBcvfFpabk3CnzmXKdYe3w"}, {"transactions": [], "distance": 8977.124310402, "phone": "+17182366222", "categories": [{"alias": "chinese", "title": "Chinese"}], "id": "china-royal-brooklyn", "display_phone": "(718) 236-6222", "is_closed": false, "location": {"address2": "", "country": "US", "display_address": ["1377 65th St", "Brooklyn, NY 11219"], "address1": "1377 65th St", "city": "Brooklyn", "zip_code": "11219", "address3": "", "state": "NY"}, "coordinates": {"longitude": -73.99939, "latitude": 40.62489}, "review_count": 10, "image_url": "https://s3-media3.fl.yelpcdn.com/bphoto/18vOaP4TstNmN2-mTp4oFA/o.jpg", "price": "$", "rating": 4.0, "name": "China Royal", "url": "https://www.yelp.com/biz/china-royal-brooklyn?adjust_creative=gBcvfFpabk3CnzmXKdYe3w&utm_campaign=yelp_api_v3&utm_medium=api_v3_business_search&utm_source=gBcvfFpabk3CnzmXKdYe3w"}, {"transactions": ["delivery", "pickup"], "distance": 6363.909400532, "phone": "+17188719898", "categories": [{"alias": "chinese", "title": "Chinese"}, {"alias": "mexican", "title": "Mexican"}], "id": "famous-gourmet-brooklyn", "display_phone": "(718) 871-9898", "is_closed": false, "location": {"address2": "", "country": "US", "display_address": ["4415 4th Ave", "Brooklyn, NY 11220"], "address1": "4415 4th Ave", "city": "Brooklyn", "zip_code": "11220", "address3": "", "state": "NY"}, "coordinates": {"longitude": -74.009188, "latitude": 40.649339}, "review_count": 6, "image_url": "https://s3-media4.fl.yelpcdn.com/bphoto/OWXtN_K_hbz-SbgP2ef3zQ/o.jpg", "price": "$", "rating": 4.5, "name": "Famous Gourmet", "url": "https://www.yelp.com/biz/famous-gourmet-brooklyn?adjust_creative=gBcvfFpabk3CnzmXKdYe3w&utm_campaign=yelp_api_v3&utm_medium=api_v3_business_search&utm_source=gBcvfFpabk3CnzmXKdYe3w"}, {"transactions": ["delivery", "pickup"], "distance": 9591.752338756, "phone": "+12128772298", "categories": [{"alias": "chinese", "title": "Chinese"}, {"alias": "sushi", "title": "Sushi Bars"}, {"alias": "bubbletea", "title": "Bubble Tea"}], "id": "ollies-to-go-new-york", "display_phone": "(212) 877-2298", "is_closed": false, "location": {"address2": "", "country": "US", "display_address": ["2425 Broadway", "New York, NY 10024"], "address1": "2425 Broadway", "city": "New York", "zip_code": "10024", "address3": "", "state": "NY"}, "coordinates": {"longitude": -73.9752417, "latitude": 40.7904902}, "review_count": 100, "image_url": "https://s3-media2.fl.yelpcdn.com/bphoto/S0IzA-vTLOnZlaT0De55UA/o.jpg", "price": "$$", "rating": 3.0, "name": "Ollie's To Go", "url": "https://www.yelp.com/biz/ollies-to-go-new-york?adjust_creative=gBcvfFpabk3CnzmXKdYe3w&utm_campaign=yelp_api_v3&utm_medium=api_v3_business_search&utm_source=gBcvfFpabk3CnzmXKdYe3w"}, {"transactions": ["delivery", "pickup"], "distance": 14563.834983799998, "phone": "+17187433832", "categories": [{"alias": "chinese", "title": "Chinese"}, {"alias": "halal", "title": "Halal"}, {"alias": "uzbek", "title": "Uzbek"}], "id": "cafe-kashkar-brooklyn", "display_phone": "(718) 743-3832", "is_closed": false, "location": {"address2": "", "country": "US", "display_address": ["1141 Brighton Beach Ave", "Brooklyn, NY 11235"], "address1": "1141 Brighton Beach Ave", "city": "Brooklyn", "zip_code": "11235", "address3": "", "state": "NY"}, "coordinates": {"longitude": -73.9557381, "latitude": 40.5778011}, "review_count": 160, "image_url": "https://s3-media2.fl.yelpcdn.com/bphoto/ASGM7BFBHQSVRjWhRU3ECA/o.jpg", "price": "$$", "rating": 4.0, "name": "Cafe Kashkar", "url": "https://www.yelp.com/biz/cafe-kashkar-brooklyn?adjust_creative=gBcvfFpabk3CnzmXKdYe3w&utm_campaign=yelp_api_v3&utm_medium=api_v3_business_search&utm_source=gBcvfFpabk3CnzmXKdYe3w"}, {"transactions": [], "distance": 9263.34736061, "phone": "+12128287688", "categories": [{"alias": "chinese", "title": "Chinese"}, {"alias": "hawaiian", "title": "Hawaiian"}], "id": "fresh-wok-new-york", "display_phone": "(212) 828-7688", "is_closed": false, "location": {"address2": "", "country": "US", "display_address": ["1777 1st Ave", "New York, NY 10128"], "address1": "1777 1st Ave", "city": "New York", "zip_code": "10128", "address3": "", "state": "NY"}, "coordinates": {"longitude": -73.946976, "latitude": 40.780643}, "review_count": 26, "image_url": "https://s3-media2.fl.yelpcdn.com/bphoto/SICVs-H0r7H8Niyhv1pUHg/o.jpg", "price": "$", "rating": 3.5, "name": "Fresh Wok", "url": "https://www.yelp.com/biz/fresh-wok-new-york?adjust_creative=gBcvfFpabk3CnzmXKdYe3w&utm_campaign=yelp_api_v3&utm_medium=api_v3_business_search&utm_source=gBcvfFpabk3CnzmXKdYe3w"}, {"transactions": [], "distance": 8164.372848658, "phone": "+17189219492", "categories": [{"alias": "chinese", "title": "Chinese"}], "id": "fu-lai-kitchen-brooklyn", "display_phone": "(718) 921-9492", "is_closed": false, "location": {"address2": "", "country": "US", "display_address": ["6815 3rd Ave", "Brooklyn, NY 11220"], "address1": "6815 3rd Ave", "city": "Brooklyn", "zip_code": "11220", "address3": "", "state": "NY"}, "coordinates": {"longitude": -74.0255966186523, "latitude": 40.6359443664551}, "review_count": 6, "image_url": "https://s3-media1.fl.yelpcdn.com/bphoto/G3PohNa4DlfXUinbJcrePw/o.jpg", "price": "$", "rating": 4.0, "name": "Fu Lai Kitchen", "url": "https://www.yelp.com/biz/fu-lai-kitchen-brooklyn?adjust_creative=gBcvfFpabk3CnzmXKdYe3w&utm_campaign=yelp_api_v3&utm_medium=api_v3_business_search&utm_source=gBcvfFpabk3CnzmXKdYe3w"}, {"transactions": [], "distance": 15449.2133848, "phone": "+17188864383", "categories": [{"alias": "chinese", "title": "Chinese"}], "id": "golden-palace-flushing", "display_phone": "(718) 886-4383", "is_closed": false, "location": {"address2": "", "country": "US", "display_address": ["140-09 Cherry Ave", "Flushing, NY 11355"], "address1": "140-09 Cherry Ave", "city": "Flushing", "zip_code": "11355", "address3": "", "state": "NY"}, "coordinates": {"longitude": -73.8227395, "latitude": 40.7540809}, "review_count": 65, "image_url": "https://s3-media2.fl.yelpcdn.com/bphoto/eYvW9tCXqQmtAdUF1lcLTg/o.jpg", "price": "$$", "rating": 3.5, "name": "Golden Palace", "url": "https://www.yelp.com/biz/golden-palace-flushing?adjust_creative=gBcvfFpabk3CnzmXKdYe3w&utm_campaign=yelp_api_v3&utm_medium=api_v3_business_search&utm_source=gBcvfFpabk3CnzmXKdYe3w"}, {"transactions": ["delivery", "pickup"], "distance": 4805.139369484, "phone": "+12126431588", "categories": [{"alias": "vietnamese", "title": "Vietnamese"}, {"alias": "chinese", "title": "Chinese"}, {"alias": "asianfusion", "title": "Asian Fusion"}], "id": "hoa-kitchen-new-york-2", "display_phone": "(212) 643-1588", "is_closed": false, "location": {"address2": "", "country": "US", "display_address": ["370 8th Ave", "New York, NY 10001"], "address1": "370 8th Ave", "city": "New York", "zip_code": "10001", "address3": "", "state": "NY"}, "coordinates": {"longitude": -73.995635, "latitude": 40.748641}, "review_count": 49, "image_url": "https://s3-media3.fl.yelpcdn.com/bphoto/dmxWeN_eAsl-wpYds21VTw/o.jpg", "price": "$$", "rating": 2.0, "name": "Hoa Kitchen", "url": "https://www.yelp.com/biz/hoa-kitchen-new-york-2?adjust_creative=gBcvfFpabk3CnzmXKdYe3w&utm_campaign=yelp_api_v3&utm_medium=api_v3_business_search&utm_source=gBcvfFpabk3CnzmXKdYe3w"}, {"transactions": [], "distance": 4794.615412421999, "phone": "", "categories": [{"alias": "chinese", "title": "Chinese"}], "id": "good-friend-chinese-resturant-new-york", "display_phone": "", "is_closed": false, "location": {"address2": "", "country": "US", "display_address": ["176 Macus Garvey Blvd", "New York, NY 11221"], "address1": "176 Macus Garvey Blvd", "city": "New York", "zip_code": "11221", "address3": "", "state": "NY"}, "coordinates": {"longitude": -73.9401473999023, "latitude": 40.6922492980957}, "review_count": 1, "image_url": "https://s3-media1.fl.yelpcdn.com/bphoto/_FSplJEKYuMlqtwAtgRZSw/o.jpg", "rating": 4.0, "name": "Good Friend Chinese Resturant", "url": "https://www.yelp.com/biz/good-friend-chinese-resturant-new-york?adjust_creative=gBcvfFpabk3CnzmXKdYe3w&utm_campaign=yelp_api_v3&utm_medium=api_v3_business_search&utm_source=gBcvfFpabk3CnzmXKdYe3w"}, {"transactions": ["delivery", "pickup"], "distance": 15166.389582539998, "phone": "+12125430391", "categories": [{"alias": "chinese", "title": "Chinese"}], "id": "splendid-china-new-york", "display_phone": "(212) 543-0391", "is_closed": false, "location": {"address2": "", "country": "US", "display_address": ["2038 Amsterdam Ave", "New York, NY 10032"], "address1": "2038 Amsterdam Ave", "city": "New York", "zip_code": "10032", "address3": "", "state": "NY"}, "coordinates": {"longitude": -73.940437, "latitude": 40.835598}, "review_count": 8, "image_url": "https://s3-media2.fl.yelpcdn.com/bphoto/1wll92UFjkLjvHDfhLFKOA/o.jpg", "price": "$", "rating": 4.0, "name": "Splendid China", "url": "https://www.yelp.com/biz/splendid-china-new-york?adjust_creative=gBcvfFpabk3CnzmXKdYe3w&utm_campaign=yelp_api_v3&utm_medium=api_v3_business_search&utm_source=gBcvfFpabk3CnzmXKdYe3w"}, {"transactions": [], "distance": 3169.021561224, "phone": "+12125290539", "categories": [{"alias": "chinese", "title": "Chinese"}], "id": "no-1-chinese-restaurant-new-york", "display_phone": "(212) 529-0539", "is_closed": false, "location": {"address2": "", "country": "US", "display_address": ["265 1st Ave", "New York, NY 10003"], "address1": "265 1st Ave", "city": "New York", "zip_code": "10003", "address3": "", "state": "NY"}, "coordinates": {"longitude": -73.982139, "latitude": 40.732437}, "review_count": 30, "image_url": "https://s3-media4.fl.yelpcdn.com/bphoto/W0gV5VSxMX43qsNuY04-MQ/o.jpg", "price": "$", "rating": 2.5, "name": "No 1 Chinese Restaurant", "url": "https://www.yelp.com/biz/no-1-chinese-restaurant-new-york?adjust_creative=gBcvfFpabk3CnzmXKdYe3w&utm_campaign=yelp_api_v3&utm_medium=api_v3_business_search&utm_source=gBcvfFpabk3CnzmXKdYe3w"}, {"transactions": ["delivery", "pickup"], "distance": 3166.6920415739996, "phone": "+12122288288", "categories": [{"alias": "chinese", "title": "Chinese"}], "id": "red-house-new-york", "display_phone": "(212) 228-8288", "is_closed": false, "location": {"address2": "", "country": "US", "display_address": ["203 E 14th St", "New York, NY 10003"], "address1": "203 E 14th St", "city": "New York", "zip_code": "10003", "address3": "", "state": "NY"}, "coordinates": {"longitude": -73.9865036010742, "latitude": 40.7333221435547}, "review_count": 72, "image_url": "https://s3-media3.fl.yelpcdn.com/bphoto/-7K1VAjCjyk6R_cdnsnqOA/o.jpg", "price": "$", "rating": 2.5, "name": "Red House", "url": "https://www.yelp.com/biz/red-house-new-york?adjust_creative=gBcvfFpabk3CnzmXKdYe3w&utm_campaign=yelp_api_v3&utm_medium=api_v3_business_search&utm_source=gBcvfFpabk3CnzmXKdYe3w"}, {"transactions": [], "distance": 8297.665951355999, "phone": "+17188331688", "categories": [{"alias": "dimsum", "title": "Dim Sum"}, {"alias": "cantonese", "title": "Cantonese"}, {"alias": "weddingchappels", "title": "Wedding Chapels"}], "id": "park-asia-brooklyn", "display_phone": "(718) 833-1688", "is_closed": false, "location": {"address2": "", "country": "US", "display_address": ["6521 8th Ave", "Brooklyn, NY 11220"], "address1": "6521 8th Ave", "city": "Brooklyn", "zip_code": "11220", "address3": "", "state": "NY"}, "coordinates": {"longitude": -74.0128705497028, "latitude": 40.6321623490724}, "review_count": 181, "image_url": "https://s3-media3.fl.yelpcdn.com/bphoto/9s2c9r4H2z8OLljnoCu-Ug/o.jpg", "price": "$$", "rating": 3.5, "name": "Park Asia", "url": "https://www.yelp.com/biz/park-asia-brooklyn?adjust_creative=gBcvfFpabk3CnzmXKdYe3w&utm_campaign=yelp_api_v3&utm_medium=api_v3_business_search&utm_source=gBcvfFpabk3CnzmXKdYe3w"}, {"transactions": [], "distance": 8236.14989546, "phone": "+17183420808", "categories": [{"alias": "chinese", "title": "Chinese"}], "id": "hardee-brooklyn-2", "display_phone": "(718) 342-0808", "is_closed": false, "location": {"address2": "", "country": "US", "display_address": ["771 Saragota Ave", "Brooklyn, NY 11212"], "address1": "771 Saragota Ave", "city": "Brooklyn", "zip_code": "11212", "address3": "", "state": "NY"}, "coordinates": {"longitude": -73.9198399, "latitude": 40.6616}, "review_count": 3, "image_url": "https://s3-media3.fl.yelpcdn.com/bphoto/wZskiB6nu0QqwzJA6kB6-Q/o.jpg", "price": "$$", "rating": 4.5, "name": "Hardee", "url": "https://www.yelp.com/biz/hardee-brooklyn-2?adjust_creative=gBcvfFpabk3CnzmXKdYe3w&utm_campaign=yelp_api_v3&utm_medium=api_v3_business_search&utm_source=gBcvfFpabk3CnzmXKdYe3w"}, {"transactions": ["delivery", "pickup"], "distance": 10324.668788317998, "phone": "+17188373311", "categories": [{"alias": "chinese", "title": "Chinese"}], "id": "great-wall-restaurant-brooklyn", "display_phone": "(718) 837-3311", "is_closed": false, "location": {"address2": "", "country": "US", "display_address": ["7614 18th Ave", "Brooklyn, NY 11214"], "address1": "7614 18th Ave", "city": "Brooklyn", "zip_code": "11214", "address3": "", "state": "NY"}, "coordinates": {"longitude": -73.9971466064453, "latitude": 40.6126251220703}, "review_count": 10, "image_url": "https://s3-media1.fl.yelpcdn.com/bphoto/cb7Sbzxp4oDBk7Ds52-byA/o.jpg", "price": "$", "rating": 4.0, "name": "Great Wall Restaurant", "url": "https://www.yelp.com/biz/great-wall-restaurant-brooklyn?adjust_creative=gBcvfFpabk3CnzmXKdYe3w&utm_campaign=yelp_api_v3&utm_medium=api_v3_business_search&utm_source=gBcvfFpabk3CnzmXKdYe3w"}, {"transactions": ["delivery", "pickup"], "distance": 11024.478378202, "phone": "+17186519110", "categories": [{"alias": "chinese", "title": "Chinese"}], "id": "new-sing-sheng-kitchen-new-york", "display_phone": "(718) 651-9110", "is_closed": false, "location": {"address2": "", "country": "US", "display_address": ["89-05-07 37th Ave", "New York, NY 11372"], "address1": "89-05-07 37th Ave", "city": "New York", "zip_code": "11372", "address3": "", "state": "NY"}, "coordinates": {"longitude": -73.8829650878906, "latitude": 40.7517242431641}, "review_count": 7, "image_url": "https://s3-media4.fl.yelpcdn.com/bphoto/w6O1KliDbZnYMGi0aCunAQ/o.jpg", "price": "$", "rating": 3.5, "name": "New Sing Sheng Kitchen", "url": "https://www.yelp.com/biz/new-sing-sheng-kitchen-new-york?adjust_creative=gBcvfFpabk3CnzmXKdYe3w&utm_campaign=yelp_api_v3&utm_medium=api_v3_business_search&utm_source=gBcvfFpabk3CnzmXKdYe3w"}, {"transactions": [], "distance": 15590.043509519997, "phone": "+17188868528", "categories": [{"alias": "chinese", "title": "Chinese"}], "id": "new-sihaiju-a-chinese-restaurant-flushing", "display_phone": "(718) 886-8528", "is_closed": false, "location": {"address2": "", "country": "US", "display_address": ["5906 Kissena Blvd", "Flushing, NY 11355"], "address1": "5906 Kissena Blvd", "city": "Flushing", "zip_code": "11355", "address3": "", "state": "NY"}, "coordinates": {"longitude": -73.8151518512656, "latitude": 40.7404502286817}, "review_count": 15, "image_url": "https://s3-media1.fl.yelpcdn.com/bphoto/J0yQ_ZMKZ3pAhPmURM89sw/o.jpg", "price": "$$", "rating": 4.0, "name": "NEW SIHAIJU - A+ Chinese Restaurant", "url": "https://www.yelp.com/biz/new-sihaiju-a-chinese-restaurant-flushing?adjust_creative=gBcvfFpabk3CnzmXKdYe3w&utm_campaign=yelp_api_v3&utm_medium=api_v3_business_search&utm_source=gBcvfFpabk3CnzmXKdYe3w"}, {"transactions": [], "distance": 946.7650659599999, "phone": "+12129410911", "categories": [{"alias": "dimsum", "title": "Dim Sum"}, {"alias": "cantonese", "title": "Cantonese"}], "id": "golden-unicorn-new-york", "display_phone": "(212) 941-0911", "is_closed": false, "location": {"address2": "", "country": "US", "display_address": ["18 E Broadway", "New York, NY 10002"], "address1": "18 E Broadway", "city": "New York", "zip_code": "10002", "address3": "", "state": "NY"}, "coordinates": {"longitude": -73.997163364418, "latitude": 40.7136770496642}, "review_count": 1275, "image_url": "https://s3-media1.fl.yelpcdn.com/bphoto/Q-X8qFFToC0jbPr5R5j6ow/o.jpg", "price": "$$", "rating": 3.5, "name": "Golden Unicorn", "url": "https://www.yelp.com/biz/golden-unicorn-new-york?adjust_creative=gBcvfFpabk3CnzmXKdYe3w&utm_campaign=yelp_api_v3&utm_medium=api_v3_business_search&utm_source=gBcvfFpabk3CnzmXKdYe3w"}, {"transactions": [], "distance": 6366.839204002, "phone": "+12127533900", "categories": [{"alias": "chinese", "title": "Chinese"}], "id": "our-place-tea-garden-new-york", "display_phone": "(212) 753-3900", "is_closed": false, "location": {"address2": "", "country": "US", "display_address": ["141 E 55th St", "New York, NY 10022"], "address1": "141 E 55th St", "city": "New York", "zip_code": "10022", "address3": "", "state": "NY"}, "coordinates": {"longitude": -73.96942, "latitude": 40.75947}, "review_count": 34, "image_url": "https://s3-media3.fl.yelpcdn.com/bphoto/_Oo-EQkNbZbDpkPR4evbRg/o.jpg", "price": "$$", "rating": 3.5, "name": "Our Place Tea Garden", "url": "https://www.yelp.com/biz/our-place-tea-garden-new-york?adjust_creative=gBcvfFpabk3CnzmXKdYe3w&utm_campaign=yelp_api_v3&utm_medium=api_v3_business_search&utm_source=gBcvfFpabk3CnzmXKdYe3w"}, {"transactions": [], "distance": 10815.563032639999, "phone": "+17182368883", "categories": [{"alias": "chinese", "title": "Chinese"}], "id": "farmers-restaurant-brooklyn", "display_phone": "(718) 236-8883", "is_closed": false, "location": {"address2": "", "country": "US", "display_address": ["1692 86th St", "Brooklyn, NY 11214"], "address1": "1692 86th St", "city": "Brooklyn", "zip_code": "11214", "address3": "", "state": "NY"}, "coordinates": {"longitude": -74.0053, "latitude": 40.60855}, "review_count": 17, "image_url": "https://s3-media3.fl.yelpcdn.com/bphoto/4JMkN4uuhb88SOVpqIXsQA/o.jpg", "price": "$$", "rating": 3.5, "name": "Farmers Restaurant", "url": "https://www.yelp.com/biz/farmers-restaurant-brooklyn?adjust_creative=gBcvfFpabk3CnzmXKdYe3w&utm_campaign=yelp_api_v3&utm_medium=api_v3_business_search&utm_source=gBcvfFpabk3CnzmXKdYe3w"}, {"transactions": [], "distance": 1697.450721264, "phone": "+12123431387", "categories": [{"alias": "taiwanese", "title": "Taiwanese"}, {"alias": "chinese", "title": "Chinese"}], "id": "mimi-chengs-nolita-new-york", "display_phone": "(212) 343-1387", "is_closed": false, "location": {"address2": "", "country": "US", "display_address": ["380 Broome St", "New York, NY 10013"], "address1": "380 Broome St", "city": "New York", "zip_code": "10013", "address3": null, "state": "NY"}, "coordinates": {"longitude": -73.99646, "latitude": 40.72048}, "review_count": 44, "image_url": "https://s3-media2.fl.yelpcdn.com/bphoto/JZ4BjJeQWCUE1_1L8pYnSg/o.jpg", "price": "$$", "rating": 3.5, "name": "Mimi Cheng's Nolita", "url": "https://www.yelp.com/biz/mimi-chengs-nolita-new-york?adjust_creative=gBcvfFpabk3CnzmXKdYe3w&utm_campaign=yelp_api_v3&utm_medium=api_v3_business_search&utm_source=gBcvfFpabk3CnzmXKdYe3w"}, {"transactions": [], "distance": 5090.578510177999, "phone": "+17184558622", "categories": [{"alias": "chinese", "title": "Chinese"}], "id": "xing-wang-brooklyn", "display_phone": "(718) 455-8622", "is_closed": false, "location": {"address2": "", "country": "US", "display_address": ["956 Broadway", "Brooklyn, NY 11206"], "address1": "956 Broadway", "city": "Brooklyn", "zip_code": "11206", "address3": "", "state": "NY"}, "coordinates": {"longitude": -73.9349976, "latitude": 40.6966667}, "review_count": 6, "image_url": "https://s3-media3.fl.yelpcdn.com/bphoto/Qxf3AYtOW0sDOeE9_h44wQ/o.jpg", "price": "$", "rating": 3.0, "name": "Xing Wang", "url": "https://www.yelp.com/biz/xing-wang-brooklyn?adjust_creative=gBcvfFpabk3CnzmXKdYe3w&utm_campaign=yelp_api_v3&utm_medium=api_v3_business_search&utm_source=gBcvfFpabk3CnzmXKdYe3w"}, {"transactions": [], "distance": 10461.995379857999, "phone": "+17186990688", "categories": [{"alias": "dimsum", "title": "Dim Sum"}, {"alias": "cantonese", "title": "Cantonese"}], "id": "new-broadway-seafood-restaurant-elmhurst", "display_phone": "(718) 699-0688", "is_closed": false, "location": {"address2": "", "country": "US", "display_address": ["83-17 Broadway", "Elmhurst, NY 11373"], "address1": "83-17 Broadway", "city": "Elmhurst", "zip_code": "11373", "address3": "", "state": "NY"}, "coordinates": {"longitude": -73.87931, "latitude": 40.74093}, "review_count": 79, "image_url": "https://s3-media2.fl.yelpcdn.com/bphoto/-AeeGTfKWre99jDTv0tTnQ/o.jpg", "price": "$$", "rating": 2.5, "name": "New Broadway Seafood Restaurant", "url": "https://www.yelp.com/biz/new-broadway-seafood-restaurant-elmhurst?adjust_creative=gBcvfFpabk3CnzmXKdYe3w&utm_campaign=yelp_api_v3&utm_medium=api_v3_business_search&utm_source=gBcvfFpabk3CnzmXKdYe3w"}, {"transactions": ["delivery", "pickup"], "distance": 3507.6733680840002, "phone": "+12123889989", "categories": [{"alias": "chinese", "title": "Chinese"}], "id": "18th-st-bamboo-garden-new-york", "display_phone": "(212) 388-9989", "is_closed": false, "location": {"address2": "", "country": "US", "display_address": ["216 3rd Ave", "New York, NY 10003"], "address1": "216 3rd Ave", "city": "New York", "zip_code": "10003", "address3": "", "state": "NY"}, "coordinates": {"longitude": -73.985344, "latitude": 40.736252}, "review_count": 7, "image_url": "", "price": "$", "rating": 3.5, "name": "18th St Bamboo Garden", "url": "https://www.yelp.com/biz/18th-st-bamboo-garden-new-york?adjust_creative=gBcvfFpabk3CnzmXKdYe3w&utm_campaign=yelp_api_v3&utm_medium=api_v3_business_search&utm_source=gBcvfFpabk3CnzmXKdYe3w"}, {"transactions": ["delivery", "pickup"], "distance": 6504.417979119999, "phone": "+17188516324", "categories": [{"alias": "chinese", "title": "Chinese"}], "id": "mr-tong-restaurant-brooklyn", "display_phone": "(718) 851-6324", "is_closed": false, "location": {"address2": "", "country": "US", "display_address": ["2926 Fort Hamilton Pkwy", "Brooklyn, NY 11218"], "address1": "2926 Fort Hamilton Pkwy", "city": "Brooklyn", "zip_code": "11218", "address3": "", "state": "NY"}, "coordinates": {"longitude": -73.978157043457, "latitude": 40.648250579834}, "review_count": 34, "image_url": "https://s3-media2.fl.yelpcdn.com/bphoto/ijjFK-EcnL2b9oW7GQg61g/o.jpg", "price": "$", "rating": 2.5, "name": "Mr Tong Restaurant", "url": "https://www.yelp.com/biz/mr-tong-restaurant-brooklyn?adjust_creative=gBcvfFpabk3CnzmXKdYe3w&utm_campaign=yelp_api_v3&utm_medium=api_v3_business_search&utm_source=gBcvfFpabk3CnzmXKdYe3w"}, {"transactions": [], "distance": 21436.23499128, "phone": "+17182397723", "categories": [{"alias": "chinese", "title": "Chinese"}], "id": "king-hing-restaurant-bronx", "display_phone": "(718) 239-7723", "is_closed": false, "location": {"address2": "", "country": "US", "display_address": ["3227 Westchester Ave", "Bronx, NY 10461"], "address1": "3227 Westchester Ave", "city": "Bronx", "zip_code": "10461", "address3": "", "state": "NY"}, "coordinates": {"longitude": -73.8290751725435, "latitude": 40.852081105113}, "review_count": 6, "image_url": "https://s3-media4.fl.yelpcdn.com/bphoto/fOUtzsxz3Z1sVI5ycBtodA/o.jpg", "rating": 4.0, "name": "King Hing Restaurant", "url": "https://www.yelp.com/biz/king-hing-restaurant-bronx?adjust_creative=gBcvfFpabk3CnzmXKdYe3w&utm_campaign=yelp_api_v3&utm_medium=api_v3_business_search&utm_source=gBcvfFpabk3CnzmXKdYe3w"}, {"transactions": [], "distance": 5871.708854932, "phone": "+14844697646", "categories": [{"alias": "shanghainese", "title": "Shanghainese"}, {"alias": "foodtrucks", "title": "Food Trucks"}], "id": "shanghai-sogo-new-york", "display_phone": "(484) 469-7646", "is_closed": false, "location": {"address2": "", "country": "US", "display_address": ["36 W 47th St", "New York, NY 10036"], "address1": "36 W 47th St", "city": "New York", "zip_code": "10036", "address3": "", "state": "NY"}, "coordinates": {"longitude": -73.980431, "latitude": 40.757195}, "review_count": 11, "image_url": "https://s3-media1.fl.yelpcdn.com/bphoto/8BCObo4yLTWdKpQP40DnCA/o.jpg", "price": "$$", "rating": 3.5, "name": "Shanghai Sogo", "url": "https://www.yelp.com/biz/shanghai-sogo-new-york?adjust_creative=gBcvfFpabk3CnzmXKdYe3w&utm_campaign=yelp_api_v3&utm_medium=api_v3_business_search&utm_source=gBcvfFpabk3CnzmXKdYe3w"}, {"transactions": [], "distance": 11493.867655839998, "phone": "+17184786433", "categories": [{"alias": "chinese", "title": "Chinese"}], "id": "great-wall-chinese-restaurant-east-elmhurst", "display_phone": "(718) 478-6433", "is_closed": false, "location": {"address2": "", "country": "US", "display_address": ["87-12 Astoria Blvd", "East Elmhurst, NY 11369"], "address1": "87-12 Astoria Blvd", "city": "East Elmhurst", "zip_code": "11369", "address3": "", "state": "NY"}, "coordinates": {"longitude": -73.8816184, "latitude": 40.7638765}, "review_count": 11, "image_url": "https://s3-media2.fl.yelpcdn.com/bphoto/hLsybCxlhBjBOuwNwqg4EQ/o.jpg", "price": "$", "rating": 3.5, "name": "Great Wall Chinese Restaurant", "url": "https://www.yelp.com/biz/great-wall-chinese-restaurant-east-elmhurst?adjust_creative=gBcvfFpabk3CnzmXKdYe3w&utm_campaign=yelp_api_v3&utm_medium=api_v3_business_search&utm_source=gBcvfFpabk3CnzmXKdYe3w"}, {"transactions": [], "distance": 9993.321614784, "phone": "+12128651810", "categories": [{"alias": "chinese", "title": "Chinese"}], "id": "la-nueva-victoria-new-york", "display_phone": "(212) 865-1810", "is_closed": false, "location": {"address2": "", "country": "US", "display_address": ["2536 Broadway", "New York, NY 10025"], "address1": "2536 Broadway", "city": "New York", "zip_code": "10025", "address3": "", "state": "NY"}, "coordinates": {"longitude": -73.971954, "latitude": 40.79372}, "review_count": 54, "image_url": "https://s3-media2.fl.yelpcdn.com/bphoto/6HG-qjAJbyOCgEQk_zeCcA/o.jpg", "price": "$$", "rating": 3.0, "name": "La Nueva Victoria", "url": "https://www.yelp.com/biz/la-nueva-victoria-new-york?adjust_creative=gBcvfFpabk3CnzmXKdYe3w&utm_campaign=yelp_api_v3&utm_medium=api_v3_business_search&utm_source=gBcvfFpabk3CnzmXKdYe3w"}, {"transactions": ["delivery", "pickup"], "distance": 13832.333626899997, "phone": "+17188492288", "categories": [{"alias": "chinese", "title": "Chinese"}], "id": "taystee-garden-kew-gardens", "display_phone": "(718) 849-2288", "is_closed": false, "location": {"address2": "", "country": "US", "display_address": ["8118 Lefferts Blvd", "Kew Gardens, NY 11415"], "address1": "8118 Lefferts Blvd", "city": "Kew Gardens", "zip_code": "11415", "address3": "", "state": "NY"}, "coordinates": {"longitude": -73.830260407132, "latitude": 40.7090612641372}, "review_count": 24, "image_url": "https://s3-media2.fl.yelpcdn.com/bphoto/L7noCy9fBPeStsyiTSni_w/o.jpg", "price": "$", "rating": 3.0, "name": "Taystee Garden", "url": "https://www.yelp.com/biz/taystee-garden-kew-gardens?adjust_creative=gBcvfFpabk3CnzmXKdYe3w&utm_campaign=yelp_api_v3&utm_medium=api_v3_business_search&utm_source=gBcvfFpabk3CnzmXKdYe3w"}, {"transactions": ["delivery", "pickup"], "distance": 14904.318219579998, "phone": "+17183280737", "categories": [{"alias": "chinese", "title": "Chinese"}], "id": "fuxing-chinese-restaurant-bronx-2", "display_phone": "(718) 328-0737", "is_closed": false, "location": {"address2": null, "country": "US", "display_address": ["807 Southern Blvd", "Bronx, NY 10459"], "address1": "807 Southern Blvd", "city": "Bronx", "zip_code": "10459", "address3": null, "state": "NY"}, "coordinates": {"longitude": -73.896102, "latitude": 40.816902}, "review_count": 5, "image_url": "https://s3-media3.fl.yelpcdn.com/bphoto/PukYnYr5Qq4szKz5HcPy4g/o.jpg", "price": "$", "rating": 4.0, "name": "Fuxing Chinese Restaurant", "url": "https://www.yelp.com/biz/fuxing-chinese-restaurant-bronx-2?adjust_creative=gBcvfFpabk3CnzmXKdYe3w&utm_campaign=yelp_api_v3&utm_medium=api_v3_business_search&utm_source=gBcvfFpabk3CnzmXKdYe3w"}, {"transactions": [], "distance": 15622.064547499998, "phone": "+17185399898", "categories": [{"alias": "bbq", "title": "Barbeque"}, {"alias": "chinese", "title": "Chinese"}, {"alias": "kebab", "title": "Kebab"}], "id": "liu-bu-\u4f19\u4f34\u70e7\u70e4-flushing", "display_phone": "(718) 539-9898", "is_closed": false, "location": {"address2": "", "country": "US", "display_address": ["140-8 Holly Ave", "Flushing, NY 11355"], "address1": "140-8 Holly Ave", "city": "Flushing", "zip_code": "11355", "address3": null, "state": "NY"}, "coordinates": {"longitude": -73.8188219, "latitude": 40.7507936}, "review_count": 6, "image_url": "https://s3-media3.fl.yelpcdn.com/bphoto/pxEfhpn9tpegpV4NcFp6oQ/o.jpg", "price": "$", "rating": 4.0, "name": "Liu Bu \u4f19\u4f34\u70e7\u70e4", "url": "https://www.yelp.com/biz/liu-bu-%E4%BC%99%E4%BC%B4%E7%83%A7%E7%83%A4-flushing?adjust_creative=gBcvfFpabk3CnzmXKdYe3w&utm_campaign=yelp_api_v3&utm_medium=api_v3_business_search&utm_source=gBcvfFpabk3CnzmXKdYe3w"}, {"transactions": [], "distance": 15738.489031119998, "phone": "+17189920404", "categories": [{"alias": "chinese", "title": "Chinese"}, {"alias": "cuban", "title": "Cuban"}], "id": "la-nueva-win-hing-restaurant-bronx", "display_phone": "(718) 992-0404", "is_closed": false, "location": {"address2": "", "country": "US", "display_address": ["40 E 167th St", "Bronx, NY 10452"], "address1": "40 E 167th St", "city": "Bronx", "zip_code": "10452", "address3": "", "state": "NY"}, "coordinates": {"longitude": -73.9211578369141, "latitude": 40.8354377746582}, "review_count": 13, "image_url": "https://s3-media1.fl.yelpcdn.com/bphoto/U8_hH00aRpFn4NO-RB3MvA/o.jpg", "price": "$$", "rating": 3.5, "name": "La Nueva Win Hing Restaurant", "url": "https://www.yelp.com/biz/la-nueva-win-hing-restaurant-bronx?adjust_creative=gBcvfFpabk3CnzmXKdYe3w&utm_campaign=yelp_api_v3&utm_medium=api_v3_business_search&utm_source=gBcvfFpabk3CnzmXKdYe3w"}, {"transactions": ["delivery", "pickup"], "distance": 6423.4501525119995, "phone": "+12122264565", "categories": [{"alias": "chinese", "title": "Chinese"}, {"alias": "indpak", "title": "Indian"}, {"alias": "asianfusion", "title": "Asian Fusion"}], "id": "nanjing-new-york", "display_phone": "(212) 226-4565", "is_closed": false, "location": {"address2": null, "country": "US", "display_address": ["241 W 51st", "New York, NY 10019"], "address1": "241 W 51st", "city": "New York", "zip_code": "10019", "address3": "", "state": "NY"}, "coordinates": {"longitude": -73.9847093, "latitude": 40.7626659}, "review_count": 16, "image_url": "https://s3-media4.fl.yelpcdn.com/bphoto/ueSBUs0Wd0a8BqACH0AbIQ/o.jpg", "price": "$$", "rating": 3.5, "name": "nanjing", "url": "https://www.yelp.com/biz/nanjing-new-york?adjust_creative=gBcvfFpabk3CnzmXKdYe3w&utm_campaign=yelp_api_v3&utm_medium=api_v3_business_search&utm_source=gBcvfFpabk3CnzmXKdYe3w"}, {"transactions": [], "distance": 5662.39197904, "phone": "+17184678888", "categories": [{"alias": "chinese", "title": "Chinese"}], "id": "leon-kitchen-brooklyn", "display_phone": "(718) 467-8888", "is_closed": false, "location": {"address2": "", "country": "US", "display_address": ["1610 Fulton St", "Brooklyn, NY 11213"], "address1": "1610 Fulton St", "city": "Brooklyn", "zip_code": "11213", "address3": "", "state": "NY"}, "coordinates": {"longitude": -73.93648, "latitude": 40.67954}, "review_count": 2, "image_url": "", "rating": 4.0, "name": "Leon Kitchen", "url": "https://www.yelp.com/biz/leon-kitchen-brooklyn?adjust_creative=gBcvfFpabk3CnzmXKdYe3w&utm_campaign=yelp_api_v3&utm_medium=api_v3_business_search&utm_source=gBcvfFpabk3CnzmXKdYe3w"}, {"transactions": [], "distance": 4749.017982202, "phone": "+12127360029", "categories": [{"alias": "chinese", "title": "Chinese"}], "id": "son-ja-jang-new-york", "display_phone": "(212) 736-0029", "is_closed": false, "location": {"address2": null, "country": "US", "display_address": ["34 W 32nd St", "New York, NY 10001"], "address1": "34 W 32nd St", "city": "New York", "zip_code": "10001", "address3": "", "state": "NY"}, "coordinates": {"longitude": -73.987358, "latitude": 40.747684}, "review_count": 25, "image_url": "https://s3-media1.fl.yelpcdn.com/bphoto/g6bQcuV_QNvV-TxyXUT7yg/o.jpg", "price": "$$", "rating": 3.0, "name": "Son Ja Jang", "url": "https://www.yelp.com/biz/son-ja-jang-new-york?adjust_creative=gBcvfFpabk3CnzmXKdYe3w&utm_campaign=yelp_api_v3&utm_medium=api_v3_business_search&utm_source=gBcvfFpabk3CnzmXKdYe3w"}, {"transactions": ["delivery", "pickup"], "distance": 10434.042270596, "phone": "+17184899917", "categories": [{"alias": "chinese", "title": "Chinese"}, {"alias": "asianfusion", "title": "Asian Fusion"}, {"alias": "noodles", "title": "Noodles"}], "id": "lava-kitchen-new-york", "display_phone": "(718) 489-9917", "is_closed": false, "location": {"address2": null, "country": "US", "display_address": ["2656 Broadway", "New York, NY 10025"], "address1": "2656 Broadway", "city": "New York", "zip_code": "10025", "address3": "", "state": "NY"}, "coordinates": {"longitude": -73.9692374467538, "latitude": 40.7973398628539}, "review_count": 31, "image_url": "https://s3-media3.fl.yelpcdn.com/bphoto/bNRBqKtRXREQtjfO-00w_g/o.jpg", "price": "$$", "rating": 3.5, "name": "Lava Kitchen", "url": "https://www.yelp.com/biz/lava-kitchen-new-york?adjust_creative=gBcvfFpabk3CnzmXKdYe3w&utm_campaign=yelp_api_v3&utm_medium=api_v3_business_search&utm_source=gBcvfFpabk3CnzmXKdYe3w"}]}