{"region": {"center": {"longitude": -73.99429321289062, "latitude": 40.70544486444615}}, "total": 2613, "businesses": [{"transactions": [], "distance": 4300.07279432, "phone": "+17187826915", "categories": [{"alias": "chinese", "title": "Chinese"}], "id": "new-fun-sing-brooklyn-2", "display_phone": "(718) 782-6915", "is_closed": false, "location": {"address2": "", "country": "US", "display_address": ["689 Broadway", "Brooklyn, NY 11206"], "address1": "689 Broadway", "city": "Brooklyn", "zip_code": "11206", "address3": "", "state": "NY"}, "coordinates": {"longitude": -73.943489, "latitude": 40.701915}, "review_count": 7, "image_url": "https://s3-media1.fl.yelpcdn.com/bphoto/4k9ZVqam9XrCj_2zfDUUpQ/o.jpg", "price": "$", "rating": 3.5, "name": "New Fun Sing", "url": "https://www.yelp.com/biz/new-fun-sing-brooklyn-2?adjust_creative=gBcvfFpabk3CnzmXKdYe3w&utm_campaign=yelp_api_v3&utm_medium=api_v3_business_search&utm_source=gBcvfFpabk3CnzmXKdYe3w"}, {"transactions": [], "distance": 1342.284671994, "phone": "+12129658645", "categories": [{"alias": "chinese", "title": "Chinese"}, {"alias": "japanese", "title": "Japanese"}], "id": "xo-kitchen-new-york", "display_phone": "(212) 965-8645", "is_closed": false, "location": {"address2": null, "country": "US", "display_address": ["148 Hester St", "New York, NY 10013"], "address1": "148 Hester St", "city": "New York", "zip_code": "10013", "address3": "", "state": "NY"}, "coordinates": {"longitude": -73.9960413426161, "latitude": 40.7174496352673}, "review_count": 400, "image_url": "https://s3-media1.fl.yelpcdn.com/bphoto/_wyCMoUTNB-LhUdS8_1FBA/o.jpg", "price": "$", "rating": 3.5, "name": "XO Kitchen", "url": "https://www.yelp.com/biz/xo-kitchen-new-york?adjust_creative=gBcvfFpabk3CnzmXKdYe3w&utm_campaign=yelp_api_v3&utm_medium=api_v3_business_search&utm_source=gBcvfFpabk3CnzmXKdYe3w"}, {"transactions": [], "distance": 13425.070827819998, "phone": "+17184415946", "categories": [{"alias": "chinese", "title": "Chinese"}], "id": "jumbo-chinese-kitchen-new-york", "display_phone": "(718) 441-5946", "is_closed": false, "location": {"address2": "", "country": "US", "display_address": ["113-04 Jamaica Ave", "New York, NY 11418"], "address1": "113-04 Jamaica Ave", "city": "New York", "zip_code": "11418", "address3": "", "state": "NY"}, "coordinates": {"longitude": -73.8353577, "latitude": 40.6976891}, "review_count": 20, "image_url": "https://s3-media3.fl.yelpcdn.com/bphoto/1QmqJnr69BN_GLtf9RP5sQ/o.jpg", "price": "$", "rating": 4.0, "name": "Jumbo Chinese Kitchen", "url": "https://www.yelp.com/biz/jumbo-chinese-kitchen-new-york?adjust_creative=gBcvfFpabk3CnzmXKdYe3w&utm_campaign=yelp_api_v3&utm_medium=api_v3_business_search&utm_source=gBcvfFpabk3CnzmXKdYe3w"}, {"transactions": [], "distance": 1040.764684152, "phone": "+12129651206", "categories": [{"alias": "chinese", "title": "Chinese"}, {"alias": "bbq", "title": "Barbeque"}], "id": "ling-kee-beef-jerky-new-york", "display_phone": "(212) 965-1206", "is_closed": false, "location": {"address2": "", "country": "US", "display_address": ["42 Canal St", "New York, NY 10002"], "address1": "42 Canal St", "city": "New York", "zip_code": "10002", "address3": "", "state": "NY"}, "coordinates": {"longitude": -73.99148, "latitude": 40.71466}, "review_count": 114, "image_url": "https://s3-media4.fl.yelpcdn.com/bphoto/lbY5-3K28GGYTc8LgyY7cA/o.jpg", "price": "$", "rating": 4.5, "name": "Ling Kee Beef Jerky", "url": "https://www.yelp.com/biz/ling-kee-beef-jerky-new-york?adjust_creative=gBcvfFpabk3CnzmXKdYe3w&utm_campaign=yelp_api_v3&utm_medium=api_v3_business_search&utm_source=gBcvfFpabk3CnzmXKdYe3w"}, {"transactions": [], "distance": 2763.921876038, "phone": "+17187896296", "categories": [{"alias": "chinese", "title": "Chinese"}, {"alias": "asianfusion", "title": "Asian Fusion"}], "id": "grace-kitchen-brooklyn-2", "display_phone": "(718) 789-6296", "is_closed": false, "location": {"address2": "", "country": "US", "display_address": ["484 Myrtle Ave", "Brooklyn, NY 11205"], "address1": "484 Myrtle Ave", "city": "Brooklyn", "zip_code": "11205", "address3": "", "state": "NY"}, "coordinates": {"longitude": -73.96569, "latitude": 40.6933}, "review_count": 22, "image_url": "https://s3-media1.fl.yelpcdn.com/bphoto/c-duDLv2F7HPnIPeYjV-gQ/o.jpg", "price": "$", "rating": 3.0, "name": "Grace Kitchen", "url": "https://www.yelp.com/biz/grace-kitchen-brooklyn-2?adjust_creative=gBcvfFpabk3CnzmXKdYe3w&utm_campaign=yelp_api_v3&utm_medium=api_v3_business_search&utm_source=gBcvfFpabk3CnzmXKdYe3w"}, {"transactions": [], "distance": 966.3417858296, "phone": "+12122338808", "categories": [{"alias": "asianfusion", "title": "Asian Fusion"}, {"alias": "chinese", "title": "Chinese"}], "id": "mooncake-foods-new-york-3", "display_phone": "(212) 233-8808", "is_closed": false, "location": {"address2": null, "country": "US", "display_address": ["111 John St Pearl Street Entrance", "New York, NY 10038"], "address1": "111 John St Pearl Street Entrance", "city": "New York", "zip_code": "10038", "address3": "", "state": "NY"}, "coordinates": {"longitude": -74.0054228294016, "latitude": 40.7075235964079}, "review_count": 72, "image_url": "https://s3-media4.fl.yelpcdn.com/bphoto/Ld2JS8dblNJP3Rzuod3A6Q/o.jpg", "price": "$$", "rating": 3.5, "name": "Mooncake Foods", "url": "https://www.yelp.com/biz/mooncake-foods-new-york-3?adjust_creative=gBcvfFpabk3CnzmXKdYe3w&utm_campaign=yelp_api_v3&utm_medium=api_v3_business_search&utm_source=gBcvfFpabk3CnzmXKdYe3w"}, {"transactions": ["delivery", "pickup"], "distance": 6671.77485506, "phone": "+17184369748", "categories": [{"alias": "chinese", "title": "Chinese"}, {"alias": "thai", "title": "Thai"}], "id": "624-kam-hai-chinese-brooklyn", "display_phone": "(718) 436-9748", "is_closed": false, "location": {"address2": "", "country": "US", "display_address": ["624 Caton Ave", "Brooklyn, NY 11218"], "address1": "624 Caton Ave", "city": "Brooklyn", "zip_code": "11218", "address3": "", "state": "NY"}, "coordinates": {"longitude": -73.97378, "latitude": 40.64753}, "review_count": 25, "image_url": "https://s3-media3.fl.yelpcdn.com/bphoto/ZMklyt66Gdch-xvh0YF08A/o.jpg", "price": "$", "rating": 2.5, "name": "624 Kam Hai Chinese", "url": "https://www.yelp.com/biz/624-kam-hai-chinese-brooklyn?adjust_creative=gBcvfFpabk3CnzmXKdYe3w&utm_campaign=yelp_api_v3&utm_medium=api_v3_business_search&utm_source=gBcvfFpabk3CnzmXKdYe3w"}, {"transactions": [], "distance": 12991.50014776, "phone": "+17187387377", "categories": [{"alias": "chinese", "title": "Chinese"}], "id": "jing-wah-chinese-resturant-ozone-park", "display_phone": "(718) 738-7377", "is_closed": false, "location": {"address2": "", "country": "US", "display_address": ["8720 Liberty Ave", "Ozone Park, NY 11417"], "address1": "8720 Liberty Ave", "city": "Ozone Park", "zip_code": "11417", "address3": "", "state": "NY"}, "coordinates": {"longitude": -73.8507, "latitude": 40.67969}, "review_count": 9, "image_url": "https://s3-media2.fl.yelpcdn.com/bphoto/dn3k4955Hq2_NlWfTBU5dQ/o.jpg", "price": "$", "rating": 4.0, "name": "Jing Wah Chinese Resturant", "url": "https://www.yelp.com/biz/jing-wah-chinese-resturant-ozone-park?adjust_creative=gBcvfFpabk3CnzmXKdYe3w&utm_campaign=yelp_api_v3&utm_medium=api_v3_business_search&utm_source=gBcvfFpabk3CnzmXKdYe3w"}, {"transactions": ["delivery", "pickup"], "distance": 2788.169319016, "phone": "+17188755362", "categories": [{"alias": "chinese", "title": "Chinese"}], "id": "hua-long-chinese-restaurant-brooklyn", "display_phone": "(718) 875-5362", "is_closed": false, "location": {"address2": "", "country": "US", "display_address": ["706 Fulton St", "Brooklyn, NY 11217"], "address1": "706 Fulton St", "city": "Brooklyn", "zip_code": "11217", "address3": "", "state": "NY"}, "coordinates": {"longitude": -73.9737319946289, "latitude": 40.6857872009277}, "review_count": 11, "image_url": "https://s3-media2.fl.yelpcdn.com/bphoto/W4Phjc4e7HBTKP-DQnp32A/o.jpg", "price": "$", "rating": 3.5, "name": "Hua Long Chinese Restaurant", "url": "https://www.yelp.com/biz/hua-long-chinese-restaurant-brooklyn?adjust_creative=gBcvfFpabk3CnzmXKdYe3w&utm_campaign=yelp_api_v3&utm_medium=api_v3_business_search&utm_source=gBcvfFpabk3CnzmXKdYe3w"}, {"transactions": ["delivery", "pickup"], "distance": 5059.604026, "phone": "+12129222888", "categories": [{"alias": "chinese", "title": "Chinese"}], "id": "new-mings-delight-new-york", "display_phone": "(212) 922-2888", "is_closed": false, "location": {"address2": "", "country": "US", "display_address": ["594 3rd Ave", "New York, NY 10016"], "address1": "594 3rd Ave", "city": "New York", "zip_code": "10016", "address3": "", "state": "NY"}, "coordinates": {"longitude": -73.976203918457, "latitude": 40.7488403320312}, "review_count": 41, "image_url": "https://s3-media1.fl.yelpcdn.com/bphoto/rDbXH3d6qYwM36uO9OGvbA/o.jpg", "price": "$", "rating": 3.0, "name": "New Ming's Delight", "url": "https://www.yelp.com/biz/new-mings-delight-new-york?adjust_creative=gBcvfFpabk3CnzmXKdYe3w&utm_campaign=yelp_api_v3&utm_medium=api_v3_business_search&utm_source=gBcvfFpabk3CnzmXKdYe3w"}, {"transactions": [], "distance": 7384.65695283, "phone": "+12122881323", "categories": [{"alias": "chinese", "title": "Chinese"}, {"alias": "hotdogs", "title": "Fast Food"}], "id": "panda-express-new-york-2", "display_phone": "(212) 288-1323", "is_closed": false, "location": {"address2": "", "country": "US", "display_address": ["1277 1st Ave", "New York, NY 10021"], "address1": "1277 1st Ave", "city": "New York", "zip_code": "10021", "address3": "", "state": "NY"}, "coordinates": {"longitude": -73.9577729254961, "latitude": 40.7658172332478}, "review_count": 55, "image_url": "https://s3-media2.fl.yelpcdn.com/bphoto/yWFi7rFw5R_m3dCq4JqogQ/o.jpg", "price": "$", "rating": 3.0, "name": "Panda Express", "url": "https://www.yelp.com/biz/panda-express-new-york-2?adjust_creative=gBcvfFpabk3CnzmXKdYe3w&utm_campaign=yelp_api_v3&utm_medium=api_v3_business_search&utm_source=gBcvfFpabk3CnzmXKdYe3w"}, {"transactions": ["delivery", "pickup"], "distance": 7332.701824939999, "phone": "+17189193888", "categories": [{"alias": "chinese", "title": "Chinese"}], "id": "beijing-house-brooklyn", "display_phone": "(718) 919-3888", "is_closed": false, "location": {"address2": "", "country": "US", "display_address": ["553 Wilson Ave", "Brooklyn, NY 11207"], "address1": "553 Wilson Ave", "city": "Brooklyn", "zip_code": "11207", "address3": "", "state": "NY"}, "coordinates": {"longitude": -73.909248, "latitude": 40.691612}, "review_count": 29, "image_url": "https://s3-media1.fl.yelpcdn.com/bphoto/QvvpQM_8V5qcpBN1SsuU0A/o.jpg", "price": "$$", "rating": 3.0, "name": "Beijing House", "url": "https://www.yelp.com/biz/beijing-house-brooklyn?adjust_creative=gBcvfFpabk3CnzmXKdYe3w&utm_campaign=yelp_api_v3&utm_medium=api_v3_business_search&utm_source=gBcvfFpabk3CnzmXKdYe3w"}, {"transactions": [], "distance": 5603.891987237999, "phone": "+17184998235", "categories": [{"alias": "chinese", "title": "Chinese"}], "id": "li-hing-new-york", "display_phone": "(718) 499-8235", "is_closed": false, "location": {"address2": "", "country": "US", "display_address": ["181 34th St", "New York, NY 11232"], "address1": "181 34th St", "city": "New York", "zip_code": "11232", "address3": "", "state": "NY"}, "coordinates": {"longitude": -74.0033898, "latitude": 40.6555216}, "review_count": 5, "image_url": "https://s3-media3.fl.yelpcdn.com/bphoto/cHVtn9O3F-qUomXhzUAmYQ/o.jpg", "price": "$$", "rating": 4.0, "name": "Li Hing", "url": "https://www.yelp.com/biz/li-hing-new-york?adjust_creative=gBcvfFpabk3CnzmXKdYe3w&utm_campaign=yelp_api_v3&utm_medium=api_v3_business_search&utm_source=gBcvfFpabk3CnzmXKdYe3w"}, {"transactions": [], "distance": 2128.36341538, "phone": "+12124208799", "categories": [{"alias": "chinese", "title": "Chinese"}], "id": "new-chinatown-restaurant-of-new-york-new-york", "display_phone": "(212) 420-8799", "is_closed": false, "location": {"address2": "", "country": "US", "display_address": ["11 Avenue D", "New York, NY 10009"], "address1": "11 Avenue D", "city": "New York", "zip_code": "10009", "address3": "", "state": "NY"}, "coordinates": {"longitude": -73.978652, "latitude": 40.720527}, "review_count": 9, "image_url": "", "price": "$", "rating": 4.0, "name": "New Chinatown Restaurant of New York", "url": "https://www.yelp.com/biz/new-chinatown-restaurant-of-new-york-new-york?adjust_creative=gBcvfFpabk3CnzmXKdYe3w&utm_campaign=yelp_api_v3&utm_medium=api_v3_business_search&utm_source=gBcvfFpabk3CnzmXKdYe3w"}, {"transactions": ["delivery", "pickup"], "distance": 16875.44589828, "phone": "+12127403188", "categories": [{"alias": "chinese", "title": "Chinese"}], "id": "no-1-chinese-restaurant-new-york-2", "display_phone": "(212) 740-3188", "is_closed": false, "location": {"address2": "", "country": "US", "display_address": ["825 W 181st St", "New York, NY 10033"], "address1": "825 W 181st St", "city": "New York", "zip_code": "10033", "address3": "", "state": "NY"}, "coordinates": {"longitude": -73.9394706, "latitude": 40.8513816}, "review_count": 100, "image_url": "https://s3-media2.fl.yelpcdn.com/bphoto/nkiJKgC6BUOsqcFAOZVO3A/o.jpg", "price": "$", "rating": 3.5, "name": "No 1 Chinese Restaurant", "url": "https://www.yelp.com/biz/no-1-chinese-restaurant-new-york-2?adjust_creative=gBcvfFpabk3CnzmXKdYe3w&utm_campaign=yelp_api_v3&utm_medium=api_v3_business_search&utm_source=gBcvfFpabk3CnzmXKdYe3w"}, {"transactions": ["delivery", "pickup"], "distance": 8272.46304322, "phone": "+17187294488", "categories": [{"alias": "chinese", "title": "Chinese"}], "id": "happy-gathering-astoria", "display_phone": "(718) 729-4488", "is_closed": false, "location": {"address2": "", "country": "US", "display_address": ["3220 34th Ave", "Astoria, NY 11106"], "address1": "3220 34th Ave", "city": "Astoria", "zip_code": "11106", "address3": "", "state": "NY"}, "coordinates": {"longitude": -73.92601, "latitude": 40.7589}, "review_count": 38, "image_url": "https://s3-media4.fl.yelpcdn.com/bphoto/YQH1Fif_ZGFZ8Elbtxni7w/o.jpg", "price": "$", "rating": 3.0, "name": "Happy Gathering", "url": "https://www.yelp.com/biz/happy-gathering-astoria?adjust_creative=gBcvfFpabk3CnzmXKdYe3w&utm_campaign=yelp_api_v3&utm_medium=api_v3_business_search&utm_source=gBcvfFpabk3CnzmXKdYe3w"}, {"transactions": [], "distance": 10015.904517399998, "phone": "+17189272900", "categories": [{"alias": "chinese", "title": "Chinese"}], "id": "yummy-yummy-chinese-restaurant-brooklyn-2", "display_phone": "(718) 927-2900", "is_closed": false, "location": {"address2": "", "country": "US", "display_address": ["1349 Rockaway Pkwy", "Brooklyn, NY 11236"], "address1": "1349 Rockaway Pkwy", "city": "Brooklyn", "zip_code": "11236", "address3": "", "state": "NY"}, "coordinates": {"longitude": -73.9039688110352, "latitude": 40.6469764709473}, "review_count": 5, "image_url": "https://s3-media3.fl.yelpcdn.com/bphoto/ib-_0hkOVPfcXUGLhq1EjQ/o.jpg", "price": "$", "rating": 4.0, "name": "Yummy Yummy Chinese Restaurant", "url": "https://www.yelp.com/biz/yummy-yummy-chinese-restaurant-brooklyn-2?adjust_creative=gBcvfFpabk3CnzmXKdYe3w&utm_campaign=yelp_api_v3&utm_medium=api_v3_business_search&utm_source=gBcvfFpabk3CnzmXKdYe3w"}, {"transactions": ["delivery", "pickup"], "distance": 8125.60915888, "phone": "+17184466092", "categories": [{"alias": "chinese", "title": "Chinese"}], "id": "new-szechuan-house-woodside", "display_phone": "(718) 446-6092", "is_closed": false, "location": {"address2": "", "country": "US", "display_address": ["5008 Skillman Ave", "Woodside, NY 11377"], "address1": "5008 Skillman Ave", "city": "Woodside", "zip_code": "11377", "address3": "", "state": "NY"}, "coordinates": {"longitude": -73.9140785, "latitude": 40.7459596}, "review_count": 42, "image_url": "https://s3-media2.fl.yelpcdn.com/bphoto/1kcK2QD4eIxkP_0Ywz59uw/o.jpg", "price": "$", "rating": 2.5, "name": "New Szechuan House", "url": "https://www.yelp.com/biz/new-szechuan-house-woodside?adjust_creative=gBcvfFpabk3CnzmXKdYe3w&utm_campaign=yelp_api_v3&utm_medium=api_v3_business_search&utm_source=gBcvfFpabk3CnzmXKdYe3w"}, {"transactions": [], "distance": 8121.85456866, "phone": "+17185650888", "categories": [{"alias": "japanese", "title": "Japanese"}, {"alias": "chinese", "title": "Chinese"}], "id": "rainbow-fangs-kitchen-woodside", "display_phone": "(718) 565-0888", "is_closed": false, "location": {"address2": "", "country": "US", "display_address": ["51-21 43rd Ave", "Woodside, NY 11377"], "address1": "51-21 43rd Ave", "city": "Woodside", "zip_code": "11377", "address3": "", "state": "NY"}, "coordinates": {"longitude": -73.9128099, "latitude": 40.7444599}, "review_count": 19, "image_url": "https://s3-media2.fl.yelpcdn.com/bphoto/Osru5bovPfERC-F9tcbbjw/o.jpg", "price": "$", "rating": 3.0, "name": "Rainbow Fang's Kitchen", "url": "https://www.yelp.com/biz/rainbow-fangs-kitchen-woodside?adjust_creative=gBcvfFpabk3CnzmXKdYe3w&utm_campaign=yelp_api_v3&utm_medium=api_v3_business_search&utm_source=gBcvfFpabk3CnzmXKdYe3w"}, {"transactions": [], "distance": 10309.2952461, "phone": "+17188995185", "categories": [{"alias": "dimsum", "title": "Dim Sum"}, {"alias": "bbq", "title": "Barbeque"}, {"alias": "sushi", "title": "Sushi Bars"}], "id": "five-loaves-and-two-fishes-\u4e94\u9905\u4e8c\u9b5a-elmhurst", "display_phone": "(718) 899-5185", "is_closed": false, "location": {"address2": "", "country": "US", "display_address": ["82-72 Broadway", "Elmhurst, NY 11373"], "address1": "82-72 Broadway", "city": "Elmhurst", "zip_code": "11373", "address3": "", "state": "NY"}, "coordinates": {"longitude": -73.8815073235202, "latitude": 40.7413575053731}, "review_count": 28, "image_url": "https://s3-media1.fl.yelpcdn.com/bphoto/-bhCh2dSjs2TRcoHWmy0mA/o.jpg", "price": "$", "rating": 3.5, "name": "Five Loaves And Two Fishes \u4e94\u9905\u4e8c\u9b5a", "url": "https://www.yelp.com/biz/five-loaves-and-two-fishes-%E4%BA%94%E9%A4%85%E4%BA%8C%E9%AD%9A-elmhurst?adjust_creative=gBcvfFpabk3CnzmXKdYe3w&utm_campaign=yelp_api_v3&utm_medium=api_v3_business_search&utm_source=gBcvfFpabk3CnzmXKdYe3w"}, {"transactions": [], "distance": 5738.0599271599995, "phone": "+12127191788", "categories": [{"alias": "chinese", "title": "Chinese"}], "id": "modern-szechuan-new-york", "display_phone": "(212) 719-1788", "is_closed": false, "location": {"address2": "", "country": "US", "display_address": ["7 W 45th St", "New York, NY 10036"], "address1": "7 W 45th St", "city": "New York", "zip_code": "10036", "address3": "", "state": "NY"}, "coordinates": {"longitude": -73.9800568, "latitude": 40.7559013}, "review_count": 9, "image_url": "https://s3-media2.fl.yelpcdn.com/bphoto/Mjl_dsyK0S9UiwGuHgkplQ/o.jpg", "price": "$", "rating": 3.0, "name": "Modern Szechuan", "url": "https://www.yelp.com/biz/modern-szechuan-new-york?adjust_creative=gBcvfFpabk3CnzmXKdYe3w&utm_campaign=yelp_api_v3&utm_medium=api_v3_business_search&utm_source=gBcvfFpabk3CnzmXKdYe3w"}, {"transactions": ["delivery", "pickup"], "distance": 7758.869541, "phone": "+17188941234", "categories": [{"alias": "chinese", "title": "Chinese"}], "id": "super-bowl-maspeth", "display_phone": "(718) 894-1234", "is_closed": false, "location": {"address2": null, "country": "US", "display_address": ["5560 60th St", "Maspeth, NY 11378"], "address1": "5560 60th St", "city": "Maspeth", "zip_code": "11378", "address3": null, "state": "NY"}, "coordinates": {"longitude": -73.9062881, "latitude": 40.7256966}, "review_count": 9, "image_url": "https://s3-media2.fl.yelpcdn.com/bphoto/YcpehHlObj78R6RBH08LuA/o.jpg", "price": "$", "rating": 4.0, "name": "Super Bowl", "url": "https://www.yelp.com/biz/super-bowl-maspeth?adjust_creative=gBcvfFpabk3CnzmXKdYe3w&utm_campaign=yelp_api_v3&utm_medium=api_v3_business_search&utm_source=gBcvfFpabk3CnzmXKdYe3w"}, {"transactions": [], "distance": 7527.237717602, "phone": "+17184625363", "categories": [{"alias": "chinese", "title": "Chinese"}], "id": "bo-bo-kitchen-brooklyn", "display_phone": "(718) 462-5363", "is_closed": false, "location": {"address2": "", "country": "US", "display_address": ["1601 Cortelyou Rd", "Brooklyn, NY 11226"], "address1": "1601 Cortelyou Rd", "city": "Brooklyn", "zip_code": "11226", "address3": "", "state": "NY"}, "coordinates": {"longitude": -73.9634704589844, "latitude": 40.6418952941895}, "review_count": 20, "image_url": "https://s3-media3.fl.yelpcdn.com/bphoto/gGQdDvnDCSR9HtVMOOz-xA/o.jpg", "price": "$", "rating": 3.0, "name": "Bo Bo Kitchen", "url": "https://www.yelp.com/biz/bo-bo-kitchen-brooklyn?adjust_creative=gBcvfFpabk3CnzmXKdYe3w&utm_campaign=yelp_api_v3&utm_medium=api_v3_business_search&utm_source=gBcvfFpabk3CnzmXKdYe3w"}, {"transactions": ["delivery", "pickup"], "distance": 3848.0268910599993, "phone": "+17186238808", "categories": [{"alias": "chinese", "title": "Chinese"}, {"alias": "vegetarian", "title": "Vegetarian"}], "id": "vegetarian-palate-brooklyn", "display_phone": "(718) 623-8808", "is_closed": false, "location": {"address2": "", "country": "US", "display_address": ["603 Washington Ave", "Brooklyn, NY 11238"], "address1": "603 Washington Ave", "city": "Brooklyn", "zip_code": "11238", "address3": "", "state": "NY"}, "coordinates": {"longitude": -73.963867, "latitude": 40.679648}, "review_count": 153, "image_url": "https://s3-media4.fl.yelpcdn.com/bphoto/3ZutSjwi189-KTOCOVji3Q/o.jpg", "price": "$$", "rating": 3.5, "name": "Vegetarian Palate", "url": "https://www.yelp.com/biz/vegetarian-palate-brooklyn?adjust_creative=gBcvfFpabk3CnzmXKdYe3w&utm_campaign=yelp_api_v3&utm_medium=api_v3_business_search&utm_source=gBcvfFpabk3CnzmXKdYe3w"}, {"transactions": ["delivery", "pickup"], "distance": 2605.863283816, "phone": "+12127773888", "categories": [{"alias": "chinese", "title": "Chinese"}, {"alias": "hotdogs", "title": "Fast Food"}, {"alias": "noodles", "title": "Noodles"}], "id": "the-china-star-new-york", "display_phone": "(212) 777-3888", "is_closed": false, "location": {"address2": "", "country": "US", "display_address": ["145 1st Ave", "New York, NY 10003"], "address1": "145 1st Ave", "city": "New York", "zip_code": "10003", "address3": "", "state": "NY"}, "coordinates": {"longitude": -73.9851093292236, "latitude": 40.7278197743735}, "review_count": 44, "image_url": "https://s3-media4.fl.yelpcdn.com/bphoto/5cB3kQ4s-dUn8It0yIuLgQ/o.jpg", "price": "$", "rating": 3.0, "name": "The China Star", "url": "https://www.yelp.com/biz/the-china-star-new-york?adjust_creative=gBcvfFpabk3CnzmXKdYe3w&utm_campaign=yelp_api_v3&utm_medium=api_v3_business_search&utm_source=gBcvfFpabk3CnzmXKdYe3w"}, {"transactions": [], "distance": 1346.331035556, "phone": "+12127962868", "categories": [{"alias": "chinese", "title": "Chinese"}, {"alias": "seafood", "title": "Seafood"}], "id": "bamboo-village-new-york", "display_phone": "(212) 796-2868", "is_closed": false, "location": {"address2": "", "country": "US", "display_address": ["96 Bowery St", "New York, NY 10013"], "address1": "96 Bowery St", "city": "New York", "zip_code": "10013", "address3": "", "state": "NY"}, "coordinates": {"longitude": -73.9953510697201, "latitude": 40.7175244459074}, "review_count": 9, "image_url": "https://s3-media2.fl.yelpcdn.com/bphoto/pEVlMyoMhmrljaoIW1DElQ/o.jpg", "price": "$", "rating": 3.5, "name": "Bamboo Village", "url": "https://www.yelp.com/biz/bamboo-village-new-york?adjust_creative=gBcvfFpabk3CnzmXKdYe3w&utm_campaign=yelp_api_v3&utm_medium=api_v3_business_search&utm_source=gBcvfFpabk3CnzmXKdYe3w"}, {"transactions": [], "distance": 15428.325760939999, "phone": "+17188882268", "categories": [{"alias": "seafood", "title": "Seafood"}, {"alias": "chinese", "title": "Chinese"}], "id": "lulu-seafood-restaurant-college-point", "display_phone": "(718) 888-2268", "is_closed": false, "location": {"address2": "", "country": "US", "display_address": ["2007 127th St", "3 Fl", "College Point, NY 11356"], "address1": "2007 127th St", "city": "College Point", "zip_code": "11356", "address3": "3 Fl", "state": "NY"}, "coordinates": {"longitude": -73.8410619986856, "latitude": 40.7814333473453}, "review_count": 53, "image_url": "https://s3-media3.fl.yelpcdn.com/bphoto/PvcwMtBnVv8ioDecosRIwQ/o.jpg", "price": "$$$", "rating": 3.5, "name": "Lulu Seafood Restaurant", "url": "https://www.yelp.com/biz/lulu-seafood-restaurant-college-point?adjust_creative=gBcvfFpabk3CnzmXKdYe3w&utm_campaign=yelp_api_v3&utm_medium=api_v3_business_search&utm_source=gBcvfFpabk3CnzmXKdYe3w"}, {"transactions": [], "distance": 7262.472641349999, "phone": "+17188216655", "categories": [{"alias": "chinese", "title": "Chinese"}], "id": "china-house-maspeth-2", "display_phone": "(718) 821-6655", "is_closed": false, "location": {"address2": "", "country": "US", "display_address": ["55-01 Metropolitan Ave", "Maspeth, NY 11385"], "address1": "55-01 Metropolitan Ave", "city": "Maspeth", "zip_code": "11385", "address3": "", "state": "NY"}, "coordinates": {"longitude": -73.908752, "latitude": 40.713279}, "review_count": 3, "image_url": "https://s3-media2.fl.yelpcdn.com/bphoto/NLSlhbNtFLqQmntBHmtN7w/o.jpg", "rating": 5.0, "name": "China House", "url": "https://www.yelp.com/biz/china-house-maspeth-2?adjust_creative=gBcvfFpabk3CnzmXKdYe3w&utm_campaign=yelp_api_v3&utm_medium=api_v3_business_search&utm_source=gBcvfFpabk3CnzmXKdYe3w"}, {"transactions": ["delivery", "pickup"], "distance": 7095.516169202, "phone": "+17183633639", "categories": [{"alias": "chinese", "title": "Chinese"}], "id": "no-1-chinese-restaurant-brooklyn-11", "display_phone": "(718) 363-3639", "is_closed": false, "location": {"address2": null, "country": "US", "display_address": ["479 Ralph Ave", "Brooklyn, NY 11233"], "address1": "479 Ralph Ave", "city": "Brooklyn", "zip_code": "11233", "address3": "", "state": "NY"}, "coordinates": {"longitude": -73.92191, "latitude": 40.67289}, "review_count": 7, "image_url": "https://s3-media1.fl.yelpcdn.com/bphoto/EXh-Xg89r48S8A8BpDRBeQ/o.jpg", "price": "$", "rating": 3.0, "name": "No 1 Chinese Restaurant", "url": "https://www.yelp.com/biz/no-1-chinese-restaurant-brooklyn-11?adjust_creative=gBcvfFpabk3CnzmXKdYe3w&utm_campaign=yelp_api_v3&utm_medium=api_v3_business_search&utm_source=gBcvfFpabk3CnzmXKdYe3w"}, {"transactions": [], "distance": 8220.24478824, "phone": "+12122884888", "categories": [{"alias": "chinese", "title": "Chinese"}], "id": "our-place-china-chalet-new-york-2", "display_phone": "(212) 288-4888", "is_closed": false, "location": {"address2": "", "country": "US", "display_address": ["242 E 79th St", "New York, NY 10075"], "address1": "242 E 79th St", "city": "New York", "zip_code": "10075", "address3": "", "state": "NY"}, "coordinates": {"longitude": -73.9558029, "latitude": 40.7733383}, "review_count": 31, "image_url": "https://s3-media3.fl.yelpcdn.com/bphoto/I7Vy91P9QKqsbu-RvIOzaA/o.jpg", "price": "$$", "rating": 3.0, "name": "Our Place China Chalet", "url": "https://www.yelp.com/biz/our-place-china-chalet-new-york-2?adjust_creative=gBcvfFpabk3CnzmXKdYe3w&utm_campaign=yelp_api_v3&utm_medium=api_v3_business_search&utm_source=gBcvfFpabk3CnzmXKdYe3w"}, {"transactions": ["delivery", "pickup"], "distance": 1287.4688456935999, "phone": "+12123491495", "categories": [{"alias": "cantonese", "title": "Cantonese"}, {"alias": "noodles", "title": "Noodles"}], "id": "h-k-wonton-garden-new-york", "display_phone": "(212) 349-1495", "is_closed": false, "location": {"address2": "", "country": "US", "display_address": ["79 Mulberry St", "New York, NY 10013"], "address1": "79 Mulberry St", "city": "New York", "zip_code": "10013", "address3": "", "state": "NY"}, "coordinates": {"longitude": -73.9991302, "latitude": 40.7164307}, "review_count": 662, "image_url": "https://s3-media4.fl.yelpcdn.com/bphoto/FxQ3sYjyx-MDjwg5voBGww/o.jpg", "price": "$", "rating": 3.5, "name": "H K Wonton Garden", "url": "https://www.yelp.com/biz/h-k-wonton-garden-new-york?adjust_creative=gBcvfFpabk3CnzmXKdYe3w&utm_campaign=yelp_api_v3&utm_medium=api_v3_business_search&utm_source=gBcvfFpabk3CnzmXKdYe3w"}, {"transactions": ["delivery", "pickup"], "distance": 4330.652185528, "phone": "+17185992489", "categories": [{"alias": "chinese", "title": "Chinese"}], "id": "faith-chinese-food-brooklyn", "display_phone": "(718) 599-2489", "is_closed": false, "location": {"address2": "", "country": "US", "display_address": ["170 Graham Ave", "Brooklyn, NY 11206"], "address1": "170 Graham Ave", "city": "Brooklyn", "zip_code": "11206", "address3": "", "state": "NY"}, "coordinates": {"longitude": -73.942924, "latitude": 40.707572}, "review_count": 11, "image_url": "https://s3-media2.fl.yelpcdn.com/bphoto/nEM_RAa90jzDxgyOwGly7Q/o.jpg", "price": "$$", "rating": 3.0, "name": "Faith Chinese Food", "url": "https://www.yelp.com/biz/faith-chinese-food-brooklyn?adjust_creative=gBcvfFpabk3CnzmXKdYe3w&utm_campaign=yelp_api_v3&utm_medium=api_v3_business_search&utm_source=gBcvfFpabk3CnzmXKdYe3w"}, {"transactions": ["delivery", "pickup"], "distance": 13701.202994359997, "phone": "+17182613322", "categories": [{"alias": "chinese", "title": "Chinese"}], "id": "super-kew-garden-forest-hills", "display_phone": "(718) 261-3322", "is_closed": false, "location": {"address2": "", "country": "US", "display_address": ["11814 Queens Blvd", "Forest Hills, NY 11375"], "address1": "11814 Queens Blvd", "city": "Forest Hills", "zip_code": "11375", "address3": "", "state": "NY"}, "coordinates": {"longitude": -73.832191, "latitude": 40.714515}, "review_count": 32, "image_url": "https://s3-media2.fl.yelpcdn.com/bphoto/1ialhUScltMYX6M7QXnk5Q/o.jpg", "price": "$", "rating": 3.5, "name": "Super Kew Garden", "url": "https://www.yelp.com/biz/super-kew-garden-forest-hills?adjust_creative=gBcvfFpabk3CnzmXKdYe3w&utm_campaign=yelp_api_v3&utm_medium=api_v3_business_search&utm_source=gBcvfFpabk3CnzmXKdYe3w"}, {"transactions": [], "distance": 10234.775723003999, "phone": "+17183961238", "categories": [{"alias": "dimsum", "title": "Dim Sum"}], "id": "pings-elmhurst", "display_phone": "(718) 396-1238", "is_closed": false, "location": {"address2": "", "country": "US", "display_address": ["8302 Queens Blvd", "Elmhurst, NY 11373"], "address1": "8302 Queens Blvd", "city": "Elmhurst", "zip_code": "11373", "address3": "", "state": "NY"}, "coordinates": {"longitude": -73.8802, "latitude": 40.73689}, "review_count": 180, "image_url": "https://s3-media3.fl.yelpcdn.com/bphoto/8nRooDIVidkoF-VY8lL_bg/o.jpg", "price": "$$", "rating": 3.0, "name": "Ping's", "url": "https://www.yelp.com/biz/pings-elmhurst?adjust_creative=gBcvfFpabk3CnzmXKdYe3w&utm_campaign=yelp_api_v3&utm_medium=api_v3_business_search&utm_source=gBcvfFpabk3CnzmXKdYe3w"}, {"transactions": ["delivery", "pickup"], "distance": 9201.12303418, "phone": "+12127698899", "categories": [{"alias": "chinese", "title": "Chinese"}], "id": "new-kam-lai-new-york-2", "display_phone": "(212) 769-8899", "is_closed": false, "location": {"address2": "", "country": "US", "display_address": ["514 Amsterdam Ave", "New York, NY 10024"], "address1": "514 Amsterdam Ave", "city": "New York", "zip_code": "10024", "address3": "", "state": "NY"}, "coordinates": {"longitude": -73.975899, "latitude": 40.78701}, "review_count": 36, "image_url": "https://s3-media1.fl.yelpcdn.com/bphoto/YYrAXDU-MZj-Kul_XVpbRA/o.jpg", "price": "$", "rating": 3.0, "name": "New Kam Lai", "url": "https://www.yelp.com/biz/new-kam-lai-new-york-2?adjust_creative=gBcvfFpabk3CnzmXKdYe3w&utm_campaign=yelp_api_v3&utm_medium=api_v3_business_search&utm_source=gBcvfFpabk3CnzmXKdYe3w"}, {"transactions": [], "distance": 1037.71369738, "phone": "+12129781888", "categories": [{"alias": "chinese", "title": "Chinese"}], "id": "mings-caffe-new-york-2", "display_phone": "(212) 978-1888", "is_closed": false, "location": {"address2": "", "country": "US", "display_address": ["28 Canal St", "New York, NY 10002"], "address1": "28 Canal St", "city": "New York", "zip_code": "10002", "address3": "", "state": "NY"}, "coordinates": {"longitude": -73.990509, "latitude": 40.714321}, "review_count": 79, "image_url": "https://s3-media1.fl.yelpcdn.com/bphoto/FiZQgbltOyjANwmaHFETMw/o.jpg", "price": "$", "rating": 3.5, "name": "Ming's Caffe", "url": "https://www.yelp.com/biz/mings-caffe-new-york-2?adjust_creative=gBcvfFpabk3CnzmXKdYe3w&utm_campaign=yelp_api_v3&utm_medium=api_v3_business_search&utm_source=gBcvfFpabk3CnzmXKdYe3w"}, {"transactions": [], "distance": 4751.522758978, "phone": "+12126951388", "categories": [{"alias": "chinese", "title": "Chinese"}, {"alias": "creperies", "title": "Creperies"}], "id": "jian-bing-man-new-york", "display_phone": "(212) 695-1388", "is_closed": false, "location": {"address2": "", "country": "US", "display_address": ["11 W 32nd St", "Booth 3", "New York, NY 10001"], "address1": "11 W 32nd St", "city": "New York", "zip_code": "10001", "address3": "Booth 3", "state": "NY"}, "coordinates": {"longitude": -73.986228, "latitude": 40.747703}, "review_count": 65, "image_url": "https://s3-media3.fl.yelpcdn.com/bphoto/370uqGIYipF4qv-cACR4AQ/o.jpg", "price": "$$", "rating": 3.0, "name": "Jian Bing Man", "url": "https://www.yelp.com/biz/jian-bing-man-new-york?adjust_creative=gBcvfFpabk3CnzmXKdYe3w&utm_campaign=yelp_api_v3&utm_medium=api_v3_business_search&utm_source=gBcvfFpabk3CnzmXKdYe3w"}, {"transactions": [], "distance": 20454.65668244, "phone": "+17186788888", "categories": [{"alias": "newamerican", "title": "American (New)"}, {"alias": "chinese", "title": "Chinese"}], "id": "six-happiness-restaurant-bronx", "display_phone": "(718) 678-8888", "is_closed": false, "location": {"address2": "", "country": "US", "display_address": ["1378 Crosby Ave", "Bronx, NY 10461"], "address1": "1378 Crosby Ave", "city": "Bronx", "zip_code": "10461", "address3": "", "state": "NY"}, "coordinates": {"longitude": -73.8295, "latitude": 40.84057}, "review_count": 14, "image_url": "https://s3-media4.fl.yelpcdn.com/bphoto/Swe7wXIrHEr2xw7pSCjNpg/o.jpg", "price": "$$", "rating": 4.0, "name": "Six Happiness Restaurant", "url": "https://www.yelp.com/biz/six-happiness-restaurant-bronx?adjust_creative=gBcvfFpabk3CnzmXKdYe3w&utm_campaign=yelp_api_v3&utm_medium=api_v3_business_search&utm_source=gBcvfFpabk3CnzmXKdYe3w"}, {"transactions": [], "distance": 10182.156259562, "phone": "+17188338078", "categories": [{"alias": "chinese", "title": "Chinese"}], "id": "ha-ha-brooklyn", "display_phone": "(718) 833-8078", "is_closed": false, "location": {"address2": "", "country": "US", "display_address": ["9212 4th Ave", "Brooklyn, NY 11209"], "address1": "9212 4th Ave", "city": "Brooklyn", "zip_code": "11209", "address3": "", "state": "NY"}, "coordinates": {"longitude": -74.0304925, "latitude": 40.6180175}, "review_count": 23, "image_url": "https://s3-media1.fl.yelpcdn.com/bphoto/Dm-eBYIyXNnBYpTSLpxezA/o.jpg", "price": "$", "rating": 3.5, "name": "Ha Ha", "url": "https://www.yelp.com/biz/ha-ha-brooklyn?adjust_creative=gBcvfFpabk3CnzmXKdYe3w&utm_campaign=yelp_api_v3&utm_medium=api_v3_business_search&utm_source=gBcvfFpabk3CnzmXKdYe3w"}, {"transactions": [], "distance": 12914.38862166, "phone": "+17189987505", "categories": [{"alias": "chinese", "title": "Chinese"}], "id": "hunan-cottage-brooklyn", "display_phone": "(718) 998-7505", "is_closed": false, "location": {"address2": "", "country": "US", "display_address": ["293 Ave X", "Brooklyn, NY 11223"], "address1": "293 Ave X", "city": "Brooklyn", "zip_code": "11223", "address3": "", "state": "NY"}, "coordinates": {"longitude": -73.972045, "latitude": 40.590583}, "review_count": 33, "image_url": "https://s3-media3.fl.yelpcdn.com/bphoto/FJ8zTpuXMmsyTLOqBo5wZA/o.jpg", "price": "$$", "rating": 3.5, "name": "Hunan Cottage", "url": "https://www.yelp.com/biz/hunan-cottage-brooklyn?adjust_creative=gBcvfFpabk3CnzmXKdYe3w&utm_campaign=yelp_api_v3&utm_medium=api_v3_business_search&utm_source=gBcvfFpabk3CnzmXKdYe3w"}, {"transactions": [], "distance": 4350.695388689999, "phone": "+17183878898", "categories": [{"alias": "chinese", "title": "Chinese"}], "id": "grace-chinese-food-ii-brooklyn", "display_phone": "(718) 387-8898", "is_closed": false, "location": {"address2": "", "country": "US", "display_address": ["136 Graham Ave", "Brooklyn, NY 11206"], "address1": "136 Graham Ave", "city": "Brooklyn", "zip_code": "11206", "address3": "", "state": "NY"}, "coordinates": {"longitude": -73.942688, "latitude": 40.706158}, "review_count": 7, "image_url": "https://s3-media3.fl.yelpcdn.com/bphoto/2vdNYwiv7qcV90PmXlAyYg/o.jpg", "price": "$", "rating": 3.5, "name": "Grace Chinese Food II", "url": "https://www.yelp.com/biz/grace-chinese-food-ii-brooklyn?adjust_creative=gBcvfFpabk3CnzmXKdYe3w&utm_campaign=yelp_api_v3&utm_medium=api_v3_business_search&utm_source=gBcvfFpabk3CnzmXKdYe3w"}, {"transactions": [], "distance": 8864.642870716, "phone": "", "categories": [{"alias": "bubbletea", "title": "Bubble Tea"}, {"alias": "dimsum", "title": "Dim Sum"}, {"alias": "bakeries", "title": "Bakeries"}], "id": "woodside-rainbow-bakery-woodside", "display_phone": "", "is_closed": false, "location": {"address2": "", "country": "US", "display_address": ["39-61 61st St", "Woodside, NY 11377"], "address1": "39-61 61st St", "city": "Woodside", "zip_code": "11377", "address3": null, "state": "NY"}, "coordinates": {"longitude": -73.9031929, "latitude": 40.7453041}, "review_count": 6, "image_url": "https://s3-media2.fl.yelpcdn.com/bphoto/Tsx_8PO5fgsVOTKnp7n3Iw/o.jpg", "price": "$", "rating": 4.0, "name": "Woodside Rainbow Bakery", "url": "https://www.yelp.com/biz/woodside-rainbow-bakery-woodside?adjust_creative=gBcvfFpabk3CnzmXKdYe3w&utm_campaign=yelp_api_v3&utm_medium=api_v3_business_search&utm_source=gBcvfFpabk3CnzmXKdYe3w"}, {"transactions": [], "distance": 9701.21095512, "phone": "+17188942226", "categories": [{"alias": "thai", "title": "Thai"}, {"alias": "szechuan", "title": "Szechuan"}], "id": "green-leaf-middle-village", "display_phone": "(718) 894-2226", "is_closed": false, "location": {"address2": "", "country": "US", "display_address": ["72-60 Metropolitan Ave", "Middle Village, NY 11379"], "address1": "72-60 Metropolitan Ave", "city": "Middle Village", "zip_code": "11379", "address3": "", "state": "NY"}, "coordinates": {"longitude": -73.87957, "latitude": 40.712444}, "review_count": 35, "image_url": "https://s3-media1.fl.yelpcdn.com/bphoto/Eg_ZJbjOvuBDuqqh_KJFcw/o.jpg", "price": "$", "rating": 3.5, "name": "Green Leaf", "url": "https://www.yelp.com/biz/green-leaf-middle-village?adjust_creative=gBcvfFpabk3CnzmXKdYe3w&utm_campaign=yelp_api_v3&utm_medium=api_v3_business_search&utm_source=gBcvfFpabk3CnzmXKdYe3w"}, {"transactions": [], "distance": 2019.8539877479998, "phone": "+17186258585", "categories": [{"alias": "chinese", "title": "Chinese"}], "id": "golden-city-chinese-kitchen-brooklyn", "display_phone": "(718) 625-8585", "is_closed": false, "location": {"address2": "", "country": "US", "display_address": ["402 Henry St", "Brooklyn, NY 11201"], "address1": "402 Henry St", "city": "Brooklyn", "zip_code": "11201", "address3": "", "state": "NY"}, "coordinates": {"longitude": -73.99795, "latitude": 40.6875}, "review_count": 1, "image_url": "", "price": "$", "rating": 4.0, "name": "Golden City Chinese Kitchen", "url": "https://www.yelp.com/biz/golden-city-chinese-kitchen-brooklyn?adjust_creative=gBcvfFpabk3CnzmXKdYe3w&utm_campaign=yelp_api_v3&utm_medium=api_v3_business_search&utm_source=gBcvfFpabk3CnzmXKdYe3w"}, {"transactions": ["delivery", "pickup"], "distance": 3145.3032692379998, "phone": "+17188578094", "categories": [{"alias": "chinese", "title": "Chinese"}], "id": "new-hong-cheung-chinese-restaurant-brooklyn", "display_phone": "(718) 857-8094", "is_closed": false, "location": {"address2": "", "country": "US", "display_address": ["143 Greene Ave", "Brooklyn, NY 11238"], "address1": "143 Greene Ave", "city": "Brooklyn", "zip_code": "11238", "address3": "", "state": "NY"}, "coordinates": {"longitude": -73.9662748575211, "latitude": 40.6867643495368}, "review_count": 15, "image_url": "", "price": "$", "rating": 3.0, "name": "New Hong Cheung Chinese Restaurant", "url": "https://www.yelp.com/biz/new-hong-cheung-chinese-restaurant-brooklyn?adjust_creative=gBcvfFpabk3CnzmXKdYe3w&utm_campaign=yelp_api_v3&utm_medium=api_v3_business_search&utm_source=gBcvfFpabk3CnzmXKdYe3w"}, {"transactions": [], "distance": 14349.29225906, "phone": "+12126909100", "categories": [{"alias": "chinese", "title": "Chinese"}], "id": "all-happiness-new-york", "display_phone": "(212) 690-9100", "is_closed": false, "location": {"address2": "", "country": "US", "display_address": ["3640 Broadway", "New York, NY 10031"], "address1": "3640 Broadway", "city": "New York", "zip_code": "10031", "address3": "", "state": "NY"}, "coordinates": {"longitude": -73.94775, "latitude": 40.82969}, "review_count": 13, "image_url": "https://s3-media3.fl.yelpcdn.com/bphoto/zDyg7YuXRPy2u7b3zEaXwA/o.jpg", "price": "$", "rating": 3.5, "name": "All Happiness", "url": "https://www.yelp.com/biz/all-happiness-new-york?adjust_creative=gBcvfFpabk3CnzmXKdYe3w&utm_campaign=yelp_api_v3&utm_medium=api_v3_business_search&utm_source=gBcvfFpabk3CnzmXKdYe3w"}, {"transactions": ["delivery", "pickup"], "distance": 9980.029592922, "phone": "+17188372820", "categories": [{"alias": "chinese", "title": "Chinese"}], "id": "new-jin-xin-brooklyn-2", "display_phone": "(718) 837-2820", "is_closed": false, "location": {"address2": "", "country": "US", "display_address": ["7102 18th Ave", "Brooklyn, NY 11204"], "address1": "7102 18th Ave", "city": "Brooklyn", "zip_code": "11204", "address3": "", "state": "NY"}, "coordinates": {"longitude": -73.9939132445258, "latitude": 40.6156919782776}, "review_count": 6, "image_url": "https://s3-media1.fl.yelpcdn.com/bphoto/SILiUJNueL7HWf71ajp9XQ/o.jpg", "price": "$", "rating": 4.5, "name": "New Jin Xin", "url": "https://www.yelp.com/biz/new-jin-xin-brooklyn-2?adjust_creative=gBcvfFpabk3CnzmXKdYe3w&utm_campaign=yelp_api_v3&utm_medium=api_v3_business_search&utm_source=gBcvfFpabk3CnzmXKdYe3w"}, {"transactions": ["delivery", "pickup"], "distance": 2893.8244212239997, "phone": "+12123588898", "categories": [{"alias": "szechuan", "title": "Szechuan"}, {"alias": "seafood", "title": "Seafood"}], "id": "shu-han-ju-ii-new-york-2", "display_phone": "(212) 358-8898", "is_closed": false, "location": {"address2": null, "country": "US", "display_address": ["58 3rd Ave", "New York, NY 10003"], "address1": "58 3rd Ave", "city": "New York", "zip_code": "10003", "address3": "", "state": "NY"}, "coordinates": {"longitude": -73.98909, "latitude": 40.73117}, "review_count": 18, "image_url": "https://s3-media3.fl.yelpcdn.com/bphoto/Hw88121x75Bjvi1MxXhtXA/o.jpg", "price": "$$", "rating": 3.0, "name": "Shu Han Ju II", "url": "https://www.yelp.com/biz/shu-han-ju-ii-new-york-2?adjust_creative=gBcvfFpabk3CnzmXKdYe3w&utm_campaign=yelp_api_v3&utm_medium=api_v3_business_search&utm_source=gBcvfFpabk3CnzmXKdYe3w"}, {"transactions": [], "distance": 14886.063475959998, "phone": "+17188887893", "categories": [{"alias": "szechuan", "title": "Szechuan"}, {"alias": "seafood", "title": "Seafood"}], "id": "szechuan-mountain-house-flushing", "display_phone": "(718) 888-7893", "is_closed": false, "location": {"address2": "Ste G03", "country": "US", "display_address": ["39-16 Prince St", "Ste G03", "Flushing, NY 11354"], "address1": "39-16 Prince St", "city": "Flushing", "zip_code": "11354", "address3": "", "state": "NY"}, "coordinates": {"longitude": -73.8326038269836, "latitude": 40.7593930266428}, "review_count": 86, "image_url": "https://s3-media2.fl.yelpcdn.com/bphoto/I7uCy-0MaJ8k2tBn7WovVA/o.jpg", "price": "$$", "rating": 4.0, "name": "Szechuan Mountain House", "url": "https://www.yelp.com/biz/szechuan-mountain-house-flushing?adjust_creative=gBcvfFpabk3CnzmXKdYe3w&utm_campaign=yelp_api_v3&utm_medium=api_v3_business_search&utm_source=gBcvfFpabk3CnzmXKdYe3w"}, {"transactions": [], "distance": 14090.172425659997, "phone": "+12122810383", "categories": [{"alias": "chinese", "title": "Chinese"}], "id": "kings-wok-new-york-2", "display_phone": "(212) 281-0383", "is_closed": false, "location": {"address2": "", "country": "US", "display_address": ["3575 Broadway", "New York, NY 10031"], "address1": "3575 Broadway", "city": "New York", "zip_code": "10031", "address3": null, "state": "NY"}, "coordinates": {"longitude": -73.9499, "latitude": 40.82762}, "review_count": 14, "image_url": "https://s3-media2.fl.yelpcdn.com/bphoto/f4L4bE_s6ZtrlKM78vsirw/o.jpg", "price": "$", "rating": 3.5, "name": "King's Wok", "url": "https://www.yelp.com/biz/kings-wok-new-york-2?adjust_creative=gBcvfFpabk3CnzmXKdYe3w&utm_campaign=yelp_api_v3&utm_medium=api_v3_business_search&utm_source=gBcvfFpabk3CnzmXKdYe3w"}]}