{"region": {"center": {"longitude": -73.99429321289062, "latitude": 40.70544486444615}}, "total": 2613, "businesses": [{"transactions": [], "distance": 14493.32657972, "phone": "+17182651540", "categories": [{"alias": "chinese", "title": "Chinese"}], "id": "oriental-palace-kitchen-brooklyn", "display_phone": "(718) 265-1540", "is_closed": false, "location": {"address2": "", "country": "US", "display_address": ["3030 Mermaid Ave", "Brooklyn, NY 11224"], "address1": "3030 Mermaid Ave", "city": "Brooklyn", "zip_code": "11224", "address3": "", "state": "NY"}, "coordinates": {"longitude": -73.99729, "latitude": 40.57512}, "review_count": 16, "image_url": "https://s3-media1.fl.yelpcdn.com/bphoto/ePPCQnslAGVfcDaeg_KdwA/o.jpg", "price": "$", "rating": 4.5, "name": "Oriental Palace Kitchen", "url": "https://www.yelp.com/biz/oriental-palace-kitchen-brooklyn?adjust_creative=gBcvfFpabk3CnzmXKdYe3w&utm_campaign=yelp_api_v3&utm_medium=api_v3_business_search&utm_source=gBcvfFpabk3CnzmXKdYe3w"}, {"transactions": ["delivery", "pickup"], "distance": 11737.95786298, "phone": "+17188978202", "categories": [{"alias": "chinese", "title": "Chinese"}], "id": "mr-tongs-rego-park", "display_phone": "(718) 897-8202", "is_closed": false, "location": {"address2": "", "country": "US", "display_address": ["9720 Queens Blvd", "Rego Park, NY 11374"], "address1": "9720 Queens Blvd", "city": "Rego Park", "zip_code": "11374", "address3": "", "state": "NY"}, "coordinates": {"longitude": -73.8585226734556, "latitude": 40.7289712287807}, "review_count": 71, "image_url": "https://s3-media2.fl.yelpcdn.com/bphoto/9nlxkfqo9LF2-vfHx4Pi9Q/o.jpg", "price": "$$", "rating": 3.0, "name": "Mr Tong's", "url": "https://www.yelp.com/biz/mr-tongs-rego-park?adjust_creative=gBcvfFpabk3CnzmXKdYe3w&utm_campaign=yelp_api_v3&utm_medium=api_v3_business_search&utm_source=gBcvfFpabk3CnzmXKdYe3w"}, {"transactions": ["delivery", "pickup"], "distance": 11105.550490042, "phone": "+17189510881", "categories": [{"alias": "chinese", "title": "Chinese"}], "id": "spring-garden-brooklyn-2", "display_phone": "(718) 951-0881", "is_closed": false, "location": {"address2": null, "country": "US", "display_address": ["4710 Ave N", "Brooklyn, NY 11234"], "address1": "4710 Ave N", "city": "Brooklyn", "zip_code": "11234", "address3": null, "state": "NY"}, "coordinates": {"longitude": -73.929359, "latitude": 40.618557}, "review_count": 9, "image_url": "https://s3-media1.fl.yelpcdn.com/bphoto/5i6tQJs0XwWraJt1z6uLKg/o.jpg", "rating": 4.0, "name": "Spring Garden", "url": "https://www.yelp.com/biz/spring-garden-brooklyn-2?adjust_creative=gBcvfFpabk3CnzmXKdYe3w&utm_campaign=yelp_api_v3&utm_medium=api_v3_business_search&utm_source=gBcvfFpabk3CnzmXKdYe3w"}, {"transactions": ["delivery", "pickup"], "distance": 8009.3874521, "phone": "+12122492102", "categories": [{"alias": "chinese", "title": "Chinese"}, {"alias": "chicken_wings", "title": "Chicken Wings"}], "id": "tangs-garden-new-york-2", "display_phone": "(212) 249-2102", "is_closed": false, "location": {"address2": "", "country": "US", "display_address": ["1328 3rd Ave", "New York, NY 10021"], "address1": "1328 3rd Ave", "city": "New York", "zip_code": "10021", "address3": "", "state": "NY"}, "coordinates": {"longitude": -73.9589547, "latitude": 40.7722574}, "review_count": 82, "image_url": "https://s3-media1.fl.yelpcdn.com/bphoto/RBabQUMtl7DGiCccFaxvcQ/o.jpg", "price": "$$", "rating": 3.0, "name": "Tang's Garden", "url": "https://www.yelp.com/biz/tangs-garden-new-york-2?adjust_creative=gBcvfFpabk3CnzmXKdYe3w&utm_campaign=yelp_api_v3&utm_medium=api_v3_business_search&utm_source=gBcvfFpabk3CnzmXKdYe3w"}, {"transactions": ["delivery", "pickup"], "distance": 7146.5317644, "phone": "+12125177798", "categories": [{"alias": "chinese", "title": "Chinese"}], "id": "wong-restaurant-new-york", "display_phone": "(212) 517-7798", "is_closed": false, "location": {"address2": "", "country": "US", "display_address": ["1217 1st Ave", "New York, NY 10065"], "address1": "1217 1st Ave", "city": "New York", "zip_code": "10065", "address3": "", "state": "NY"}, "coordinates": {"longitude": -73.9590615, "latitude": 40.7638749}, "review_count": 36, "image_url": "https://s3-media1.fl.yelpcdn.com/bphoto/VRBFkHm8v6piMrWjOEm7pQ/o.jpg", "price": "$", "rating": 3.0, "name": "Wong Restaurant", "url": "https://www.yelp.com/biz/wong-restaurant-new-york?adjust_creative=gBcvfFpabk3CnzmXKdYe3w&utm_campaign=yelp_api_v3&utm_medium=api_v3_business_search&utm_source=gBcvfFpabk3CnzmXKdYe3w"}, {"transactions": ["delivery", "pickup"], "distance": 2544.070904242, "phone": "+12125052121", "categories": [{"alias": "chinese", "title": "Chinese"}, {"alias": "asianfusion", "title": "Asian Fusion"}], "id": "dumpling-man-new-york", "display_phone": "(212) 505-2121", "is_closed": false, "location": {"address2": null, "country": "US", "display_address": ["100 Saint Marks Pl", "New York, NY 10009"], "address1": "100 Saint Marks Pl", "city": "New York", "zip_code": "10009", "address3": "", "state": "NY"}, "coordinates": {"longitude": -73.984764, "latitude": 40.727127}, "review_count": 690, "image_url": "https://s3-media4.fl.yelpcdn.com/bphoto/v5MkbDi0cCOQf1ArWDhPIQ/o.jpg", "price": "$", "rating": 3.5, "name": "Dumpling Man", "url": "https://www.yelp.com/biz/dumpling-man-new-york?adjust_creative=gBcvfFpabk3CnzmXKdYe3w&utm_campaign=yelp_api_v3&utm_medium=api_v3_business_search&utm_source=gBcvfFpabk3CnzmXKdYe3w"}, {"transactions": [], "distance": 12417.103527263998, "phone": "+12129328706", "categories": [{"alias": "chinese", "title": "Chinese"}], "id": "new-aroma-chinese-restaurant-new-york", "display_phone": "(212) 932-8706", "is_closed": false, "location": {"address2": "", "country": "US", "display_address": ["465 W 125th St", "New York, NY 10027"], "address1": "465 W 125th St", "city": "New York", "zip_code": "10027", "address3": "", "state": "NY"}, "coordinates": {"longitude": -73.9557037353516, "latitude": 40.8132171630859}, "review_count": 24, "image_url": "https://s3-media1.fl.yelpcdn.com/bphoto/HMyyXfL2PTf6deTJhsh8lw/o.jpg", "price": "$", "rating": 3.5, "name": "New Aroma Chinese Restaurant", "url": "https://www.yelp.com/biz/new-aroma-chinese-restaurant-new-york?adjust_creative=gBcvfFpabk3CnzmXKdYe3w&utm_campaign=yelp_api_v3&utm_medium=api_v3_business_search&utm_source=gBcvfFpabk3CnzmXKdYe3w"}, {"transactions": [], "distance": 7553.24255986, "phone": "+17183922333", "categories": [{"alias": "chinese", "title": "Chinese"}], "id": "golden-wok-sunnyside", "display_phone": "(718) 392-2333", "is_closed": false, "location": {"address2": "", "country": "US", "display_address": ["4218 43rd Ave", "Sunnyside, NY 11104"], "address1": "4218 43rd Ave", "city": "Sunnyside", "zip_code": "11104", "address3": "", "state": "NY"}, "coordinates": {"longitude": -73.921549, "latitude": 40.745129}, "review_count": 29, "image_url": "https://s3-media4.fl.yelpcdn.com/bphoto/LEkOeFdDPkcmCcyLWENQng/o.jpg", "price": "$", "rating": 3.5, "name": "Golden Wok", "url": "https://www.yelp.com/biz/golden-wok-sunnyside?adjust_creative=gBcvfFpabk3CnzmXKdYe3w&utm_campaign=yelp_api_v3&utm_medium=api_v3_business_search&utm_source=gBcvfFpabk3CnzmXKdYe3w"}, {"transactions": ["delivery", "pickup"], "distance": 9370.539060649999, "phone": "+17182781931", "categories": [{"alias": "chinese", "title": "Chinese"}], "id": "sampan-chinese-restaurant-astoria", "display_phone": "(718) 278-1931", "is_closed": false, "location": {"address2": "", "country": "US", "display_address": ["28-48 Steinway St", "Astoria, NY 11103"], "address1": "28-48 Steinway St", "city": "Astoria", "zip_code": "11103", "address3": "", "state": "NY"}, "coordinates": {"longitude": -73.9148699, "latitude": 40.7644}, "review_count": 56, "image_url": "https://s3-media2.fl.yelpcdn.com/bphoto/5JENIGnBV_0WGhBI1VthyA/o.jpg", "price": "$", "rating": 3.5, "name": "Sampan Chinese Restaurant", "url": "https://www.yelp.com/biz/sampan-chinese-restaurant-astoria?adjust_creative=gBcvfFpabk3CnzmXKdYe3w&utm_campaign=yelp_api_v3&utm_medium=api_v3_business_search&utm_source=gBcvfFpabk3CnzmXKdYe3w"}, {"transactions": ["delivery", "pickup"], "distance": 3422.55762856, "phone": "+17187894439", "categories": [{"alias": "chinese", "title": "Chinese"}, {"alias": "seafood", "title": "Seafood"}], "id": "sun-luck-kitchen-brooklyn", "display_phone": "(718) 789-4439", "is_closed": false, "location": {"address2": "", "country": "US", "display_address": ["197 5th Ave", "Brooklyn, NY 11217"], "address1": "197 5th Ave", "city": "Brooklyn", "zip_code": "11217", "address3": "", "state": "NY"}, "coordinates": {"longitude": -73.9800262451172, "latitude": 40.676628112793}, "review_count": 49, "image_url": "https://s3-media4.fl.yelpcdn.com/bphoto/pZa47Tb-PVuT1RRaHgc6Og/o.jpg", "price": "$", "rating": 3.0, "name": "Sun Luck Kitchen", "url": "https://www.yelp.com/biz/sun-luck-kitchen-brooklyn?adjust_creative=gBcvfFpabk3CnzmXKdYe3w&utm_campaign=yelp_api_v3&utm_medium=api_v3_business_search&utm_source=gBcvfFpabk3CnzmXKdYe3w"}, {"transactions": [], "distance": 6555.0108007, "phone": "+17184628854", "categories": [{"alias": "chinese", "title": "Chinese"}], "id": "jing-lung-chinese-restaurant-brooklyn", "display_phone": "(718) 462-8854", "is_closed": false, "location": {"address2": "", "country": "US", "display_address": ["1242 Nostrand Ave", "Brooklyn, NY 11225"], "address1": "1242 Nostrand Ave", "city": "Brooklyn", "zip_code": "11225", "address3": "", "state": "NY"}, "coordinates": {"longitude": -73.9505157470703, "latitude": 40.65673828125}, "review_count": 6, "image_url": "https://s3-media2.fl.yelpcdn.com/bphoto/RRaxGwSxejx4dzniBNYy1w/o.jpg", "price": "$", "rating": 3.5, "name": "Jing Lung Chinese Restaurant", "url": "https://www.yelp.com/biz/jing-lung-chinese-restaurant-brooklyn?adjust_creative=gBcvfFpabk3CnzmXKdYe3w&utm_campaign=yelp_api_v3&utm_medium=api_v3_business_search&utm_source=gBcvfFpabk3CnzmXKdYe3w"}, {"transactions": ["delivery", "pickup"], "distance": 1513.252021757, "phone": "+12122543775", "categories": [{"alias": "chinese", "title": "Chinese"}], "id": "wa-lung-kitchen-new-york", "display_phone": "(212) 254-3775", "is_closed": false, "location": {"address2": "", "country": "US", "display_address": ["557 Grand St", "New York, NY 10002"], "address1": "557 Grand St", "city": "New York", "zip_code": "10002", "address3": "", "state": "NY"}, "coordinates": {"longitude": -73.980251, "latitude": 40.713919}, "review_count": 34, "image_url": "https://s3-media2.fl.yelpcdn.com/bphoto/8uTJ1f0bFKbenmjyNHXjPg/o.jpg", "price": "$", "rating": 3.0, "name": "Wa Lung Kitchen", "url": "https://www.yelp.com/biz/wa-lung-kitchen-new-york?adjust_creative=gBcvfFpabk3CnzmXKdYe3w&utm_campaign=yelp_api_v3&utm_medium=api_v3_business_search&utm_source=gBcvfFpabk3CnzmXKdYe3w"}, {"transactions": ["delivery", "pickup"], "distance": 1327.107952058, "phone": "+12127668661", "categories": [{"alias": "thai", "title": "Thai"}, {"alias": "chinese", "title": "Chinese"}, {"alias": "japanese", "title": "Japanese"}], "id": "lemon-leaves-new-york", "display_phone": "(212) 766-8661", "is_closed": false, "location": {"address2": "", "country": "US", "display_address": ["45 Nassau St", "New York, NY 10005"], "address1": "45 Nassau St", "city": "New York", "zip_code": "10005", "address3": "", "state": "NY"}, "coordinates": {"longitude": -74.00926, "latitude": 40.70883}, "review_count": 24, "image_url": "https://s3-media2.fl.yelpcdn.com/bphoto/tonrBa6JXXlwYBrZ5CF8Ww/o.jpg", "price": "$$", "rating": 3.0, "name": "Lemon Leaves", "url": "https://www.yelp.com/biz/lemon-leaves-new-york?adjust_creative=gBcvfFpabk3CnzmXKdYe3w&utm_campaign=yelp_api_v3&utm_medium=api_v3_business_search&utm_source=gBcvfFpabk3CnzmXKdYe3w"}, {"transactions": [], "distance": 8060.94909636, "phone": "+17187868072", "categories": [{"alias": "peruvian", "title": "Peruvian"}, {"alias": "chinese", "title": "Chinese"}], "id": "chaufa-peruvian-chifa-long-island-city", "display_phone": "(718) 786-8072", "is_closed": false, "location": {"address2": "", "country": "US", "display_address": ["42-02 Northern Blvd", "Long Island City, NY 11101"], "address1": "42-02 Northern Blvd", "city": "Long Island City", "zip_code": "11101", "address3": "", "state": "NY"}, "coordinates": {"longitude": -73.9212728, "latitude": 40.7522769}, "review_count": 22, "image_url": "https://s3-media1.fl.yelpcdn.com/bphoto/4_9nRpS4aCR_UV0lVCjMLQ/o.jpg", "price": "$$", "rating": 4.0, "name": "Chaufa Peruvian Chifa", "url": "https://www.yelp.com/biz/chaufa-peruvian-chifa-long-island-city?adjust_creative=gBcvfFpabk3CnzmXKdYe3w&utm_campaign=yelp_api_v3&utm_medium=api_v3_business_search&utm_source=gBcvfFpabk3CnzmXKdYe3w"}, {"transactions": [], "distance": 1081.008483928, "phone": "+12122271810", "categories": [{"alias": "chinese", "title": "Chinese"}], "id": "peking-duck-house-new-york", "display_phone": "(212) 227-1810", "is_closed": false, "location": {"address2": "", "country": "US", "display_address": ["28 Mott St", "New York, NY 10013"], "address1": "28 Mott St", "city": "New York", "zip_code": "10013", "address3": "", "state": "NY"}, "coordinates": {"longitude": -73.998565, "latitude": 40.714637}, "review_count": 624, "image_url": "https://s3-media1.fl.yelpcdn.com/bphoto/PP52JLF3imh4sj1-i3ITEw/o.jpg", "price": "$$$", "rating": 3.5, "name": "Peking Duck House", "url": "https://www.yelp.com/biz/peking-duck-house-new-york?adjust_creative=gBcvfFpabk3CnzmXKdYe3w&utm_campaign=yelp_api_v3&utm_medium=api_v3_business_search&utm_source=gBcvfFpabk3CnzmXKdYe3w"}, {"transactions": [], "distance": 6814.815408269999, "phone": "+12126448885", "categories": [{"alias": "chinese", "title": "Chinese"}, {"alias": "asianfusion", "title": "Asian Fusion"}], "id": "philippe-by-philippe-chow-new-york", "display_phone": "(212) 644-8885", "is_closed": false, "location": {"address2": "", "country": "US", "display_address": ["33 E 60th St", "New York, NY 10065"], "address1": "33 E 60th St", "city": "New York", "zip_code": "10065", "address3": "", "state": "NY"}, "coordinates": {"longitude": -73.97039, "latitude": 40.76409}, "review_count": 441, "image_url": "https://s3-media2.fl.yelpcdn.com/bphoto/6dAYTq_0RBs4uczgNTTdIQ/o.jpg", "price": "$$$", "rating": 3.5, "name": "Philippe By Philippe Chow", "url": "https://www.yelp.com/biz/philippe-by-philippe-chow-new-york?adjust_creative=gBcvfFpabk3CnzmXKdYe3w&utm_campaign=yelp_api_v3&utm_medium=api_v3_business_search&utm_source=gBcvfFpabk3CnzmXKdYe3w"}, {"transactions": [], "distance": 11757.887607672, "phone": "+17183720010", "categories": [{"alias": "chinese", "title": "Chinese"}, {"alias": "noodles", "title": "Noodles"}], "id": "top-prosperity-dumpling-brooklyn", "display_phone": "(718) 372-0010", "is_closed": false, "location": {"address2": "", "country": "US", "display_address": ["2369 86th St", "Brooklyn, NY 11214"], "address1": "2369 86th St", "city": "Brooklyn", "zip_code": "11214", "address3": null, "state": "NY"}, "coordinates": {"longitude": -73.9896419271827, "latitude": 40.5997628863838}, "review_count": 58, "image_url": "https://s3-media1.fl.yelpcdn.com/bphoto/aurFEgxSN0QipOvcmqo7Rg/o.jpg", "price": "$", "rating": 3.5, "name": "Top Prosperity Dumpling", "url": "https://www.yelp.com/biz/top-prosperity-dumpling-brooklyn?adjust_creative=gBcvfFpabk3CnzmXKdYe3w&utm_campaign=yelp_api_v3&utm_medium=api_v3_business_search&utm_source=gBcvfFpabk3CnzmXKdYe3w"}, {"transactions": ["delivery", "pickup"], "distance": 2151.24098815, "phone": "+12122285888", "categories": [{"alias": "chinese", "title": "Chinese"}], "id": "china-wok-new-york", "display_phone": "(212) 228-5888", "is_closed": false, "location": {"address2": "", "country": "US", "display_address": ["199 E 3rd St", "New York, NY 10009"], "address1": "199 E 3rd St", "city": "New York", "zip_code": "10009", "address3": "", "state": "NY"}, "coordinates": {"longitude": -73.98311, "latitude": 40.72283}, "review_count": 41, "image_url": "https://s3-media2.fl.yelpcdn.com/bphoto/Ekd6Li4kZwd14XY4AzxINA/o.jpg", "price": "$", "rating": 3.0, "name": "China Wok", "url": "https://www.yelp.com/biz/china-wok-new-york?adjust_creative=gBcvfFpabk3CnzmXKdYe3w&utm_campaign=yelp_api_v3&utm_medium=api_v3_business_search&utm_source=gBcvfFpabk3CnzmXKdYe3w"}, {"transactions": [], "distance": 3518.730660422, "phone": "+17186225460", "categories": [{"alias": "chinese", "title": "Chinese"}], "id": "happy-happy-chinese-restaurant-brooklyn-2", "display_phone": "(718) 622-5460", "is_closed": false, "location": {"address2": "", "country": "US", "display_address": ["957 Fulton St", "Brooklyn, NY 11238"], "address1": "957 Fulton St", "city": "Brooklyn", "zip_code": "11238", "address3": "", "state": "NY"}, "coordinates": {"longitude": -73.9646224975586, "latitude": 40.6831893920898}, "review_count": 15, "image_url": "https://s3-media1.fl.yelpcdn.com/bphoto/MNqCtL1wAOZWGgDj0go5KQ/o.jpg", "price": "$", "rating": 3.0, "name": "Happy Happy Chinese Restaurant", "url": "https://www.yelp.com/biz/happy-happy-chinese-restaurant-brooklyn-2?adjust_creative=gBcvfFpabk3CnzmXKdYe3w&utm_campaign=yelp_api_v3&utm_medium=api_v3_business_search&utm_source=gBcvfFpabk3CnzmXKdYe3w"}, {"transactions": [], "distance": 8713.83017091, "phone": "+12128742780", "categories": [{"alias": "chinese", "title": "Chinese"}, {"alias": "cuban", "title": "Cuban"}], "id": "la-caridad-78-new-york", "display_phone": "(212) 874-2780", "is_closed": false, "location": {"address2": "", "country": "US", "display_address": ["2197 Broadway", "New York, NY 10024"], "address1": "2197 Broadway", "city": "New York", "zip_code": "10024", "address3": "", "state": "NY"}, "coordinates": {"longitude": -73.9807337, "latitude": 40.7832592}, "review_count": 160, "image_url": "https://s3-media3.fl.yelpcdn.com/bphoto/ibp6em7xJt3ysyzedAOzOQ/o.jpg", "price": "$$", "rating": 3.5, "name": "La Caridad 78", "url": "https://www.yelp.com/biz/la-caridad-78-new-york?adjust_creative=gBcvfFpabk3CnzmXKdYe3w&utm_campaign=yelp_api_v3&utm_medium=api_v3_business_search&utm_source=gBcvfFpabk3CnzmXKdYe3w"}, {"transactions": [], "distance": 10187.30164141, "phone": "+17183481730", "categories": [{"alias": "chinese", "title": "Chinese"}], "id": "new-wah-on-restaurant-brooklyn", "display_phone": "(718) 348-1730", "is_closed": false, "location": {"address2": "", "country": "US", "display_address": ["986 Sutter Ave", "Brooklyn, NY 11208"], "address1": "986 Sutter Ave", "city": "Brooklyn", "zip_code": "11208", "address3": "", "state": "NY"}, "coordinates": {"longitude": -73.882301, "latitude": 40.671096}, "review_count": 4, "image_url": "https://s3-media4.fl.yelpcdn.com/bphoto/A0OBnEtlD0wTdaOgmz7gZw/o.jpg", "price": "$", "rating": 4.5, "name": "New Wah On Restaurant", "url": "https://www.yelp.com/biz/new-wah-on-restaurant-brooklyn?adjust_creative=gBcvfFpabk3CnzmXKdYe3w&utm_campaign=yelp_api_v3&utm_medium=api_v3_business_search&utm_source=gBcvfFpabk3CnzmXKdYe3w"}, {"transactions": [], "distance": 11930.0213266, "phone": "+12123908886", "categories": [{"alias": "foodtrucks", "title": "Food Trucks"}, {"alias": "chinese", "title": "Chinese"}], "id": "uncle-luoyang-new-york-5", "display_phone": "(212) 390-8886", "is_closed": false, "location": {"address2": "", "country": "US", "display_address": ["3010 Broadway", "New York, NY 10027"], "address1": "3010 Broadway", "city": "New York", "zip_code": "10027", "address3": "", "state": "NY"}, "coordinates": {"longitude": -73.962353, "latitude": 40.8099709}, "review_count": 25, "image_url": "https://s3-media2.fl.yelpcdn.com/bphoto/FdrlJWhlL3N-yYeG0taWjg/o.jpg", "price": "$", "rating": 4.0, "name": "Uncle Luoyang", "url": "https://www.yelp.com/biz/uncle-luoyang-new-york-5?adjust_creative=gBcvfFpabk3CnzmXKdYe3w&utm_campaign=yelp_api_v3&utm_medium=api_v3_business_search&utm_source=gBcvfFpabk3CnzmXKdYe3w"}, {"transactions": [], "distance": 11819.379201599999, "phone": "+17182615154", "categories": [{"alias": "chinese", "title": "Chinese"}], "id": "wing-wah-restaurant-forest-hills", "display_phone": "(718) 261-5154", "is_closed": false, "location": {"address2": "", "country": "US", "display_address": ["9812 Metropolitan Ave", "Forest Hills, NY 11375"], "address1": "9812 Metropolitan Ave", "city": "Forest Hills", "zip_code": "11375", "address3": "", "state": "NY"}, "coordinates": {"longitude": -73.85427, "latitude": 40.710773}, "review_count": 22, "image_url": "https://s3-media2.fl.yelpcdn.com/bphoto/JbK4dPNw282cz_r3NGzHEQ/o.jpg", "price": "$", "rating": 4.0, "name": "Wing Wah Restaurant", "url": "https://www.yelp.com/biz/wing-wah-restaurant-forest-hills?adjust_creative=gBcvfFpabk3CnzmXKdYe3w&utm_campaign=yelp_api_v3&utm_medium=api_v3_business_search&utm_source=gBcvfFpabk3CnzmXKdYe3w"}, {"transactions": [], "distance": 9202.02748326, "phone": "+17186263633", "categories": [{"alias": "chinese", "title": "Chinese"}], "id": "no-1-chinese-restaurant-astoria", "display_phone": "(718) 626-3633", "is_closed": false, "location": {"address2": "", "country": "US", "display_address": ["30-23 30th Ave", "Astoria, NY 11102"], "address1": "30-23 30th Ave", "city": "Astoria", "zip_code": "11102", "address3": "", "state": "NY"}, "coordinates": {"longitude": -73.92144, "latitude": 40.76715}, "review_count": 45, "image_url": "https://s3-media3.fl.yelpcdn.com/bphoto/wEtjPRVqyseRGxYfFAnJ-A/o.jpg", "price": "$", "rating": 2.5, "name": "No.1 Chinese Restaurant", "url": "https://www.yelp.com/biz/no-1-chinese-restaurant-astoria?adjust_creative=gBcvfFpabk3CnzmXKdYe3w&utm_campaign=yelp_api_v3&utm_medium=api_v3_business_search&utm_source=gBcvfFpabk3CnzmXKdYe3w"}, {"transactions": ["delivery", "pickup"], "distance": 8916.28916626, "phone": "+12128315900", "categories": [{"alias": "chinese", "title": "Chinese"}], "id": "east-garden-chinese-restaurant-new-york", "display_phone": "(212) 831-5900", "is_closed": false, "location": {"address2": "", "country": "US", "display_address": ["1685 1st Ave", "New York, NY 10128"], "address1": "1685 1st Ave", "city": "New York", "zip_code": "10128", "address3": "", "state": "NY"}, "coordinates": {"longitude": -73.9490204, "latitude": 40.7779312}, "review_count": 34, "image_url": "https://s3-media4.fl.yelpcdn.com/bphoto/lRUrfMz2cpOyl68YXZ7GsA/o.jpg", "price": "$", "rating": 3.5, "name": "East Garden Chinese Restaurant", "url": "https://www.yelp.com/biz/east-garden-chinese-restaurant-new-york?adjust_creative=gBcvfFpabk3CnzmXKdYe3w&utm_campaign=yelp_api_v3&utm_medium=api_v3_business_search&utm_source=gBcvfFpabk3CnzmXKdYe3w"}, {"transactions": [], "distance": 7422.13445808, "phone": "", "categories": [{"alias": "chinese", "title": "Chinese"}], "id": "he-yi-xiaochi-inc-brooklyn", "display_phone": "", "is_closed": false, "location": {"address2": "", "country": "US", "display_address": ["5301 8th Ave", "Brooklyn, NY 11220"], "address1": "5301 8th Ave", "city": "Brooklyn", "zip_code": "11220", "address3": "", "state": "NY"}, "coordinates": {"longitude": -74.005318, "latitude": 40.639225}, "review_count": 4, "image_url": "https://s3-media2.fl.yelpcdn.com/bphoto/vaqwkfpBsfVTXFMjMy5vaA/o.jpg", "rating": 5.0, "name": "He Yi Xiaochi Inc", "url": "https://www.yelp.com/biz/he-yi-xiaochi-inc-brooklyn?adjust_creative=gBcvfFpabk3CnzmXKdYe3w&utm_campaign=yelp_api_v3&utm_medium=api_v3_business_search&utm_source=gBcvfFpabk3CnzmXKdYe3w"}, {"transactions": ["delivery", "pickup"], "distance": 6145.387582642, "phone": "+12129699001", "categories": [{"alias": "dimsum", "title": "Dim Sum"}], "id": "china-green-dim-sum-new-york", "display_phone": "(212) 969-9001", "is_closed": false, "location": {"address2": "", "country": "US", "display_address": ["368 W 46th St", "New York, NY 10036"], "address1": "368 W 46th St", "city": "New York", "zip_code": "10036", "address3": "", "state": "NY"}, "coordinates": {"longitude": -73.9904098510742, "latitude": 40.7605819702148}, "review_count": 102, "image_url": "https://s3-media1.fl.yelpcdn.com/bphoto/ir1KHxQKS3ZpOlOB0-PmzA/o.jpg", "price": "$$", "rating": 3.0, "name": "China Green Dim Sum", "url": "https://www.yelp.com/biz/china-green-dim-sum-new-york?adjust_creative=gBcvfFpabk3CnzmXKdYe3w&utm_campaign=yelp_api_v3&utm_medium=api_v3_business_search&utm_source=gBcvfFpabk3CnzmXKdYe3w"}, {"transactions": ["delivery", "pickup"], "distance": 9588.598354224, "phone": "+17182381300", "categories": [{"alias": "chinese", "title": "Chinese"}, {"alias": "sushi", "title": "Sushi Bars"}, {"alias": "japanese", "title": "Japanese"}], "id": "chopstix-brooklyn-4", "display_phone": "(718) 238-1300", "is_closed": false, "location": {"address2": "", "country": "US", "display_address": ["8405 5th Ave", "Brooklyn, NY 11209"], "address1": "8405 5th Ave", "city": "Brooklyn", "zip_code": "11209", "address3": "", "state": "NY"}, "coordinates": {"longitude": -74.0251922607422, "latitude": 40.622486114502}, "review_count": 188, "image_url": "https://s3-media2.fl.yelpcdn.com/bphoto/360qmxhI1MGTbQH6uG-Glw/o.jpg", "price": "$$", "rating": 3.0, "name": "ChopStix", "url": "https://www.yelp.com/biz/chopstix-brooklyn-4?adjust_creative=gBcvfFpabk3CnzmXKdYe3w&utm_campaign=yelp_api_v3&utm_medium=api_v3_business_search&utm_source=gBcvfFpabk3CnzmXKdYe3w"}, {"transactions": [], "distance": 11283.560231177999, "phone": "+17184466994", "categories": [{"alias": "chinese", "title": "Chinese"}], "id": "sun-hing-chinese-restaurant-jackson-heights", "display_phone": "(718) 446-6994", "is_closed": false, "location": {"address2": "", "country": "US", "display_address": ["8914 Northern Blvd", "Jackson Heights, NY 11372"], "address1": "8914 Northern Blvd", "city": "Jackson Heights", "zip_code": "11372", "address3": "", "state": "NY"}, "coordinates": {"longitude": -73.8782348632812, "latitude": 40.7560348510742}, "review_count": 7, "image_url": "https://s3-media2.fl.yelpcdn.com/bphoto/aY4kYEDthY50dm4ANFJ1rw/o.jpg", "price": "$", "rating": 4.0, "name": "Sun Hing Chinese Restaurant", "url": "https://www.yelp.com/biz/sun-hing-chinese-restaurant-jackson-heights?adjust_creative=gBcvfFpabk3CnzmXKdYe3w&utm_campaign=yelp_api_v3&utm_medium=api_v3_business_search&utm_source=gBcvfFpabk3CnzmXKdYe3w"}, {"transactions": ["delivery", "pickup"], "distance": 15873.44184616, "phone": "+12127950556", "categories": [{"alias": "chinese", "title": "Chinese"}, {"alias": "japanese", "title": "Japanese"}, {"alias": "seafood", "title": "Seafood"}], "id": "jade-garden-new-york-2", "display_phone": "(212) 795-0556", "is_closed": false, "location": {"address2": "", "country": "US", "display_address": ["4028 Broadway", "New York, NY 10032"], "address1": "4028 Broadway", "city": "New York", "zip_code": "10032", "address3": "", "state": "NY"}, "coordinates": {"longitude": -73.9389026440374, "latitude": 40.8418951405518}, "review_count": 41, "image_url": "https://s3-media1.fl.yelpcdn.com/bphoto/p1Pm4GK-3VQ9hup_7Pt4Cg/o.jpg", "price": "$", "rating": 3.5, "name": "Jade Garden", "url": "https://www.yelp.com/biz/jade-garden-new-york-2?adjust_creative=gBcvfFpabk3CnzmXKdYe3w&utm_campaign=yelp_api_v3&utm_medium=api_v3_business_search&utm_source=gBcvfFpabk3CnzmXKdYe3w"}, {"transactions": [], "distance": 7423.359165819999, "phone": "+17184398880", "categories": [{"alias": "bakeries", "title": "Bakeries"}, {"alias": "chinese", "title": "Chinese"}, {"alias": "coffee", "title": "Coffee & Tea"}], "id": "full-doe-brooklyn", "display_phone": "(718) 439-8880", "is_closed": false, "location": {"address2": "", "country": "US", "display_address": ["5905 4th Ave", "Brooklyn, NY 11220"], "address1": "5905 4th Ave", "city": "Brooklyn", "zip_code": "11220", "address3": "", "state": "NY"}, "coordinates": {"longitude": -74.017684, "latitude": 40.64112}, "review_count": 10, "image_url": "https://s3-media2.fl.yelpcdn.com/bphoto/2P5SE23d0Lpz65_waNVSFw/o.jpg", "price": "$", "rating": 4.5, "name": "Full Doe", "url": "https://www.yelp.com/biz/full-doe-brooklyn?adjust_creative=gBcvfFpabk3CnzmXKdYe3w&utm_campaign=yelp_api_v3&utm_medium=api_v3_business_search&utm_source=gBcvfFpabk3CnzmXKdYe3w"}, {"transactions": ["delivery", "pickup"], "distance": 13138.63405726, "phone": "+17182683815", "categories": [{"alias": "chinese", "title": "Chinese"}], "id": "fengs-garden-forest-hills", "display_phone": "(718) 268-3815", "is_closed": false, "location": {"address2": "", "country": "US", "display_address": ["11054 Queens Blvd", "Forest Hills, NY 11375"], "address1": "11054 Queens Blvd", "city": "Forest Hills", "zip_code": "11375", "address3": "", "state": "NY"}, "coordinates": {"longitude": -73.8393932, "latitude": 40.7190535}, "review_count": 43, "image_url": "https://s3-media2.fl.yelpcdn.com/bphoto/mfeO1cLTCxjWHBYED6YQxw/o.jpg", "price": "$", "rating": 3.5, "name": "Feng's Garden", "url": "https://www.yelp.com/biz/fengs-garden-forest-hills?adjust_creative=gBcvfFpabk3CnzmXKdYe3w&utm_campaign=yelp_api_v3&utm_medium=api_v3_business_search&utm_source=gBcvfFpabk3CnzmXKdYe3w"}, {"transactions": [], "distance": 7249.432964, "phone": "+17189533782", "categories": [{"alias": "chinese", "title": "Chinese"}], "id": "zhangs-garden-brooklyn", "display_phone": "(718) 953-3782", "is_closed": false, "location": {"address2": "", "country": "US", "display_address": ["1661 St Johns Pl", "Brooklyn, NY 11233"], "address1": "1661 St Johns Pl", "city": "Brooklyn", "zip_code": "11233", "address3": "", "state": "NY"}, "coordinates": {"longitude": -73.92179, "latitude": 40.67039}, "review_count": 3, "image_url": "https://s3-media1.fl.yelpcdn.com/bphoto/lvuTA6y_5WVg2eLzMmwaLA/o.jpg", "rating": 4.0, "name": "Zhangs Garden", "url": "https://www.yelp.com/biz/zhangs-garden-brooklyn?adjust_creative=gBcvfFpabk3CnzmXKdYe3w&utm_campaign=yelp_api_v3&utm_medium=api_v3_business_search&utm_source=gBcvfFpabk3CnzmXKdYe3w"}, {"transactions": [], "distance": 6349.975734812, "phone": "+17184977661", "categories": [{"alias": "chinese", "title": "Chinese"}], "id": "lee-garden-chinese-restaurant-brooklyn", "display_phone": "(718) 497-7661", "is_closed": false, "location": {"address2": "", "country": "US", "display_address": ["121 Wyckoff Ave", "Brooklyn, NY 11237"], "address1": "121 Wyckoff Ave", "city": "Brooklyn", "zip_code": "11237", "address3": "", "state": "NY"}, "coordinates": {"longitude": -73.91904, "latitude": 40.70433}, "review_count": 14, "image_url": "https://s3-media3.fl.yelpcdn.com/bphoto/4y6ozc-_rKGBfqv8O2x0Ug/o.jpg", "price": "$", "rating": 3.5, "name": "Lee Garden Chinese Restaurant", "url": "https://www.yelp.com/biz/lee-garden-chinese-restaurant-brooklyn?adjust_creative=gBcvfFpabk3CnzmXKdYe3w&utm_campaign=yelp_api_v3&utm_medium=api_v3_business_search&utm_source=gBcvfFpabk3CnzmXKdYe3w"}, {"transactions": [], "distance": 12291.809649035999, "phone": "+17187931550", "categories": [{"alias": "chinese", "title": "Chinese"}], "id": "hang-shing-kitchen-forest-hills", "display_phone": "(718) 793-1550", "is_closed": false, "location": {"address2": "", "country": "US", "display_address": ["10409 Metropolitan Ave", "Forest Hills, NY 11375"], "address1": "10409 Metropolitan Ave", "city": "Forest Hills", "zip_code": "11375", "address3": "", "state": "NY"}, "coordinates": {"longitude": -73.8485997417336, "latitude": 40.7102074072038}, "review_count": 14, "image_url": "https://s3-media2.fl.yelpcdn.com/bphoto/ZxpZbkmakXjtvKjxlfvuZA/o.jpg", "price": "$", "rating": 4.0, "name": "Hang Shing Kitchen", "url": "https://www.yelp.com/biz/hang-shing-kitchen-forest-hills?adjust_creative=gBcvfFpabk3CnzmXKdYe3w&utm_campaign=yelp_api_v3&utm_medium=api_v3_business_search&utm_source=gBcvfFpabk3CnzmXKdYe3w"}, {"transactions": [], "distance": 7356.549668795999, "phone": "+17183868731", "categories": [{"alias": "chinese", "title": "Chinese"}], "id": "luen-hop-chinese-kitchen-brooklyn", "display_phone": "(718) 386-8731", "is_closed": false, "location": {"address2": "", "country": "US", "display_address": ["469 Irving Ave", "Brooklyn, NY 11237"], "address1": "469 Irving Ave", "city": "Brooklyn", "zip_code": "11237", "address3": "", "state": "NY"}, "coordinates": {"longitude": -73.907981, "latitude": 40.695659}, "review_count": 6, "image_url": "https://s3-media1.fl.yelpcdn.com/bphoto/RLYLPbOz364-ze_HD_ykUQ/o.jpg", "price": "$", "rating": 4.5, "name": "Luen Hop Chinese Kitchen", "url": "https://www.yelp.com/biz/luen-hop-chinese-kitchen-brooklyn?adjust_creative=gBcvfFpabk3CnzmXKdYe3w&utm_campaign=yelp_api_v3&utm_medium=api_v3_business_search&utm_source=gBcvfFpabk3CnzmXKdYe3w"}, {"transactions": [], "distance": 1652.209920788, "phone": "+16464788242", "categories": [{"alias": "dimsum", "title": "Dim Sum"}, {"alias": "cantonese", "title": "Cantonese"}], "id": "nom-wah-nolita-new-york", "display_phone": "(646) 478-8242", "is_closed": false, "location": {"address2": null, "country": "US", "display_address": ["10 Kenmare St", "New York, NY 10012"], "address1": "10 Kenmare St", "city": "New York", "zip_code": "10012", "address3": "", "state": "NY"}, "coordinates": {"longitude": -73.9944789558649, "latitude": 40.7204154878855}, "review_count": 67, "image_url": "https://s3-media3.fl.yelpcdn.com/bphoto/OMKUdAe_EkmBCCO5znXZ5w/o.jpg", "price": "$$", "rating": 3.5, "name": "Nom Wah Nolita", "url": "https://www.yelp.com/biz/nom-wah-nolita-new-york?adjust_creative=gBcvfFpabk3CnzmXKdYe3w&utm_campaign=yelp_api_v3&utm_medium=api_v3_business_search&utm_source=gBcvfFpabk3CnzmXKdYe3w"}, {"transactions": [], "distance": 10444.133797999999, "phone": "+17188786603", "categories": [{"alias": "chinese", "title": "Chinese"}], "id": "sweet-yummy-house-elmhurst", "display_phone": "(718) 878-6603", "is_closed": false, "location": {"address2": "", "country": "US", "display_address": ["83-13 Broadway", "Elmhurst, NY 11373"], "address1": "83-13 Broadway", "city": "Elmhurst", "zip_code": "11373", "address3": "", "state": "NY"}, "coordinates": {"longitude": -73.87938, "latitude": 40.74095}, "review_count": 51, "image_url": "https://s3-media1.fl.yelpcdn.com/bphoto/Em5qjBB34RfrqyHYavqAEg/o.jpg", "price": "$$", "rating": 3.5, "name": "Sweet Yummy House", "url": "https://www.yelp.com/biz/sweet-yummy-house-elmhurst?adjust_creative=gBcvfFpabk3CnzmXKdYe3w&utm_campaign=yelp_api_v3&utm_medium=api_v3_business_search&utm_source=gBcvfFpabk3CnzmXKdYe3w"}, {"transactions": ["delivery", "pickup"], "distance": 3769.8665580819998, "phone": "+17186221685", "categories": [{"alias": "chinese", "title": "Chinese"}], "id": "no-1-chinese-restaurant-brooklyn-5", "display_phone": "(718) 622-1685", "is_closed": false, "location": {"address2": "", "country": "US", "display_address": ["1011 Bedford Ave", "Brooklyn, NY 11205"], "address1": "1011 Bedford Ave", "city": "Brooklyn", "zip_code": "11205", "address3": "", "state": "NY"}, "coordinates": {"longitude": -73.9549409, "latitude": 40.6893426}, "review_count": 23, "image_url": "https://s3-media2.fl.yelpcdn.com/bphoto/sAcmSGErkk7KgVoxatAieg/o.jpg", "price": "$", "rating": 3.0, "name": "No 1 Chinese Restaurant", "url": "https://www.yelp.com/biz/no-1-chinese-restaurant-brooklyn-5?adjust_creative=gBcvfFpabk3CnzmXKdYe3w&utm_campaign=yelp_api_v3&utm_medium=api_v3_business_search&utm_source=gBcvfFpabk3CnzmXKdYe3w"}, {"transactions": ["delivery", "pickup"], "distance": 13957.45498388, "phone": "+17188433288", "categories": [{"alias": "chinese", "title": "Chinese"}], "id": "ho-wan-restaurant-richmond-hill", "display_phone": "(718) 843-3288", "is_closed": false, "location": {"address2": "", "country": "US", "display_address": ["111-05 Liberty Ave", "Richmond Hill, NY 11419"], "address1": "111-05 Liberty Ave", "city": "Richmond Hill", "zip_code": "11419", "address3": "", "state": "NY"}, "coordinates": {"longitude": -73.83095, "latitude": 40.68508}, "review_count": 46, "image_url": "https://s3-media2.fl.yelpcdn.com/bphoto/RYblvTBDIx8hN_NWGwQaqQ/o.jpg", "price": "$$", "rating": 3.5, "name": "Ho Wan Restaurant", "url": "https://www.yelp.com/biz/ho-wan-restaurant-richmond-hill?adjust_creative=gBcvfFpabk3CnzmXKdYe3w&utm_campaign=yelp_api_v3&utm_medium=api_v3_business_search&utm_source=gBcvfFpabk3CnzmXKdYe3w"}, {"transactions": [], "distance": 4306.350829659999, "phone": "+12126200712", "categories": [{"alias": "chinese", "title": "Chinese"}], "id": "chelsea-golden-wok-new-york", "display_phone": "(212) 620-0712", "is_closed": false, "location": {"address2": "", "country": "US", "display_address": ["209 8th Ave", "New York, NY 10011"], "address1": "209 8th Ave", "city": "New York", "zip_code": "10011", "address3": "", "state": "NY"}, "coordinates": {"longitude": -73.999824, "latitude": 40.74401}, "review_count": 33, "image_url": "https://s3-media4.fl.yelpcdn.com/bphoto/V7gn4H2166w5Ngqbuyon8g/o.jpg", "price": "$", "rating": 3.0, "name": "Chelsea Golden Wok", "url": "https://www.yelp.com/biz/chelsea-golden-wok-new-york?adjust_creative=gBcvfFpabk3CnzmXKdYe3w&utm_campaign=yelp_api_v3&utm_medium=api_v3_business_search&utm_source=gBcvfFpabk3CnzmXKdYe3w"}, {"transactions": ["delivery", "pickup"], "distance": 5169.067953186, "phone": "+12125758899", "categories": [{"alias": "szechuan", "title": "Szechuan"}, {"alias": "bars", "title": "Bars"}], "id": "lan-sheng-szechuan-food-restaurant-new-york", "display_phone": "(212) 575-8899", "is_closed": false, "location": {"address2": null, "country": "US", "display_address": ["128 W 36th St", "New York, NY 10018"], "address1": "128 W 36th St", "city": "New York", "zip_code": "10018", "address3": "", "state": "NY"}, "coordinates": {"longitude": -73.9883603449123, "latitude": 40.7517141867087}, "review_count": 22, "image_url": "https://s3-media1.fl.yelpcdn.com/bphoto/mOSfgnG_txbUfoL-w7FeCQ/o.jpg", "price": "$$", "rating": 3.5, "name": "Lan Sheng Szechuan Food Restaurant", "url": "https://www.yelp.com/biz/lan-sheng-szechuan-food-restaurant-new-york?adjust_creative=gBcvfFpabk3CnzmXKdYe3w&utm_campaign=yelp_api_v3&utm_medium=api_v3_business_search&utm_source=gBcvfFpabk3CnzmXKdYe3w"}, {"transactions": [], "distance": 13425.61639408, "phone": "+17184415000", "categories": [{"alias": "chinese", "title": "Chinese"}], "id": "golden-fountain-kitchen-richmond-hill", "display_phone": "(718) 441-5000", "is_closed": false, "location": {"address2": "", "country": "US", "display_address": ["11616 Metropolitan Ave", "Richmond Hill, NY 11418"], "address1": "11616 Metropolitan Ave", "city": "Richmond Hill", "zip_code": "11418", "address3": "", "state": "NY"}, "coordinates": {"longitude": -73.8350343704224, "latitude": 40.707262693702}, "review_count": 75, "image_url": "https://s3-media1.fl.yelpcdn.com/bphoto/ukq-6ZMqxhCdredccqAhVA/o.jpg", "price": "$$", "rating": 3.0, "name": "Golden Fountain Kitchen", "url": "https://www.yelp.com/biz/golden-fountain-kitchen-richmond-hill?adjust_creative=gBcvfFpabk3CnzmXKdYe3w&utm_campaign=yelp_api_v3&utm_medium=api_v3_business_search&utm_source=gBcvfFpabk3CnzmXKdYe3w"}, {"transactions": ["delivery", "pickup"], "distance": 9820.838025340001, "phone": "+17183381666", "categories": [{"alias": "chinese", "title": "Chinese"}], "id": "lucky-garden-brooklyn", "display_phone": "(718) 338-1666", "is_closed": false, "location": {"address2": "", "country": "US", "display_address": ["2460 Nostrand Ave", "Brooklyn, NY 11210"], "address1": "2460 Nostrand Ave", "city": "Brooklyn", "zip_code": "11210", "address3": "", "state": "NY"}, "coordinates": {"longitude": -73.946823, "latitude": 40.624759}, "review_count": 7, "image_url": "https://s3-media3.fl.yelpcdn.com/bphoto/jdDCDffQUZLFPQPdOb8e7Q/o.jpg", "rating": 4.5, "name": "Lucky Garden", "url": "https://www.yelp.com/biz/lucky-garden-brooklyn?adjust_creative=gBcvfFpabk3CnzmXKdYe3w&utm_campaign=yelp_api_v3&utm_medium=api_v3_business_search&utm_source=gBcvfFpabk3CnzmXKdYe3w"}, {"transactions": [], "distance": 14881.01497638, "phone": "+17189393334", "categories": [{"alias": "hotpot", "title": "Hot Pot"}, {"alias": "chinese", "title": "Chinese"}], "id": "mister-hotpot-flushing-3", "display_phone": "(718) 939-3334", "is_closed": false, "location": {"address2": "Unit 2G", "country": "US", "display_address": ["133-42 39th Ave", "Unit 2G", "Flushing, NY 11354"], "address1": "133-42 39th Ave", "city": "Flushing", "zip_code": "11354", "address3": "", "state": "NY"}, "coordinates": {"longitude": -73.83265, "latitude": 40.75929}, "review_count": 196, "image_url": "https://s3-media3.fl.yelpcdn.com/bphoto/NNeIEwfDTWKUS_byKMo9zg/o.jpg", "price": "$$$", "rating": 4.0, "name": "Mister Hotpot", "url": "https://www.yelp.com/biz/mister-hotpot-flushing-3?adjust_creative=gBcvfFpabk3CnzmXKdYe3w&utm_campaign=yelp_api_v3&utm_medium=api_v3_business_search&utm_source=gBcvfFpabk3CnzmXKdYe3w"}, {"transactions": [], "distance": 15064.05969864, "phone": "+17183530086", "categories": [{"alias": "bbq", "title": "Barbeque"}, {"alias": "chinese", "title": "Chinese"}], "id": "zouji-bbq-flushing-2", "display_phone": "(718) 353-0086", "is_closed": false, "location": {"address2": null, "country": "US", "display_address": ["42-83 Main St", "Flushing, NY 11355"], "address1": "42-83 Main St", "city": "Flushing", "zip_code": "11355", "address3": "", "state": "NY"}, "coordinates": {"longitude": -73.82698, "latitude": 40.75316}, "review_count": 10, "image_url": "https://s3-media3.fl.yelpcdn.com/bphoto/8HRra1bhSL8P5O6FgEEFoQ/o.jpg", "price": "$$", "rating": 4.5, "name": "Zouji BBQ", "url": "https://www.yelp.com/biz/zouji-bbq-flushing-2?adjust_creative=gBcvfFpabk3CnzmXKdYe3w&utm_campaign=yelp_api_v3&utm_medium=api_v3_business_search&utm_source=gBcvfFpabk3CnzmXKdYe3w"}, {"transactions": [], "distance": 14098.919188559998, "phone": "+12122810808", "categories": [{"alias": "chinese", "title": "Chinese"}], "id": "golden-wok-new-york-2", "display_phone": "(212) 281-0808", "is_closed": false, "location": {"address2": "", "country": "US", "display_address": ["1770 Amsterdam Ave", "New York, NY 10031"], "address1": "1770 Amsterdam Ave", "city": "New York", "zip_code": "10031", "address3": "", "state": "NY"}, "coordinates": {"longitude": -73.946723, "latitude": 40.827003}, "review_count": 41, "image_url": "https://s3-media2.fl.yelpcdn.com/bphoto/4KQQexNHk0qbSuS-jeKnYw/o.jpg", "price": "$", "rating": 3.5, "name": "Golden Wok", "url": "https://www.yelp.com/biz/golden-wok-new-york-2?adjust_creative=gBcvfFpabk3CnzmXKdYe3w&utm_campaign=yelp_api_v3&utm_medium=api_v3_business_search&utm_source=gBcvfFpabk3CnzmXKdYe3w"}, {"transactions": ["delivery", "pickup"], "distance": 5900.916122856, "phone": "+17188211172", "categories": [{"alias": "chinese", "title": "Chinese"}], "id": "a-shen-zhou-restaurant-brooklyn", "display_phone": "(718) 821-1172", "is_closed": false, "location": {"address2": "", "country": "US", "display_address": ["159 Wilson Ave", "Brooklyn, NY 11237"], "address1": "159 Wilson Ave", "city": "Brooklyn", "zip_code": "11237", "address3": "", "state": "NY"}, "coordinates": {"longitude": -73.924598, "latitude": 40.700347}, "review_count": 50, "image_url": "https://s3-media1.fl.yelpcdn.com/bphoto/4fvfzDx1VmBoj-Ml7wvx6g/o.jpg", "price": "$", "rating": 3.0, "name": "A Shen Zhou Restaurant", "url": "https://www.yelp.com/biz/a-shen-zhou-restaurant-brooklyn?adjust_creative=gBcvfFpabk3CnzmXKdYe3w&utm_campaign=yelp_api_v3&utm_medium=api_v3_business_search&utm_source=gBcvfFpabk3CnzmXKdYe3w"}, {"transactions": ["delivery", "pickup"], "distance": 11121.101059659999, "phone": "+12122224800", "categories": [{"alias": "chinese", "title": "Chinese"}], "id": "legend-upper-west-new-york", "display_phone": "(212) 222-4800", "is_closed": false, "location": {"address2": null, "country": "US", "display_address": ["258 W 109th St", "New York, NY 10025"], "address1": "258 W 109th St", "city": "New York", "zip_code": "10025", "address3": "", "state": "NY"}, "coordinates": {"longitude": -73.9659275114536, "latitude": 40.8030047267675}, "review_count": 113, "image_url": "https://s3-media1.fl.yelpcdn.com/bphoto/8log29kFup8ti1xTuMwl2Q/o.jpg", "price": "$$", "rating": 3.0, "name": "Legend Upper West", "url": "https://www.yelp.com/biz/legend-upper-west-new-york?adjust_creative=gBcvfFpabk3CnzmXKdYe3w&utm_campaign=yelp_api_v3&utm_medium=api_v3_business_search&utm_source=gBcvfFpabk3CnzmXKdYe3w"}, {"transactions": ["delivery", "pickup"], "distance": 8363.34730104, "phone": "+17184173667", "categories": [{"alias": "chinese", "title": "Chinese"}, {"alias": "asianfusion", "title": "Asian Fusion"}], "id": "ye-garden-ridgewood", "display_phone": "(718) 417-3667", "is_closed": false, "location": {"address2": "", "country": "US", "display_address": ["71-02 Fresh Pond Rd", "Ridgewood, NY 11385"], "address1": "71-02 Fresh Pond Rd", "city": "Ridgewood", "zip_code": "11385", "address3": "", "state": "NY"}, "coordinates": {"longitude": -73.8952, "latitude": 40.70169}, "review_count": 8, "image_url": "https://s3-media3.fl.yelpcdn.com/bphoto/PqHgzIjPgoMkruMB_Smirw/o.jpg", "price": "$", "rating": 4.0, "name": "Ye Garden", "url": "https://www.yelp.com/biz/ye-garden-ridgewood?adjust_creative=gBcvfFpabk3CnzmXKdYe3w&utm_campaign=yelp_api_v3&utm_medium=api_v3_business_search&utm_source=gBcvfFpabk3CnzmXKdYe3w"}]}