{"region": {"center": {"longitude": -73.99429321289062, "latitude": 40.70544486444615}}, "total": 2613, "businesses": [{"transactions": [], "distance": 700.2096235278, "phone": "+12122332433", "categories": [{"alias": "chinese", "title": "Chinese"}], "id": "food-king-new-york", "display_phone": "(212) 233-2433", "is_closed": false, "location": {"address2": "", "country": "US", "display_address": ["56 Market St", "New York, NY 10002"], "address1": "56 Market St", "city": "New York", "zip_code": "10002", "address3": "", "state": "NY"}, "coordinates": {"longitude": -73.994018, "latitude": 40.711727}, "review_count": 4, "image_url": "https://s3-media4.fl.yelpcdn.com/bphoto/5mDZW3Yatwd9aVsta4c4LQ/o.jpg", "price": "$", "rating": 4.0, "name": "Food King", "url": "https://www.yelp.com/biz/food-king-new-york?adjust_creative=gBcvfFpabk3CnzmXKdYe3w&utm_campaign=yelp_api_v3&utm_medium=api_v3_business_search&utm_source=gBcvfFpabk3CnzmXKdYe3w"}, {"transactions": ["delivery", "pickup"], "distance": 12632.99874134, "phone": "+17182415261", "categories": [{"alias": "chinese", "title": "Chinese"}], "id": "kings-wok-brooklyn", "display_phone": "(718) 241-5261", "is_closed": false, "location": {"address2": null, "country": "US", "display_address": ["6179 Strickland Ave", "Brooklyn, NY 11234"], "address1": "6179 Strickland Ave", "city": "Brooklyn", "zip_code": "11234", "address3": null, "state": "NY"}, "coordinates": {"longitude": -73.9121337980032, "latitude": 40.6134147942066}, "review_count": 4, "image_url": "https://s3-media2.fl.yelpcdn.com/bphoto/jKeedpmFOo6zeDpLOqAD5A/o.jpg", "rating": 4.5, "name": "King's Wok", "url": "https://www.yelp.com/biz/kings-wok-brooklyn?adjust_creative=gBcvfFpabk3CnzmXKdYe3w&utm_campaign=yelp_api_v3&utm_medium=api_v3_business_search&utm_source=gBcvfFpabk3CnzmXKdYe3w"}, {"transactions": [], "distance": 10360.84079696, "phone": "+17183263998", "categories": [{"alias": "chinese", "title": "Chinese"}, {"alias": "japanese", "title": "Japanese"}], "id": "jade-bamboo-middle-village", "display_phone": "(718) 326-3998", "is_closed": false, "location": {"address2": "", "country": "US", "display_address": ["64-72 Dry Harbor Rd", "Middle Village, NY 11379"], "address1": "64-72 Dry Harbor Rd", "city": "Middle Village", "zip_code": "11379", "address3": "", "state": "NY"}, "coordinates": {"longitude": -73.8726034015417, "latitude": 40.7182563096285}, "review_count": 18, "image_url": "https://s3-media2.fl.yelpcdn.com/bphoto/LF1OAxSCa62F9BB__z-llw/o.jpg", "price": "$$$", "rating": 3.5, "name": "Jade Bamboo", "url": "https://www.yelp.com/biz/jade-bamboo-middle-village?adjust_creative=gBcvfFpabk3CnzmXKdYe3w&utm_campaign=yelp_api_v3&utm_medium=api_v3_business_search&utm_source=gBcvfFpabk3CnzmXKdYe3w"}, {"transactions": [], "distance": 15763.73152902, "phone": "+17182935194", "categories": [{"alias": "chinese", "title": "Chinese"}], "id": "eastern-style-chinese-bronx", "display_phone": "(718) 293-5194", "is_closed": false, "location": {"address2": "", "country": "US", "display_address": ["1233 Grant Ave", "Bronx, NY 10456"], "address1": "1233 Grant Ave", "city": "Bronx", "zip_code": "10456", "address3": "", "state": "NY"}, "coordinates": {"longitude": -73.915092, "latitude": 40.833897}, "review_count": 4, "image_url": "https://s3-media2.fl.yelpcdn.com/bphoto/8dpPXJj1JlOE4acEcowUfQ/o.jpg", "price": "$", "rating": 4.0, "name": "Eastern Style Chinese", "url": "https://www.yelp.com/biz/eastern-style-chinese-bronx?adjust_creative=gBcvfFpabk3CnzmXKdYe3w&utm_campaign=yelp_api_v3&utm_medium=api_v3_business_search&utm_source=gBcvfFpabk3CnzmXKdYe3w"}, {"transactions": [], "distance": 7460.561312996, "phone": "+17182878173", "categories": [{"alias": "chinese", "title": "Chinese"}], "id": "cam-tak-express-restaurant-brooklyn", "display_phone": "(718) 287-8173", "is_closed": false, "location": {"address2": "", "country": "US", "display_address": ["1073 Flatbush Ave", "Brooklyn, NY 11226"], "address1": "1073 Flatbush Ave", "city": "Brooklyn", "zip_code": "11226", "address3": "", "state": "NY"}, "coordinates": {"longitude": -73.9576187133789, "latitude": 40.6443786621094}, "review_count": 7, "image_url": "https://s3-media2.fl.yelpcdn.com/bphoto/FPNFsxi47ZBy9fXnXIod8A/o.jpg", "price": "$", "rating": 3.5, "name": "Cam Tak Express Restaurant", "url": "https://www.yelp.com/biz/cam-tak-express-restaurant-brooklyn?adjust_creative=gBcvfFpabk3CnzmXKdYe3w&utm_campaign=yelp_api_v3&utm_medium=api_v3_business_search&utm_source=gBcvfFpabk3CnzmXKdYe3w"}, {"transactions": ["delivery", "pickup"], "distance": 10808.92933316, "phone": "+17182969575", "categories": [{"alias": "chinese", "title": "Chinese"}], "id": "eastern-restaurant-woodhaven", "display_phone": "(718) 296-9575", "is_closed": false, "location": {"address2": "", "country": "US", "display_address": ["7422 Jamaica Ave", "Woodhaven, NY 11421"], "address1": "7422 Jamaica Ave", "city": "Woodhaven", "zip_code": "11421", "address3": "", "state": "NY"}, "coordinates": {"longitude": -73.8674676418304, "latitude": 40.6911573828151}, "review_count": 6, "image_url": "https://s3-media1.fl.yelpcdn.com/bphoto/-GAaOmLlDcCXJAwyIq6Ijw/o.jpg", "rating": 3.5, "name": "Eastern Restaurant", "url": "https://www.yelp.com/biz/eastern-restaurant-woodhaven?adjust_creative=gBcvfFpabk3CnzmXKdYe3w&utm_campaign=yelp_api_v3&utm_medium=api_v3_business_search&utm_source=gBcvfFpabk3CnzmXKdYe3w"}, {"transactions": [], "distance": 1340.028055446, "phone": "+12122740696", "categories": [{"alias": "cantonese", "title": "Cantonese"}], "id": "wong-kee-restaurant-new-york", "display_phone": "(212) 274-0696", "is_closed": false, "location": {"address2": "", "country": "US", "display_address": ["102 Mott St", "New York, NY 10013"], "address1": "102 Mott St", "city": "New York", "zip_code": "10013", "address3": "", "state": "NY"}, "coordinates": {"longitude": -73.9974051479728, "latitude": 40.7172623132685}, "review_count": 324, "image_url": "https://s3-media3.fl.yelpcdn.com/bphoto/FWaBQNMohS_XJwTG5_--QQ/o.jpg", "price": "$", "rating": 3.5, "name": "Wong Kee Restaurant", "url": "https://www.yelp.com/biz/wong-kee-restaurant-new-york?adjust_creative=gBcvfFpabk3CnzmXKdYe3w&utm_campaign=yelp_api_v3&utm_medium=api_v3_business_search&utm_source=gBcvfFpabk3CnzmXKdYe3w"}, {"transactions": [], "distance": 17505.2578886, "phone": "+17183223446", "categories": [{"alias": "chinese", "title": "Chinese"}], "id": "panda-chinese-restaurant-jamaica", "display_phone": "(718) 322-3446", "is_closed": false, "location": {"address2": "", "country": "US", "display_address": ["14611 Rockaway Blvd", "Jamaica, NY 11436"], "address1": "14611 Rockaway Blvd", "city": "Jamaica", "zip_code": "11436", "address3": "", "state": "NY"}, "coordinates": {"longitude": -73.7909336577637, "latitude": 40.6737209940604}, "review_count": 24, "image_url": "https://s3-media3.fl.yelpcdn.com/bphoto/x1fOrStYKKKKSVj373mEGg/o.jpg", "price": "$$", "rating": 3.5, "name": "Panda Chinese Restaurant", "url": "https://www.yelp.com/biz/panda-chinese-restaurant-jamaica?adjust_creative=gBcvfFpabk3CnzmXKdYe3w&utm_campaign=yelp_api_v3&utm_medium=api_v3_business_search&utm_source=gBcvfFpabk3CnzmXKdYe3w"}, {"transactions": [], "distance": 9637.895818038, "phone": "+17182354829", "categories": [{"alias": "hotdogs", "title": "Fast Food"}, {"alias": "chinese", "title": "Chinese"}], "id": "long-cheng-brooklyn", "display_phone": "(718) 235-4829", "is_closed": false, "location": {"address2": "", "country": "US", "display_address": ["2977 Fulton St", "Brooklyn, NY 11208"], "address1": "2977 Fulton St", "city": "Brooklyn", "zip_code": "11208", "address3": "", "state": "NY"}, "coordinates": {"longitude": -73.88503, "latitude": 40.68004}, "review_count": 3, "image_url": "https://s3-media3.fl.yelpcdn.com/bphoto/_rMEit-nDxChAzNWLhacCw/o.jpg", "price": "$", "rating": 4.0, "name": "Long Cheng", "url": "https://www.yelp.com/biz/long-cheng-brooklyn?adjust_creative=gBcvfFpabk3CnzmXKdYe3w&utm_campaign=yelp_api_v3&utm_medium=api_v3_business_search&utm_source=gBcvfFpabk3CnzmXKdYe3w"}, {"transactions": [], "distance": 9233.09659663, "phone": "+12128607600", "categories": [{"alias": "chinese", "title": "Chinese"}], "id": "pic-up-stix-new-york-2", "display_phone": "(212) 860-7600", "is_closed": false, "location": {"address2": "", "country": "US", "display_address": ["1372 Lexington Ave", "New York, NY 10128"], "address1": "1372 Lexington Ave", "city": "New York", "zip_code": "10128", "address3": "", "state": "NY"}, "coordinates": {"longitude": -73.9536133, "latitude": 40.7824593}, "review_count": 46, "image_url": "https://s3-media2.fl.yelpcdn.com/bphoto/-_8UoxbhC5OiuRtlGwrlkg/o.jpg", "price": "$", "rating": 3.0, "name": "Pic Up Stix", "url": "https://www.yelp.com/biz/pic-up-stix-new-york-2?adjust_creative=gBcvfFpabk3CnzmXKdYe3w&utm_campaign=yelp_api_v3&utm_medium=api_v3_business_search&utm_source=gBcvfFpabk3CnzmXKdYe3w"}, {"transactions": [], "distance": 13053.69792008, "phone": "+17188059200", "categories": [{"alias": "chinese", "title": "Chinese"}], "id": "china-house-restaurant-ozone-park", "display_phone": "(718) 805-9200", "is_closed": false, "location": {"address2": "", "country": "US", "display_address": ["10408 Atlantic Ave", "Ozone Park, NY 11416"], "address1": "10408 Atlantic Ave", "city": "Ozone Park", "zip_code": "11416", "address3": "", "state": "NY"}, "coordinates": {"longitude": -73.8407288, "latitude": 40.6902428}, "review_count": 4, "image_url": "https://s3-media3.fl.yelpcdn.com/bphoto/N6DUA-x_ItL8msQmFT5eXA/o.jpg", "price": "$", "rating": 4.0, "name": "China House Restaurant", "url": "https://www.yelp.com/biz/china-house-restaurant-ozone-park?adjust_creative=gBcvfFpabk3CnzmXKdYe3w&utm_campaign=yelp_api_v3&utm_medium=api_v3_business_search&utm_source=gBcvfFpabk3CnzmXKdYe3w"}, {"transactions": [], "distance": 7470.49029706, "phone": "+12125880806", "categories": [{"alias": "chinese", "title": "Chinese"}], "id": "china-1-kitchen-new-york", "display_phone": "(212) 588-0806", "is_closed": false, "location": {"address2": "", "country": "US", "display_address": ["609 Main St", "New York, NY 10044"], "address1": "609 Main St", "city": "New York", "zip_code": "10044", "address3": "", "state": "NY"}, "coordinates": {"longitude": -73.9490040654764, "latitude": 40.7632023290684}, "review_count": 39, "image_url": "https://s3-media2.fl.yelpcdn.com/bphoto/dysdqJmGhQkN1tRVJmLJXQ/o.jpg", "price": "$", "rating": 2.5, "name": "China 1 Kitchen", "url": "https://www.yelp.com/biz/china-1-kitchen-new-york?adjust_creative=gBcvfFpabk3CnzmXKdYe3w&utm_campaign=yelp_api_v3&utm_medium=api_v3_business_search&utm_source=gBcvfFpabk3CnzmXKdYe3w"}, {"transactions": [], "distance": 17125.88977974, "phone": "+17189831111", "categories": [{"alias": "asianfusion", "title": "Asian Fusion"}, {"alias": "chinese", "title": "Chinese"}, {"alias": "seafood", "title": "Seafood"}], "id": "empire-east-ny-staten-island", "display_phone": "(718) 983-1111", "is_closed": false, "location": {"address2": "", "country": "US", "display_address": ["1445 Richmond Ave", "Staten Island, NY 10314"], "address1": "1445 Richmond Ave", "city": "Staten Island", "zip_code": "10314", "address3": "", "state": "NY"}, "coordinates": {"longitude": -74.1574104, "latitude": 40.61374}, "review_count": 41, "image_url": "https://s3-media3.fl.yelpcdn.com/bphoto/zMbTSK1hIlvR2gQQDHJkOw/o.jpg", "price": "$$", "rating": 3.0, "name": "Empire East NY", "url": "https://www.yelp.com/biz/empire-east-ny-staten-island?adjust_creative=gBcvfFpabk3CnzmXKdYe3w&utm_campaign=yelp_api_v3&utm_medium=api_v3_business_search&utm_source=gBcvfFpabk3CnzmXKdYe3w"}, {"transactions": ["delivery", "pickup"], "distance": 15539.502186819998, "phone": "+19179628583", "categories": [{"alias": "chinese", "title": "Chinese"}], "id": "new-king-garden-jamaica", "display_phone": "(917) 962-8583", "is_closed": false, "location": {"address2": "", "country": "US", "display_address": ["146-12 Hillside Ave", "Jamaica, NY 11435"], "address1": "146-12 Hillside Ave", "city": "Jamaica", "zip_code": "11435", "address3": "", "state": "NY"}, "coordinates": {"longitude": -73.8099823, "latitude": 40.7053604}, "review_count": 7, "image_url": "https://s3-media1.fl.yelpcdn.com/bphoto/W1-N85bdQSmr2b5KFeqGDA/o.jpg", "price": "$", "rating": 3.5, "name": "New King Garden", "url": "https://www.yelp.com/biz/new-king-garden-jamaica?adjust_creative=gBcvfFpabk3CnzmXKdYe3w&utm_campaign=yelp_api_v3&utm_medium=api_v3_business_search&utm_source=gBcvfFpabk3CnzmXKdYe3w"}, {"transactions": ["delivery", "pickup"], "distance": 9613.160745039999, "phone": "+17182048999", "categories": [{"alias": "chinese", "title": "Chinese"}], "id": "golden-kitchen-astoria", "display_phone": "(718) 204-8999", "is_closed": false, "location": {"address2": "", "country": "US", "display_address": ["2921 Astoria Blvd", "Astoria, NY 11102"], "address1": "2921 Astoria Blvd", "city": "Astoria", "zip_code": "11102", "address3": "", "state": "NY"}, "coordinates": {"longitude": -73.9190678626333, "latitude": 40.7704481038437}, "review_count": 19, "image_url": "https://s3-media3.fl.yelpcdn.com/bphoto/H3CEuu56m8QVnJY9_0nEiA/o.jpg", "price": "$", "rating": 3.0, "name": "Golden Kitchen", "url": "https://www.yelp.com/biz/golden-kitchen-astoria?adjust_creative=gBcvfFpabk3CnzmXKdYe3w&utm_campaign=yelp_api_v3&utm_medium=api_v3_business_search&utm_source=gBcvfFpabk3CnzmXKdYe3w"}, {"transactions": ["delivery", "pickup"], "distance": 5785.77685816, "phone": "+17188323888", "categories": [{"alias": "chinese", "title": "Chinese"}, {"alias": "noodles", "title": "Noodles"}], "id": "prosperity-noodle-brooklyn", "display_phone": "(718) 832-3888", "is_closed": false, "location": {"address2": "", "country": "US", "display_address": ["947 4th Ave", "Brooklyn, NY 11232"], "address1": "947 4th Ave", "city": "Brooklyn", "zip_code": "11232", "address3": "", "state": "NY"}, "coordinates": {"longitude": -74.0044088, "latitude": 40.6539818}, "review_count": 12, "image_url": "https://s3-media1.fl.yelpcdn.com/bphoto/dx_nxAXfEt9Cpkjq_KM_2Q/o.jpg", "price": "$", "rating": 3.5, "name": "Prosperity Noodle", "url": "https://www.yelp.com/biz/prosperity-noodle-brooklyn?adjust_creative=gBcvfFpabk3CnzmXKdYe3w&utm_campaign=yelp_api_v3&utm_medium=api_v3_business_search&utm_source=gBcvfFpabk3CnzmXKdYe3w"}, {"transactions": [], "distance": 10693.438910476, "phone": "+17184461006", "categories": [{"alias": "chinese", "title": "Chinese"}, {"alias": "hotdogs", "title": "Fast Food"}], "id": "spring-garden-rego-park", "display_phone": "(718) 446-1006", "is_closed": false, "location": {"address2": "", "country": "US", "display_address": ["6224 Woodhaven Blvd", "Rego Park, NY 11374"], "address1": "6224 Woodhaven Blvd", "city": "Rego Park", "zip_code": "11374", "address3": "", "state": "NY"}, "coordinates": {"longitude": -73.870636, "latitude": 40.7264786}, "review_count": 4, "image_url": "https://s3-media1.fl.yelpcdn.com/bphoto/4fSRgRQKXpL9aBeo19W6Zw/o.jpg", "price": "$", "rating": 4.0, "name": "Spring Garden", "url": "https://www.yelp.com/biz/spring-garden-rego-park?adjust_creative=gBcvfFpabk3CnzmXKdYe3w&utm_campaign=yelp_api_v3&utm_medium=api_v3_business_search&utm_source=gBcvfFpabk3CnzmXKdYe3w"}, {"transactions": ["delivery", "pickup"], "distance": 21668.62368728, "phone": "+17189486562", "categories": [{"alias": "szechuan", "title": "Szechuan"}], "id": "ho-wok-staten-island", "display_phone": "(718) 948-6562", "is_closed": false, "location": {"address2": "", "country": "US", "display_address": ["692 Arthur Kill Rd", "Staten Island, NY 10308"], "address1": "692 Arthur Kill Rd", "city": "Staten Island", "zip_code": "10308", "address3": "", "state": "NY"}, "coordinates": {"longitude": -74.1639321, "latitude": 40.5601429}, "review_count": 14, "image_url": "https://s3-media2.fl.yelpcdn.com/bphoto/czjuXHpnt3fOwhnfooUUNg/o.jpg", "price": "$", "rating": 4.0, "name": "Ho Wok", "url": "https://www.yelp.com/biz/ho-wok-staten-island?adjust_creative=gBcvfFpabk3CnzmXKdYe3w&utm_campaign=yelp_api_v3&utm_medium=api_v3_business_search&utm_source=gBcvfFpabk3CnzmXKdYe3w"}, {"transactions": ["delivery", "pickup"], "distance": 9880.44315092, "phone": "+17183261989", "categories": [{"alias": "chinese", "title": "Chinese"}], "id": "new-china-middle-village", "display_phone": "(718) 326-1989", "is_closed": false, "location": {"address2": "", "country": "US", "display_address": ["74-19 Metropolitan Ave", "Middle Village, NY 11379"], "address1": "74-19 Metropolitan Ave", "city": "Middle Village", "zip_code": "11379", "address3": "", "state": "NY"}, "coordinates": {"longitude": -73.8775253, "latitude": 40.7130356}, "review_count": 19, "image_url": "https://s3-media3.fl.yelpcdn.com/bphoto/s1K2ge2z3slBvKCfFMjepg/o.jpg", "price": "$", "rating": 3.0, "name": "New China", "url": "https://www.yelp.com/biz/new-china-middle-village?adjust_creative=gBcvfFpabk3CnzmXKdYe3w&utm_campaign=yelp_api_v3&utm_medium=api_v3_business_search&utm_source=gBcvfFpabk3CnzmXKdYe3w"}, {"transactions": [], "distance": 15034.83488891, "phone": "+17187080888", "categories": [{"alias": "chinese", "title": "Chinese"}], "id": "sheng-jin-eatery-flushing", "display_phone": "(718) 708-0888", "is_closed": false, "location": {"address2": "", "country": "US", "display_address": ["41-40 Main St", "Flushing, NY 11354"], "address1": "41-40 Main St", "city": "Flushing", "zip_code": "11354", "address3": "", "state": "NY"}, "coordinates": {"longitude": -73.82933, "latitude": 40.757}, "review_count": 24, "image_url": "https://s3-media3.fl.yelpcdn.com/bphoto/HQyWTA7BGUlXMu2Lg59r3Q/o.jpg", "price": "$", "rating": 4.0, "name": "Sheng Jin Eatery", "url": "https://www.yelp.com/biz/sheng-jin-eatery-flushing?adjust_creative=gBcvfFpabk3CnzmXKdYe3w&utm_campaign=yelp_api_v3&utm_medium=api_v3_business_search&utm_source=gBcvfFpabk3CnzmXKdYe3w"}, {"transactions": [], "distance": 7843.833519761999, "phone": "+17188333777", "categories": [{"alias": "dimsum", "title": "Dim Sum"}, {"alias": "cantonese", "title": "Cantonese"}, {"alias": "seafood", "title": "Seafood"}], "id": "golden-imperial-palace-\u91d1\u7687\u5ead-brooklyn", "display_phone": "(718) 833-3777", "is_closed": false, "location": {"address2": "", "country": "US", "display_address": ["618 62nd St", "Brooklyn, NY 11220"], "address1": "618 62nd St", "city": "Brooklyn", "zip_code": "11220", "address3": "", "state": "NY"}, "coordinates": {"longitude": -74.0148926, "latitude": 40.6366692}, "review_count": 93, "image_url": "https://s3-media2.fl.yelpcdn.com/bphoto/J5R-W7MaR8_kH-RGljL9ZA/o.jpg", "price": "$$", "rating": 3.5, "name": "Golden Imperial Palace \u91d1\u7687\u5ead", "url": "https://www.yelp.com/biz/golden-imperial-palace-%E9%87%91%E7%9A%87%E5%BA%AD-brooklyn?adjust_creative=gBcvfFpabk3CnzmXKdYe3w&utm_campaign=yelp_api_v3&utm_medium=api_v3_business_search&utm_source=gBcvfFpabk3CnzmXKdYe3w"}, {"transactions": [], "distance": 6385.210624771999, "phone": "+17184821117", "categories": [{"alias": "chinese", "title": "Chinese"}], "id": "mr-wonton-chinese-restaurant-long-island-city", "display_phone": "(718) 482-1117", "is_closed": false, "location": {"address2": "", "country": "US", "display_address": ["2604 Jackson Ave", "Long Island City, NY 11101"], "address1": "2604 Jackson Ave", "city": "Long Island City", "zip_code": "11101", "address3": "", "state": "NY"}, "coordinates": {"longitude": -73.941986, "latitude": 40.746978}, "review_count": 30, "image_url": "https://s3-media1.fl.yelpcdn.com/bphoto/40B_PoALC1yB6GOYMw8GFA/o.jpg", "price": "$", "rating": 2.0, "name": "Mr Wonton Chinese Restaurant", "url": "https://www.yelp.com/biz/mr-wonton-chinese-restaurant-long-island-city?adjust_creative=gBcvfFpabk3CnzmXKdYe3w&utm_campaign=yelp_api_v3&utm_medium=api_v3_business_search&utm_source=gBcvfFpabk3CnzmXKdYe3w"}, {"transactions": [], "distance": 14851.55922636, "phone": "+17186659630", "categories": [{"alias": "chinese", "title": "Chinese"}], "id": "good-taste-chinese-restaurant-bronx-5", "display_phone": "(718) 665-9630", "is_closed": false, "location": {"address2": "", "country": "US", "display_address": ["281 E 161st St", "Bronx, NY 10451"], "address1": "281 E 161st St", "city": "Bronx", "zip_code": "10451", "address3": "", "state": "NY"}, "coordinates": {"longitude": -73.9177017, "latitude": 40.8257713}, "review_count": 5, "image_url": "https://s3-media2.fl.yelpcdn.com/bphoto/QZfTFSapoOdUhJYGGiwrzw/o.jpg", "price": "$", "rating": 3.5, "name": "Good Taste Chinese Restaurant", "url": "https://www.yelp.com/biz/good-taste-chinese-restaurant-bronx-5?adjust_creative=gBcvfFpabk3CnzmXKdYe3w&utm_campaign=yelp_api_v3&utm_medium=api_v3_business_search&utm_source=gBcvfFpabk3CnzmXKdYe3w"}, {"transactions": [], "distance": 10319.311778259998, "phone": "+17182412189", "categories": [{"alias": "chinese", "title": "Chinese"}], "id": "mei-wei-restaurant-brooklyn", "display_phone": "(718) 241-2189", "is_closed": false, "location": {"address2": "", "country": "US", "display_address": ["765 E 82nd St", "Brooklyn, NY 11236"], "address1": "765 E 82nd St", "city": "Brooklyn", "zip_code": "11236", "address3": "", "state": "NY"}, "coordinates": {"longitude": -73.9119873, "latitude": 40.6367989}, "review_count": 4, "image_url": "https://s3-media2.fl.yelpcdn.com/bphoto/33xVPX_EJgwefXRoFG0mpQ/o.jpg", "price": "$$", "rating": 4.0, "name": "Mei Wei Restaurant", "url": "https://www.yelp.com/biz/mei-wei-restaurant-brooklyn?adjust_creative=gBcvfFpabk3CnzmXKdYe3w&utm_campaign=yelp_api_v3&utm_medium=api_v3_business_search&utm_source=gBcvfFpabk3CnzmXKdYe3w"}, {"transactions": [], "distance": 8469.729985861999, "phone": "+17184953334", "categories": [{"alias": "chinese", "title": "Chinese"}], "id": "number-one-great-wall-brooklyn", "display_phone": "(718) 495-3334", "is_closed": false, "location": {"address2": "", "country": "US", "display_address": ["446 Mother Gaston Blvd", "Brooklyn, NY 11212"], "address1": "446 Mother Gaston Blvd", "city": "Brooklyn", "zip_code": "11212", "address3": "", "state": "NY"}, "coordinates": {"longitude": -73.9066217, "latitude": 40.6680863}, "review_count": 6, "image_url": "https://s3-media2.fl.yelpcdn.com/bphoto/1dfyJd8U8BqeYEtLuihhqg/o.jpg", "price": "$", "rating": 3.0, "name": "Number One Great Wall", "url": "https://www.yelp.com/biz/number-one-great-wall-brooklyn?adjust_creative=gBcvfFpabk3CnzmXKdYe3w&utm_campaign=yelp_api_v3&utm_medium=api_v3_business_search&utm_source=gBcvfFpabk3CnzmXKdYe3w"}, {"transactions": [], "distance": 15217.732356559998, "phone": "+17189810111", "categories": [{"alias": "chinese", "title": "Chinese"}], "id": "empire-szechuan-restaurant-staten-island", "display_phone": "(718) 981-0111", "is_closed": false, "location": {"address2": "", "country": "US", "display_address": ["1537 Forest Ave", "Staten Island, NY 10302"], "address1": "1537 Forest Ave", "city": "Staten Island", "zip_code": "10302", "address3": "", "state": "NY"}, "coordinates": {"longitude": -74.1393725574017, "latitude": 40.6244118511677}, "review_count": 38, "image_url": "https://s3-media1.fl.yelpcdn.com/bphoto/8HFSnq95gY1YE6eeqICRqA/o.jpg", "price": "$$", "rating": 3.5, "name": "Empire Szechuan Restaurant", "url": "https://www.yelp.com/biz/empire-szechuan-restaurant-staten-island?adjust_creative=gBcvfFpabk3CnzmXKdYe3w&utm_campaign=yelp_api_v3&utm_medium=api_v3_business_search&utm_source=gBcvfFpabk3CnzmXKdYe3w"}, {"transactions": [], "distance": 1164.363283624, "phone": "+12125772888", "categories": [{"alias": "chinese", "title": "Chinese"}, {"alias": "hkcafe", "title": "Hong Kong Style Cafe"}], "id": "cha-chan-tang-new-york", "display_phone": "(212) 577-2888", "is_closed": false, "location": {"address2": "", "country": "US", "display_address": ["45 Mott St", "New York, NY 10013"], "address1": "45 Mott St", "city": "New York", "zip_code": "10013", "address3": "", "state": "NY"}, "coordinates": {"longitude": -73.99896, "latitude": 40.7153}, "review_count": 764, "image_url": "https://s3-media2.fl.yelpcdn.com/bphoto/n2QciVgWsDuRmQXzOdu5fQ/o.jpg", "price": "$", "rating": 3.5, "name": "Cha Chan Tang", "url": "https://www.yelp.com/biz/cha-chan-tang-new-york?adjust_creative=gBcvfFpabk3CnzmXKdYe3w&utm_campaign=yelp_api_v3&utm_medium=api_v3_business_search&utm_source=gBcvfFpabk3CnzmXKdYe3w"}, {"transactions": [], "distance": 913.7187174659999, "phone": "+16469983175", "categories": [{"alias": "noodles", "title": "Noodles"}, {"alias": "chinese", "title": "Chinese"}, {"alias": "ramen", "title": "Ramen"}], "id": "lanzhou-ramen-new-york", "display_phone": "(646) 998-3175", "is_closed": false, "location": {"address2": "", "country": "US", "display_address": ["107 E Broadway", "New York, NY 10038"], "address1": "107 E Broadway", "city": "New York", "zip_code": "10038", "address3": null, "state": "NY"}, "coordinates": {"longitude": -73.9930138, "latitude": 40.7136041}, "review_count": 16, "image_url": "https://s3-media3.fl.yelpcdn.com/bphoto/2HqG4uHVlatwn6PEDVX9rQ/o.jpg", "price": "$", "rating": 4.0, "name": "Lanzhou Ramen", "url": "https://www.yelp.com/biz/lanzhou-ramen-new-york?adjust_creative=gBcvfFpabk3CnzmXKdYe3w&utm_campaign=yelp_api_v3&utm_medium=api_v3_business_search&utm_source=gBcvfFpabk3CnzmXKdYe3w"}, {"transactions": [], "distance": 2886.047285674, "phone": "+17182186667", "categories": [{"alias": "chinese", "title": "Chinese"}], "id": "mei-wei-new-york", "display_phone": "(718) 218-6667", "is_closed": false, "location": {"address2": "", "country": "US", "display_address": ["297 Broadway / Williamsburg", "New York, NY 11211"], "address1": "297 Broadway / Williamsburg", "city": "New York", "zip_code": "11211", "address3": "", "state": "NY"}, "coordinates": {"longitude": -73.9603310823441, "latitude": 40.7087591511161}, "review_count": 7, "image_url": "https://s3-media3.fl.yelpcdn.com/bphoto/ZQ-_Acc93QZC3N3SIZglOA/o.jpg", "rating": 2.5, "name": "Mei Wei", "url": "https://www.yelp.com/biz/mei-wei-new-york?adjust_creative=gBcvfFpabk3CnzmXKdYe3w&utm_campaign=yelp_api_v3&utm_medium=api_v3_business_search&utm_source=gBcvfFpabk3CnzmXKdYe3w"}, {"transactions": [], "distance": 7632.973125876, "phone": "+17186868288", "categories": [{"alias": "chinese", "title": "Chinese"}], "id": "city-cafe-brooklyn", "display_phone": "(718) 686-8288", "is_closed": false, "location": {"address2": "", "country": "US", "display_address": ["5603 8th Ave", "Brooklyn, NY 11220"], "address1": "5603 8th Ave", "city": "Brooklyn", "zip_code": "11220", "address3": "", "state": "NY"}, "coordinates": {"longitude": -74.00711, "latitude": 40.63749}, "review_count": 62, "image_url": "https://s3-media1.fl.yelpcdn.com/bphoto/Isy9zl0so69a6NOHw4mPaQ/o.jpg", "price": "$", "rating": 3.0, "name": "City Cafe", "url": "https://www.yelp.com/biz/city-cafe-brooklyn?adjust_creative=gBcvfFpabk3CnzmXKdYe3w&utm_campaign=yelp_api_v3&utm_medium=api_v3_business_search&utm_source=gBcvfFpabk3CnzmXKdYe3w"}, {"transactions": ["delivery", "pickup"], "distance": 13849.46022318, "phone": "+17188917762", "categories": [{"alias": "chinese", "title": "Chinese"}], "id": "chinatown-restaurant-brooklyn", "display_phone": "(718) 891-7762", "is_closed": false, "location": {"address2": "", "country": "US", "display_address": ["2306 Voorhies Ave", "Brooklyn, NY 11235"], "address1": "2306 Voorhies Ave", "city": "Brooklyn", "zip_code": "11235", "address3": "", "state": "NY"}, "coordinates": {"longitude": -73.9456459879875, "latitude": 40.5865477770567}, "review_count": 21, "image_url": "https://s3-media3.fl.yelpcdn.com/bphoto/ah19_LiHtEndIvIapMFSVg/o.jpg", "price": "$$", "rating": 3.5, "name": "Chinatown Restaurant", "url": "https://www.yelp.com/biz/chinatown-restaurant-brooklyn?adjust_creative=gBcvfFpabk3CnzmXKdYe3w&utm_campaign=yelp_api_v3&utm_medium=api_v3_business_search&utm_source=gBcvfFpabk3CnzmXKdYe3w"}, {"transactions": ["delivery", "pickup"], "distance": 4005.4118135579997, "phone": "+17183888111", "categories": [{"alias": "chinese", "title": "Chinese"}, {"alias": "soup", "title": "Soup"}], "id": "red-house-brooklyn", "display_phone": "(718) 388-8111", "is_closed": false, "location": {"address2": "", "country": "US", "display_address": ["622 Grand St", "Brooklyn, NY 11211"], "address1": "622 Grand St", "city": "Brooklyn", "zip_code": "11211", "address3": "", "state": "NY"}, "coordinates": {"longitude": -73.947334, "latitude": 40.711067}, "review_count": 31, "image_url": "https://s3-media2.fl.yelpcdn.com/bphoto/DFQsbCVHdFG1tP3cs5qN3A/o.jpg", "price": "$", "rating": 2.0, "name": "Red House", "url": "https://www.yelp.com/biz/red-house-brooklyn?adjust_creative=gBcvfFpabk3CnzmXKdYe3w&utm_campaign=yelp_api_v3&utm_medium=api_v3_business_search&utm_source=gBcvfFpabk3CnzmXKdYe3w"}, {"transactions": [], "distance": 12212.638489604, "phone": "+12129329390", "categories": [{"alias": "chinese", "title": "Chinese"}], "id": "west-place-new-york", "display_phone": "(212) 932-9390", "is_closed": false, "location": {"address2": "", "country": "US", "display_address": ["1288 Amsterdam Ave", "New York, NY 10027"], "address1": "1288 Amsterdam Ave", "city": "New York", "zip_code": "10027", "address3": "", "state": "NY"}, "coordinates": {"longitude": -73.9576119929552, "latitude": 40.8116266876459}, "review_count": 42, "image_url": "https://s3-media2.fl.yelpcdn.com/bphoto/Q5D0qOws0c7QQh9loo1e4A/o.jpg", "price": "$", "rating": 3.0, "name": "West Place", "url": "https://www.yelp.com/biz/west-place-new-york?adjust_creative=gBcvfFpabk3CnzmXKdYe3w&utm_campaign=yelp_api_v3&utm_medium=api_v3_business_search&utm_source=gBcvfFpabk3CnzmXKdYe3w"}, {"transactions": [], "distance": 15032.772519699998, "phone": "+17189395468", "categories": [{"alias": "chinese", "title": "Chinese"}, {"alias": "taiwanese", "title": "Taiwanese"}], "id": "gu-shine-taiwanese-restaurant-flushing-2", "display_phone": "(718) 939-5468", "is_closed": false, "location": {"address2": null, "country": "US", "display_address": ["135-38 39th Ave", "Flushing, NY 11354"], "address1": "135-38 39th Ave", "city": "Flushing", "zip_code": "11354", "address3": "", "state": "NY"}, "coordinates": {"longitude": -73.83103, "latitude": 40.75998}, "review_count": 268, "image_url": "https://s3-media4.fl.yelpcdn.com/bphoto/ZWGoh6BCIgZ3e5CmabpbhQ/o.jpg", "price": "$$", "rating": 3.5, "name": "Gu Shine Taiwanese Restaurant", "url": "https://www.yelp.com/biz/gu-shine-taiwanese-restaurant-flushing-2?adjust_creative=gBcvfFpabk3CnzmXKdYe3w&utm_campaign=yelp_api_v3&utm_medium=api_v3_business_search&utm_source=gBcvfFpabk3CnzmXKdYe3w"}, {"transactions": [], "distance": 11369.533587987999, "phone": "+17186991625", "categories": [{"alias": "chinese", "title": "Chinese"}], "id": "mings-chinese-kitchen-elmhurst", "display_phone": "(718) 699-1625", "is_closed": false, "location": {"address2": "", "country": "US", "display_address": ["56-15 Junction Blvd", "Elmhurst, NY 11373"], "address1": "56-15 Junction Blvd", "city": "Elmhurst", "zip_code": "11373", "address3": "", "state": "NY"}, "coordinates": {"longitude": -73.8659461587667, "latitude": 40.7370753586292}, "review_count": 19, "image_url": "https://s3-media1.fl.yelpcdn.com/bphoto/Z6AtFl0NvR4AAFyN-Q50cQ/o.jpg", "price": "$", "rating": 3.5, "name": "Ming's Chinese Kitchen", "url": "https://www.yelp.com/biz/mings-chinese-kitchen-elmhurst?adjust_creative=gBcvfFpabk3CnzmXKdYe3w&utm_campaign=yelp_api_v3&utm_medium=api_v3_business_search&utm_source=gBcvfFpabk3CnzmXKdYe3w"}, {"transactions": [], "distance": 11810.416304338, "phone": "+17189961400", "categories": [{"alias": "chinese", "title": "Chinese"}], "id": "asian-kitchen-incorporated-brooklyn", "display_phone": "(718) 996-1400", "is_closed": false, "location": {"address2": null, "country": "US", "display_address": ["2362 86th St", "Brooklyn, NY 11214"], "address1": "2362 86th St", "city": "Brooklyn", "zip_code": "11214", "address3": null, "state": "NY"}, "coordinates": {"longitude": -73.989967, "latitude": 40.599281}, "review_count": 12, "image_url": "https://s3-media3.fl.yelpcdn.com/bphoto/2jScjR6oxaAbox8vz6Qpeg/o.jpg", "price": "$$", "rating": 4.0, "name": "Asian Kitchen Incorporated", "url": "https://www.yelp.com/biz/asian-kitchen-incorporated-brooklyn?adjust_creative=gBcvfFpabk3CnzmXKdYe3w&utm_campaign=yelp_api_v3&utm_medium=api_v3_business_search&utm_source=gBcvfFpabk3CnzmXKdYe3w"}, {"transactions": ["delivery", "pickup"], "distance": 8727.711533079999, "phone": "+17184171008", "categories": [{"alias": "chinese", "title": "Chinese"}], "id": "mr-chen-ridgewood", "display_phone": "(718) 417-1008", "is_closed": false, "location": {"address2": "", "country": "US", "display_address": ["5905 Myrtle Ave", "Ridgewood, NY 11385"], "address1": "5905 Myrtle Ave", "city": "Ridgewood", "zip_code": "11385", "address3": "", "state": "NY"}, "coordinates": {"longitude": -73.8999481201172, "latitude": 40.7007102966309}, "review_count": 44, "image_url": "https://s3-media1.fl.yelpcdn.com/bphoto/4hXpErZqTLtAdDMoMEbbQg/o.jpg", "price": "$", "rating": 3.0, "name": "Mr Chen", "url": "https://www.yelp.com/biz/mr-chen-ridgewood?adjust_creative=gBcvfFpabk3CnzmXKdYe3w&utm_campaign=yelp_api_v3&utm_medium=api_v3_business_search&utm_source=gBcvfFpabk3CnzmXKdYe3w"}, {"transactions": [], "distance": 10264.871990344, "phone": "+17182733636", "categories": [{"alias": "chinese", "title": "Chinese"}], "id": "chef-hongs-kitchen-staten-island", "display_phone": "(718) 273-3636", "is_closed": false, "location": {"address2": "", "country": "US", "display_address": ["55 Victory Blvd", "Staten Island, NY 10301"], "address1": "55 Victory Blvd", "city": "Staten Island", "zip_code": "10301", "address3": "", "state": "NY"}, "coordinates": {"longitude": -74.07759, "latitude": 40.6381}, "review_count": 9, "image_url": "https://s3-media2.fl.yelpcdn.com/bphoto/RrXkY3heAyK2NDOeIQHr-g/o.jpg", "price": "$", "rating": 3.5, "name": "Chef Hong's Kitchen", "url": "https://www.yelp.com/biz/chef-hongs-kitchen-staten-island?adjust_creative=gBcvfFpabk3CnzmXKdYe3w&utm_campaign=yelp_api_v3&utm_medium=api_v3_business_search&utm_source=gBcvfFpabk3CnzmXKdYe3w"}, {"transactions": ["delivery", "pickup"], "distance": 7564.31964708, "phone": "+17184332672", "categories": [{"alias": "chinese", "title": "Chinese"}], "id": "mr-wonton-sunnyside", "display_phone": "(718) 433-2672", "is_closed": false, "location": {"address2": "", "country": "US", "display_address": ["4411 Queens Blvd", "Sunnyside, NY 11104"], "address1": "4411 Queens Blvd", "city": "Sunnyside", "zip_code": "11104", "address3": "", "state": "NY"}, "coordinates": {"longitude": -73.9202652, "latitude": 40.7436371}, "review_count": 44, "image_url": "https://s3-media3.fl.yelpcdn.com/bphoto/jPJINs0n6AreRBMaE0djWQ/o.jpg", "price": "$", "rating": 3.0, "name": "Mr Wonton", "url": "https://www.yelp.com/biz/mr-wonton-sunnyside?adjust_creative=gBcvfFpabk3CnzmXKdYe3w&utm_campaign=yelp_api_v3&utm_medium=api_v3_business_search&utm_source=gBcvfFpabk3CnzmXKdYe3w"}, {"transactions": [], "distance": 16082.392114399998, "phone": "+17187466796", "categories": [{"alias": "chinese", "title": "Chinese"}], "id": "keilly-chinese-restaurant-college-point", "display_phone": "(718) 746-6796", "is_closed": false, "location": {"address2": "", "country": "US", "display_address": ["13211 B 14th Ave", "College Point, NY 11356"], "address1": "13211 B 14th Ave", "city": "College Point", "zip_code": "11356", "address3": "", "state": "NY"}, "coordinates": {"longitude": -73.8360678, "latitude": 40.7863674867809}, "review_count": 25, "image_url": "https://s3-media1.fl.yelpcdn.com/bphoto/KV9zH6_7dnQHzHOeaMRBlA/o.jpg", "price": "$$", "rating": 3.0, "name": "Keilly Chinese Restaurant", "url": "https://www.yelp.com/biz/keilly-chinese-restaurant-college-point?adjust_creative=gBcvfFpabk3CnzmXKdYe3w&utm_campaign=yelp_api_v3&utm_medium=api_v3_business_search&utm_source=gBcvfFpabk3CnzmXKdYe3w"}, {"transactions": ["delivery", "pickup"], "distance": 10247.820550241999, "phone": "", "categories": [{"alias": "chinese", "title": "Chinese"}], "id": "hong-kong-house-astoria", "display_phone": "", "is_closed": false, "location": {"address2": "", "country": "US", "display_address": ["2307 Steinway St", "Astoria, NY 11105"], "address1": "2307 Steinway St", "city": "Astoria", "zip_code": "11105", "address3": "", "state": "NY"}, "coordinates": {"longitude": -73.9082899, "latitude": 40.77063}, "review_count": 22, "image_url": "https://s3-media2.fl.yelpcdn.com/bphoto/XDkz2iTSV5reUha7U843Pw/o.jpg", "price": "$", "rating": 3.0, "name": "Hong Kong House", "url": "https://www.yelp.com/biz/hong-kong-house-astoria?adjust_creative=gBcvfFpabk3CnzmXKdYe3w&utm_campaign=yelp_api_v3&utm_medium=api_v3_business_search&utm_source=gBcvfFpabk3CnzmXKdYe3w"}, {"transactions": [], "distance": 8175.716442582, "phone": "+17182384847", "categories": [{"alias": "chinese", "title": "Chinese"}], "id": "hot-wok-brooklyn", "display_phone": "(718) 238-4847", "is_closed": false, "location": {"address2": "", "country": "US", "display_address": ["119 Bay Ridge Ave", "Brooklyn, NY 11220"], "address1": "119 Bay Ridge Ave", "city": "Brooklyn", "zip_code": "11220", "address3": "", "state": "NY"}, "coordinates": {"longitude": -74.0314178, "latitude": 40.6375198}, "review_count": 13, "image_url": "https://s3-media2.fl.yelpcdn.com/bphoto/WsMMkdtxtcZbL_xdQOghOQ/o.jpg", "price": "$", "rating": 3.5, "name": "Hot Wok", "url": "https://www.yelp.com/biz/hot-wok-brooklyn?adjust_creative=gBcvfFpabk3CnzmXKdYe3w&utm_campaign=yelp_api_v3&utm_medium=api_v3_business_search&utm_source=gBcvfFpabk3CnzmXKdYe3w"}, {"transactions": [], "distance": 7722.855730479999, "phone": "+17188538188", "categories": [{"alias": "chinese", "title": "Chinese"}, {"alias": "bakeries", "title": "Bakeries"}], "id": "dragon-bay-bakery-brooklyn", "display_phone": "(718) 853-8188", "is_closed": false, "location": {"address2": "", "country": "US", "display_address": ["5711 8th Ave", "Brooklyn, NY 11220"], "address1": "5711 8th Ave", "city": "Brooklyn", "zip_code": "11220", "address3": "", "state": "NY"}, "coordinates": {"longitude": -74.0078811645508, "latitude": 40.6367568969727}, "review_count": 46, "image_url": "https://s3-media1.fl.yelpcdn.com/bphoto/ButfCSJFDRGCOve4ew1sGw/o.jpg", "price": "$", "rating": 3.5, "name": "Dragon Bay Bakery", "url": "https://www.yelp.com/biz/dragon-bay-bakery-brooklyn?adjust_creative=gBcvfFpabk3CnzmXKdYe3w&utm_campaign=yelp_api_v3&utm_medium=api_v3_business_search&utm_source=gBcvfFpabk3CnzmXKdYe3w"}, {"transactions": ["delivery", "pickup"], "distance": 4984.995989204, "phone": "+12129730885", "categories": [{"alias": "chinese", "title": "Chinese"}], "id": "six-happiness-new-york-2", "display_phone": "(212) 973-0885", "is_closed": false, "location": {"address2": "", "country": "US", "display_address": ["711 2nd Ave", "New York, NY 10016"], "address1": "711 2nd Ave", "city": "New York", "zip_code": "10016", "address3": "", "state": "NY"}, "coordinates": {"longitude": -73.9742126464844, "latitude": 40.7476119995117}, "review_count": 91, "image_url": "https://s3-media1.fl.yelpcdn.com/bphoto/1BEq35Vf-XuNKa5WWLmCww/o.jpg", "price": "$", "rating": 2.5, "name": "Six Happiness", "url": "https://www.yelp.com/biz/six-happiness-new-york-2?adjust_creative=gBcvfFpabk3CnzmXKdYe3w&utm_campaign=yelp_api_v3&utm_medium=api_v3_business_search&utm_source=gBcvfFpabk3CnzmXKdYe3w"}, {"transactions": [], "distance": 4536.643843112, "phone": "+17188575366", "categories": [{"alias": "chinese", "title": "Chinese"}], "id": "good-friends-chinese-restaurant-brooklyn", "display_phone": "(718) 857-5366", "is_closed": false, "location": {"address2": "", "country": "US", "display_address": ["270 Tompkins Ave", "Brooklyn, NY 11216"], "address1": "270 Tompkins Ave", "city": "Brooklyn", "zip_code": "11216", "address3": "", "state": "NY"}, "coordinates": {"longitude": -73.9450485259295, "latitude": 40.688713118434}, "review_count": 9, "image_url": "https://s3-media1.fl.yelpcdn.com/bphoto/Hl3YeDagSxCIkTysWdRF4Q/o.jpg", "price": "$", "rating": 3.0, "name": "Good Friends Chinese Restaurant", "url": "https://www.yelp.com/biz/good-friends-chinese-restaurant-brooklyn?adjust_creative=gBcvfFpabk3CnzmXKdYe3w&utm_campaign=yelp_api_v3&utm_medium=api_v3_business_search&utm_source=gBcvfFpabk3CnzmXKdYe3w"}, {"transactions": [], "distance": 14823.79489268, "phone": "+17188862313", "categories": [{"alias": "chinese", "title": "Chinese"}, {"alias": "food_court", "title": "Food Court"}], "id": "new-york-food-court-flushing", "display_phone": "(718) 886-2313", "is_closed": false, "location": {"address2": "", "country": "US", "display_address": ["133-35 Roosevelt Ave", "Flushing, NY 11354"], "address1": "133-35 Roosevelt Ave", "city": "Flushing", "zip_code": "11354", "address3": "", "state": "NY"}, "coordinates": {"longitude": -73.8332252204418, "latitude": 40.7585598528385}, "review_count": 97, "image_url": "https://s3-media2.fl.yelpcdn.com/bphoto/oiumfwbcVvkFTFXzoaXSCg/o.jpg", "price": "$", "rating": 4.0, "name": "New York Food Court", "url": "https://www.yelp.com/biz/new-york-food-court-flushing?adjust_creative=gBcvfFpabk3CnzmXKdYe3w&utm_campaign=yelp_api_v3&utm_medium=api_v3_business_search&utm_source=gBcvfFpabk3CnzmXKdYe3w"}, {"transactions": [], "distance": 10301.695459818, "phone": "+17183531668", "categories": [{"alias": "cantonese", "title": "Cantonese"}, {"alias": "hkcafe", "title": "Hong Kong Style Cafe"}], "id": "ta40-cafe-brooklyn", "display_phone": "(718) 353-1668", "is_closed": false, "location": {"address2": "", "country": "US", "display_address": ["6604 Bay Pkwy", "Brooklyn, NY 11204"], "address1": "6604 Bay Pkwy", "city": "Brooklyn", "zip_code": "11204", "address3": "", "state": "NY"}, "coordinates": {"longitude": -73.982406, "latitude": 40.613239}, "review_count": 55, "image_url": "https://s3-media1.fl.yelpcdn.com/bphoto/m_Ozoa9FytVh9ydvOUmMsA/o.jpg", "price": "$$", "rating": 3.0, "name": "Ta40 Cafe", "url": "https://www.yelp.com/biz/ta40-cafe-brooklyn?adjust_creative=gBcvfFpabk3CnzmXKdYe3w&utm_campaign=yelp_api_v3&utm_medium=api_v3_business_search&utm_source=gBcvfFpabk3CnzmXKdYe3w"}, {"transactions": [], "distance": 12308.54050861, "phone": "+17188033846", "categories": [{"alias": "chinese", "title": "Chinese"}], "id": "new-ming-garden-kitchen-corona", "display_phone": "(718) 803-3846", "is_closed": false, "location": {"address2": "", "country": "US", "display_address": ["10428 Roosevelt Ave", "Corona, NY 11368"], "address1": "10428 Roosevelt Ave", "city": "Corona", "zip_code": "11368", "address3": "", "state": "NY"}, "coordinates": {"longitude": -73.8605194, "latitude": 40.7499008}, "review_count": 2, "image_url": "https://s3-media2.fl.yelpcdn.com/bphoto/upPAghKn2-V-0b9hER8Knw/o.jpg", "price": "$", "rating": 5.0, "name": "New Ming Garden Kitchen", "url": "https://www.yelp.com/biz/new-ming-garden-kitchen-corona?adjust_creative=gBcvfFpabk3CnzmXKdYe3w&utm_campaign=yelp_api_v3&utm_medium=api_v3_business_search&utm_source=gBcvfFpabk3CnzmXKdYe3w"}, {"transactions": [], "distance": 10525.81745904, "phone": "+12123482813", "categories": [{"alias": "chinese", "title": "Chinese"}], "id": "hong-kong-new-york-2", "display_phone": "(212) 348-2813", "is_closed": false, "location": {"address2": "", "country": "US", "display_address": ["1703 Lexington Ave", "New York, NY 10029"], "address1": "1703 Lexington Ave", "city": "New York", "zip_code": "10029", "address3": "", "state": "NY"}, "coordinates": {"longitude": -73.9457814748688, "latitude": 40.7926783064322}, "review_count": 10, "image_url": "https://s3-media1.fl.yelpcdn.com/bphoto/t0bK9FCerF7lFmOK3NZ3sg/o.jpg", "price": "$$", "rating": 3.5, "name": "Hong Kong", "url": "https://www.yelp.com/biz/hong-kong-new-york-2?adjust_creative=gBcvfFpabk3CnzmXKdYe3w&utm_campaign=yelp_api_v3&utm_medium=api_v3_business_search&utm_source=gBcvfFpabk3CnzmXKdYe3w"}, {"transactions": [], "distance": 9826.04826359, "phone": "+12124269545", "categories": [{"alias": "chinese", "title": "Chinese"}], "id": "yoan-ming-garden-new-york", "display_phone": "(212) 426-9545", "is_closed": false, "location": {"address2": "", "country": "US", "display_address": ["1407 Madison Ave", "New York, NY 10029"], "address1": "1407 Madison Ave", "city": "New York", "zip_code": "10029", "address3": "", "state": "NY"}, "coordinates": {"longitude": -73.953147, "latitude": 40.788135}, "review_count": 27, "image_url": "https://s3-media2.fl.yelpcdn.com/bphoto/Zo8iNBIdPgGeIWRTmxLpwg/o.jpg", "price": "$", "rating": 2.5, "name": "Yoan Ming Garden", "url": "https://www.yelp.com/biz/yoan-ming-garden-new-york?adjust_creative=gBcvfFpabk3CnzmXKdYe3w&utm_campaign=yelp_api_v3&utm_medium=api_v3_business_search&utm_source=gBcvfFpabk3CnzmXKdYe3w"}]}