{"region": {"center": {"longitude": -73.99429321289062, "latitude": 40.70544486444615}}, "total": 2613, "businesses": [{"transactions": [], "distance": 17104.37773196, "phone": "+17187677854", "categories": [{"alias": "chinese", "title": "Chinese"}, {"alias": "taiwanese", "title": "Taiwanese"}], "id": "pearl-garden-whitestone", "display_phone": "(718) 767-7854", "is_closed": false, "location": {"address2": "", "country": "US", "display_address": ["14508 14th Ave", "Whitestone, NY 11357"], "address1": "14508 14th Ave", "city": "Whitestone", "zip_code": "11357", "address3": "", "state": "NY"}, "coordinates": {"longitude": -73.821899, "latitude": 40.786693}, "review_count": 51, "image_url": "https://s3-media3.fl.yelpcdn.com/bphoto/FzjAxHFPJP4prVWv1iZ7Xw/o.jpg", "price": "$", "rating": 4.0, "name": "Pearl Garden", "url": "https://www.yelp.com/biz/pearl-garden-whitestone?adjust_creative=gBcvfFpabk3CnzmXKdYe3w&utm_campaign=yelp_api_v3&utm_medium=api_v3_business_search&utm_source=gBcvfFpabk3CnzmXKdYe3w"}, {"transactions": [], "distance": 11596.322102655999, "phone": "+17184763755", "categories": [{"alias": "chinese", "title": "Chinese"}, {"alias": "latin", "title": "Latin American"}], "id": "jardin-de-china-corona", "display_phone": "(718) 476-3755", "is_closed": false, "location": {"address2": "", "country": "US", "display_address": ["3737 Junction Blvd", "Corona, NY 11368"], "address1": "3737 Junction Blvd", "city": "Corona", "zip_code": "11368", "address3": "", "state": "NY"}, "coordinates": {"longitude": -73.8699264526367, "latitude": 40.7505798339844}, "review_count": 158, "image_url": "https://s3-media2.fl.yelpcdn.com/bphoto/T97YZ7wLEM__Y5MPUZHhgA/o.jpg", "price": "$$", "rating": 4.0, "name": "Jardin De China", "url": "https://www.yelp.com/biz/jardin-de-china-corona?adjust_creative=gBcvfFpabk3CnzmXKdYe3w&utm_campaign=yelp_api_v3&utm_medium=api_v3_business_search&utm_source=gBcvfFpabk3CnzmXKdYe3w"}, {"transactions": [], "distance": 12421.071194099999, "phone": "+12129610300", "categories": [{"alias": "asianfusion", "title": "Asian Fusion"}, {"alias": "chinese", "title": "Chinese"}], "id": "la-salle-dumpling-room-new-york", "display_phone": "(212) 961-0300", "is_closed": false, "location": {"address2": null, "country": "US", "display_address": ["3141 Broadway", "New York, NY 10027"], "address1": "3141 Broadway", "city": "New York", "zip_code": "10027", "address3": "", "state": "NY"}, "coordinates": {"longitude": -73.95983, "latitude": 40.81403}, "review_count": 77, "image_url": "https://s3-media3.fl.yelpcdn.com/bphoto/1q9IX_FZdu4bPXBpre_tyQ/o.jpg", "price": "$$", "rating": 4.0, "name": "La Salle Dumpling Room", "url": "https://www.yelp.com/biz/la-salle-dumpling-room-new-york?adjust_creative=gBcvfFpabk3CnzmXKdYe3w&utm_campaign=yelp_api_v3&utm_medium=api_v3_business_search&utm_source=gBcvfFpabk3CnzmXKdYe3w"}, {"transactions": [], "distance": 1024.6748890736, "phone": "+12127917007", "categories": [{"alias": "taiwanese", "title": "Taiwanese"}, {"alias": "chinese", "title": "Chinese"}], "id": "taiwan-pork-chop-house-new-york", "display_phone": "(212) 791-7007", "is_closed": false, "location": {"address2": "", "country": "US", "display_address": ["3 Doyers St", "New York, NY 10013"], "address1": "3 Doyers St", "city": "New York", "zip_code": "10013", "address3": "", "state": "NY"}, "coordinates": {"longitude": -73.9979609, "latitude": 40.7142303}, "review_count": 197, "image_url": "https://s3-media2.fl.yelpcdn.com/bphoto/ZApVzQqt8smfJWTx7tArBQ/o.jpg", "price": "$", "rating": 4.0, "name": "Taiwan Pork Chop House", "url": "https://www.yelp.com/biz/taiwan-pork-chop-house-new-york?adjust_creative=gBcvfFpabk3CnzmXKdYe3w&utm_campaign=yelp_api_v3&utm_medium=api_v3_business_search&utm_source=gBcvfFpabk3CnzmXKdYe3w"}, {"transactions": ["pickup"], "distance": 6135.36573966, "phone": "+12127598260", "categories": [{"alias": "chinese", "title": "Chinese"}], "id": "peking-duck-house-new-york-2", "display_phone": "(212) 759-8260", "is_closed": false, "location": {"address2": null, "country": "US", "display_address": ["236 E 53rd St", "New York, NY 10022"], "address1": "236 E 53rd St", "city": "New York", "zip_code": "10022", "address3": "", "state": "NY"}, "coordinates": {"longitude": -73.968109, "latitude": 40.756912}, "review_count": 284, "image_url": "https://s3-media2.fl.yelpcdn.com/bphoto/B-Lny0jJPJJSrZwQ9ddmXg/o.jpg", "price": "$$$", "rating": 3.5, "name": "Peking Duck House", "url": "https://www.yelp.com/biz/peking-duck-house-new-york-2?adjust_creative=gBcvfFpabk3CnzmXKdYe3w&utm_campaign=yelp_api_v3&utm_medium=api_v3_business_search&utm_source=gBcvfFpabk3CnzmXKdYe3w"}, {"transactions": [], "distance": 1201.148289872, "phone": "+12123432373", "categories": [{"alias": "chinese", "title": "Chinese"}, {"alias": "hkcafe", "title": "Hong Kong Style Cafe"}], "id": "cheung-wong-kitchen-new-york", "display_phone": "(212) 343-2373", "is_closed": false, "location": {"address2": "", "country": "US", "display_address": ["38 Allen St", "New York, NY 10002"], "address1": "38 Allen St", "city": "New York", "zip_code": "10002", "address3": "", "state": "NY"}, "coordinates": {"longitude": -73.9918208867311, "latitude": 40.7160260528326}, "review_count": 28, "image_url": "https://s3-media2.fl.yelpcdn.com/bphoto/SUZcXVD2mJ-MjK6nTR5SBQ/o.jpg", "price": "$", "rating": 4.0, "name": "Cheung Wong Kitchen", "url": "https://www.yelp.com/biz/cheung-wong-kitchen-new-york?adjust_creative=gBcvfFpabk3CnzmXKdYe3w&utm_campaign=yelp_api_v3&utm_medium=api_v3_business_search&utm_source=gBcvfFpabk3CnzmXKdYe3w"}, {"transactions": ["delivery", "pickup"], "distance": 6156.619971172, "phone": "+16469217777", "categories": [{"alias": "szechuan", "title": "Szechuan"}, {"alias": "cantonese", "title": "Cantonese"}], "id": "manting-new-york", "display_phone": "(646) 921-7777", "is_closed": false, "location": {"address2": "", "country": "US", "display_address": ["150 W 49th St", "New York, NY 10019"], "address1": "150 W 49th St", "city": "New York", "zip_code": "10019", "address3": "", "state": "NY"}, "coordinates": {"longitude": -73.9829980954528, "latitude": 40.7601476826859}, "review_count": 105, "image_url": "https://s3-media3.fl.yelpcdn.com/bphoto/A9l-HFdqDB0Jm62XNTBeoA/o.jpg", "price": "$$", "rating": 3.5, "name": "Manting", "url": "https://www.yelp.com/biz/manting-new-york?adjust_creative=gBcvfFpabk3CnzmXKdYe3w&utm_campaign=yelp_api_v3&utm_medium=api_v3_business_search&utm_source=gBcvfFpabk3CnzmXKdYe3w"}, {"transactions": [], "distance": 10280.764061909998, "phone": "+17184783330", "categories": [{"alias": "seafood", "title": "Seafood"}, {"alias": "cantonese", "title": "Cantonese"}], "id": "queens-seafood-restaurant-elmhurst", "display_phone": "(718) 478-3330", "is_closed": false, "location": {"address2": "", "country": "US", "display_address": ["8222 45th Ave", "Elmhurst, NY 11373"], "address1": "8222 45th Ave", "city": "Elmhurst", "zip_code": "11373", "address3": "", "state": "NY"}, "coordinates": {"longitude": -73.8825862, "latitude": 40.7415032}, "review_count": 87, "image_url": "https://s3-media1.fl.yelpcdn.com/bphoto/-tuQmXG7V709dFC9Ig8Qbg/o.jpg", "price": "$$", "rating": 3.5, "name": "Queens Seafood Restaurant", "url": "https://www.yelp.com/biz/queens-seafood-restaurant-elmhurst?adjust_creative=gBcvfFpabk3CnzmXKdYe3w&utm_campaign=yelp_api_v3&utm_medium=api_v3_business_search&utm_source=gBcvfFpabk3CnzmXKdYe3w"}, {"transactions": [], "distance": 1010.502815726, "phone": "+12124320311", "categories": [{"alias": "chinese", "title": "Chinese"}, {"alias": "desserts", "title": "Desserts"}, {"alias": "cocktailbars", "title": "Cocktail Bars"}], "id": "mission-chinese-new-york", "display_phone": "(212) 432-0311", "is_closed": false, "location": {"address2": "", "country": "US", "display_address": ["171 E Broadway", "New York, NY 10002"], "address1": "171 E Broadway", "city": "New York", "zip_code": "10002", "address3": "", "state": "NY"}, "coordinates": {"longitude": -73.989662, "latitude": 40.713855}, "review_count": 462, "image_url": "https://s3-media1.fl.yelpcdn.com/bphoto/KbjXAJVGBc4-TM8wzNNwYA/o.jpg", "price": "$$", "rating": 3.0, "name": "Mission Chinese", "url": "https://www.yelp.com/biz/mission-chinese-new-york?adjust_creative=gBcvfFpabk3CnzmXKdYe3w&utm_campaign=yelp_api_v3&utm_medium=api_v3_business_search&utm_source=gBcvfFpabk3CnzmXKdYe3w"}, {"transactions": [], "distance": 9026.05259162, "phone": "+12128288688", "categories": [{"alias": "chinese", "title": "Chinese"}], "id": "wok-88-new-york", "display_phone": "(212) 828-8688", "is_closed": false, "location": {"address2": "", "country": "US", "display_address": ["1570 3rd Ave", "New York, NY 10128"], "address1": "1570 3rd Ave", "city": "New York", "zip_code": "10128", "address3": "", "state": "NY"}, "coordinates": {"longitude": -73.95322, "latitude": 40.78042}, "review_count": 176, "image_url": "https://s3-media3.fl.yelpcdn.com/bphoto/nKiOHmTyI2Ici8VoO9oZoA/o.jpg", "price": "$$", "rating": 3.5, "name": "Wok 88", "url": "https://www.yelp.com/biz/wok-88-new-york?adjust_creative=gBcvfFpabk3CnzmXKdYe3w&utm_campaign=yelp_api_v3&utm_medium=api_v3_business_search&utm_source=gBcvfFpabk3CnzmXKdYe3w"}, {"transactions": [], "distance": 9618.958875192, "phone": "+17182746666", "categories": [{"alias": "chinese", "title": "Chinese"}], "id": "kings-chef-astoria", "display_phone": "(718) 274-6666", "is_closed": false, "location": {"address2": "", "country": "US", "display_address": ["4311 28th Ave", "Astoria, NY 11103"], "address1": "4311 28th Ave", "city": "Astoria", "zip_code": "11103", "address3": "", "state": "NY"}, "coordinates": {"longitude": -73.910705, "latitude": 40.764358}, "review_count": 24, "image_url": "", "price": "$", "rating": 4.0, "name": "King's Chef", "url": "https://www.yelp.com/biz/kings-chef-astoria?adjust_creative=gBcvfFpabk3CnzmXKdYe3w&utm_campaign=yelp_api_v3&utm_medium=api_v3_business_search&utm_source=gBcvfFpabk3CnzmXKdYe3w"}, {"transactions": ["delivery"], "distance": 4229.15642255, "phone": "+17183496716", "categories": [{"alias": "chinese", "title": "Chinese"}], "id": "shanghai-lee-brooklyn-2", "display_phone": "(718) 349-6716", "is_closed": false, "location": {"address2": "", "country": "US", "display_address": ["157 Franklin St", "Brooklyn, NY 11222"], "address1": "157 Franklin St", "city": "Brooklyn", "zip_code": "11222", "address3": "", "state": "NY"}, "coordinates": {"longitude": -73.9582099, "latitude": 40.7318}, "review_count": 104, "image_url": "https://s3-media2.fl.yelpcdn.com/bphoto/7D_54-idcQXeVCHVLJJbQw/o.jpg", "price": "$", "rating": 3.0, "name": "Shanghai Lee", "url": "https://www.yelp.com/biz/shanghai-lee-brooklyn-2?adjust_creative=gBcvfFpabk3CnzmXKdYe3w&utm_campaign=yelp_api_v3&utm_medium=api_v3_business_search&utm_source=gBcvfFpabk3CnzmXKdYe3w"}, {"transactions": [], "distance": 7696.5204907199995, "phone": "+17188384181", "categories": [{"alias": "chinese", "title": "Chinese"}, {"alias": "noodles", "title": "Noodles"}, {"alias": "soup", "title": "Soup"}], "id": "western-yunnan-crossing-bridge-noodle-brooklyn", "display_phone": "(718) 838-4181", "is_closed": false, "location": {"address2": "Unit E", "country": "US", "display_address": ["705 59th St", "Unit E", "Brooklyn, NY 11220"], "address1": "705 59th St", "city": "Brooklyn", "zip_code": "11220", "address3": null, "state": "NY"}, "coordinates": {"longitude": -74.0110053364811, "latitude": 40.6373958784093}, "review_count": 7, "image_url": "https://s3-media4.fl.yelpcdn.com/bphoto/46ROJD57gBe_uMjXn95NjQ/o.jpg", "price": "$", "rating": 4.5, "name": "Western Yunnan Crossing Bridge Noodle", "url": "https://www.yelp.com/biz/western-yunnan-crossing-bridge-noodle-brooklyn?adjust_creative=gBcvfFpabk3CnzmXKdYe3w&utm_campaign=yelp_api_v3&utm_medium=api_v3_business_search&utm_source=gBcvfFpabk3CnzmXKdYe3w"}, {"transactions": [], "distance": 2564.328632426, "phone": "+12123337788", "categories": [{"alias": "asianfusion", "title": "Asian Fusion"}, {"alias": "breakfast_brunch", "title": "Breakfast & Brunch"}, {"alias": "szechuan", "title": "Szechuan"}], "id": "china-grill-new-york", "display_phone": "(212) 333-7788", "is_closed": false, "location": {"address2": "", "country": "US", "display_address": ["415 Lafayette St", "New York, NY 10003"], "address1": "415 Lafayette St", "city": "New York", "zip_code": "10003", "address3": "", "state": "NY"}, "coordinates": {"longitude": -73.99212, "latitude": 40.72845}, "review_count": 441, "image_url": "https://s3-media2.fl.yelpcdn.com/bphoto/TnM4qqeiytT0kllD9JdoYg/o.jpg", "price": "$$$", "rating": 3.5, "name": "China Grill", "url": "https://www.yelp.com/biz/china-grill-new-york?adjust_creative=gBcvfFpabk3CnzmXKdYe3w&utm_campaign=yelp_api_v3&utm_medium=api_v3_business_search&utm_source=gBcvfFpabk3CnzmXKdYe3w"}, {"transactions": ["delivery", "pickup"], "distance": 6643.77555774, "phone": "+12128882288", "categories": [{"alias": "asianfusion", "title": "Asian Fusion"}, {"alias": "chinese", "title": "Chinese"}, {"alias": "sushi", "title": "Sushi Bars"}], "id": "tao-new-york-2", "display_phone": "(212) 888-2288", "is_closed": false, "location": {"address2": "", "country": "US", "display_address": ["42 E 58th St", "New York, NY 10022"], "address1": "42 E 58th St", "city": "New York", "zip_code": "10022", "address3": "", "state": "NY"}, "coordinates": {"longitude": -73.97147, "latitude": 40.76269}, "review_count": 1926, "image_url": "https://s3-media1.fl.yelpcdn.com/bphoto/R9gGY_S9Er2gO9Ix2y8ecw/o.jpg", "price": "$$$", "rating": 3.5, "name": "TAO", "url": "https://www.yelp.com/biz/tao-new-york-2?adjust_creative=gBcvfFpabk3CnzmXKdYe3w&utm_campaign=yelp_api_v3&utm_medium=api_v3_business_search&utm_source=gBcvfFpabk3CnzmXKdYe3w"}, {"transactions": [], "distance": 6170.506322296, "phone": "+12125888826", "categories": [{"alias": "szechuan", "title": "Szechuan"}], "id": "hot-kitchen-new-york-2", "display_phone": "(212) 588-8826", "is_closed": false, "location": {"address2": "", "country": "US", "display_address": ["251 E 53rd St", "New York, NY 10022"], "address1": "251 E 53rd St", "city": "New York", "zip_code": "10022", "address3": "", "state": "NY"}, "coordinates": {"longitude": -73.9674267, "latitude": 40.7570698}, "review_count": 119, "image_url": "https://s3-media3.fl.yelpcdn.com/bphoto/Z1481u1bHOVhooDlPdCkNA/o.jpg", "price": "$$", "rating": 3.5, "name": "Hot Kitchen", "url": "https://www.yelp.com/biz/hot-kitchen-new-york-2?adjust_creative=gBcvfFpabk3CnzmXKdYe3w&utm_campaign=yelp_api_v3&utm_medium=api_v3_business_search&utm_source=gBcvfFpabk3CnzmXKdYe3w"}, {"transactions": ["delivery", "pickup"], "distance": 4149.184777402, "phone": "+12122431688", "categories": [{"alias": "chinese", "title": "Chinese"}], "id": "grand-sichuan-eastern-new-york-2", "display_phone": "(212) 243-1688", "is_closed": false, "location": {"address2": "", "country": "US", "display_address": ["172 8th Ave", "New York, NY 10011"], "address1": "172 8th Ave", "city": "New York", "zip_code": "10011", "address3": "", "state": "NY"}, "coordinates": {"longitude": -74.000122, "latitude": 40.742496}, "review_count": 78, "image_url": "https://s3-media4.fl.yelpcdn.com/bphoto/7fRA0aDkKXoRWFgqmv52ow/o.jpg", "price": "$$", "rating": 3.0, "name": "Grand Sichuan Eastern", "url": "https://www.yelp.com/biz/grand-sichuan-eastern-new-york-2?adjust_creative=gBcvfFpabk3CnzmXKdYe3w&utm_campaign=yelp_api_v3&utm_medium=api_v3_business_search&utm_source=gBcvfFpabk3CnzmXKdYe3w"}, {"transactions": [], "distance": 2951.11998297, "phone": "+17187827596", "categories": [{"alias": "cantonese", "title": "Cantonese"}], "id": "kam-sing-brooklyn", "display_phone": "(718) 782-7596", "is_closed": false, "location": {"address2": "", "country": "US", "display_address": ["172 Grand St", "Brooklyn, NY 11211"], "address1": "172 Grand St", "city": "Brooklyn", "zip_code": "11211", "address3": "", "state": "NY"}, "coordinates": {"longitude": -73.961257, "latitude": 40.714324}, "review_count": 37, "image_url": "https://s3-media2.fl.yelpcdn.com/bphoto/GMpFaGtWA07fug3sR45XWQ/o.jpg", "price": "$", "rating": 3.5, "name": "Kam Sing", "url": "https://www.yelp.com/biz/kam-sing-brooklyn?adjust_creative=gBcvfFpabk3CnzmXKdYe3w&utm_campaign=yelp_api_v3&utm_medium=api_v3_business_search&utm_source=gBcvfFpabk3CnzmXKdYe3w"}, {"transactions": ["delivery", "pickup"], "distance": 10475.77020372, "phone": "+12126635520", "categories": [{"alias": "chinese", "title": "Chinese"}, {"alias": "peruvian", "title": "Peruvian"}, {"alias": "cocktailbars", "title": "Cocktail Bars"}], "id": "flor-de-mayo-new-york-3", "display_phone": "(212) 663-5520", "is_closed": false, "location": {"address2": "", "country": "US", "display_address": ["2651 Broadway", "New York, NY 10025"], "address1": "2651 Broadway", "city": "New York", "zip_code": "10025", "address3": "", "state": "NY"}, "coordinates": {"longitude": -73.969948, "latitude": 40.797832}, "review_count": 400, "image_url": "https://s3-media1.fl.yelpcdn.com/bphoto/ipbhm45akNZGeEQ3BzmJPQ/o.jpg", "price": "$$", "rating": 4.0, "name": "Flor de Mayo", "url": "https://www.yelp.com/biz/flor-de-mayo-new-york-3?adjust_creative=gBcvfFpabk3CnzmXKdYe3w&utm_campaign=yelp_api_v3&utm_medium=api_v3_business_search&utm_source=gBcvfFpabk3CnzmXKdYe3w"}, {"transactions": [], "distance": 8797.51746025, "phone": "+17188333853", "categories": [{"alias": "chinese", "title": "Chinese"}], "id": "fu-lai-kitchen-brooklyn-2", "display_phone": "(718) 833-3853", "is_closed": false, "location": {"address2": "", "country": "US", "display_address": ["7023 Fort Hamilton Pkwy", "Brooklyn, NY 11228"], "address1": "7023 Fort Hamilton Pkwy", "city": "Brooklyn", "zip_code": "11228", "address3": "", "state": "NY"}, "coordinates": {"longitude": -74.01331, "latitude": 40.62771}, "review_count": 19, "image_url": "https://s3-media3.fl.yelpcdn.com/bphoto/KtxzTcQafY0AadoFAHPfXQ/o.jpg", "price": "$", "rating": 4.0, "name": "Fu Lai Kitchen", "url": "https://www.yelp.com/biz/fu-lai-kitchen-brooklyn-2?adjust_creative=gBcvfFpabk3CnzmXKdYe3w&utm_campaign=yelp_api_v3&utm_medium=api_v3_business_search&utm_source=gBcvfFpabk3CnzmXKdYe3w"}, {"transactions": [], "distance": 4854.692718357999, "phone": "+17187880888", "categories": [{"alias": "chinese", "title": "Chinese"}], "id": "china-delight-brooklyn", "display_phone": "(718) 788-0888", "is_closed": false, "location": {"address2": "", "country": "US", "display_address": ["722 4th Ave", "Brooklyn, NY 11232"], "address1": "722 4th Ave", "city": "Brooklyn", "zip_code": "11232", "address3": "", "state": "NY"}, "coordinates": {"longitude": -73.9968872070312, "latitude": 40.6618423461914}, "review_count": 11, "image_url": "https://s3-media4.fl.yelpcdn.com/bphoto/BLQiPpE5zDD3jXs8GA_8BQ/o.jpg", "price": "$", "rating": 4.0, "name": "China Delight", "url": "https://www.yelp.com/biz/china-delight-brooklyn?adjust_creative=gBcvfFpabk3CnzmXKdYe3w&utm_campaign=yelp_api_v3&utm_medium=api_v3_business_search&utm_source=gBcvfFpabk3CnzmXKdYe3w"}, {"transactions": [], "distance": 4463.891214402, "phone": "+12126891025", "categories": [{"alias": "chinese", "title": "Chinese"}], "id": "hong-kong-chinese-restaurant-new-york-2", "display_phone": "(212) 689-1025", "is_closed": false, "location": {"address2": "", "country": "US", "display_address": ["174 Lexington Ave", "New York, NY 10016"], "address1": "174 Lexington Ave", "city": "New York", "zip_code": "10016", "address3": "", "state": "NY"}, "coordinates": {"longitude": -73.981468, "latitude": 40.7444}, "review_count": 27, "image_url": "https://s3-media1.fl.yelpcdn.com/bphoto/f7tHQQj9H5xL-tnwxD9-eA/o.jpg", "price": "$", "rating": 3.5, "name": "Hong Kong Chinese Restaurant", "url": "https://www.yelp.com/biz/hong-kong-chinese-restaurant-new-york-2?adjust_creative=gBcvfFpabk3CnzmXKdYe3w&utm_campaign=yelp_api_v3&utm_medium=api_v3_business_search&utm_source=gBcvfFpabk3CnzmXKdYe3w"}, {"transactions": ["delivery", "pickup"], "distance": 9442.54334626, "phone": "+17183318866", "categories": [{"alias": "szechuan", "title": "Szechuan"}], "id": "chungking-restaurant-brooklyn", "display_phone": "(718) 331-8866", "is_closed": false, "location": {"address2": "", "country": "US", "display_address": ["6218 18th Ave", "Brooklyn, NY 11204"], "address1": "6218 18th Ave", "city": "Brooklyn", "zip_code": "11204", "address3": null, "state": "NY"}, "coordinates": {"longitude": -73.9890969175173, "latitude": 40.6206165271081}, "review_count": 41, "image_url": "https://s3-media3.fl.yelpcdn.com/bphoto/ZyJpEcHa2Jj-3H1VoZ_vEA/o.jpg", "price": "$$", "rating": 4.0, "name": "Chungking Restaurant", "url": "https://www.yelp.com/biz/chungking-restaurant-brooklyn?adjust_creative=gBcvfFpabk3CnzmXKdYe3w&utm_campaign=yelp_api_v3&utm_medium=api_v3_business_search&utm_source=gBcvfFpabk3CnzmXKdYe3w"}, {"transactions": ["delivery", "pickup"], "distance": 14373.52409144, "phone": "+13477131560", "categories": [{"alias": "vietnamese", "title": "Vietnamese"}, {"alias": "bubbletea", "title": "Bubble Tea"}, {"alias": "chinese", "title": "Chinese"}], "id": "chowtime-brooklyn", "display_phone": "(347) 713-1560", "is_closed": false, "location": {"address2": null, "country": "US", "display_address": ["1418 Mermaid Ave", "Brooklyn, NY 11224"], "address1": "1418 Mermaid Ave", "city": "Brooklyn", "zip_code": "11224", "address3": "", "state": "NY"}, "coordinates": {"longitude": -73.98205, "latitude": 40.57651}, "review_count": 13, "image_url": "https://s3-media2.fl.yelpcdn.com/bphoto/8VOmLguKrpE2jXUmFM--VQ/o.jpg", "price": "$", "rating": 5.0, "name": "ChowTime", "url": "https://www.yelp.com/biz/chowtime-brooklyn?adjust_creative=gBcvfFpabk3CnzmXKdYe3w&utm_campaign=yelp_api_v3&utm_medium=api_v3_business_search&utm_source=gBcvfFpabk3CnzmXKdYe3w"}, {"transactions": [], "distance": 6583.572240482, "phone": "+17185748979", "categories": [{"alias": "chinese", "title": "Chinese"}], "id": "weng-garden-brooklyn", "display_phone": "(718) 574-8979", "is_closed": false, "location": {"address2": "", "country": "US", "display_address": ["872 Hancock St", "Brooklyn, NY 11233"], "address1": "872 Hancock St", "city": "Brooklyn", "zip_code": "11233", "address3": "", "state": "NY"}, "coordinates": {"longitude": -73.920722, "latitude": 40.685707}, "review_count": 5, "image_url": "https://s3-media2.fl.yelpcdn.com/bphoto/872WANT4ltUCfPO7QGOReQ/o.jpg", "price": "$", "rating": 4.0, "name": "Weng Garden", "url": "https://www.yelp.com/biz/weng-garden-brooklyn?adjust_creative=gBcvfFpabk3CnzmXKdYe3w&utm_campaign=yelp_api_v3&utm_medium=api_v3_business_search&utm_source=gBcvfFpabk3CnzmXKdYe3w"}, {"transactions": [], "distance": 3930.612426236, "phone": "+17187885408", "categories": [{"alias": "chinese", "title": "Chinese"}], "id": "szechuan-delight-restaurant-brooklyn", "display_phone": "(718) 788-5408", "is_closed": false, "location": {"address2": "", "country": "US", "display_address": ["152 7th Ave", "Brooklyn, NY 11215"], "address1": "152 7th Ave", "city": "Brooklyn", "zip_code": "11215", "address3": "", "state": "NY"}, "coordinates": {"longitude": -73.977165222168, "latitude": 40.6725807189941}, "review_count": 83, "image_url": "https://s3-media3.fl.yelpcdn.com/bphoto/ugPXwcB4PDKl_WbWD2-rCg/o.jpg", "price": "$$", "rating": 3.0, "name": "Szechuan Delight Restaurant", "url": "https://www.yelp.com/biz/szechuan-delight-restaurant-brooklyn?adjust_creative=gBcvfFpabk3CnzmXKdYe3w&utm_campaign=yelp_api_v3&utm_medium=api_v3_business_search&utm_source=gBcvfFpabk3CnzmXKdYe3w"}, {"transactions": [], "distance": 7338.079273615999, "phone": "+17188518862", "categories": [{"alias": "cantonese", "title": "Cantonese"}, {"alias": "bbq", "title": "Barbeque"}], "id": "lucky-eight-brooklyn-2", "display_phone": "(718) 851-8862", "is_closed": false, "location": {"address2": null, "country": "US", "display_address": ["5204 8th Ave", "Brooklyn, NY 11220"], "address1": "5204 8th Ave", "city": "Brooklyn", "zip_code": "11220", "address3": "", "state": "NY"}, "coordinates": {"longitude": -74.00509, "latitude": 40.639961}, "review_count": 165, "image_url": "https://s3-media3.fl.yelpcdn.com/bphoto/ObBlSnmDL82eZOP-t4Dh1w/o.jpg", "price": "$$", "rating": 4.0, "name": "Lucky Eight", "url": "https://www.yelp.com/biz/lucky-eight-brooklyn-2?adjust_creative=gBcvfFpabk3CnzmXKdYe3w&utm_campaign=yelp_api_v3&utm_medium=api_v3_business_search&utm_source=gBcvfFpabk3CnzmXKdYe3w"}, {"transactions": ["delivery", "pickup"], "distance": 5588.833070989999, "phone": "+12128674996", "categories": [{"alias": "chinese", "title": "Chinese"}], "id": "hop-won-restaurant-new-york", "display_phone": "(212) 867-4996", "is_closed": false, "location": {"address2": "", "country": "US", "display_address": ["139 E 45th St", "New York, NY 10017"], "address1": "139 E 45th St", "city": "New York", "zip_code": "10017", "address3": "", "state": "NY"}, "coordinates": {"longitude": -73.9739227294922, "latitude": 40.7533111572266}, "review_count": 118, "image_url": "https://s3-media3.fl.yelpcdn.com/bphoto/wJiQV_uBcc2GbQPVkNAUrg/o.jpg", "price": "$", "rating": 3.0, "name": "Hop Won Restaurant", "url": "https://www.yelp.com/biz/hop-won-restaurant-new-york?adjust_creative=gBcvfFpabk3CnzmXKdYe3w&utm_campaign=yelp_api_v3&utm_medium=api_v3_business_search&utm_source=gBcvfFpabk3CnzmXKdYe3w"}, {"transactions": [], "distance": 3246.6970000599995, "phone": "+17188558797", "categories": [{"alias": "chinese", "title": "Chinese"}], "id": "wing-hua-brooklyn", "display_phone": "(718) 855-8797", "is_closed": false, "location": {"address2": "", "country": "US", "display_address": ["508 Court St", "Brooklyn, NY 11231"], "address1": "508 Court St", "city": "Brooklyn", "zip_code": "11231", "address3": "", "state": "NY"}, "coordinates": {"longitude": -73.999031, "latitude": 40.676475}, "review_count": 37, "image_url": "https://s3-media2.fl.yelpcdn.com/bphoto/KLH98d3gZrGm-NcjambofA/o.jpg", "price": "$", "rating": 3.5, "name": "Wing Hua", "url": "https://www.yelp.com/biz/wing-hua-brooklyn?adjust_creative=gBcvfFpabk3CnzmXKdYe3w&utm_campaign=yelp_api_v3&utm_medium=api_v3_business_search&utm_source=gBcvfFpabk3CnzmXKdYe3w"}, {"transactions": ["delivery", "pickup"], "distance": 10952.48004715, "phone": "+12125311788", "categories": [{"alias": "chinese", "title": "Chinese"}], "id": "happy-hot-hunan-new-york", "display_phone": "(212) 531-1788", "is_closed": false, "location": {"address2": "", "country": "US", "display_address": ["969 Amsterdam Ave", "New York, NY 10025"], "address1": "969 Amsterdam Ave", "city": "New York", "zip_code": "10025", "address3": "", "state": "NY"}, "coordinates": {"longitude": -73.96466, "latitude": 40.80133}, "review_count": 72, "image_url": "https://s3-media1.fl.yelpcdn.com/bphoto/YIo6RdLn4a54EaREywSiDw/o.jpg", "price": "$$", "rating": 3.5, "name": "Happy Hot Hunan", "url": "https://www.yelp.com/biz/happy-hot-hunan-new-york?adjust_creative=gBcvfFpabk3CnzmXKdYe3w&utm_campaign=yelp_api_v3&utm_medium=api_v3_business_search&utm_source=gBcvfFpabk3CnzmXKdYe3w"}, {"transactions": [], "distance": 4991.308947221999, "phone": "+17182490669", "categories": [{"alias": "chinese", "title": "Chinese"}], "id": "new-china-brooklyn-4", "display_phone": "(718) 249-0669", "is_closed": false, "location": {"address2": "", "country": "US", "display_address": ["1135 Myrtle Ave", "Brooklyn, NY 11206"], "address1": "1135 Myrtle Ave", "city": "Brooklyn", "zip_code": "11206", "address3": "", "state": "NY"}, "coordinates": {"longitude": -73.9361191, "latitude": 40.69701}, "review_count": 8, "image_url": "", "price": "$", "rating": 4.0, "name": "New China", "url": "https://www.yelp.com/biz/new-china-brooklyn-4?adjust_creative=gBcvfFpabk3CnzmXKdYe3w&utm_campaign=yelp_api_v3&utm_medium=api_v3_business_search&utm_source=gBcvfFpabk3CnzmXKdYe3w"}, {"transactions": [], "distance": 8584.87617072, "phone": "+17189563223", "categories": [{"alias": "chinese", "title": "Chinese"}], "id": "sunrise-chinese-restaurant-astoria", "display_phone": "(718) 956-3223", "is_closed": false, "location": {"address2": "", "country": "US", "display_address": ["3320 Broadway", "Astoria, NY 11106"], "address1": "3320 Broadway", "city": "Astoria", "zip_code": "11106", "address3": "", "state": "NY"}, "coordinates": {"longitude": -73.923281, "latitude": 40.760806}, "review_count": 34, "image_url": "https://s3-media2.fl.yelpcdn.com/bphoto/R5ARWLt667iuhFIFd9PcdQ/o.jpg", "price": "$", "rating": 3.5, "name": "Sunrise Chinese Restaurant", "url": "https://www.yelp.com/biz/sunrise-chinese-restaurant-astoria?adjust_creative=gBcvfFpabk3CnzmXKdYe3w&utm_campaign=yelp_api_v3&utm_medium=api_v3_business_search&utm_source=gBcvfFpabk3CnzmXKdYe3w"}, {"transactions": [], "distance": 15628.546969019999, "phone": "+17182972935", "categories": [{"alias": "bubbletea", "title": "Bubble Tea"}, {"alias": "chinese", "title": "Chinese"}, {"alias": "noodles", "title": "Noodles"}], "id": "beijing-dumpling-house-jamaica", "display_phone": "(718) 297-2935", "is_closed": false, "location": {"address2": "", "country": "US", "display_address": ["88-38 Sutphin Blvd", "Jamaica, NY 11435"], "address1": "88-38 Sutphin Blvd", "city": "Jamaica", "zip_code": "11435", "address3": "", "state": "NY"}, "coordinates": {"longitude": -73.8091804, "latitude": 40.7043147}, "review_count": 101, "image_url": "https://s3-media2.fl.yelpcdn.com/bphoto/-5F277-qUJa7aDPjl_u8aQ/o.jpg", "price": "$", "rating": 4.0, "name": "Beijing Dumpling House", "url": "https://www.yelp.com/biz/beijing-dumpling-house-jamaica?adjust_creative=gBcvfFpabk3CnzmXKdYe3w&utm_campaign=yelp_api_v3&utm_medium=api_v3_business_search&utm_source=gBcvfFpabk3CnzmXKdYe3w"}, {"transactions": ["delivery", "pickup"], "distance": 6339.187363188, "phone": "+12128048556", "categories": [{"alias": "ramen", "title": "Ramen"}, {"alias": "chinese", "title": "Chinese"}], "id": "kung-fu-little-steamed-buns-ramen-new-york-2", "display_phone": "(212) 804-8556", "is_closed": false, "location": {"address2": "", "country": "US", "display_address": ["146 E 55th St", "New York, NY 10022"], "address1": "146 E 55th St", "city": "New York", "zip_code": "10022", "address3": "", "state": "NY"}, "coordinates": {"longitude": -73.9694294705987, "latitude": 40.7592514705491}, "review_count": 164, "image_url": "https://s3-media3.fl.yelpcdn.com/bphoto/oXeb8KhbrSeQ9he9zW-AXQ/o.jpg", "price": "$$", "rating": 3.0, "name": "Kung Fu Little Steamed Buns Ramen", "url": "https://www.yelp.com/biz/kung-fu-little-steamed-buns-ramen-new-york-2?adjust_creative=gBcvfFpabk3CnzmXKdYe3w&utm_campaign=yelp_api_v3&utm_medium=api_v3_business_search&utm_source=gBcvfFpabk3CnzmXKdYe3w"}, {"transactions": [], "distance": 1328.5649680269998, "phone": "+12122198868", "categories": [{"alias": "seafood", "title": "Seafood"}, {"alias": "cantonese", "title": "Cantonese"}], "id": "bite-of-hong-kong-\u6cf0\u4ec1\u8ed2-new-york", "display_phone": "(212) 219-8868", "is_closed": false, "location": {"address2": "", "country": "US", "display_address": ["81 Chrystie St", "New York, NY 10002"], "address1": "81 Chrystie St", "city": "New York", "zip_code": "10002", "address3": "", "state": "NY"}, "coordinates": {"longitude": -73.99437, "latitude": 40.7174007}, "review_count": 46, "image_url": "https://s3-media2.fl.yelpcdn.com/bphoto/RmaE88UYozoOW0Z7SIKZ6g/o.jpg", "price": "$$", "rating": 3.5, "name": "Bite of Hong Kong \u6cf0\u4ec1\u8ed2", "url": "https://www.yelp.com/biz/bite-of-hong-kong-%E6%B3%B0%E4%BB%81%E8%BB%92-new-york?adjust_creative=gBcvfFpabk3CnzmXKdYe3w&utm_campaign=yelp_api_v3&utm_medium=api_v3_business_search&utm_source=gBcvfFpabk3CnzmXKdYe3w"}, {"transactions": [], "distance": 1205.081436365, "phone": "+12129664033", "categories": [{"alias": "chinese", "title": "Chinese"}], "id": "new-wonton-garden-new-york-2", "display_phone": "(212) 966-4033", "is_closed": false, "location": {"address2": "", "country": "US", "display_address": ["56 Mott St", "New York, NY 10013"], "address1": "56 Mott St", "city": "New York", "zip_code": "10013", "address3": "", "state": "NY"}, "coordinates": {"longitude": -73.9982937276363, "latitude": 40.7158463448286}, "review_count": 248, "image_url": "https://s3-media1.fl.yelpcdn.com/bphoto/rvaGe8KF5Om1avgfrSHAgw/o.jpg", "price": "$", "rating": 3.5, "name": "New Wonton Garden", "url": "https://www.yelp.com/biz/new-wonton-garden-new-york-2?adjust_creative=gBcvfFpabk3CnzmXKdYe3w&utm_campaign=yelp_api_v3&utm_medium=api_v3_business_search&utm_source=gBcvfFpabk3CnzmXKdYe3w"}, {"transactions": ["delivery", "pickup"], "distance": 1576.1654997618, "phone": "+12129434380", "categories": [{"alias": "chinese", "title": "Chinese"}], "id": "china-chalet-new-york-5", "display_phone": "(212) 943-4380", "is_closed": false, "location": {"address2": "", "country": "US", "display_address": ["47 Broadway", "New York, NY 10006"], "address1": "47 Broadway", "city": "New York", "zip_code": "10006", "address3": "", "state": "NY"}, "coordinates": {"longitude": -74.012940146627, "latitude": 40.7065032987417}, "review_count": 114, "image_url": "https://s3-media3.fl.yelpcdn.com/bphoto/ykv_NWw342qWLNC9TJUAdw/o.jpg", "price": "$$", "rating": 3.0, "name": "China Chalet", "url": "https://www.yelp.com/biz/china-chalet-new-york-5?adjust_creative=gBcvfFpabk3CnzmXKdYe3w&utm_campaign=yelp_api_v3&utm_medium=api_v3_business_search&utm_source=gBcvfFpabk3CnzmXKdYe3w"}, {"transactions": [], "distance": 1013.4932913139999, "phone": "+12124771111", "categories": [{"alias": "cantonese", "title": "Cantonese"}, {"alias": "seafood", "title": "Seafood"}, {"alias": "dimsum", "title": "Dim Sum"}], "id": "wus-wonton-king-new-york", "display_phone": "(212) 477-1111", "is_closed": false, "location": {"address2": "", "country": "US", "display_address": ["165 E Broadway", "New York, NY 10002"], "address1": "165 E Broadway", "city": "New York", "zip_code": "10002", "address3": "", "state": "NY"}, "coordinates": {"longitude": -73.9899386554248, "latitude": 40.7139415501646}, "review_count": 72, "image_url": "https://s3-media4.fl.yelpcdn.com/bphoto/tDh9OvzCoHoornr8aIsExg/o.jpg", "price": "$$", "rating": 3.5, "name": "Wu's Wonton King", "url": "https://www.yelp.com/biz/wus-wonton-king-new-york?adjust_creative=gBcvfFpabk3CnzmXKdYe3w&utm_campaign=yelp_api_v3&utm_medium=api_v3_business_search&utm_source=gBcvfFpabk3CnzmXKdYe3w"}, {"transactions": ["delivery", "pickup"], "distance": 5122.079731338, "phone": "+12126822883", "categories": [{"alias": "soup", "title": "Soup"}, {"alias": "asianfusion", "title": "Asian Fusion"}, {"alias": "szechuan", "title": "Szechuan"}], "id": "hunan-manor-new-york", "display_phone": "(212) 682-2883", "is_closed": false, "location": {"address2": "", "country": "US", "display_address": ["339 Lexington Ave", "New York, NY 10016"], "address1": "339 Lexington Ave", "city": "New York", "zip_code": "10016", "address3": "", "state": "NY"}, "coordinates": {"longitude": -73.97707, "latitude": 40.74965}, "review_count": 171, "image_url": "https://s3-media2.fl.yelpcdn.com/bphoto/tEf0bceZrT6tMI01dWw2xQ/o.jpg", "price": "$$", "rating": 3.5, "name": "Hunan Manor", "url": "https://www.yelp.com/biz/hunan-manor-new-york?adjust_creative=gBcvfFpabk3CnzmXKdYe3w&utm_campaign=yelp_api_v3&utm_medium=api_v3_business_search&utm_source=gBcvfFpabk3CnzmXKdYe3w"}, {"transactions": [], "distance": 3717.208148612, "phone": "+17183871773", "categories": [{"alias": "chinese", "title": "Chinese"}, {"alias": "spanish", "title": "Spanish"}], "id": "new-apolo-brooklyn-2", "display_phone": "(718) 387-1773", "is_closed": false, "location": {"address2": "", "country": "US", "display_address": ["508 Grand St", "Brooklyn, NY 11211"], "address1": "508 Grand St", "city": "Brooklyn", "zip_code": "11211", "address3": "", "state": "NY"}, "coordinates": {"longitude": -73.95076, "latitude": 40.71078}, "review_count": 93, "image_url": "https://s3-media2.fl.yelpcdn.com/bphoto/ZRYt58ftQIZaIlKhXRWLog/o.jpg", "price": "$$", "rating": 3.5, "name": "New Apolo", "url": "https://www.yelp.com/biz/new-apolo-brooklyn-2?adjust_creative=gBcvfFpabk3CnzmXKdYe3w&utm_campaign=yelp_api_v3&utm_medium=api_v3_business_search&utm_source=gBcvfFpabk3CnzmXKdYe3w"}, {"transactions": ["delivery", "pickup"], "distance": 4679.855147296, "phone": "+12122687888", "categories": [{"alias": "chinese", "title": "Chinese"}, {"alias": "korean", "title": "Korean"}], "id": "dong-chun-hong-new-york", "display_phone": "(212) 268-7888", "is_closed": false, "location": {"address2": null, "country": "US", "display_address": ["312 5th Ave", "New York, NY 10001"], "address1": "312 5th Ave", "city": "New York", "zip_code": "10001", "address3": "", "state": "NY"}, "coordinates": {"longitude": -73.985959, "latitude": 40.7470559}, "review_count": 212, "image_url": "https://s3-media4.fl.yelpcdn.com/bphoto/eUskirPbvbf08mjLBJMKMA/o.jpg", "price": "$$", "rating": 3.0, "name": "Dong Chun Hong", "url": "https://www.yelp.com/biz/dong-chun-hong-new-york?adjust_creative=gBcvfFpabk3CnzmXKdYe3w&utm_campaign=yelp_api_v3&utm_medium=api_v3_business_search&utm_source=gBcvfFpabk3CnzmXKdYe3w"}, {"transactions": ["delivery", "pickup"], "distance": 8894.96058324, "phone": "+17187772727", "categories": [{"alias": "chinese", "title": "Chinese"}, {"alias": "thai", "title": "Thai"}], "id": "golden-dragon-astoria", "display_phone": "(718) 777-2727", "is_closed": false, "location": {"address2": "", "country": "US", "display_address": ["3406 31st Ave", "Astoria, NY 11106"], "address1": "3406 31st Ave", "city": "Astoria", "zip_code": "11106", "address3": "", "state": "NY"}, "coordinates": {"longitude": -73.9209671, "latitude": 40.7628708}, "review_count": 61, "image_url": "https://s3-media2.fl.yelpcdn.com/bphoto/7P8oBK0ub8UInjsi7ovIZQ/o.jpg", "price": "$", "rating": 3.5, "name": "Golden Dragon", "url": "https://www.yelp.com/biz/golden-dragon-astoria?adjust_creative=gBcvfFpabk3CnzmXKdYe3w&utm_campaign=yelp_api_v3&utm_medium=api_v3_business_search&utm_source=gBcvfFpabk3CnzmXKdYe3w"}, {"transactions": ["delivery", "pickup"], "distance": 1350.60962688, "phone": "+12122605888", "categories": [{"alias": "chinese", "title": "Chinese"}], "id": "great-wall-chinese-new-york-2", "display_phone": "(212) 260-5888", "is_closed": false, "location": {"address2": "", "country": "US", "display_address": ["384 Grand St", "New York, NY 10002"], "address1": "384 Grand St", "city": "New York", "zip_code": "10002", "address3": "", "state": "NY"}, "coordinates": {"longitude": -73.987632, "latitude": 40.716503}, "review_count": 61, "image_url": "https://s3-media1.fl.yelpcdn.com/bphoto/IX8y1GYpHivFO2gJZUcY6A/o.jpg", "price": "$", "rating": 3.5, "name": "Great Wall Chinese", "url": "https://www.yelp.com/biz/great-wall-chinese-new-york-2?adjust_creative=gBcvfFpabk3CnzmXKdYe3w&utm_campaign=yelp_api_v3&utm_medium=api_v3_business_search&utm_source=gBcvfFpabk3CnzmXKdYe3w"}, {"transactions": [], "distance": 2850.034762626, "phone": "+17188526287", "categories": [{"alias": "chinese", "title": "Chinese"}], "id": "ting-hua-new-kitchen-brooklyn", "display_phone": "(718) 852-6287", "is_closed": false, "location": {"address2": "", "country": "US", "display_address": ["351 Smith St", "Brooklyn, NY 11231"], "address1": "351 Smith St", "city": "Brooklyn", "zip_code": "11231", "address3": "", "state": "NY"}, "coordinates": {"longitude": -73.99488, "latitude": 40.679817}, "review_count": 35, "image_url": "https://s3-media1.fl.yelpcdn.com/bphoto/m1HS1PuAG4AmExu8OewXXw/o.jpg", "price": "$", "rating": 3.0, "name": "Ting Hua New Kitchen", "url": "https://www.yelp.com/biz/ting-hua-new-kitchen-brooklyn?adjust_creative=gBcvfFpabk3CnzmXKdYe3w&utm_campaign=yelp_api_v3&utm_medium=api_v3_business_search&utm_source=gBcvfFpabk3CnzmXKdYe3w"}, {"transactions": ["delivery", "pickup"], "distance": 8512.458445663999, "phone": "+12123963339", "categories": [{"alias": "chinese", "title": "Chinese"}], "id": "wa-jeal-sichuan-chili-house-new-york", "display_phone": "(212) 396-3339", "is_closed": false, "location": {"address2": null, "country": "US", "display_address": ["1588 2nd Ave", "New York, NY 10028"], "address1": "1588 2nd Ave", "city": "New York", "zip_code": "10028", "address3": "", "state": "NY"}, "coordinates": {"longitude": -73.95317, "latitude": 40.77536}, "review_count": 339, "image_url": "https://s3-media3.fl.yelpcdn.com/bphoto/uiyBuZ_Rpje9LbnN_Vlc4Q/o.jpg", "price": "$$", "rating": 3.5, "name": "Wa Jeal Sichuan Chili House", "url": "https://www.yelp.com/biz/wa-jeal-sichuan-chili-house-new-york?adjust_creative=gBcvfFpabk3CnzmXKdYe3w&utm_campaign=yelp_api_v3&utm_medium=api_v3_business_search&utm_source=gBcvfFpabk3CnzmXKdYe3w"}, {"transactions": [], "distance": 15149.452888379998, "phone": "+17189393501", "categories": [{"alias": "seafood", "title": "Seafood"}, {"alias": "cantonese", "title": "Cantonese"}], "id": "imperial-palace-flushing", "display_phone": "(718) 939-3501", "is_closed": false, "location": {"address2": "", "country": "US", "display_address": ["13613 37th Ave", "Flushing, NY 11354"], "address1": "13613 37th Ave", "city": "Flushing", "zip_code": "11354", "address3": "", "state": "NY"}, "coordinates": {"longitude": -73.830619, "latitude": 40.761867}, "review_count": 305, "image_url": "https://s3-media3.fl.yelpcdn.com/bphoto/v3lMJ1ek1TF3coOMz6RS7Q/o.jpg", "price": "$$", "rating": 4.0, "name": "Imperial Palace", "url": "https://www.yelp.com/biz/imperial-palace-flushing?adjust_creative=gBcvfFpabk3CnzmXKdYe3w&utm_campaign=yelp_api_v3&utm_medium=api_v3_business_search&utm_source=gBcvfFpabk3CnzmXKdYe3w"}, {"transactions": [], "distance": 7559.426126941999, "phone": "+17183922337", "categories": [{"alias": "chinese", "title": "Chinese"}], "id": "dumplings-and-things-sunnyside-2", "display_phone": "(718) 392-2337", "is_closed": false, "location": {"address2": "", "country": "US", "display_address": ["45-26 46th St", "Sunnyside, NY 11104"], "address1": "45-26 46th St", "city": "Sunnyside", "zip_code": "11104", "address3": "", "state": "NY"}, "coordinates": {"longitude": -73.9180908, "latitude": 40.7461891}, "review_count": 106, "image_url": "https://s3-media2.fl.yelpcdn.com/bphoto/4_ao6rVDQeE5pbMhyiM6bQ/o.jpg", "price": "$", "rating": 3.5, "name": "Dumplings & Things", "url": "https://www.yelp.com/biz/dumplings-and-things-sunnyside-2?adjust_creative=gBcvfFpabk3CnzmXKdYe3w&utm_campaign=yelp_api_v3&utm_medium=api_v3_business_search&utm_source=gBcvfFpabk3CnzmXKdYe3w"}, {"transactions": [], "distance": 5869.9717333359995, "phone": "+17184436087", "categories": [{"alias": "chinese", "title": "Chinese"}], "id": "homei-restaurant-brooklyn", "display_phone": "(718) 443-6087", "is_closed": false, "location": {"address2": "", "country": "US", "display_address": ["222 Malcolm X Blvd", "Brooklyn, NY 11221"], "address1": "222 Malcolm X Blvd", "city": "Brooklyn", "zip_code": "11221", "address3": "", "state": "NY"}, "coordinates": {"longitude": -73.9298324584961, "latitude": 40.6854858398438}, "review_count": 9, "image_url": "https://s3-media4.fl.yelpcdn.com/bphoto/g5hz2G-SHbE8CUt-H4cdCQ/o.jpg", "price": "$", "rating": 4.0, "name": "Homei Restaurant", "url": "https://www.yelp.com/biz/homei-restaurant-brooklyn?adjust_creative=gBcvfFpabk3CnzmXKdYe3w&utm_campaign=yelp_api_v3&utm_medium=api_v3_business_search&utm_source=gBcvfFpabk3CnzmXKdYe3w"}, {"transactions": [], "distance": 4554.640448596, "phone": "+17183840886", "categories": [{"alias": "chinese", "title": "Chinese"}], "id": "new-hardee-brooklyn-3", "display_phone": "(718) 384-0886", "is_closed": false, "location": {"address2": "", "country": "US", "display_address": ["835 Dekalb Ave", "Brooklyn, NY 11221"], "address1": "835 Dekalb Ave", "city": "Brooklyn", "zip_code": "11221", "address3": null, "state": "NY"}, "coordinates": {"longitude": -73.9430160522461, "latitude": 40.6925659179688}, "review_count": 3, "image_url": "https://s3-media2.fl.yelpcdn.com/bphoto/ZiAvPQKJx_x31vJnyQc8HQ/o.jpg", "price": "$", "rating": 5.0, "name": "New Hardee", "url": "https://www.yelp.com/biz/new-hardee-brooklyn-3?adjust_creative=gBcvfFpabk3CnzmXKdYe3w&utm_campaign=yelp_api_v3&utm_medium=api_v3_business_search&utm_source=gBcvfFpabk3CnzmXKdYe3w"}, {"transactions": ["delivery", "pickup"], "distance": 3238.462651016, "phone": "+17186385682", "categories": [{"alias": "chinese", "title": "Chinese"}, {"alias": "asianfusion", "title": "Asian Fusion"}], "id": "new-china-tung-brooklyn-2", "display_phone": "(718) 638-5682", "is_closed": false, "location": {"address2": "", "country": "US", "display_address": ["140 5th Ave", "Brooklyn, NY 11217"], "address1": "140 5th Ave", "city": "Brooklyn", "zip_code": "11217", "address3": "", "state": "NY"}, "coordinates": {"longitude": -73.97927, "latitude": 40.678642}, "review_count": 27, "image_url": "https://s3-media2.fl.yelpcdn.com/bphoto/NoajWeiBwAX-tAe2g7ewLg/o.jpg", "price": "$", "rating": 4.0, "name": "New China Tung", "url": "https://www.yelp.com/biz/new-china-tung-brooklyn-2?adjust_creative=gBcvfFpabk3CnzmXKdYe3w&utm_campaign=yelp_api_v3&utm_medium=api_v3_business_search&utm_source=gBcvfFpabk3CnzmXKdYe3w"}]}