{"region": {"center": {"longitude": -73.99429321289062, "latitude": 40.70544486444615}}, "total": 2613, "businesses": [{"transactions": ["delivery", "pickup"], "distance": 4098.568298523999, "phone": "+17184993758", "categories": [{"alias": "chinese", "title": "Chinese"}], "id": "empire-express-brooklyn", "display_phone": "(718) 499-3758", "is_closed": false, "location": {"address2": "", "country": "US", "display_address": ["319 9th St", "Brooklyn, NY 11215"], "address1": "319 9th St", "city": "Brooklyn", "zip_code": "11215", "address3": "", "state": "NY"}, "coordinates": {"longitude": -73.985664, "latitude": 40.66917}, "review_count": 28, "image_url": "https://s3-media3.fl.yelpcdn.com/bphoto/pVdPAycVLPvimFR517bfZQ/o.jpg", "price": "$", "rating": 4.0, "name": "Empire Express", "url": "https://www.yelp.com/biz/empire-express-brooklyn?adjust_creative=gBcvfFpabk3CnzmXKdYe3w&utm_campaign=yelp_api_v3&utm_medium=api_v3_business_search&utm_source=gBcvfFpabk3CnzmXKdYe3w"}, {"transactions": [], "distance": 14909.154286279998, "phone": "+17183213838", "categories": [{"alias": "shanghainese", "title": "Shanghainese"}, {"alias": "gourmet", "title": "Specialty Food"}, {"alias": "noodles", "title": "Noodles"}], "id": "nan-xiang-xiao-long-bao-flushing", "display_phone": "(718) 321-3838", "is_closed": false, "location": {"address2": "", "country": "US", "display_address": ["38-12 Prince St", "Flushing, NY 11354"], "address1": "38-12 Prince St", "city": "Flushing", "zip_code": "11354", "address3": "", "state": "NY"}, "coordinates": {"longitude": -73.8325853625656, "latitude": 40.7598810063385}, "review_count": 2356, "image_url": "https://s3-media4.fl.yelpcdn.com/bphoto/ONP2DhsGDUKVScihhmaUGw/o.jpg", "price": "$", "rating": 4.0, "name": "Nan Xiang Xiao Long Bao", "url": "https://www.yelp.com/biz/nan-xiang-xiao-long-bao-flushing?adjust_creative=gBcvfFpabk3CnzmXKdYe3w&utm_campaign=yelp_api_v3&utm_medium=api_v3_business_search&utm_source=gBcvfFpabk3CnzmXKdYe3w"}, {"transactions": [], "distance": 10583.474478549999, "phone": "+17187262288", "categories": [{"alias": "chinese", "title": "Chinese"}], "id": "xings-chef-astoria", "display_phone": "(718) 726-2288", "is_closed": false, "location": {"address2": "", "country": "US", "display_address": ["46-20 Ditmars Blvd", "Astoria, NY 11105"], "address1": "46-20 Ditmars Blvd", "city": "Astoria", "zip_code": "11105", "address3": "", "state": "NY"}, "coordinates": {"longitude": -73.9021204913637, "latitude": 40.7701092079077}, "review_count": 59, "image_url": "https://s3-media3.fl.yelpcdn.com/bphoto/cdp6bDHN_aYsXCqEApgCbw/o.jpg", "price": "$", "rating": 4.0, "name": "Xing's Chef", "url": "https://www.yelp.com/biz/xings-chef-astoria?adjust_creative=gBcvfFpabk3CnzmXKdYe3w&utm_campaign=yelp_api_v3&utm_medium=api_v3_business_search&utm_source=gBcvfFpabk3CnzmXKdYe3w"}, {"transactions": [], "distance": 5769.116809546, "phone": "+17184179344", "categories": [{"alias": "chinese", "title": "Chinese"}], "id": "new-hardee-brooklyn", "display_phone": "(718) 417-9344", "is_closed": false, "location": {"address2": null, "country": "US", "display_address": ["130 Wilson Ave", "Brooklyn, NY 11237"], "address1": "130 Wilson Ave", "city": "Brooklyn", "zip_code": "11237", "address3": "", "state": "NY"}, "coordinates": {"longitude": -73.9261474609375, "latitude": 40.7006568908691}, "review_count": 6, "image_url": "https://s3-media3.fl.yelpcdn.com/bphoto/-_Cd-tpod9-AQK3fnNgi6A/o.jpg", "price": "$", "rating": 4.5, "name": "New Hardee", "url": "https://www.yelp.com/biz/new-hardee-brooklyn?adjust_creative=gBcvfFpabk3CnzmXKdYe3w&utm_campaign=yelp_api_v3&utm_medium=api_v3_business_search&utm_source=gBcvfFpabk3CnzmXKdYe3w"}, {"transactions": [], "distance": 1205.6755885996, "phone": "+12125292700", "categories": [{"alias": "chinese", "title": "Chinese"}], "id": "china-north-dumpling-new-york-2", "display_phone": "(212) 529-2700", "is_closed": false, "location": {"address2": "Ste A", "country": "US", "display_address": ["27 Essex St", "Ste A", "New York, NY 10002"], "address1": "27 Essex St", "city": "New York", "zip_code": "10002", "address3": "", "state": "NY"}, "coordinates": {"longitude": -73.989845, "latitude": 40.715827}, "review_count": 229, "image_url": "https://s3-media2.fl.yelpcdn.com/bphoto/MnVrENAi8ITZj1lsR6vh4A/o.jpg", "price": "$", "rating": 4.0, "name": "China North Dumpling", "url": "https://www.yelp.com/biz/china-north-dumpling-new-york-2?adjust_creative=gBcvfFpabk3CnzmXKdYe3w&utm_campaign=yelp_api_v3&utm_medium=api_v3_business_search&utm_source=gBcvfFpabk3CnzmXKdYe3w"}, {"transactions": ["delivery", "pickup"], "distance": 10675.73552674, "phone": "+17188982768", "categories": [{"alias": "chinese", "title": "Chinese"}], "id": "saw-shack-jackson-heights", "display_phone": "(718) 898-2768", "is_closed": false, "location": {"address2": null, "country": "US", "display_address": ["84-22 37th Ave", "Jackson Heights, NY 11372"], "address1": "84-22 37th Ave", "city": "Jackson Heights", "zip_code": "11372", "address3": "", "state": "NY"}, "coordinates": {"longitude": -73.8821339607239, "latitude": 40.7499285042286}, "review_count": 116, "image_url": "https://s3-media1.fl.yelpcdn.com/bphoto/TDdTs2jejUBZ5U6t0lyeNQ/o.jpg", "price": "$", "rating": 4.0, "name": "Saw Shack", "url": "https://www.yelp.com/biz/saw-shack-jackson-heights?adjust_creative=gBcvfFpabk3CnzmXKdYe3w&utm_campaign=yelp_api_v3&utm_medium=api_v3_business_search&utm_source=gBcvfFpabk3CnzmXKdYe3w"}, {"transactions": [], "distance": 3974.2326213319993, "phone": "+17187681188", "categories": [{"alias": "chinese", "title": "Chinese"}], "id": "c-and-y-chinese-brooklyn", "display_phone": "(718) 768-1188", "is_closed": false, "location": {"address2": "", "country": "US", "display_address": ["399 5th Ave", "Brooklyn, NY 11215"], "address1": "399 5th Ave", "city": "Brooklyn", "zip_code": "11215", "address3": "", "state": "NY"}, "coordinates": {"longitude": -73.9849548339844, "latitude": 40.6704177856445}, "review_count": 30, "image_url": "https://s3-media1.fl.yelpcdn.com/bphoto/_UmUhkaAXjfVzBJobHHo6Q/o.jpg", "price": "$", "rating": 4.0, "name": "C And Y Chinese", "url": "https://www.yelp.com/biz/c-and-y-chinese-brooklyn?adjust_creative=gBcvfFpabk3CnzmXKdYe3w&utm_campaign=yelp_api_v3&utm_medium=api_v3_business_search&utm_source=gBcvfFpabk3CnzmXKdYe3w"}, {"transactions": ["delivery", "pickup"], "distance": 4155.5524529799995, "phone": "+12126869888", "categories": [{"alias": "chinese", "title": "Chinese"}], "id": "asia-express-new-york-2", "display_phone": "(212) 686-9888", "is_closed": false, "location": {"address2": "", "country": "US", "display_address": ["493 2nd Ave", "New York, NY 10016"], "address1": "493 2nd Ave", "city": "New York", "zip_code": "10016", "address3": "", "state": "NY"}, "coordinates": {"longitude": -73.979057, "latitude": 40.741001}, "review_count": 30, "image_url": "https://s3-media3.fl.yelpcdn.com/bphoto/u7nq5BZGjBfnRew_dRfIbA/o.jpg", "price": "$", "rating": 3.5, "name": "Asia Express", "url": "https://www.yelp.com/biz/asia-express-new-york-2?adjust_creative=gBcvfFpabk3CnzmXKdYe3w&utm_campaign=yelp_api_v3&utm_medium=api_v3_business_search&utm_source=gBcvfFpabk3CnzmXKdYe3w"}, {"transactions": [], "distance": 5252.6926392, "phone": "+17187357065", "categories": [{"alias": "chinese", "title": "Chinese"}, {"alias": "caribbean", "title": "Caribbean"}], "id": "trinidad-golden-place-restaurant-brooklyn", "display_phone": "(718) 735-7065", "is_closed": false, "location": {"address2": "", "country": "US", "display_address": ["788 Nostrand Ave", "Brooklyn, NY 11216"], "address1": "788 Nostrand Ave", "city": "Brooklyn", "zip_code": "11216", "address3": "", "state": "NY"}, "coordinates": {"longitude": -73.950525317791, "latitude": 40.6718291030037}, "review_count": 78, "image_url": "https://s3-media4.fl.yelpcdn.com/bphoto/SH-o8TjijNm26XvnqpAakA/o.jpg", "price": "$", "rating": 4.0, "name": "Trinidad Golden Place Restaurant", "url": "https://www.yelp.com/biz/trinidad-golden-place-restaurant-brooklyn?adjust_creative=gBcvfFpabk3CnzmXKdYe3w&utm_campaign=yelp_api_v3&utm_medium=api_v3_business_search&utm_source=gBcvfFpabk3CnzmXKdYe3w"}, {"transactions": [], "distance": 9090.391429876, "phone": "+12127873388", "categories": [{"alias": "chinese", "title": "Chinese"}, {"alias": "peruvian", "title": "Peruvian"}, {"alias": "spanish", "title": "Spanish"}], "id": "flor-de-mayo-new-york-2", "display_phone": "(212) 787-3388", "is_closed": false, "location": {"address2": "", "country": "US", "display_address": ["484 Amsterdam Ave", "New York, NY 10024"], "address1": "484 Amsterdam Ave", "city": "New York", "zip_code": "10024", "address3": "", "state": "NY"}, "coordinates": {"longitude": -73.9765853881836, "latitude": 40.7860908508301}, "review_count": 927, "image_url": "https://s3-media4.fl.yelpcdn.com/bphoto/mPWjLHcGP6-bj25X-fJ1oA/o.jpg", "price": "$$", "rating": 4.0, "name": "Flor De Mayo", "url": "https://www.yelp.com/biz/flor-de-mayo-new-york-2?adjust_creative=gBcvfFpabk3CnzmXKdYe3w&utm_campaign=yelp_api_v3&utm_medium=api_v3_business_search&utm_source=gBcvfFpabk3CnzmXKdYe3w"}, {"transactions": [], "distance": 2764.7980007339997, "phone": "+17188759888", "categories": [{"alias": "chinese", "title": "Chinese"}, {"alias": "halal", "title": "Halal"}], "id": "no-pork-halal-kitchen-brooklyn", "display_phone": "(718) 875-9888", "is_closed": false, "location": {"address2": null, "country": "US", "display_address": ["50 4th Ave", "Brooklyn, NY 11217"], "address1": "50 4th Ave", "city": "Brooklyn", "zip_code": "11217", "address3": "", "state": "NY"}, "coordinates": {"longitude": -73.97936, "latitude": 40.68332}, "review_count": 82, "image_url": "https://s3-media4.fl.yelpcdn.com/bphoto/4dB6IA6aPwxvMH9G4DqZhQ/o.jpg", "price": "$", "rating": 4.0, "name": "No Pork Halal Kitchen", "url": "https://www.yelp.com/biz/no-pork-halal-kitchen-brooklyn?adjust_creative=gBcvfFpabk3CnzmXKdYe3w&utm_campaign=yelp_api_v3&utm_medium=api_v3_business_search&utm_source=gBcvfFpabk3CnzmXKdYe3w"}, {"transactions": [], "distance": 7619.912688039999, "phone": "+17184561858", "categories": [{"alias": "chinese", "title": "Chinese"}], "id": "hong-kong-express-ridgewood", "display_phone": "(718) 456-1858", "is_closed": false, "location": {"address2": null, "country": "US", "display_address": ["989 Wyckoff Ave", "Ridgewood, NY 11385"], "address1": "989 Wyckoff Ave", "city": "Ridgewood", "zip_code": "11385", "address3": null, "state": "NY"}, "coordinates": {"longitude": -73.904724, "latitude": 40.696171}, "review_count": 34, "image_url": "https://s3-media3.fl.yelpcdn.com/bphoto/XKBbye0sAQ_HLvN68xgE5A/o.jpg", "price": "$", "rating": 4.0, "name": "Hong Kong Express", "url": "https://www.yelp.com/biz/hong-kong-express-ridgewood?adjust_creative=gBcvfFpabk3CnzmXKdYe3w&utm_campaign=yelp_api_v3&utm_medium=api_v3_business_search&utm_source=gBcvfFpabk3CnzmXKdYe3w"}, {"transactions": ["delivery", "pickup"], "distance": 7185.87851806, "phone": "+17183662388", "categories": [{"alias": "chinese", "title": "Chinese"}], "id": "lins-garden-ridgewood-2", "display_phone": "(718) 366-2388", "is_closed": false, "location": {"address2": "", "country": "US", "display_address": ["652 Seneca Ave", "Ridgewood, NY 11385"], "address1": "652 Seneca Ave", "city": "Ridgewood", "zip_code": "11385", "address3": "", "state": "NY"}, "coordinates": {"longitude": -73.9090729, "latitude": 40.7034531}, "review_count": 25, "image_url": "https://s3-media1.fl.yelpcdn.com/bphoto/sSYjbydutbJyQZTp0N44zg/o.jpg", "price": "$", "rating": 3.5, "name": "Lin's Garden", "url": "https://www.yelp.com/biz/lins-garden-ridgewood-2?adjust_creative=gBcvfFpabk3CnzmXKdYe3w&utm_campaign=yelp_api_v3&utm_medium=api_v3_business_search&utm_source=gBcvfFpabk3CnzmXKdYe3w"}, {"transactions": [], "distance": 2469.165622348, "phone": "+16466929866", "categories": [{"alias": "cocktailbars", "title": "Cocktail Bars"}, {"alias": "asianfusion", "title": "Asian Fusion"}, {"alias": "chinese", "title": "Chinese"}], "id": "lumos-bar-new-york", "display_phone": "(646) 692-9866", "is_closed": false, "location": {"address2": "", "country": "US", "display_address": ["90 W Houston St", "New York, NY 10012"], "address1": "90 W Houston St", "city": "New York", "zip_code": "10012", "address3": "", "state": "NY"}, "coordinates": {"longitude": -73.9999, "latitude": 40.72728}, "review_count": 68, "image_url": "https://s3-media4.fl.yelpcdn.com/bphoto/PGU68Br-Ke-VkmD3viKfXg/o.jpg", "price": "$$", "rating": 4.5, "name": "Lumos Bar", "url": "https://www.yelp.com/biz/lumos-bar-new-york?adjust_creative=gBcvfFpabk3CnzmXKdYe3w&utm_campaign=yelp_api_v3&utm_medium=api_v3_business_search&utm_source=gBcvfFpabk3CnzmXKdYe3w"}, {"transactions": [], "distance": 9933.856179916, "phone": "+12124276808", "categories": [{"alias": "chinese", "title": "Chinese"}], "id": "yummy-city-new-york", "display_phone": "(212) 427-6808", "is_closed": false, "location": {"address2": "", "country": "US", "display_address": ["1557 Lexington Ave", "New York, NY 10029"], "address1": "1557 Lexington Ave", "city": "New York", "zip_code": "10029", "address3": "", "state": "NY"}, "coordinates": {"longitude": -73.948986355818, "latitude": 40.7879244458184}, "review_count": 16, "image_url": "https://s3-media1.fl.yelpcdn.com/bphoto/DnOcw9Pl0Xr-Tb9vbHatQg/o.jpg", "price": "$", "rating": 4.5, "name": "Yummy City", "url": "https://www.yelp.com/biz/yummy-city-new-york?adjust_creative=gBcvfFpabk3CnzmXKdYe3w&utm_campaign=yelp_api_v3&utm_medium=api_v3_business_search&utm_source=gBcvfFpabk3CnzmXKdYe3w"}, {"transactions": ["delivery", "pickup"], "distance": 13130.6292001, "phone": "+17188916868", "categories": [{"alias": "chinese", "title": "Chinese"}], "id": "new-star-brooklyn", "display_phone": "(718) 891-6868", "is_closed": false, "location": {"address2": "", "country": "US", "display_address": ["2212 Ave X", "Brooklyn, NY 11235"], "address1": "2212 Ave X", "city": "Brooklyn", "zip_code": "11235", "address3": "", "state": "NY"}, "coordinates": {"longitude": -73.947708, "latitude": 40.592773}, "review_count": 28, "image_url": "https://s3-media3.fl.yelpcdn.com/bphoto/yugrojnE2Kt5I8Je1OHMQA/o.jpg", "price": "$", "rating": 4.0, "name": "New Star", "url": "https://www.yelp.com/biz/new-star-brooklyn?adjust_creative=gBcvfFpabk3CnzmXKdYe3w&utm_campaign=yelp_api_v3&utm_medium=api_v3_business_search&utm_source=gBcvfFpabk3CnzmXKdYe3w"}, {"transactions": [], "distance": 1210.1914127329999, "phone": "+12124062292", "categories": [{"alias": "chinese", "title": "Chinese"}, {"alias": "vietnamese", "title": "Vietnamese"}], "id": "bo-ky-restaurant-new-york", "display_phone": "(212) 406-2292", "is_closed": false, "location": {"address2": "", "country": "US", "display_address": ["80 Bayard St", "New York, NY 10013"], "address1": "80 Bayard St", "city": "New York", "zip_code": "10013", "address3": "", "state": "NY"}, "coordinates": {"longitude": -73.9987067, "latitude": 40.7158451}, "review_count": 559, "image_url": "https://s3-media4.fl.yelpcdn.com/bphoto/s5m4tOvLFepm3qhikreC3w/o.jpg", "price": "$", "rating": 3.5, "name": "Bo Ky Restaurant", "url": "https://www.yelp.com/biz/bo-ky-restaurant-new-york?adjust_creative=gBcvfFpabk3CnzmXKdYe3w&utm_campaign=yelp_api_v3&utm_medium=api_v3_business_search&utm_source=gBcvfFpabk3CnzmXKdYe3w"}, {"transactions": ["delivery"], "distance": 5949.21740521, "phone": "+12123982308", "categories": [{"alias": "szechuan", "title": "Szechuan"}], "id": "wu-liang-ye-new-york", "display_phone": "(212) 398-2308", "is_closed": false, "location": {"address2": "", "country": "US", "display_address": ["36 W 48th St", "New York, NY 10036"], "address1": "36 W 48th St", "city": "New York", "zip_code": "10036", "address3": "", "state": "NY"}, "coordinates": {"longitude": -73.9799423217773, "latitude": 40.7578086853027}, "review_count": 415, "image_url": "https://s3-media3.fl.yelpcdn.com/bphoto/ipykZ6Zw65YwVPpT0IXWkg/o.jpg", "price": "$$", "rating": 3.5, "name": "Wu Liang Ye", "url": "https://www.yelp.com/biz/wu-liang-ye-new-york?adjust_creative=gBcvfFpabk3CnzmXKdYe3w&utm_campaign=yelp_api_v3&utm_medium=api_v3_business_search&utm_source=gBcvfFpabk3CnzmXKdYe3w"}, {"transactions": ["delivery", "pickup"], "distance": 4156.184279864, "phone": "+19173969777", "categories": [{"alias": "japanese", "title": "Japanese"}, {"alias": "chinese", "title": "Chinese"}], "id": "burp-bowl-cafe-new-york-6", "display_phone": "(917) 396-9777", "is_closed": false, "location": {"address2": null, "country": "US", "display_address": ["134 E 27th St", "New York, NY 10010"], "address1": "134 E 27th St", "city": "New York", "zip_code": "10010", "address3": "", "state": "NY"}, "coordinates": {"longitude": -73.98271, "latitude": 40.74183}, "review_count": 48, "image_url": "https://s3-media2.fl.yelpcdn.com/bphoto/w-b9cPqTS19JT5uRKdXt2w/o.jpg", "price": "$", "rating": 4.0, "name": "Burp Bowl Cafe", "url": "https://www.yelp.com/biz/burp-bowl-cafe-new-york-6?adjust_creative=gBcvfFpabk3CnzmXKdYe3w&utm_campaign=yelp_api_v3&utm_medium=api_v3_business_search&utm_source=gBcvfFpabk3CnzmXKdYe3w"}, {"transactions": ["delivery", "pickup"], "distance": 5293.086751332, "phone": "+12129210233", "categories": [{"alias": "szechuan", "title": "Szechuan"}], "id": "szechuan-gourmet-new-york", "display_phone": "(212) 921-0233", "is_closed": false, "location": {"address2": "", "country": "US", "display_address": ["21 W 39th St", "New York, NY 10018"], "address1": "21 W 39th St", "city": "New York", "zip_code": "10018", "address3": "", "state": "NY"}, "coordinates": {"longitude": -73.98355, "latitude": 40.75236}, "review_count": 799, "image_url": "https://s3-media3.fl.yelpcdn.com/bphoto/wQsbDHCSlxkq859SFxkV5w/o.jpg", "price": "$$", "rating": 3.5, "name": "Szechuan Gourmet", "url": "https://www.yelp.com/biz/szechuan-gourmet-new-york?adjust_creative=gBcvfFpabk3CnzmXKdYe3w&utm_campaign=yelp_api_v3&utm_medium=api_v3_business_search&utm_source=gBcvfFpabk3CnzmXKdYe3w"}, {"transactions": ["delivery", "pickup"], "distance": 9805.60723158, "phone": "+17186808887", "categories": [{"alias": "szechuan", "title": "Szechuan"}], "id": "grand-sichuan-house-brooklyn", "display_phone": "(718) 680-8887", "is_closed": false, "location": {"address2": "", "country": "US", "display_address": ["8701 5th Ave", "Brooklyn, NY 11209"], "address1": "8701 5th Ave", "city": "Brooklyn", "zip_code": "11209", "address3": "", "state": "NY"}, "coordinates": {"longitude": -74.02668, "latitude": 40.62075}, "review_count": 179, "image_url": "https://s3-media2.fl.yelpcdn.com/bphoto/zQZbciFy2W98EVyTPcwU4g/o.jpg", "price": "$$", "rating": 4.0, "name": "Grand Sichuan House", "url": "https://www.yelp.com/biz/grand-sichuan-house-brooklyn?adjust_creative=gBcvfFpabk3CnzmXKdYe3w&utm_campaign=yelp_api_v3&utm_medium=api_v3_business_search&utm_source=gBcvfFpabk3CnzmXKdYe3w"}, {"transactions": ["delivery", "pickup"], "distance": 11331.917518564, "phone": "+17188300808", "categories": [{"alias": "vegetarian", "title": "Vegetarian"}, {"alias": "chinese", "title": "Chinese"}, {"alias": "vegan", "title": "Vegan"}], "id": "green-zenphony-rego-park-2", "display_phone": "(718) 830-0808", "is_closed": false, "location": {"address2": "", "country": "US", "display_address": ["95-26 Queens Blvd", "Rego Park, NY 11374"], "address1": "95-26 Queens Blvd", "city": "Rego Park", "zip_code": "11374", "address3": "", "state": "NY"}, "coordinates": {"longitude": -73.863865, "latitude": 40.730219}, "review_count": 54, "image_url": "https://s3-media2.fl.yelpcdn.com/bphoto/zoWMlMwX2LcVi3uIhRGdiA/o.jpg", "price": "$$", "rating": 4.5, "name": "Green Zenphony", "url": "https://www.yelp.com/biz/green-zenphony-rego-park-2?adjust_creative=gBcvfFpabk3CnzmXKdYe3w&utm_campaign=yelp_api_v3&utm_medium=api_v3_business_search&utm_source=gBcvfFpabk3CnzmXKdYe3w"}, {"transactions": [], "distance": 1192.3026169355999, "phone": "+12129645640", "categories": [{"alias": "shanghainese", "title": "Shanghainese"}], "id": "shanghai-asian-cuisine-new-york-2", "display_phone": "(212) 964-5640", "is_closed": false, "location": {"address2": "", "country": "US", "display_address": ["14A Elizabeth St", "New York, NY 10013"], "address1": "14A Elizabeth St", "city": "New York", "zip_code": "10013", "address3": "", "state": "NY"}, "coordinates": {"longitude": -73.997383, "latitude": 40.7159077}, "review_count": 334, "image_url": "https://s3-media1.fl.yelpcdn.com/bphoto/obfBJ02GEmt1i35EStPCJw/o.jpg", "price": "$$", "rating": 4.0, "name": "Shanghai Asian Cuisine", "url": "https://www.yelp.com/biz/shanghai-asian-cuisine-new-york-2?adjust_creative=gBcvfFpabk3CnzmXKdYe3w&utm_campaign=yelp_api_v3&utm_medium=api_v3_business_search&utm_source=gBcvfFpabk3CnzmXKdYe3w"}, {"transactions": ["delivery", "pickup"], "distance": 3834.026115862, "phone": "+12126853388", "categories": [{"alias": "chinese", "title": "Chinese"}], "id": "auntie-guans-kitchen-new-york-4", "display_phone": "(212) 685-3388", "is_closed": false, "location": {"address2": "", "country": "US", "display_address": ["219 E 23rd St", "New York, NY 10011"], "address1": "219 E 23rd St", "city": "New York", "zip_code": "10011", "address3": null, "state": "NY"}, "coordinates": {"longitude": -73.98193, "latitude": 40.73863}, "review_count": 94, "image_url": "https://s3-media4.fl.yelpcdn.com/bphoto/23SR3pkbZIOgkcjjUR5t1w/o.jpg", "price": "$", "rating": 4.0, "name": "Auntie Guan's Kitchen", "url": "https://www.yelp.com/biz/auntie-guans-kitchen-new-york-4?adjust_creative=gBcvfFpabk3CnzmXKdYe3w&utm_campaign=yelp_api_v3&utm_medium=api_v3_business_search&utm_source=gBcvfFpabk3CnzmXKdYe3w"}, {"transactions": ["delivery", "pickup"], "distance": 5925.20444307, "phone": "+12123004869", "categories": [{"alias": "chinese", "title": "Chinese"}, {"alias": "indpak", "title": "Indian"}, {"alias": "bars", "title": "Bars"}], "id": "spice-symphony-new-york-3", "display_phone": "(212) 300-4869", "is_closed": false, "location": {"address2": "", "country": "US", "display_address": ["150 E 50th St", "New York, NY 10022"], "address1": "150 E 50th St", "city": "New York", "zip_code": "10022", "address3": null, "state": "NY"}, "coordinates": {"longitude": -73.9715347290039, "latitude": 40.7558937072754}, "review_count": 30, "image_url": "https://s3-media2.fl.yelpcdn.com/bphoto/3GbbDR4bOkMHOg0fO2wd_w/o.jpg", "price": "$$", "rating": 4.0, "name": "Spice Symphony", "url": "https://www.yelp.com/biz/spice-symphony-new-york-3?adjust_creative=gBcvfFpabk3CnzmXKdYe3w&utm_campaign=yelp_api_v3&utm_medium=api_v3_business_search&utm_source=gBcvfFpabk3CnzmXKdYe3w"}, {"transactions": [], "distance": 1148.1376924364, "phone": "+12126087440", "categories": [{"alias": "asianfusion", "title": "Asian Fusion"}, {"alias": "malaysian", "title": "Malaysian"}, {"alias": "chinese", "title": "Chinese"}], "id": "asian-spicy-curry-pop-up-new-york", "display_phone": "(212) 608-7440", "is_closed": false, "location": {"address2": null, "country": "US", "display_address": ["46 Mulberry St", "New York, NY 10013"], "address1": "46 Mulberry St", "city": "New York", "zip_code": "10013", "address3": "", "state": "NY"}, "coordinates": {"longitude": -73.9994125366211, "latitude": 40.7151260375977}, "review_count": 93, "image_url": "https://s3-media3.fl.yelpcdn.com/bphoto/0zbc4uUqKGDN-TXkfUFKdQ/o.jpg", "price": "$", "rating": 4.5, "name": "Asian Spicy Curry Pop-up", "url": "https://www.yelp.com/biz/asian-spicy-curry-pop-up-new-york?adjust_creative=gBcvfFpabk3CnzmXKdYe3w&utm_campaign=yelp_api_v3&utm_medium=api_v3_business_search&utm_source=gBcvfFpabk3CnzmXKdYe3w"}, {"transactions": [], "distance": 1324.3887146335999, "phone": "+12129668269", "categories": [{"alias": "cafes", "title": "Cafes"}, {"alias": "chinese", "title": "Chinese"}], "id": "s-wan-cafe-new-york-2", "display_phone": "(212) 966-8269", "is_closed": false, "location": {"address2": null, "country": "US", "display_address": ["85 Eldridge St Lower E", "New York, NY 10002"], "address1": "85 Eldridge St Lower E", "city": "New York", "zip_code": "10002", "address3": null, "state": "NY"}, "coordinates": {"longitude": -73.992698, "latitude": 40.717292}, "review_count": 71, "image_url": "https://s3-media3.fl.yelpcdn.com/bphoto/O5qh77qFE8ZxMabOWVElLA/o.jpg", "price": "$", "rating": 4.0, "name": "S Wan Cafe", "url": "https://www.yelp.com/biz/s-wan-cafe-new-york-2?adjust_creative=gBcvfFpabk3CnzmXKdYe3w&utm_campaign=yelp_api_v3&utm_medium=api_v3_business_search&utm_source=gBcvfFpabk3CnzmXKdYe3w"}, {"transactions": [], "distance": 1039.329635674, "phone": "+12129626475", "categories": [{"alias": "cantonese", "title": "Cantonese"}], "id": "hop-lee-restaurant-new-york", "display_phone": "(212) 962-6475", "is_closed": false, "location": {"address2": "", "country": "US", "display_address": ["16 Mott St", "New York, NY 10013"], "address1": "16 Mott St", "city": "New York", "zip_code": "10013", "address3": "", "state": "NY"}, "coordinates": {"longitude": -73.998489, "latitude": 40.714256}, "review_count": 204, "image_url": "https://s3-media1.fl.yelpcdn.com/bphoto/Ah5SXHb8ITMUsHAQCd4lGA/o.jpg", "price": "$$", "rating": 4.0, "name": "Hop Lee Restaurant", "url": "https://www.yelp.com/biz/hop-lee-restaurant-new-york?adjust_creative=gBcvfFpabk3CnzmXKdYe3w&utm_campaign=yelp_api_v3&utm_medium=api_v3_business_search&utm_source=gBcvfFpabk3CnzmXKdYe3w"}, {"transactions": ["delivery", "pickup"], "distance": 2400.7839610779997, "phone": "+12122289688", "categories": [{"alias": "bars", "title": "Bars"}, {"alias": "dimsum", "title": "Dim Sum"}, {"alias": "taiwanese", "title": "Taiwanese"}], "id": "carma-east-new-york-2", "display_phone": "(212) 228-9688", "is_closed": false, "location": {"address2": "", "country": "US", "display_address": ["507 E 6th St", "New York, NY 10009"], "address1": "507 E 6th St", "city": "New York", "zip_code": "10009", "address3": null, "state": "NY"}, "coordinates": {"longitude": -73.98327, "latitude": 40.7254099}, "review_count": 72, "image_url": "https://s3-media2.fl.yelpcdn.com/bphoto/9KrnQtYV4c5gi8g_oNyIKg/o.jpg", "price": "$$", "rating": 4.0, "name": "Carma East", "url": "https://www.yelp.com/biz/carma-east-new-york-2?adjust_creative=gBcvfFpabk3CnzmXKdYe3w&utm_campaign=yelp_api_v3&utm_medium=api_v3_business_search&utm_source=gBcvfFpabk3CnzmXKdYe3w"}, {"transactions": [], "distance": 1092.596697532, "phone": "+12123490923", "categories": [{"alias": "cantonese", "title": "Cantonese"}, {"alias": "noodles", "title": "Noodles"}], "id": "great-ny-noodle-town-new-york", "display_phone": "(212) 349-0923", "is_closed": false, "location": {"address2": "", "country": "US", "display_address": ["28 Bowery", "New York, NY 10013"], "address1": "28 Bowery", "city": "New York", "zip_code": "10013", "address3": "", "state": "NY"}, "coordinates": {"longitude": -73.9971172437072, "latitude": 40.7150363828814}, "review_count": 956, "image_url": "https://s3-media3.fl.yelpcdn.com/bphoto/BAzE7G6WNiUqJqLTRPYSvA/o.jpg", "price": "$", "rating": 3.5, "name": "Great NY Noodle Town", "url": "https://www.yelp.com/biz/great-ny-noodle-town-new-york?adjust_creative=gBcvfFpabk3CnzmXKdYe3w&utm_campaign=yelp_api_v3&utm_medium=api_v3_business_search&utm_source=gBcvfFpabk3CnzmXKdYe3w"}, {"transactions": [], "distance": 4696.880998891999, "phone": "+12126205200", "categories": [{"alias": "chinese", "title": "Chinese"}], "id": "grand-sichuan-new-york-12", "display_phone": "(212) 620-5200", "is_closed": false, "location": {"address2": "", "country": "US", "display_address": ["229 9th Ave", "New York, NY 10001"], "address1": "229 9th Ave", "city": "New York", "zip_code": "10001", "address3": "", "state": "NY"}, "coordinates": {"longitude": -74.001052, "latitude": 40.747413}, "review_count": 357, "image_url": "https://s3-media2.fl.yelpcdn.com/bphoto/0NPreKq0xYgHyI97XZh1fw/o.jpg", "price": "$$", "rating": 3.5, "name": "Grand Sichuan", "url": "https://www.yelp.com/biz/grand-sichuan-new-york-12?adjust_creative=gBcvfFpabk3CnzmXKdYe3w&utm_campaign=yelp_api_v3&utm_medium=api_v3_business_search&utm_source=gBcvfFpabk3CnzmXKdYe3w"}, {"transactions": [], "distance": 3010.2674122539997, "phone": "+17184864848", "categories": [{"alias": "asianfusion", "title": "Asian Fusion"}, {"alias": "dimsum", "title": "Dim Sum"}, {"alias": "korean", "title": "Korean"}], "id": "snacky-brooklyn", "display_phone": "(718) 486-4848", "is_closed": false, "location": {"address2": "", "country": "US", "display_address": ["187 Grand St", "Brooklyn, NY 11211"], "address1": "187 Grand St", "city": "Brooklyn", "zip_code": "11211", "address3": "", "state": "NY"}, "coordinates": {"longitude": -73.960601, "latitude": 40.714492}, "review_count": 151, "image_url": "https://s3-media1.fl.yelpcdn.com/bphoto/uBU9TO0msym_xrJiF6FmJQ/o.jpg", "price": "$$", "rating": 4.0, "name": "Snacky", "url": "https://www.yelp.com/biz/snacky-brooklyn?adjust_creative=gBcvfFpabk3CnzmXKdYe3w&utm_campaign=yelp_api_v3&utm_medium=api_v3_business_search&utm_source=gBcvfFpabk3CnzmXKdYe3w"}, {"transactions": [], "distance": 5920.763308406, "phone": "+12128888060", "categories": [{"alias": "chinese", "title": "Chinese"}, {"alias": "tea", "title": "Tea Rooms"}, {"alias": "venues", "title": "Venues & Event Spaces"}], "id": "radiance-new-york-2", "display_phone": "(212) 888-8060", "is_closed": false, "location": {"address2": "", "country": "US", "display_address": ["208 E 50th St", "2nd & 3rd Ave", "New York, NY 10022"], "address1": "208 E 50th St", "city": "New York", "zip_code": "10022", "address3": "2nd & 3rd Ave", "state": "NY"}, "coordinates": {"longitude": -73.970114, "latitude": 40.755439}, "review_count": 109, "image_url": "https://s3-media1.fl.yelpcdn.com/bphoto/xfqBvMSA8zs0b3xhKM8cqw/o.jpg", "price": "$$", "rating": 3.5, "name": "Radiance", "url": "https://www.yelp.com/biz/radiance-new-york-2?adjust_creative=gBcvfFpabk3CnzmXKdYe3w&utm_campaign=yelp_api_v3&utm_medium=api_v3_business_search&utm_source=gBcvfFpabk3CnzmXKdYe3w"}, {"transactions": [], "distance": 10269.401960576, "phone": "+17187793330", "categories": [{"alias": "chinese", "title": "Chinese"}], "id": "shun-wang-restaurant-elmhurst", "display_phone": "(718) 779-3330", "is_closed": false, "location": {"address2": "", "country": "US", "display_address": ["81-25 Broadway", "Elmhurst, NY 11373"], "address1": "81-25 Broadway", "city": "Elmhurst", "zip_code": "11373", "address3": "", "state": "NY"}, "coordinates": {"longitude": -73.8830413818359, "latitude": 40.7431373596191}, "review_count": 109, "image_url": "https://s3-media4.fl.yelpcdn.com/bphoto/9rf463_Ur1YF6YZsvS-Kzg/o.jpg", "price": "$", "rating": 3.5, "name": "Shun Wang Restaurant", "url": "https://www.yelp.com/biz/shun-wang-restaurant-elmhurst?adjust_creative=gBcvfFpabk3CnzmXKdYe3w&utm_campaign=yelp_api_v3&utm_medium=api_v3_business_search&utm_source=gBcvfFpabk3CnzmXKdYe3w"}, {"transactions": ["delivery", "pickup"], "distance": 2727.7105994999997, "phone": "+12123538888", "categories": [{"alias": "chinese", "title": "Chinese"}, {"alias": "hotdogs", "title": "Fast Food"}], "id": "dumpling-kingdom-new-york", "display_phone": "(212) 353-8888", "is_closed": false, "location": {"address2": null, "country": "US", "display_address": ["227 Sullivan St", "New York, NY 10012"], "address1": "227 Sullivan St", "city": "New York", "zip_code": "10012", "address3": "", "state": "NY"}, "coordinates": {"longitude": -73.9995577, "latitude": 40.7296503}, "review_count": 154, "image_url": "https://s3-media2.fl.yelpcdn.com/bphoto/tHQA5Doh3PhUO7KlVPTloA/o.jpg", "price": "$", "rating": 3.5, "name": "Dumpling Kingdom", "url": "https://www.yelp.com/biz/dumpling-kingdom-new-york?adjust_creative=gBcvfFpabk3CnzmXKdYe3w&utm_campaign=yelp_api_v3&utm_medium=api_v3_business_search&utm_source=gBcvfFpabk3CnzmXKdYe3w"}, {"transactions": [], "distance": 1456.5182001379999, "phone": "+12129256428", "categories": [{"alias": "chinese", "title": "Chinese"}, {"alias": "taiwanese", "title": "Taiwanese"}], "id": "may-wah-fast-food-new-york-3", "display_phone": "(212) 925-6428", "is_closed": false, "location": {"address2": "", "country": "US", "display_address": ["190 Hester St", "New York, NY 10013"], "address1": "190 Hester St", "city": "New York", "zip_code": "10013", "address3": "", "state": "NY"}, "coordinates": {"longitude": -73.998497, "latitude": 40.718135}, "review_count": 227, "image_url": "https://s3-media2.fl.yelpcdn.com/bphoto/mcTKYtrqS34xfzPuPl6OaQ/o.jpg", "price": "$", "rating": 4.0, "name": "May Wah Fast Food", "url": "https://www.yelp.com/biz/may-wah-fast-food-new-york-3?adjust_creative=gBcvfFpabk3CnzmXKdYe3w&utm_campaign=yelp_api_v3&utm_medium=api_v3_business_search&utm_source=gBcvfFpabk3CnzmXKdYe3w"}, {"transactions": [], "distance": 8191.206340082, "phone": "+17184985108", "categories": [{"alias": "chinese", "title": "Chinese"}], "id": "china-restaurant-brooklyn", "display_phone": "(718) 498-5108", "is_closed": false, "location": {"address2": "", "country": "US", "display_address": ["937 Utica Ave", "Brooklyn, NY 11203"], "address1": "937 Utica Ave", "city": "Brooklyn", "zip_code": "11203", "address3": "", "state": "NY"}, "coordinates": {"longitude": -73.929931640625, "latitude": 40.650260925293}, "review_count": 44, "image_url": "https://s3-media1.fl.yelpcdn.com/bphoto/dlo19gMW3zjoRCA-JvpRLw/o.jpg", "price": "$", "rating": 4.5, "name": "China Restaurant", "url": "https://www.yelp.com/biz/china-restaurant-brooklyn?adjust_creative=gBcvfFpabk3CnzmXKdYe3w&utm_campaign=yelp_api_v3&utm_medium=api_v3_business_search&utm_source=gBcvfFpabk3CnzmXKdYe3w"}, {"transactions": ["delivery", "pickup"], "distance": 3198.5799871359995, "phone": "+17183849300", "categories": [{"alias": "shanghainese", "title": "Shanghainese"}], "id": "m-shanghai-bistro-and-garden-brooklyn", "display_phone": "(718) 384-9300", "is_closed": false, "location": {"address2": null, "country": "US", "display_address": ["292 Grand St", "Brooklyn, NY 11211"], "address1": "292 Grand St", "city": "Brooklyn", "zip_code": "11211", "address3": "", "state": "NY"}, "coordinates": {"longitude": -73.957626, "latitude": 40.712844}, "review_count": 380, "image_url": "https://s3-media2.fl.yelpcdn.com/bphoto/PkZ5YiUaPAl1vGPU20wCPA/o.jpg", "price": "$$", "rating": 3.5, "name": "M Shanghai Bistro & Garden", "url": "https://www.yelp.com/biz/m-shanghai-bistro-and-garden-brooklyn?adjust_creative=gBcvfFpabk3CnzmXKdYe3w&utm_campaign=yelp_api_v3&utm_medium=api_v3_business_search&utm_source=gBcvfFpabk3CnzmXKdYe3w"}, {"transactions": ["delivery", "pickup"], "distance": 2494.984103034, "phone": "+12122283090", "categories": [{"alias": "chinese", "title": "Chinese"}], "id": "hot-kitchen-new-york", "display_phone": "(212) 228-3090", "is_closed": false, "location": {"address2": null, "country": "US", "display_address": ["104 2nd Ave", "New York, NY 10003"], "address1": "104 2nd Ave", "city": "New York", "zip_code": "10003", "address3": "", "state": "NY"}, "coordinates": {"longitude": -73.9881599, "latitude": 40.72741}, "review_count": 354, "image_url": "https://s3-media2.fl.yelpcdn.com/bphoto/gEJS0qYTUf46jL-Jp8W1EA/o.jpg", "price": "$$", "rating": 3.5, "name": "Hot Kitchen", "url": "https://www.yelp.com/biz/hot-kitchen-new-york?adjust_creative=gBcvfFpabk3CnzmXKdYe3w&utm_campaign=yelp_api_v3&utm_medium=api_v3_business_search&utm_source=gBcvfFpabk3CnzmXKdYe3w"}, {"transactions": ["delivery", "pickup"], "distance": 1085.432076786, "phone": "+12122850668", "categories": [{"alias": "shanghainese", "title": "Shanghainese"}, {"alias": "noodles", "title": "Noodles"}, {"alias": "seafood", "title": "Seafood"}], "id": "new-style-hand-pulled-noodles-new-york", "display_phone": "(212) 285-0668", "is_closed": false, "location": {"address2": "", "country": "US", "display_address": ["23 Pell St", "New York, NY 10013"], "address1": "23 Pell St", "city": "New York", "zip_code": "10013", "address3": "", "state": "NY"}, "coordinates": {"longitude": -73.9983, "latitude": 40.71474}, "review_count": 91, "image_url": "https://s3-media3.fl.yelpcdn.com/bphoto/S3f27TiSMySd2M9lCc8PIA/o.jpg", "price": "$$", "rating": 4.0, "name": "New Style Hand Pulled Noodles", "url": "https://www.yelp.com/biz/new-style-hand-pulled-noodles-new-york?adjust_creative=gBcvfFpabk3CnzmXKdYe3w&utm_campaign=yelp_api_v3&utm_medium=api_v3_business_search&utm_source=gBcvfFpabk3CnzmXKdYe3w"}, {"transactions": [], "distance": 12272.89040893, "phone": "+17183824328", "categories": [{"alias": "chinese", "title": "Chinese"}], "id": "golden-z-brooklyn", "display_phone": "(718) 382-4328", "is_closed": false, "location": {"address2": "", "country": "US", "display_address": ["1410 Ave U", "Brooklyn, NY 11229"], "address1": "1410 Ave U", "city": "Brooklyn", "zip_code": "11229", "address3": "", "state": "NY"}, "coordinates": {"longitude": -73.95695, "latitude": 40.59865}, "review_count": 56, "image_url": "https://s3-media3.fl.yelpcdn.com/bphoto/wnZf-YtKIrQJhDvTfvNqxg/o.jpg", "price": "$", "rating": 4.0, "name": "Golden Z", "url": "https://www.yelp.com/biz/golden-z-brooklyn?adjust_creative=gBcvfFpabk3CnzmXKdYe3w&utm_campaign=yelp_api_v3&utm_medium=api_v3_business_search&utm_source=gBcvfFpabk3CnzmXKdYe3w"}, {"transactions": ["delivery", "pickup"], "distance": 1261.6777237876, "phone": "+17185225565", "categories": [{"alias": "chinese", "title": "Chinese"}], "id": "lichee-nut-brooklyn-2", "display_phone": "(718) 522-5565", "is_closed": false, "location": {"address2": "", "country": "US", "display_address": ["162 Montague St", "Brooklyn, NY 11201"], "address1": "162 Montague St", "city": "Brooklyn", "zip_code": "11201", "address3": "", "state": "NY"}, "coordinates": {"longitude": -73.9928207397461, "latitude": 40.694149017334}, "review_count": 197, "image_url": "https://s3-media3.fl.yelpcdn.com/bphoto/d7Hn7EpS_Y8_25FDTWDWjQ/o.jpg", "price": "$", "rating": 3.0, "name": "Lichee Nut", "url": "https://www.yelp.com/biz/lichee-nut-brooklyn-2?adjust_creative=gBcvfFpabk3CnzmXKdYe3w&utm_campaign=yelp_api_v3&utm_medium=api_v3_business_search&utm_source=gBcvfFpabk3CnzmXKdYe3w"}, {"transactions": ["delivery", "pickup"], "distance": 7060.836984344, "phone": "+17183667829", "categories": [{"alias": "chinese", "title": "Chinese"}], "id": "good-chinese-restaurant-brooklyn-3", "display_phone": "(718) 366-7829", "is_closed": false, "location": {"address2": "", "country": "US", "display_address": ["663 Knickerbocker Ave", "Brooklyn, NY 11221"], "address1": "663 Knickerbocker Ave", "city": "Brooklyn", "zip_code": "11221", "address3": "", "state": "NY"}, "coordinates": {"longitude": -73.9116479761463, "latitude": 40.6951122106303}, "review_count": 78, "image_url": "https://s3-media1.fl.yelpcdn.com/bphoto/er1jOeoUvPxArvWwzVzLRg/o.jpg", "price": "$", "rating": 3.5, "name": "Good Chinese Restaurant", "url": "https://www.yelp.com/biz/good-chinese-restaurant-brooklyn-3?adjust_creative=gBcvfFpabk3CnzmXKdYe3w&utm_campaign=yelp_api_v3&utm_medium=api_v3_business_search&utm_source=gBcvfFpabk3CnzmXKdYe3w"}, {"transactions": [], "distance": 8310.30345464, "phone": "+17184170808", "categories": [{"alias": "chinese", "title": "Chinese"}], "id": "li-wan-restaurant-middle-village", "display_phone": "(718) 417-0808", "is_closed": false, "location": {"address2": "", "country": "US", "display_address": ["6428 Metropolitan Ave", "Middle Village, NY 11379"], "address1": "6428 Metropolitan Ave", "city": "Middle Village", "zip_code": "11379", "address3": "", "state": "NY"}, "coordinates": {"longitude": -73.8961334228516, "latitude": 40.7122917175293}, "review_count": 17, "image_url": "https://s3-media1.fl.yelpcdn.com/bphoto/tfeADsrLx_pYniFkYoofNw/o.jpg", "price": "$$", "rating": 4.5, "name": "Li Wan Restaurant", "url": "https://www.yelp.com/biz/li-wan-restaurant-middle-village?adjust_creative=gBcvfFpabk3CnzmXKdYe3w&utm_campaign=yelp_api_v3&utm_medium=api_v3_business_search&utm_source=gBcvfFpabk3CnzmXKdYe3w"}, {"transactions": ["delivery", "pickup"], "distance": 8210.68691798, "phone": "+12125853388", "categories": [{"alias": "shanghainese", "title": "Shanghainese"}, {"alias": "dimsum", "title": "Dim Sum"}, {"alias": "szechuan", "title": "Szechuan"}], "id": "tri-dim-shanghai-new-york-2", "display_phone": "(212) 585-3388", "is_closed": false, "location": {"address2": "", "country": "US", "display_address": ["1378 3rd Ave", "New York, NY 10075"], "address1": "1378 3rd Ave", "city": "New York", "zip_code": "10075", "address3": null, "state": "NY"}, "coordinates": {"longitude": -73.95793, "latitude": 40.77395}, "review_count": 41, "image_url": "https://s3-media2.fl.yelpcdn.com/bphoto/OoOLoxUy3pY6OYKF8DYMxw/o.jpg", "price": "$$", "rating": 4.0, "name": "Tri Dim Shanghai", "url": "https://www.yelp.com/biz/tri-dim-shanghai-new-york-2?adjust_creative=gBcvfFpabk3CnzmXKdYe3w&utm_campaign=yelp_api_v3&utm_medium=api_v3_business_search&utm_source=gBcvfFpabk3CnzmXKdYe3w"}, {"transactions": [], "distance": 2976.447454022, "phone": "+12129798333", "categories": [{"alias": "chinese", "title": "Chinese"}, {"alias": "vegetarian", "title": "Vegetarian"}], "id": "tasty-tasty-take-out-new-york", "display_phone": "(212) 979-8333", "is_closed": false, "location": {"address2": "Ste A", "country": "US", "display_address": ["534 E 14th St", "Ste A", "New York, NY 10009"], "address1": "534 E 14th St", "city": "New York", "zip_code": "10009", "address3": "", "state": "NY"}, "coordinates": {"longitude": -73.97888, "latitude": 40.72948}, "review_count": 31, "image_url": "https://s3-media4.fl.yelpcdn.com/bphoto/U6jiHSD1fx0esyuWgA6LTQ/o.jpg", "price": "$", "rating": 3.5, "name": "Tasty Tasty Take Out", "url": "https://www.yelp.com/biz/tasty-tasty-take-out-new-york?adjust_creative=gBcvfFpabk3CnzmXKdYe3w&utm_campaign=yelp_api_v3&utm_medium=api_v3_business_search&utm_source=gBcvfFpabk3CnzmXKdYe3w"}, {"transactions": ["delivery", "pickup"], "distance": 1014.2349878397999, "phone": "+12125668388", "categories": [{"alias": "dimsum", "title": "Dim Sum"}, {"alias": "kosher", "title": "Kosher"}, {"alias": "vegan", "title": "Vegan"}], "id": "the-original-buddha-bodai-new-york-2", "display_phone": "(212) 566-8388", "is_closed": false, "location": {"address2": null, "country": "US", "display_address": ["5 Mott St", "New York, NY 10013"], "address1": "5 Mott St", "city": "New York", "zip_code": "10013", "address3": "", "state": "NY"}, "coordinates": {"longitude": -73.9989484, "latitude": 40.7138543}, "review_count": 715, "image_url": "https://s3-media4.fl.yelpcdn.com/bphoto/eHoSm1_dfqapYh4VtwPp7g/o.jpg", "price": "$$", "rating": 4.0, "name": "The Original Buddha Bodai", "url": "https://www.yelp.com/biz/the-original-buddha-bodai-new-york-2?adjust_creative=gBcvfFpabk3CnzmXKdYe3w&utm_campaign=yelp_api_v3&utm_medium=api_v3_business_search&utm_source=gBcvfFpabk3CnzmXKdYe3w"}, {"transactions": ["delivery", "pickup"], "distance": 8156.8657603599995, "phone": "+19174414790", "categories": [{"alias": "chinese", "title": "Chinese"}], "id": "legend-72-new-york-9", "display_phone": "(917) 441-4790", "is_closed": false, "location": {"address2": "", "country": "US", "display_address": ["127 W 72nd St", "New York, NY 10023"], "address1": "127 W 72nd St", "city": "New York", "zip_code": "10023", "address3": "", "state": "NY"}, "coordinates": {"longitude": -73.9796901, "latitude": 40.77796}, "review_count": 133, "image_url": "https://s3-media2.fl.yelpcdn.com/bphoto/nSQ0l_DzypuGY_Q14HQJWA/o.jpg", "price": "$$", "rating": 3.5, "name": "Legend 72", "url": "https://www.yelp.com/biz/legend-72-new-york-9?adjust_creative=gBcvfFpabk3CnzmXKdYe3w&utm_campaign=yelp_api_v3&utm_medium=api_v3_business_search&utm_source=gBcvfFpabk3CnzmXKdYe3w"}, {"transactions": [], "distance": 1660.5564408299997, "phone": "+17185222836", "categories": [{"alias": "chinese", "title": "Chinese"}], "id": "golden-fried-dumpling-brooklyn", "display_phone": "(718) 522-2836", "is_closed": false, "location": {"address2": "", "country": "US", "display_address": ["192 Duffield St", "Brooklyn, NY 11201"], "address1": "192 Duffield St", "city": "Brooklyn", "zip_code": "11201", "address3": "", "state": "NY"}, "coordinates": {"longitude": -73.9843697100878, "latitude": 40.6925117969513}, "review_count": 295, "image_url": "https://s3-media3.fl.yelpcdn.com/bphoto/62HdPJlePl7sLfxq4OL0Pw/o.jpg", "price": "$", "rating": 3.5, "name": "Golden Fried Dumpling", "url": "https://www.yelp.com/biz/golden-fried-dumpling-brooklyn?adjust_creative=gBcvfFpabk3CnzmXKdYe3w&utm_campaign=yelp_api_v3&utm_medium=api_v3_business_search&utm_source=gBcvfFpabk3CnzmXKdYe3w"}, {"transactions": [], "distance": 1143.509134036, "phone": "+12122338666", "categories": [{"alias": "cantonese", "title": "Cantonese"}], "id": "sing-kee-seafood-restaurant-new-york", "display_phone": "(212) 233-8666", "is_closed": false, "location": {"address2": "", "country": "US", "display_address": ["42 Bowery St", "New York, NY 10013"], "address1": "42 Bowery St", "city": "New York", "zip_code": "10013", "address3": "", "state": "NY"}, "coordinates": {"longitude": -73.99672, "latitude": 40.71555}, "review_count": 137, "image_url": "https://s3-media2.fl.yelpcdn.com/bphoto/20VU4P0HacqhAfPfBPTAWg/o.jpg", "price": "$$", "rating": 4.0, "name": "Sing Kee Seafood Restaurant", "url": "https://www.yelp.com/biz/sing-kee-seafood-restaurant-new-york?adjust_creative=gBcvfFpabk3CnzmXKdYe3w&utm_campaign=yelp_api_v3&utm_medium=api_v3_business_search&utm_source=gBcvfFpabk3CnzmXKdYe3w"}]}