{"region": {"center": {"longitude": -73.99429321289062, "latitude": 40.70544486444615}}, "total": 2613, "businesses": [{"transactions": ["delivery", "pickup"], "distance": 3413.058821078, "phone": "+12125058600", "categories": [{"alias": "chinese", "title": "Chinese"}], "id": "the-cottage-new-york-2", "display_phone": "(212) 505-8600", "is_closed": false, "location": {"address2": "", "country": "US", "display_address": ["33 Irving Pl", "New York, NY 10003"], "address1": "33 Irving Pl", "city": "New York", "zip_code": "10003", "address3": "", "state": "NY"}, "coordinates": {"longitude": -73.9878559112549, "latitude": 40.735746540724}, "review_count": 205, "image_url": "https://s3-media3.fl.yelpcdn.com/bphoto/bYOALojEPrBXW30bAXwJBw/o.jpg", "price": "$$", "rating": 2.5, "name": "The Cottage", "url": "https://www.yelp.com/biz/the-cottage-new-york-2?adjust_creative=gBcvfFpabk3CnzmXKdYe3w&utm_campaign=yelp_api_v3&utm_medium=api_v3_business_search&utm_source=gBcvfFpabk3CnzmXKdYe3w"}, {"transactions": [], "distance": 3042.200419336, "phone": "+17189633533", "categories": [{"alias": "chinese", "title": "Chinese"}], "id": "fortune-place-brooklyn", "display_phone": "(718) 963-3533", "is_closed": false, "location": {"address2": "", "country": "US", "display_address": ["286 Broadway", "Brooklyn, NY 11211"], "address1": "286 Broadway", "city": "Brooklyn", "zip_code": "11211", "address3": "", "state": "NY"}, "coordinates": {"longitude": -73.9585, "latitude": 40.70849}, "review_count": 15, "image_url": "https://s3-media1.fl.yelpcdn.com/bphoto/X_-sfET6Vjwe85goU-awAw/o.jpg", "price": "$", "rating": 3.5, "name": "Fortune Place", "url": "https://www.yelp.com/biz/fortune-place-brooklyn?adjust_creative=gBcvfFpabk3CnzmXKdYe3w&utm_campaign=yelp_api_v3&utm_medium=api_v3_business_search&utm_source=gBcvfFpabk3CnzmXKdYe3w"}, {"transactions": [], "distance": 16335.10194658, "phone": "+17183580468", "categories": [{"alias": "korean", "title": "Korean"}, {"alias": "chinese", "title": "Chinese"}], "id": "joong-koog-jip-flushing", "display_phone": "(718) 358-0468", "is_closed": false, "location": {"address2": "", "country": "US", "display_address": ["149-08 41st Ave", "Flushing, NY 11355"], "address1": "149-08 41st Ave", "city": "Flushing", "zip_code": "11355", "address3": "", "state": "NY"}, "coordinates": {"longitude": -73.81533, "latitude": 40.76193}, "review_count": 140, "image_url": "https://s3-media1.fl.yelpcdn.com/bphoto/A-3t3XQX2o88Htd7AQp3Ag/o.jpg", "price": "$$", "rating": 4.0, "name": "Joong Koog Jip", "url": "https://www.yelp.com/biz/joong-koog-jip-flushing?adjust_creative=gBcvfFpabk3CnzmXKdYe3w&utm_campaign=yelp_api_v3&utm_medium=api_v3_business_search&utm_source=gBcvfFpabk3CnzmXKdYe3w"}, {"transactions": ["delivery", "pickup"], "distance": 2442.954301768, "phone": "+17182609095", "categories": [{"alias": "chinese", "title": "Chinese"}], "id": "ling-ling-kitchen-brooklyn", "display_phone": "(718) 260-9095", "is_closed": false, "location": {"address2": "", "country": "US", "display_address": ["508 Henry St", "Brooklyn, NY 11231"], "address1": "508 Henry St", "city": "Brooklyn", "zip_code": "11231", "address3": "", "state": "NY"}, "coordinates": {"longitude": -73.99969, "latitude": 40.68387}, "review_count": 12, "image_url": "https://s3-media2.fl.yelpcdn.com/bphoto/0XlEvez1nfwr7oxzTPiF8g/o.jpg", "price": "$", "rating": 3.0, "name": "Ling Ling Kitchen", "url": "https://www.yelp.com/biz/ling-ling-kitchen-brooklyn?adjust_creative=gBcvfFpabk3CnzmXKdYe3w&utm_campaign=yelp_api_v3&utm_medium=api_v3_business_search&utm_source=gBcvfFpabk3CnzmXKdYe3w"}, {"transactions": [], "distance": 12600.337829776, "phone": "+17188180105", "categories": [{"alias": "chinese", "title": "Chinese"}], "id": "new-phoenix-restaurant-staten-island", "display_phone": "(718) 818-0105", "is_closed": false, "location": {"address2": "Ste 4", "country": "US", "display_address": ["480 Targee St", "Ste 4", "Staten Island, NY 10304"], "address1": "480 Targee St", "city": "Staten Island", "zip_code": "10304", "address3": "", "state": "NY"}, "coordinates": {"longitude": -74.084968, "latitude": 40.615379}, "review_count": 3, "image_url": "https://s3-media1.fl.yelpcdn.com/bphoto/C75Xe9XQ_Zvrq6lnmmDn3Q/o.jpg", "price": "$", "rating": 5.0, "name": "New Phoenix Restaurant", "url": "https://www.yelp.com/biz/new-phoenix-restaurant-staten-island?adjust_creative=gBcvfFpabk3CnzmXKdYe3w&utm_campaign=yelp_api_v3&utm_medium=api_v3_business_search&utm_source=gBcvfFpabk3CnzmXKdYe3w"}, {"transactions": [], "distance": 10598.6545781, "phone": "+17185453666", "categories": [{"alias": "chinese", "title": "Chinese"}], "id": "wah-fung-chinese-restaurant-astoria", "display_phone": "(718) 545-3666", "is_closed": false, "location": {"address2": "", "country": "US", "display_address": ["2175 Steinway St", "Astoria, NY 11105"], "address1": "2175 Steinway St", "city": "Astoria", "zip_code": "11105", "address3": "", "state": "NY"}, "coordinates": {"longitude": -73.90551, "latitude": 40.77292}, "review_count": 26, "image_url": "https://s3-media1.fl.yelpcdn.com/bphoto/Un28gFbSlv7mzrrt6R8HcA/o.jpg", "price": "$", "rating": 3.5, "name": "Wah Fung Chinese Restaurant", "url": "https://www.yelp.com/biz/wah-fung-chinese-restaurant-astoria?adjust_creative=gBcvfFpabk3CnzmXKdYe3w&utm_campaign=yelp_api_v3&utm_medium=api_v3_business_search&utm_source=gBcvfFpabk3CnzmXKdYe3w"}, {"transactions": [], "distance": 11427.05751508, "phone": "+12124278068", "categories": [{"alias": "chinese", "title": "Chinese"}], "id": "wing-wah-restaurant-new-york", "display_phone": "(212) 427-8068", "is_closed": false, "location": {"address2": "", "country": "US", "display_address": ["2308 1st Ave", "New York, NY 10035"], "address1": "2308 1st Ave", "city": "New York", "zip_code": "10035", "address3": "", "state": "NY"}, "coordinates": {"longitude": -73.93394, "latitude": 40.7974699}, "review_count": 12, "image_url": "https://s3-media2.fl.yelpcdn.com/bphoto/VKztYp97BxFNJVlK1KacLQ/o.jpg", "price": "$", "rating": 3.5, "name": "Wing Wah Restaurant", "url": "https://www.yelp.com/biz/wing-wah-restaurant-new-york?adjust_creative=gBcvfFpabk3CnzmXKdYe3w&utm_campaign=yelp_api_v3&utm_medium=api_v3_business_search&utm_source=gBcvfFpabk3CnzmXKdYe3w"}, {"transactions": [], "distance": 6209.139977401999, "phone": "+12124599859", "categories": [{"alias": "chinese", "title": "Chinese"}], "id": "kam-wei-kitchen-new-york", "display_phone": "(212) 459-9859", "is_closed": false, "location": {"address2": "", "country": "US", "display_address": ["630 10th Ave", "New York, NY 10036"], "address1": "630 10th Ave", "city": "New York", "zip_code": "10036", "address3": "", "state": "NY"}, "coordinates": {"longitude": -73.993919, "latitude": 40.76128}, "review_count": 23, "image_url": "https://s3-media1.fl.yelpcdn.com/bphoto/7LceAFggB3jFnIV1hNJKmQ/o.jpg", "price": "$", "rating": 3.5, "name": "Kam-Wei Kitchen", "url": "https://www.yelp.com/biz/kam-wei-kitchen-new-york?adjust_creative=gBcvfFpabk3CnzmXKdYe3w&utm_campaign=yelp_api_v3&utm_medium=api_v3_business_search&utm_source=gBcvfFpabk3CnzmXKdYe3w"}, {"transactions": [], "distance": 8140.57923956, "phone": "+17187452620", "categories": [{"alias": "shanghainese", "title": "Shanghainese"}], "id": "shanghai-family-dumpling-brooklyn", "display_phone": "(718) 745-2620", "is_closed": false, "location": {"address2": "", "country": "US", "display_address": ["6301 8th Ave", "Brooklyn, NY 11220"], "address1": "6301 8th Ave", "city": "Brooklyn", "zip_code": "11220", "address3": "", "state": "NY"}, "coordinates": {"longitude": -74.011344909668, "latitude": 40.6333541870117}, "review_count": 56, "image_url": "https://s3-media3.fl.yelpcdn.com/bphoto/98MIrpRP4Oilhb46ot3tFA/o.jpg", "price": "$", "rating": 3.5, "name": "Shanghai Family Dumpling", "url": "https://www.yelp.com/biz/shanghai-family-dumpling-brooklyn?adjust_creative=gBcvfFpabk3CnzmXKdYe3w&utm_campaign=yelp_api_v3&utm_medium=api_v3_business_search&utm_source=gBcvfFpabk3CnzmXKdYe3w"}, {"transactions": [], "distance": 6709.73113896, "phone": "+17188715300", "categories": [{"alias": "chinese", "title": "Chinese"}], "id": "great-dragon-brooklyn", "display_phone": "(718) 871-5300", "is_closed": false, "location": {"address2": "", "country": "US", "display_address": ["4224 8th Ave", "Brooklyn, NY 11232"], "address1": "4224 8th Ave", "city": "Brooklyn", "zip_code": "11232", "address3": "", "state": "NY"}, "coordinates": {"longitude": -73.9997787475586, "latitude": 40.645263671875}, "review_count": 7, "image_url": "https://s3-media1.fl.yelpcdn.com/bphoto/OGY0KrOgUuvLMxsJJGAttA/o.jpg", "price": "$", "rating": 3.5, "name": "Great Dragon", "url": "https://www.yelp.com/biz/great-dragon-brooklyn?adjust_creative=gBcvfFpabk3CnzmXKdYe3w&utm_campaign=yelp_api_v3&utm_medium=api_v3_business_search&utm_source=gBcvfFpabk3CnzmXKdYe3w"}, {"transactions": [], "distance": 16040.34166954, "phone": "+17183514080", "categories": [{"alias": "chinese", "title": "Chinese"}], "id": "new-garden-chinese-restaurant-staten-island", "display_phone": "(718) 351-4080", "is_closed": false, "location": {"address2": "", "country": "US", "display_address": ["1755 Richmond Rd", "Staten Island, NY 10306"], "address1": "1755 Richmond Rd", "city": "Staten Island", "zip_code": "10306", "address3": "", "state": "NY"}, "coordinates": {"longitude": -74.103805, "latitude": 40.587524}, "review_count": 8, "image_url": "", "price": "$", "rating": 4.5, "name": "New Garden Chinese Restaurant", "url": "https://www.yelp.com/biz/new-garden-chinese-restaurant-staten-island?adjust_creative=gBcvfFpabk3CnzmXKdYe3w&utm_campaign=yelp_api_v3&utm_medium=api_v3_business_search&utm_source=gBcvfFpabk3CnzmXKdYe3w"}, {"transactions": ["delivery", "pickup"], "distance": 6136.589803664, "phone": "+17187680688", "categories": [{"alias": "chinese", "title": "Chinese"}], "id": "yummy-yummy-brooklyn", "display_phone": "(718) 768-0688", "is_closed": false, "location": {"address2": "", "country": "US", "display_address": ["4122 4th Ave", "Brooklyn, NY 11232"], "address1": "4122 4th Ave", "city": "Brooklyn", "zip_code": "11232", "address3": "", "state": "NY"}, "coordinates": {"longitude": -74.0078162401915, "latitude": 40.6512151658535}, "review_count": 18, "image_url": "https://s3-media2.fl.yelpcdn.com/bphoto/Jm4O1b_6TjCG6V-o6o0v-A/o.jpg", "price": "$$", "rating": 3.5, "name": "Yummy Yummy", "url": "https://www.yelp.com/biz/yummy-yummy-brooklyn?adjust_creative=gBcvfFpabk3CnzmXKdYe3w&utm_campaign=yelp_api_v3&utm_medium=api_v3_business_search&utm_source=gBcvfFpabk3CnzmXKdYe3w"}, {"transactions": ["pickup"], "distance": 13010.134695619998, "phone": "+17182633900", "categories": [{"alias": "chinese", "title": "Chinese"}, {"alias": "hotdogs", "title": "Fast Food"}], "id": "king-wok-restaurant-forest-hills", "display_phone": "(718) 263-3900", "is_closed": false, "location": {"address2": "", "country": "US", "display_address": ["10829 Ascan Ave", "Forest Hills, NY 11375"], "address1": "10829 Ascan Ave", "city": "Forest Hills", "zip_code": "11375", "address3": "", "state": "NY"}, "coordinates": {"longitude": -73.840868, "latitude": 40.718273}, "review_count": 25, "image_url": "https://s3-media2.fl.yelpcdn.com/bphoto/BnVVHq-w-4zRS8QlaLpKaQ/o.jpg", "price": "$", "rating": 3.0, "name": "King Wok Restaurant", "url": "https://www.yelp.com/biz/king-wok-restaurant-forest-hills?adjust_creative=gBcvfFpabk3CnzmXKdYe3w&utm_campaign=yelp_api_v3&utm_medium=api_v3_business_search&utm_source=gBcvfFpabk3CnzmXKdYe3w"}, {"transactions": [], "distance": 1680.642452436, "phone": "+17188551818", "categories": [{"alias": "chinese", "title": "Chinese"}], "id": "lees-villa-brooklyn", "display_phone": "(718) 855-1818", "is_closed": false, "location": {"address2": "", "country": "US", "display_address": ["152 Lawrence St", "Brooklyn, NY 11201"], "address1": "152 Lawrence St", "city": "Brooklyn", "zip_code": "11201", "address3": "", "state": "NY"}, "coordinates": {"longitude": -73.9863949, "latitude": 40.6913726}, "review_count": 23, "image_url": "https://s3-media4.fl.yelpcdn.com/bphoto/Q__6FpkLaBRm-YbZjRosXQ/o.jpg", "price": "$", "rating": 2.5, "name": "Lee's Villa", "url": "https://www.yelp.com/biz/lees-villa-brooklyn?adjust_creative=gBcvfFpabk3CnzmXKdYe3w&utm_campaign=yelp_api_v3&utm_medium=api_v3_business_search&utm_source=gBcvfFpabk3CnzmXKdYe3w"}, {"transactions": ["delivery", "pickup"], "distance": 2016.8944114879998, "phone": "+17186258583", "categories": [{"alias": "chinese", "title": "Chinese"}], "id": "happy-garden-brooklyn-8", "display_phone": "(718) 625-8583", "is_closed": false, "location": {"address2": "", "country": "US", "display_address": ["402 Henry St", "Brooklyn, NY 11201"], "address1": "402 Henry St", "city": "Brooklyn", "zip_code": "11201", "address3": "", "state": "NY"}, "coordinates": {"longitude": -73.9979148, "latitude": 40.6875151}, "review_count": 7, "image_url": "", "price": "$$", "rating": 3.0, "name": "Happy Garden", "url": "https://www.yelp.com/biz/happy-garden-brooklyn-8?adjust_creative=gBcvfFpabk3CnzmXKdYe3w&utm_campaign=yelp_api_v3&utm_medium=api_v3_business_search&utm_source=gBcvfFpabk3CnzmXKdYe3w"}, {"transactions": [], "distance": 14164.1714882, "phone": "+17188431680", "categories": [{"alias": "chinese", "title": "Chinese"}], "id": "mr-zeng-chinese-food-south-richmond-hill", "display_phone": "(718) 843-1680", "is_closed": false, "location": {"address2": "", "country": "US", "display_address": ["11402 Liberty Ave", "South Richmond Hill, NY 11419"], "address1": "11402 Liberty Ave", "city": "South Richmond Hill", "zip_code": "11419", "address3": "", "state": "NY"}, "coordinates": {"longitude": -73.82837, "latitude": 40.6854}, "review_count": 14, "image_url": "https://s3-media3.fl.yelpcdn.com/bphoto/NXI1XStGinWtBWSgHh0Tqw/o.jpg", "price": "$", "rating": 4.0, "name": "Mr Zeng Chinese Food", "url": "https://www.yelp.com/biz/mr-zeng-chinese-food-south-richmond-hill?adjust_creative=gBcvfFpabk3CnzmXKdYe3w&utm_campaign=yelp_api_v3&utm_medium=api_v3_business_search&utm_source=gBcvfFpabk3CnzmXKdYe3w"}, {"transactions": [], "distance": 11843.666717143999, "phone": "+12122222868", "categories": [{"alias": "chinese", "title": "Chinese"}], "id": "new-king-wok-restaurant-new-york", "display_phone": "(212) 222-2868", "is_closed": false, "location": {"address2": "", "country": "US", "display_address": ["2025 7th Ave", "New York, NY 10027"], "address1": "2025 7th Ave", "city": "New York", "zip_code": "10027", "address3": "", "state": "NY"}, "coordinates": {"longitude": -73.9499093592167, "latitude": 40.806563347578}, "review_count": 5, "image_url": "https://s3-media1.fl.yelpcdn.com/bphoto/rg8rqf44Ypt6VbY9C6QoLw/o.jpg", "price": "$", "rating": 4.0, "name": "New King Wok Restaurant", "url": "https://www.yelp.com/biz/new-king-wok-restaurant-new-york?adjust_creative=gBcvfFpabk3CnzmXKdYe3w&utm_campaign=yelp_api_v3&utm_medium=api_v3_business_search&utm_source=gBcvfFpabk3CnzmXKdYe3w"}, {"transactions": ["delivery", "pickup"], "distance": 6296.92738226, "phone": "+12122450800", "categories": [{"alias": "chinese", "title": "Chinese"}, {"alias": "asianfusion", "title": "Asian Fusion"}, {"alias": "japanese", "title": "Japanese"}], "id": "a-a-jing-new-york", "display_phone": "(212) 245-0800", "is_closed": false, "location": {"address2": "", "country": "US", "display_address": ["689 9th Ave", "New York, NY 10036"], "address1": "689 9th Ave", "city": "New York", "zip_code": "10036", "address3": "", "state": "NY"}, "coordinates": {"longitude": -73.990409, "latitude": 40.761997}, "review_count": 232, "image_url": "https://s3-media2.fl.yelpcdn.com/bphoto/MnwsxTJvIwoqRPIcQ7uteg/o.jpg", "price": "$$", "rating": 3.5, "name": "A A JING", "url": "https://www.yelp.com/biz/a-a-jing-new-york?adjust_creative=gBcvfFpabk3CnzmXKdYe3w&utm_campaign=yelp_api_v3&utm_medium=api_v3_business_search&utm_source=gBcvfFpabk3CnzmXKdYe3w"}, {"transactions": ["delivery", "pickup"], "distance": 11019.979146364, "phone": "+12122221118", "categories": [{"alias": "chinese", "title": "Chinese"}], "id": "hunan-chens-kitchen-new-york-160", "display_phone": "(212) 222-1118", "is_closed": false, "location": {"address2": "Ste A", "country": "US", "display_address": ["1003 Columbus Ave", "Ste A", "New York, NY 10025"], "address1": "1003 Columbus Ave", "city": "New York", "zip_code": "10025", "address3": null, "state": "NY"}, "coordinates": {"longitude": -73.96113, "latitude": 40.80133}, "review_count": 33, "image_url": "https://s3-media2.fl.yelpcdn.com/bphoto/atmvaQIKGKKR99zMA1QYwg/o.jpg", "price": "$", "rating": 3.0, "name": "Hunan Chen's Kitchen", "url": "https://www.yelp.com/biz/hunan-chens-kitchen-new-york-160?adjust_creative=gBcvfFpabk3CnzmXKdYe3w&utm_campaign=yelp_api_v3&utm_medium=api_v3_business_search&utm_source=gBcvfFpabk3CnzmXKdYe3w"}, {"transactions": ["delivery", "pickup"], "distance": 13874.649612859997, "phone": "+17183681988", "categories": [{"alias": "japanese", "title": "Japanese"}, {"alias": "chinese", "title": "Chinese"}, {"alias": "sushi", "title": "Sushi Bars"}], "id": "asian-bay-brooklyn", "display_phone": "(718) 368-1988", "is_closed": false, "location": {"address2": "", "country": "US", "display_address": ["1741 Sheepshead Bay Rd", "Brooklyn, NY 11235"], "address1": "1741 Sheepshead Bay Rd", "city": "Brooklyn", "zip_code": "11235", "address3": "", "state": "NY"}, "coordinates": {"longitude": -73.95116, "latitude": 40.58504}, "review_count": 30, "image_url": "https://s3-media2.fl.yelpcdn.com/bphoto/w5IELt-H2SrDw6HDi8ebqw/o.jpg", "price": "$", "rating": 3.5, "name": "Asian Bay", "url": "https://www.yelp.com/biz/asian-bay-brooklyn?adjust_creative=gBcvfFpabk3CnzmXKdYe3w&utm_campaign=yelp_api_v3&utm_medium=api_v3_business_search&utm_source=gBcvfFpabk3CnzmXKdYe3w"}, {"transactions": [], "distance": 11546.932423659999, "phone": "+17188506003", "categories": [{"alias": "chinese", "title": "Chinese"}], "id": "double-happy-woodhaven-2", "display_phone": "(718) 850-6003", "is_closed": false, "location": {"address2": "", "country": "US", "display_address": ["8518 Jamaica Ave", "Woodhaven, NY 11421"], "address1": "8518 Jamaica Ave", "city": "Woodhaven", "zip_code": "11421", "address3": "", "state": "NY"}, "coordinates": {"longitude": -73.8583450317383, "latitude": 40.6923332214355}, "review_count": 11, "image_url": "https://s3-media4.fl.yelpcdn.com/bphoto/nMy8e2ODQccWgwnucYL98w/o.jpg", "price": "$", "rating": 3.0, "name": "Double Happy", "url": "https://www.yelp.com/biz/double-happy-woodhaven-2?adjust_creative=gBcvfFpabk3CnzmXKdYe3w&utm_campaign=yelp_api_v3&utm_medium=api_v3_business_search&utm_source=gBcvfFpabk3CnzmXKdYe3w"}, {"transactions": [], "distance": 13037.163560919998, "phone": "+17186657533", "categories": [{"alias": "chinese", "title": "Chinese"}], "id": "chung-ching-restaurant-bronx", "display_phone": "(718) 665-7533", "is_closed": false, "location": {"address2": "", "country": "US", "display_address": ["262 Alexander Ave", "Bronx, NY 10454"], "address1": "262 Alexander Ave", "city": "Bronx", "zip_code": "10454", "address3": "", "state": "NY"}, "coordinates": {"longitude": -73.9247589111328, "latitude": 40.8101921081543}, "review_count": 5, "image_url": "", "rating": 4.0, "name": "Chung Ching Restaurant", "url": "https://www.yelp.com/biz/chung-ching-restaurant-bronx?adjust_creative=gBcvfFpabk3CnzmXKdYe3w&utm_campaign=yelp_api_v3&utm_medium=api_v3_business_search&utm_source=gBcvfFpabk3CnzmXKdYe3w"}, {"transactions": [], "distance": 4686.0976162219995, "phone": "+17183028888", "categories": [{"alias": "chinese", "title": "Chinese"}], "id": "dumpling-cafe-brooklyn", "display_phone": "(718) 302-8888", "is_closed": false, "location": {"address2": null, "country": "US", "display_address": ["861 Grand St", "Brooklyn, NY 11211"], "address1": "861 Grand St", "city": "Brooklyn", "zip_code": "11211", "address3": "", "state": "NY"}, "coordinates": {"longitude": -73.93943, "latitude": 40.71239}, "review_count": 20, "image_url": "https://s3-media2.fl.yelpcdn.com/bphoto/p8I1oDG7ojRDkpqPWP7SaA/o.jpg", "price": "$", "rating": 3.5, "name": "Dumpling Cafe", "url": "https://www.yelp.com/biz/dumpling-cafe-brooklyn?adjust_creative=gBcvfFpabk3CnzmXKdYe3w&utm_campaign=yelp_api_v3&utm_medium=api_v3_business_search&utm_source=gBcvfFpabk3CnzmXKdYe3w"}, {"transactions": [], "distance": 7310.39315386, "phone": "+17186338288", "categories": [{"alias": "chinese", "title": "Chinese"}], "id": "corner-28-the-roast-brooklyn", "display_phone": "(718) 633-8288", "is_closed": false, "location": {"address2": "", "country": "US", "display_address": ["5124 8th Ave", "Brooklyn, NY 11220"], "address1": "5124 8th Ave", "city": "Brooklyn", "zip_code": "11220", "address3": null, "state": "NY"}, "coordinates": {"longitude": -74.00493, "latitude": 40.6401899}, "review_count": 6, "image_url": "https://s3-media2.fl.yelpcdn.com/bphoto/_5yCkrF-oLjrwEJ9h6N5Uw/o.jpg", "price": "$", "rating": 4.0, "name": "Corner 28 - The Roast", "url": "https://www.yelp.com/biz/corner-28-the-roast-brooklyn?adjust_creative=gBcvfFpabk3CnzmXKdYe3w&utm_campaign=yelp_api_v3&utm_medium=api_v3_business_search&utm_source=gBcvfFpabk3CnzmXKdYe3w"}, {"transactions": [], "distance": 15263.706372339999, "phone": "+17188139107", "categories": [{"alias": "taiwanese", "title": "Taiwanese"}, {"alias": "chinese", "title": "Chinese"}], "id": "taipei-hong-flushing", "display_phone": "(718) 813-9107", "is_closed": false, "location": {"address2": "Unit D", "country": "US", "display_address": ["136-55 Roosevelt Ave", "Unit D", "Flushing, NY 11354"], "address1": "136-55 Roosevelt Ave", "city": "Flushing", "zip_code": "11354", "address3": "", "state": "NY"}, "coordinates": {"longitude": -73.82813, "latitude": 40.76032}, "review_count": 66, "image_url": "https://s3-media3.fl.yelpcdn.com/bphoto/SwdpejQuMHJLekBvBmI_hA/o.jpg", "price": "$", "rating": 4.0, "name": "Taipei Hong", "url": "https://www.yelp.com/biz/taipei-hong-flushing?adjust_creative=gBcvfFpabk3CnzmXKdYe3w&utm_campaign=yelp_api_v3&utm_medium=api_v3_business_search&utm_source=gBcvfFpabk3CnzmXKdYe3w"}, {"transactions": ["delivery", "pickup"], "distance": 4650.065298291999, "phone": "+12129293848", "categories": [{"alias": "asianfusion", "title": "Asian Fusion"}, {"alias": "szechuan", "title": "Szechuan"}, {"alias": "thai", "title": "Thai"}], "id": "potluck-new-york", "display_phone": "(212) 929-3848", "is_closed": false, "location": {"address2": "", "country": "US", "display_address": ["255 W 26th St", "New York, NY 10001"], "address1": "255 W 26th St", "city": "New York", "zip_code": "10001", "address3": "", "state": "NY"}, "coordinates": {"longitude": -73.9957166, "latitude": 40.746761}, "review_count": 49, "image_url": "https://s3-media3.fl.yelpcdn.com/bphoto/PyhI-JwE0ga-X3wih2z93Q/o.jpg", "price": "$$", "rating": 3.0, "name": "Potluck", "url": "https://www.yelp.com/biz/potluck-new-york?adjust_creative=gBcvfFpabk3CnzmXKdYe3w&utm_campaign=yelp_api_v3&utm_medium=api_v3_business_search&utm_source=gBcvfFpabk3CnzmXKdYe3w"}, {"transactions": ["delivery", "pickup"], "distance": 6561.583345259999, "phone": "+16465523336", "categories": [{"alias": "chinese", "title": "Chinese"}], "id": "healthy-kitchen-cafe-brooklyn", "display_phone": "(646) 552-3336", "is_closed": false, "location": {"address2": null, "country": "US", "display_address": ["4001 8th Ave", "Brooklyn, NY 11232"], "address1": "4001 8th Ave", "city": "Brooklyn", "zip_code": "11232", "address3": "", "state": "NY"}, "coordinates": {"longitude": -73.9977284, "latitude": 40.6464926}, "review_count": 14, "image_url": "https://s3-media4.fl.yelpcdn.com/bphoto/A-qcM5U_GKe9whVTtDpLXQ/o.jpg", "price": "$", "rating": 3.5, "name": "Healthy Kitchen Cafe", "url": "https://www.yelp.com/biz/healthy-kitchen-cafe-brooklyn?adjust_creative=gBcvfFpabk3CnzmXKdYe3w&utm_campaign=yelp_api_v3&utm_medium=api_v3_business_search&utm_source=gBcvfFpabk3CnzmXKdYe3w"}, {"transactions": ["delivery", "pickup"], "distance": 7653.464691161999, "phone": "+17183619625", "categories": [{"alias": "chinese", "title": "Chinese"}], "id": "empire-szechuan-garden-sunnyside", "display_phone": "(718) 361-9625", "is_closed": false, "location": {"address2": "", "country": "US", "display_address": ["4342 46th St", "Sunnyside, NY 11104"], "address1": "4342 46th St", "city": "Sunnyside", "zip_code": "11104", "address3": "", "state": "NY"}, "coordinates": {"longitude": -73.9186554, "latitude": 40.7442207}, "review_count": 20, "image_url": "https://s3-media4.fl.yelpcdn.com/bphoto/uQtQ4SSyO88aDspmN4u0NQ/o.jpg", "price": "$", "rating": 3.0, "name": "Empire Szechuan Garden", "url": "https://www.yelp.com/biz/empire-szechuan-garden-sunnyside?adjust_creative=gBcvfFpabk3CnzmXKdYe3w&utm_campaign=yelp_api_v3&utm_medium=api_v3_business_search&utm_source=gBcvfFpabk3CnzmXKdYe3w"}, {"transactions": [], "distance": 15145.62587786, "phone": "", "categories": [{"alias": "chinese", "title": "Chinese"}], "id": "tianfu-spicy-wok-flushing", "display_phone": "", "is_closed": false, "location": {"address2": "", "country": "US", "display_address": ["136-20 Roosevelt Ave", "New World Mall", "Flushing, NY 11354"], "address1": "136-20 Roosevelt Ave", "city": "Flushing", "zip_code": "11354", "address3": "New World Mall", "state": "NY"}, "coordinates": {"longitude": -73.8291779, "latitude": 40.7593307}, "review_count": 23, "image_url": "https://s3-media1.fl.yelpcdn.com/bphoto/oAUtCD_2kUh3kDPO9_M8xw/o.jpg", "price": "$$", "rating": 4.0, "name": "Tianfu Spicy Wok", "url": "https://www.yelp.com/biz/tianfu-spicy-wok-flushing?adjust_creative=gBcvfFpabk3CnzmXKdYe3w&utm_campaign=yelp_api_v3&utm_medium=api_v3_business_search&utm_source=gBcvfFpabk3CnzmXKdYe3w"}, {"transactions": [], "distance": 12712.605870977999, "phone": "+12122814188", "categories": [{"alias": "chinese", "title": "Chinese"}], "id": "china-wok-new-york-2", "display_phone": "(212) 281-4188", "is_closed": false, "location": {"address2": "", "country": "US", "display_address": ["454-A Lenox Ave", "New York, NY 10037"], "address1": "454-A Lenox Ave", "city": "New York", "zip_code": "10037", "address3": "", "state": "NY"}, "coordinates": {"longitude": -73.9418902248144, "latitude": 40.8124997466803}, "review_count": 9, "image_url": "https://s3-media1.fl.yelpcdn.com/bphoto/vPWv85AoTo9VXJCW3k1Myg/o.jpg", "price": "$$", "rating": 3.5, "name": "China Wok", "url": "https://www.yelp.com/biz/china-wok-new-york-2?adjust_creative=gBcvfFpabk3CnzmXKdYe3w&utm_campaign=yelp_api_v3&utm_medium=api_v3_business_search&utm_source=gBcvfFpabk3CnzmXKdYe3w"}, {"transactions": [], "distance": 9844.55647826, "phone": "+17186518080", "categories": [{"alias": "chinese", "title": "Chinese"}], "id": "king-wah-woodside", "display_phone": "(718) 651-8080", "is_closed": false, "location": {"address2": "", "country": "US", "display_address": ["6911 Northern Blvd", "Woodside, NY 11377"], "address1": "6911 Northern Blvd", "city": "Woodside", "zip_code": "11377", "address3": "", "state": "NY"}, "coordinates": {"longitude": -73.8968404, "latitude": 40.7544858}, "review_count": 26, "image_url": "https://s3-media4.fl.yelpcdn.com/bphoto/Zv_Jo1nEYi36S5tSKrkHbQ/o.jpg", "price": "$", "rating": 3.5, "name": "King Wah", "url": "https://www.yelp.com/biz/king-wah-woodside?adjust_creative=gBcvfFpabk3CnzmXKdYe3w&utm_campaign=yelp_api_v3&utm_medium=api_v3_business_search&utm_source=gBcvfFpabk3CnzmXKdYe3w"}, {"transactions": [], "distance": 1382.4827665139999, "phone": "+12129251662", "categories": [{"alias": "chinese", "title": "Chinese"}, {"alias": "seafood", "title": "Seafood"}, {"alias": "soup", "title": "Soup"}], "id": "big-hing-wong-new-york-2", "display_phone": "(212) 925-1662", "is_closed": false, "location": {"address2": "", "country": "US", "display_address": ["300 Grand St", "New York, NY 10002"], "address1": "300 Grand St", "city": "New York", "zip_code": "10002", "address3": "", "state": "NY"}, "coordinates": {"longitude": -73.99168, "latitude": 40.71761}, "review_count": 27, "image_url": "https://s3-media1.fl.yelpcdn.com/bphoto/7ERt4veaRn7yl91kRGkrjQ/o.jpg", "price": "$", "rating": 3.0, "name": "Big Hing Wong", "url": "https://www.yelp.com/biz/big-hing-wong-new-york-2?adjust_creative=gBcvfFpabk3CnzmXKdYe3w&utm_campaign=yelp_api_v3&utm_medium=api_v3_business_search&utm_source=gBcvfFpabk3CnzmXKdYe3w"}, {"transactions": [], "distance": 13415.421225179998, "phone": "+17188917415", "categories": [{"alias": "chinese", "title": "Chinese"}], "id": "new-win-way-restaurant-brooklyn", "display_phone": "(718) 891-7415", "is_closed": false, "location": {"address2": "", "country": "US", "display_address": ["2830 Coney Island Ave", "Brooklyn, NY 11235"], "address1": "2830 Coney Island Ave", "city": "Brooklyn", "zip_code": "11235", "address3": "", "state": "NY"}, "coordinates": {"longitude": -73.9605452, "latitude": 40.587544}, "review_count": 16, "image_url": "https://s3-media2.fl.yelpcdn.com/bphoto/4EB8x1X8i64Le1zLm6f89A/o.jpg", "price": "$", "rating": 3.5, "name": "New Win Way Restaurant", "url": "https://www.yelp.com/biz/new-win-way-restaurant-brooklyn?adjust_creative=gBcvfFpabk3CnzmXKdYe3w&utm_campaign=yelp_api_v3&utm_medium=api_v3_business_search&utm_source=gBcvfFpabk3CnzmXKdYe3w"}, {"transactions": [], "distance": 11481.828666102, "phone": "+17182969002", "categories": [{"alias": "chinese", "title": "Chinese"}], "id": "wah-king-kitchen-woodhaven", "display_phone": "(718) 296-9002", "is_closed": false, "location": {"address2": "", "country": "US", "display_address": ["79-15 Atlantic Ave", "Woodhaven, NY 11421"], "address1": "79-15 Atlantic Ave", "city": "Woodhaven", "zip_code": "11421", "address3": "", "state": "NY"}, "coordinates": {"longitude": -73.8608, "latitude": 40.68501}, "review_count": 6, "image_url": "https://s3-media2.fl.yelpcdn.com/bphoto/WRAHa8Q-3FyFquDSo-O0lQ/o.jpg", "price": "$", "rating": 4.0, "name": "Wah King Kitchen", "url": "https://www.yelp.com/biz/wah-king-kitchen-woodhaven?adjust_creative=gBcvfFpabk3CnzmXKdYe3w&utm_campaign=yelp_api_v3&utm_medium=api_v3_business_search&utm_source=gBcvfFpabk3CnzmXKdYe3w"}, {"transactions": ["delivery", "pickup"], "distance": 1298.792741296, "phone": "+12127329250", "categories": [{"alias": "chinese", "title": "Chinese"}], "id": "china-59-restaurant-new-york", "display_phone": "(212) 732-9250", "is_closed": false, "location": {"address2": "", "country": "US", "display_address": ["59 Nassau St", "New York, NY 10038"], "address1": "59 Nassau St", "city": "New York", "zip_code": "10038", "address3": "", "state": "NY"}, "coordinates": {"longitude": -74.0088501, "latitude": 40.7092934}, "review_count": 45, "image_url": "https://s3-media1.fl.yelpcdn.com/bphoto/SZUi0H7YvGinRrcfBhnKew/o.jpg", "price": "$$", "rating": 2.5, "name": "China 59 Restaurant", "url": "https://www.yelp.com/biz/china-59-restaurant-new-york?adjust_creative=gBcvfFpabk3CnzmXKdYe3w&utm_campaign=yelp_api_v3&utm_medium=api_v3_business_search&utm_source=gBcvfFpabk3CnzmXKdYe3w"}, {"transactions": [], "distance": 10326.080662299999, "phone": "+17188987861", "categories": [{"alias": "chinese", "title": "Chinese"}], "id": "woks-chinese-cuisine-jackson-heights", "display_phone": "(718) 898-7861", "is_closed": false, "location": {"address2": "", "country": "US", "display_address": ["7921 37th Ave", "Jackson Heights, NY 11372"], "address1": "7921 37th Ave", "city": "Jackson Heights", "zip_code": "11372", "address3": "", "state": "NY"}, "coordinates": {"longitude": -73.8868179, "latitude": 40.7496071}, "review_count": 15, "image_url": "https://s3-media4.fl.yelpcdn.com/bphoto/4f6yHFZIPeBjAod3neWxjQ/o.jpg", "price": "$", "rating": 3.5, "name": "Woks Chinese Cuisine", "url": "https://www.yelp.com/biz/woks-chinese-cuisine-jackson-heights?adjust_creative=gBcvfFpabk3CnzmXKdYe3w&utm_campaign=yelp_api_v3&utm_medium=api_v3_business_search&utm_source=gBcvfFpabk3CnzmXKdYe3w"}, {"transactions": ["delivery", "pickup"], "distance": 15350.206788, "phone": "+12129276898", "categories": [{"alias": "chinese", "title": "Chinese"}], "id": "first-choice-chinese-kitchen-new-york", "display_phone": "(212) 927-6898", "is_closed": false, "location": {"address2": "", "country": "US", "display_address": ["3893 Broadway", "New York, NY 10032"], "address1": "3893 Broadway", "city": "New York", "zip_code": "10032", "address3": "", "state": "NY"}, "coordinates": {"longitude": -73.9425278, "latitude": 40.8376579}, "review_count": 37, "image_url": "https://s3-media2.fl.yelpcdn.com/bphoto/WN9UU8Gy81pYJS69ChqyVw/o.jpg", "price": "$", "rating": 3.5, "name": "First Choice Chinese Kitchen", "url": "https://www.yelp.com/biz/first-choice-chinese-kitchen-new-york?adjust_creative=gBcvfFpabk3CnzmXKdYe3w&utm_campaign=yelp_api_v3&utm_medium=api_v3_business_search&utm_source=gBcvfFpabk3CnzmXKdYe3w"}, {"transactions": ["delivery", "pickup"], "distance": 7132.17001424, "phone": "+12122457210", "categories": [{"alias": "chinese", "title": "Chinese"}, {"alias": "thai", "title": "Thai"}], "id": "ocean-dragon-new-york", "display_phone": "(212) 245-7210", "is_closed": false, "location": {"address2": "", "country": "US", "display_address": ["877 10th Ave", "New York, NY 10019"], "address1": "877 10th Ave", "city": "New York", "zip_code": "10019", "address3": "", "state": "NY"}, "coordinates": {"longitude": -73.9886703491211, "latitude": 40.7694396972656}, "review_count": 51, "image_url": "https://s3-media4.fl.yelpcdn.com/bphoto/EVrs31lTbkZDvLxwUCCSiQ/o.jpg", "price": "$", "rating": 2.5, "name": "Ocean Dragon", "url": "https://www.yelp.com/biz/ocean-dragon-new-york?adjust_creative=gBcvfFpabk3CnzmXKdYe3w&utm_campaign=yelp_api_v3&utm_medium=api_v3_business_search&utm_source=gBcvfFpabk3CnzmXKdYe3w"}, {"transactions": [], "distance": 8167.632244959999, "phone": "+17189374958", "categories": [{"alias": "chinese", "title": "Chinese"}], "id": "hunan-3-chinese-restaurant-astoria", "display_phone": "(718) 937-4958", "is_closed": false, "location": {"address2": "", "country": "US", "display_address": ["2414 34th Ave", "Astoria, NY 11106"], "address1": "2414 34th Ave", "city": "Astoria", "zip_code": "11106", "address3": "", "state": "NY"}, "coordinates": {"longitude": -73.9314051011108, "latitude": 40.7613425374672}, "review_count": 18, "image_url": "https://s3-media1.fl.yelpcdn.com/bphoto/Vn6Je5Vtd621MuGztiLuCA/o.jpg", "price": "$", "rating": 3.0, "name": "Hunan 3 Chinese Restaurant", "url": "https://www.yelp.com/biz/hunan-3-chinese-restaurant-astoria?adjust_creative=gBcvfFpabk3CnzmXKdYe3w&utm_campaign=yelp_api_v3&utm_medium=api_v3_business_search&utm_source=gBcvfFpabk3CnzmXKdYe3w"}, {"transactions": [], "distance": 11134.13269031, "phone": "+17182723175", "categories": [{"alias": "caribbean", "title": "Caribbean"}, {"alias": "chinese", "title": "Chinese"}], "id": "bamboo-garden-brooklyn", "display_phone": "(718) 272-3175", "is_closed": false, "location": {"address2": "", "country": "US", "display_address": ["9505 Avenue L", "Brooklyn, NY 11236"], "address1": "9505 Avenue L", "city": "Brooklyn", "zip_code": "11236", "address3": "", "state": "NY"}, "coordinates": {"longitude": -73.8967062, "latitude": 40.637911}, "review_count": 37, "image_url": "https://s3-media3.fl.yelpcdn.com/bphoto/NqEO3mbcg25zk01lQRQw9w/o.jpg", "price": "$$", "rating": 3.5, "name": "Bamboo Garden", "url": "https://www.yelp.com/biz/bamboo-garden-brooklyn?adjust_creative=gBcvfFpabk3CnzmXKdYe3w&utm_campaign=yelp_api_v3&utm_medium=api_v3_business_search&utm_source=gBcvfFpabk3CnzmXKdYe3w"}, {"transactions": [], "distance": 7501.001774119999, "phone": "+17186868999", "categories": [{"alias": "chinese", "title": "Chinese"}], "id": "fu-mun-lou-brooklyn", "display_phone": "(718) 686-8999", "is_closed": false, "location": {"address2": "", "country": "US", "display_address": ["5405 8th Ave", "Brooklyn, NY 11220"], "address1": "5405 8th Ave", "city": "Brooklyn", "zip_code": "11220", "address3": "", "state": "NY"}, "coordinates": {"longitude": -74.005989, "latitude": 40.638573}, "review_count": 8, "image_url": "https://s3-media2.fl.yelpcdn.com/bphoto/MnYkyUydO2lK_HMduJUcJQ/o.jpg", "price": "$", "rating": 4.0, "name": "Fu Mun Lou", "url": "https://www.yelp.com/biz/fu-mun-lou-brooklyn?adjust_creative=gBcvfFpabk3CnzmXKdYe3w&utm_campaign=yelp_api_v3&utm_medium=api_v3_business_search&utm_source=gBcvfFpabk3CnzmXKdYe3w"}, {"transactions": ["delivery", "pickup"], "distance": 11375.252860479999, "phone": "+12122808880", "categories": [{"alias": "chinese", "title": "Chinese"}, {"alias": "importedfood", "title": "Imported Food"}], "id": "empire-new-york-3", "display_phone": "(212) 280-8880", "is_closed": false, "location": {"address2": "", "country": "US", "display_address": ["1902 Adam Clayton Powell Jr Blvd", "New York, NY 10039"], "address1": "1902 Adam Clayton Powell Jr Blvd", "city": "New York", "zip_code": "10039", "address3": "", "state": "NY"}, "coordinates": {"longitude": -73.9530954451981, "latitude": 40.8028688256819}, "review_count": 13, "image_url": "https://s3-media1.fl.yelpcdn.com/bphoto/KAtCxQrfvCs-wJuzSbUY5Q/o.jpg", "price": "$", "rating": 4.0, "name": "Empire", "url": "https://www.yelp.com/biz/empire-new-york-3?adjust_creative=gBcvfFpabk3CnzmXKdYe3w&utm_campaign=yelp_api_v3&utm_medium=api_v3_business_search&utm_source=gBcvfFpabk3CnzmXKdYe3w"}, {"transactions": [], "distance": 11322.68537872, "phone": "+17189963838", "categories": [{"alias": "dimsum", "title": "Dim Sum"}, {"alias": "cantonese", "title": "Cantonese"}], "id": "joy-luck-seafood-restaurant-brooklyn", "display_phone": "(718) 996-3838", "is_closed": false, "location": {"address2": "", "country": "US", "display_address": ["2050 86th St", "Brooklyn, NY 11214"], "address1": "2050 86th St", "city": "Brooklyn", "zip_code": "11214", "address3": "", "state": "NY"}, "coordinates": {"longitude": -73.9972457885742, "latitude": 40.6036415100098}, "review_count": 38, "image_url": "https://s3-media3.fl.yelpcdn.com/bphoto/e6ECeH3sCFXOOf-kxE00bA/o.jpg", "price": "$$", "rating": 3.5, "name": "Joy Luck Seafood Restaurant", "url": "https://www.yelp.com/biz/joy-luck-seafood-restaurant-brooklyn?adjust_creative=gBcvfFpabk3CnzmXKdYe3w&utm_campaign=yelp_api_v3&utm_medium=api_v3_business_search&utm_source=gBcvfFpabk3CnzmXKdYe3w"}, {"transactions": ["delivery", "pickup"], "distance": 8826.765766343999, "phone": "+17187281614", "categories": [{"alias": "chinese", "title": "Chinese"}], "id": "taste-of-china-astoria", "display_phone": "(718) 728-1614", "is_closed": false, "location": {"address2": "", "country": "US", "display_address": ["4501 Broadway", "Astoria, NY 11103"], "address1": "4501 Broadway", "city": "Astoria", "zip_code": "11103", "address3": "", "state": "NY"}, "coordinates": {"longitude": -73.9148019297323, "latitude": 40.7571451223932}, "review_count": 20, "image_url": "https://s3-media2.fl.yelpcdn.com/bphoto/ljZPN-H22_PAcn1S_lXPnQ/o.jpg", "price": "$", "rating": 3.0, "name": "Taste of China", "url": "https://www.yelp.com/biz/taste-of-china-astoria?adjust_creative=gBcvfFpabk3CnzmXKdYe3w&utm_campaign=yelp_api_v3&utm_medium=api_v3_business_search&utm_source=gBcvfFpabk3CnzmXKdYe3w"}, {"transactions": ["delivery", "pickup"], "distance": 8572.481677775999, "phone": "+17182787333", "categories": [{"alias": "chinese", "title": "Chinese"}], "id": "eastern-chinese-restaurant-long-island-city", "display_phone": "(718) 278-7333", "is_closed": false, "location": {"address2": "", "country": "US", "display_address": ["2105 Broadway", "Broadway Shopping Ctr", "Long Island City, NY 11106"], "address1": "2105 Broadway", "city": "Long Island City", "zip_code": "11106", "address3": "Broadway Shopping Ctr", "state": "NY"}, "coordinates": {"longitude": -73.9307687804103, "latitude": 40.7656686822612}, "review_count": 16, "image_url": "https://s3-media1.fl.yelpcdn.com/bphoto/cu5lDoJWrfyF_8AZVZ4rxQ/o.jpg", "price": "$", "rating": 3.0, "name": "Eastern Chinese Restaurant", "url": "https://www.yelp.com/biz/eastern-chinese-restaurant-long-island-city?adjust_creative=gBcvfFpabk3CnzmXKdYe3w&utm_campaign=yelp_api_v3&utm_medium=api_v3_business_search&utm_source=gBcvfFpabk3CnzmXKdYe3w"}, {"transactions": [], "distance": 10256.57648638, "phone": "", "categories": [{"alias": "dimsum", "title": "Dim Sum"}, {"alias": "bakeries", "title": "Bakeries"}], "id": "hop-fa-bakery-new-york", "display_phone": "", "is_closed": false, "location": {"address2": "", "country": "US", "display_address": ["6512 Bay Pkwy", "New York, NY 11204"], "address1": "6512 Bay Pkwy", "city": "New York", "zip_code": "11204", "address3": "", "state": "NY"}, "coordinates": {"longitude": -73.981941, "latitude": 40.613682}, "review_count": 21, "image_url": "https://s3-media4.fl.yelpcdn.com/bphoto/DbCgJ9B5TGk_qc_IL3vHnw/o.jpg", "price": "$", "rating": 4.0, "name": "Hop Fa Bakery", "url": "https://www.yelp.com/biz/hop-fa-bakery-new-york?adjust_creative=gBcvfFpabk3CnzmXKdYe3w&utm_campaign=yelp_api_v3&utm_medium=api_v3_business_search&utm_source=gBcvfFpabk3CnzmXKdYe3w"}, {"transactions": [], "distance": 17336.04544364, "phone": "+12127810055", "categories": [{"alias": "chinese", "title": "Chinese"}], "id": "yang-garden-chinese-restaurant-manhattan", "display_phone": "(212) 781-0055", "is_closed": false, "location": {"address2": "", "country": "US", "display_address": ["816 W 187th St", "Manhattan, NY 10033"], "address1": "816 W 187th St", "city": "Manhattan", "zip_code": "10033", "address3": "", "state": "NY"}, "coordinates": {"longitude": -73.9378407244057, "latitude": 40.8553781154543}, "review_count": 14, "image_url": "https://s3-media3.fl.yelpcdn.com/bphoto/Xgx9L7RbAokCuv_ouUZ_Vw/o.jpg", "price": "$", "rating": 3.0, "name": "Yang Garden Chinese Restaurant", "url": "https://www.yelp.com/biz/yang-garden-chinese-restaurant-manhattan?adjust_creative=gBcvfFpabk3CnzmXKdYe3w&utm_campaign=yelp_api_v3&utm_medium=api_v3_business_search&utm_source=gBcvfFpabk3CnzmXKdYe3w"}, {"transactions": ["delivery", "pickup"], "distance": 14591.120538829999, "phone": "+17183238748", "categories": [{"alias": "caribbean", "title": "Caribbean"}, {"alias": "chinese", "title": "Chinese"}], "id": "kaieteur-express-restaurant-south-richmond-hill", "display_phone": "(718) 323-8748", "is_closed": false, "location": {"address2": "", "country": "US", "display_address": ["12004 Liberty Ave", "South Richmond Hill, NY 11419"], "address1": "12004 Liberty Ave", "city": "South Richmond Hill", "zip_code": "11419", "address3": "", "state": "NY"}, "coordinates": {"longitude": -73.8230297224288, "latitude": 40.6865192859877}, "review_count": 45, "image_url": "https://s3-media1.fl.yelpcdn.com/bphoto/4x2W2cpNDANaoA6CJgWC3w/o.jpg", "price": "$$", "rating": 3.5, "name": "Kaieteur Express Restaurant", "url": "https://www.yelp.com/biz/kaieteur-express-restaurant-south-richmond-hill?adjust_creative=gBcvfFpabk3CnzmXKdYe3w&utm_campaign=yelp_api_v3&utm_medium=api_v3_business_search&utm_source=gBcvfFpabk3CnzmXKdYe3w"}, {"transactions": [], "distance": 15279.01280508, "phone": "+17189808999", "categories": [{"alias": "seafood", "title": "Seafood"}, {"alias": "hotpot", "title": "Hot Pot"}, {"alias": "cantonese", "title": "Cantonese"}], "id": "steam-kung-fu-flushing-2", "display_phone": "(718) 980-8999", "is_closed": false, "location": {"address2": null, "country": "US", "display_address": ["137-38 Northern Blvd", "Flushing, NY 11354"], "address1": "137-38 Northern Blvd", "city": "Flushing", "zip_code": "11354", "address3": "", "state": "NY"}, "coordinates": {"longitude": -73.82971, "latitude": 40.76308}, "review_count": 19, "image_url": "https://s3-media4.fl.yelpcdn.com/bphoto/kxWgndOdY754tt3IpOagtw/o.jpg", "price": "$$", "rating": 4.0, "name": "Steam Kung Fu", "url": "https://www.yelp.com/biz/steam-kung-fu-flushing-2?adjust_creative=gBcvfFpabk3CnzmXKdYe3w&utm_campaign=yelp_api_v3&utm_medium=api_v3_business_search&utm_source=gBcvfFpabk3CnzmXKdYe3w"}, {"transactions": [], "distance": 960.7181403203999, "phone": "+12123741319", "categories": [{"alias": "dimsum", "title": "Dim Sum"}], "id": "sunshine-new-york-2", "display_phone": "(212) 374-1319", "is_closed": false, "location": {"address2": "", "country": "US", "display_address": ["27 Division St", "New York, NY 10013"], "address1": "27 Division St", "city": "New York", "zip_code": "10013", "address3": "", "state": "NY"}, "coordinates": {"longitude": -73.9961364, "latitude": 40.71397}, "review_count": 65, "image_url": "https://s3-media3.fl.yelpcdn.com/bphoto/8A5--_Q2PFm90tJrFUKRjA/o.jpg", "price": "$$", "rating": 3.5, "name": "SunShine", "url": "https://www.yelp.com/biz/sunshine-new-york-2?adjust_creative=gBcvfFpabk3CnzmXKdYe3w&utm_campaign=yelp_api_v3&utm_medium=api_v3_business_search&utm_source=gBcvfFpabk3CnzmXKdYe3w"}]}