{"region": {"center": {"longitude": -73.99429321289062, "latitude": 40.70544486444615}}, "total": 2613, "businesses": [{"transactions": ["delivery", "pickup"], "distance": 10282.925727397998, "phone": "+12127490300", "categories": [{"alias": "chinese", "title": "Chinese"}], "id": "pearls-new-york-2", "display_phone": "(212) 749-0300", "is_closed": false, "location": {"address2": "", "country": "US", "display_address": ["796 Amsterdam Ave", "New York, NY 10025"], "address1": "796 Amsterdam Ave", "city": "New York", "zip_code": "10025", "address3": "", "state": "NY"}, "coordinates": {"longitude": -73.9692167, "latitude": 40.7958833}, "review_count": 122, "image_url": "https://s3-media1.fl.yelpcdn.com/bphoto/gBNTNRhcS-0nCpIBu7nzcw/o.jpg", "price": "$$", "rating": 3.0, "name": "Pearls", "url": "https://www.yelp.com/biz/pearls-new-york-2?adjust_creative=gBcvfFpabk3CnzmXKdYe3w&utm_campaign=yelp_api_v3&utm_medium=api_v3_business_search&utm_source=gBcvfFpabk3CnzmXKdYe3w"}, {"transactions": [], "distance": 11115.10144014, "phone": "+13479866651", "categories": [{"alias": "bakeries", "title": "Bakeries"}, {"alias": "chinese", "title": "Chinese"}, {"alias": "bubbletea", "title": "Bubble Tea"}], "id": "max-bakery-and-restaurant-jackson-heights", "display_phone": "(347) 986-6651", "is_closed": false, "location": {"address2": "", "country": "US", "display_address": ["37-63 90th St", "Jackson Heights, NY 11372"], "address1": "37-63 90th St", "city": "Jackson Heights", "zip_code": "11372", "address3": "", "state": "NY"}, "coordinates": {"longitude": -73.8767307208374, "latitude": 40.7507795280278}, "review_count": 13, "image_url": "https://s3-media1.fl.yelpcdn.com/bphoto/d9a_VcyQZYjk73SeajA4Gg/o.jpg", "price": "$", "rating": 4.5, "name": "Max Bakery and Restaurant", "url": "https://www.yelp.com/biz/max-bakery-and-restaurant-jackson-heights?adjust_creative=gBcvfFpabk3CnzmXKdYe3w&utm_campaign=yelp_api_v3&utm_medium=api_v3_business_search&utm_source=gBcvfFpabk3CnzmXKdYe3w"}, {"transactions": [], "distance": 11122.502151064, "phone": "+17182727778", "categories": [{"alias": "chinese", "title": "Chinese"}], "id": "lin-wong-restaurant-brooklyn", "display_phone": "(718) 272-7778", "is_closed": false, "location": {"address2": "", "country": "US", "display_address": ["9417 Ave L", "Brooklyn, NY 11236"], "address1": "9417 Ave L", "city": "Brooklyn", "zip_code": "11236", "address3": "", "state": "NY"}, "coordinates": {"longitude": -73.8972549438477, "latitude": 40.6377182006836}, "review_count": 8, "image_url": "https://s3-media2.fl.yelpcdn.com/bphoto/_gg5hkqU8MMkLKCIzBdkmA/o.jpg", "price": "$", "rating": 4.0, "name": "Lin Wong Restaurant", "url": "https://www.yelp.com/biz/lin-wong-restaurant-brooklyn?adjust_creative=gBcvfFpabk3CnzmXKdYe3w&utm_campaign=yelp_api_v3&utm_medium=api_v3_business_search&utm_source=gBcvfFpabk3CnzmXKdYe3w"}, {"transactions": [], "distance": 15121.23311148, "phone": "+17188868876", "categories": [{"alias": "seafood", "title": "Seafood"}, {"alias": "dimsum", "title": "Dim Sum"}, {"alias": "cantonese", "title": "Cantonese"}], "id": "wonderful-seafood-restaurant-\u91d1\u7a3b\u6d77\u9c9c\u9152\u5bb6-flushing-2", "display_phone": "(718) 886-8876", "is_closed": false, "location": {"address2": "", "country": "US", "display_address": ["36-31 Main St", "Flushing, NY 11354"], "address1": "36-31 Main St", "city": "Flushing", "zip_code": "11354", "address3": null, "state": "NY"}, "coordinates": {"longitude": -73.8313722, "latitude": 40.7624776}, "review_count": 27, "image_url": "https://s3-media4.fl.yelpcdn.com/bphoto/VWGhy7yOum2rwU09boNJ2Q/o.jpg", "price": "$$", "rating": 4.0, "name": "Wonderful Seafood Restaurant \u91d1\u7a3b\u6d77\u9c9c\u9152\u5bb6", "url": "https://www.yelp.com/biz/wonderful-seafood-restaurant-%E9%87%91%E7%A8%BB%E6%B5%B7%E9%B2%9C%E9%85%92%E5%AE%B6-flushing-2?adjust_creative=gBcvfFpabk3CnzmXKdYe3w&utm_campaign=yelp_api_v3&utm_medium=api_v3_business_search&utm_source=gBcvfFpabk3CnzmXKdYe3w"}, {"transactions": ["delivery", "pickup"], "distance": 11626.050153004, "phone": "+17183339898", "categories": [{"alias": "chinese", "title": "Chinese"}], "id": "china-garden-brooklyn-2", "display_phone": "(718) 333-9898", "is_closed": false, "location": {"address2": "", "country": "US", "display_address": ["2014 Bath Ave", "Brooklyn, NY 11214"], "address1": "2014 Bath Ave", "city": "Brooklyn", "zip_code": "11214", "address3": "", "state": "NY"}, "coordinates": {"longitude": -74.001312, "latitude": 40.60102}, "review_count": 11, "image_url": "https://s3-media3.fl.yelpcdn.com/bphoto/4vKfKy8lPcaM376QaJB-TA/o.jpg", "price": "$", "rating": 4.0, "name": "China Garden", "url": "https://www.yelp.com/biz/china-garden-brooklyn-2?adjust_creative=gBcvfFpabk3CnzmXKdYe3w&utm_campaign=yelp_api_v3&utm_medium=api_v3_business_search&utm_source=gBcvfFpabk3CnzmXKdYe3w"}, {"transactions": [], "distance": 9449.67915982, "phone": "+17182322623", "categories": [{"alias": "chinese", "title": "Chinese"}, {"alias": "hkcafe", "title": "Hong Kong Style Cafe"}], "id": "fay-wong-cafe-bakery-brooklyn", "display_phone": "(718) 232-2623", "is_closed": false, "location": {"address2": null, "country": "US", "display_address": ["6205 18th Ave", "Brooklyn, NY 11204"], "address1": "6205 18th Ave", "city": "Brooklyn", "zip_code": "11204", "address3": "", "state": "NY"}, "coordinates": {"longitude": -73.9883399, "latitude": 40.62055}, "review_count": 48, "image_url": "https://s3-media4.fl.yelpcdn.com/bphoto/qq9yVrjBYpS3Y4WN4TENVg/o.jpg", "price": "$", "rating": 4.0, "name": "Fay Wong Cafe Bakery", "url": "https://www.yelp.com/biz/fay-wong-cafe-bakery-brooklyn?adjust_creative=gBcvfFpabk3CnzmXKdYe3w&utm_campaign=yelp_api_v3&utm_medium=api_v3_business_search&utm_source=gBcvfFpabk3CnzmXKdYe3w"}, {"transactions": [], "distance": 11533.54271486, "phone": "+17182326083", "categories": [{"alias": "cantonese", "title": "Cantonese"}], "id": "86-fu-kee-brooklyn", "display_phone": "(718) 232-6083", "is_closed": false, "location": {"address2": "", "country": "US", "display_address": ["2211 86th St", "Brooklyn, NY 11214"], "address1": "2211 86th St", "city": "Brooklyn", "zip_code": "11214", "address3": "", "state": "NY"}, "coordinates": {"longitude": -73.993218, "latitude": 40.601908}, "review_count": 141, "image_url": "https://s3-media2.fl.yelpcdn.com/bphoto/Jg-AnHGExJ7aEyVq85gLyQ/o.jpg", "price": "$", "rating": 3.5, "name": "86 Fu Kee", "url": "https://www.yelp.com/biz/86-fu-kee-brooklyn?adjust_creative=gBcvfFpabk3CnzmXKdYe3w&utm_campaign=yelp_api_v3&utm_medium=api_v3_business_search&utm_source=gBcvfFpabk3CnzmXKdYe3w"}, {"transactions": [], "distance": 910.6674088259999, "phone": "+16468789474", "categories": [{"alias": "chinese", "title": "Chinese"}], "id": "new-wong-rest-new-york", "display_phone": "(646) 878-9474", "is_closed": false, "location": {"address2": "", "country": "US", "display_address": ["103 E Broadway", "New York, NY 10002"], "address1": "103 E Broadway", "city": "New York", "zip_code": "10002", "address3": "", "state": "NY"}, "coordinates": {"longitude": -73.9931488, "latitude": 40.7135887}, "review_count": 30, "image_url": "https://s3-media3.fl.yelpcdn.com/bphoto/dDEd4IM5xyUPaX3KnkRs6Q/o.jpg", "price": "$", "rating": 4.0, "name": "New Wong Rest", "url": "https://www.yelp.com/biz/new-wong-rest-new-york?adjust_creative=gBcvfFpabk3CnzmXKdYe3w&utm_campaign=yelp_api_v3&utm_medium=api_v3_business_search&utm_source=gBcvfFpabk3CnzmXKdYe3w"}, {"transactions": [], "distance": 6991.393963344, "phone": "+17183660114", "categories": [{"alias": "chinese", "title": "Chinese"}], "id": "lees-restaurant-brooklyn", "display_phone": "(718) 366-0114", "is_closed": false, "location": {"address2": "", "country": "US", "display_address": ["1546 Myrtle Ave", "Brooklyn, NY 11237"], "address1": "1546 Myrtle Ave", "city": "Brooklyn", "zip_code": "11237", "address3": "", "state": "NY"}, "coordinates": {"longitude": -73.91172, "latitude": 40.699287}, "review_count": 33, "image_url": "https://s3-media3.fl.yelpcdn.com/bphoto/LfmQoBANR83ejiYcVO0tAw/o.jpg", "price": "$$", "rating": 3.5, "name": "Lee's Restaurant", "url": "https://www.yelp.com/biz/lees-restaurant-brooklyn?adjust_creative=gBcvfFpabk3CnzmXKdYe3w&utm_campaign=yelp_api_v3&utm_medium=api_v3_business_search&utm_source=gBcvfFpabk3CnzmXKdYe3w"}, {"transactions": ["delivery", "pickup"], "distance": 1075.64584118, "phone": "+16466838027", "categories": [{"alias": "chinese", "title": "Chinese"}], "id": "yummy-chinese-new-york", "display_phone": "(646) 683-8027", "is_closed": false, "location": {"address2": "", "country": "US", "display_address": ["21 Eldridge St", "New York, NY 10002"], "address1": "21 Eldridge St", "city": "New York", "zip_code": "10002", "address3": "", "state": "NY"}, "coordinates": {"longitude": -73.9938049316406, "latitude": 40.7151107788086}, "review_count": 11, "image_url": "https://s3-media1.fl.yelpcdn.com/bphoto/g3tavwOkzzQbdTnrSaMHFw/o.jpg", "price": "$$", "rating": 4.0, "name": "Yummy Chinese", "url": "https://www.yelp.com/biz/yummy-chinese-new-york?adjust_creative=gBcvfFpabk3CnzmXKdYe3w&utm_campaign=yelp_api_v3&utm_medium=api_v3_business_search&utm_source=gBcvfFpabk3CnzmXKdYe3w"}, {"transactions": [], "distance": 4787.775556488, "phone": "+17186223396", "categories": [{"alias": "chinese", "title": "Chinese"}], "id": "happy-wok-chinese-restaurant-brooklyn", "display_phone": "(718) 622-3396", "is_closed": false, "location": {"address2": "", "country": "US", "display_address": ["762 Franklin Ave", "Brooklyn, NY 11238"], "address1": "762 Franklin Ave", "city": "Brooklyn", "zip_code": "11238", "address3": "", "state": "NY"}, "coordinates": {"longitude": -73.957572, "latitude": 40.672592}, "review_count": 12, "image_url": "https://s3-media2.fl.yelpcdn.com/bphoto/0TNgJ0M2ZkliwxsMZpT6OQ/o.jpg", "price": "$", "rating": 3.0, "name": "Happy Wok Chinese Restaurant", "url": "https://www.yelp.com/biz/happy-wok-chinese-restaurant-brooklyn?adjust_creative=gBcvfFpabk3CnzmXKdYe3w&utm_campaign=yelp_api_v3&utm_medium=api_v3_business_search&utm_source=gBcvfFpabk3CnzmXKdYe3w"}, {"transactions": [], "distance": 11553.072538561999, "phone": "+17184762836", "categories": [{"alias": "chinese", "title": "Chinese"}], "id": "rjr-yummy-kitchen-east-elmhurst-2", "display_phone": "(718) 476-2836", "is_closed": false, "location": {"address2": "", "country": "US", "display_address": ["9021 31st Ave", "East Elmhurst, NY 11369"], "address1": "9021 31st Ave", "city": "East Elmhurst", "zip_code": "11369", "address3": "", "state": "NY"}, "coordinates": {"longitude": -73.8783152, "latitude": 40.7601665}, "review_count": 19, "image_url": "https://s3-media3.fl.yelpcdn.com/bphoto/XhSVjqjbIKSAt7PMbVw72Q/o.jpg", "price": "$", "rating": 4.0, "name": "RJR Yummy Kitchen", "url": "https://www.yelp.com/biz/rjr-yummy-kitchen-east-elmhurst-2?adjust_creative=gBcvfFpabk3CnzmXKdYe3w&utm_campaign=yelp_api_v3&utm_medium=api_v3_business_search&utm_source=gBcvfFpabk3CnzmXKdYe3w"}, {"transactions": ["delivery", "pickup"], "distance": 9439.911431624, "phone": "+13476626222", "categories": [{"alias": "chinese", "title": "Chinese"}], "id": "xin-brooklyn-3", "display_phone": "(347) 662-6222", "is_closed": false, "location": {"address2": null, "country": "US", "display_address": ["8320 3rd Ave", "Brooklyn, NY 11209"], "address1": "8320 3rd Ave", "city": "Brooklyn", "zip_code": "11209", "address3": "", "state": "NY"}, "coordinates": {"longitude": -74.03067, "latitude": 40.62518}, "review_count": 46, "image_url": "https://s3-media3.fl.yelpcdn.com/bphoto/BbstnLSVlH5cD6s_KYRKow/o.jpg", "price": "$$", "rating": 3.5, "name": "XIN", "url": "https://www.yelp.com/biz/xin-brooklyn-3?adjust_creative=gBcvfFpabk3CnzmXKdYe3w&utm_campaign=yelp_api_v3&utm_medium=api_v3_business_search&utm_source=gBcvfFpabk3CnzmXKdYe3w"}, {"transactions": [], "distance": 1277.610447282, "phone": "+12129662876", "categories": [{"alias": "chinese", "title": "Chinese"}], "id": "kang-kee-new-york", "display_phone": "(212) 966-2876", "is_closed": false, "location": {"address2": "", "country": "US", "display_address": ["124 Hester St", "New York, NY 10002"], "address1": "124 Hester St", "city": "New York", "zip_code": "10002", "address3": "", "state": "NY"}, "coordinates": {"longitude": -73.9946851, "latitude": 40.7169302}, "review_count": 7, "image_url": "https://s3-media1.fl.yelpcdn.com/bphoto/ApOHKZGgX4_XBScGKgj0-A/o.jpg", "price": "$$", "rating": 4.5, "name": "Kang Kee", "url": "https://www.yelp.com/biz/kang-kee-new-york?adjust_creative=gBcvfFpabk3CnzmXKdYe3w&utm_campaign=yelp_api_v3&utm_medium=api_v3_business_search&utm_source=gBcvfFpabk3CnzmXKdYe3w"}, {"transactions": [], "distance": 11290.848932038, "phone": "+17189976622", "categories": [{"alias": "chinese", "title": "Chinese"}], "id": "rego-garden-restaurant-rego-park", "display_phone": "(718) 997-6622", "is_closed": false, "location": {"address2": null, "country": "US", "display_address": ["9303 63rd Dr", "Rego Park, NY 11374"], "address1": "9303 63rd Dr", "city": "Rego Park", "zip_code": "11374", "address3": null, "state": "NY"}, "coordinates": {"longitude": -73.8637009, "latitude": 40.7282677}, "review_count": 28, "image_url": "https://s3-media3.fl.yelpcdn.com/bphoto/ITSQzPtQCEtqaYBB8HDPoA/o.jpg", "price": "$", "rating": 3.5, "name": "Rego Garden Restaurant", "url": "https://www.yelp.com/biz/rego-garden-restaurant-rego-park?adjust_creative=gBcvfFpabk3CnzmXKdYe3w&utm_campaign=yelp_api_v3&utm_medium=api_v3_business_search&utm_source=gBcvfFpabk3CnzmXKdYe3w"}, {"transactions": ["delivery", "pickup"], "distance": 10732.02219324, "phone": "+12124102838", "categories": [{"alias": "chinese", "title": "Chinese"}], "id": "china-king-new-york", "display_phone": "(212) 410-2838", "is_closed": false, "location": {"address2": "", "country": "US", "display_address": ["1759 Lexington Ave", "New York, NY 10029"], "address1": "1759 Lexington Ave", "city": "New York", "zip_code": "10029", "address3": "", "state": "NY"}, "coordinates": {"longitude": -73.94456, "latitude": 40.7943}, "review_count": 16, "image_url": "https://s3-media2.fl.yelpcdn.com/bphoto/uEBWQxffscx2iPEprBpiqQ/o.jpg", "price": "$", "rating": 3.5, "name": "China King", "url": "https://www.yelp.com/biz/china-king-new-york?adjust_creative=gBcvfFpabk3CnzmXKdYe3w&utm_campaign=yelp_api_v3&utm_medium=api_v3_business_search&utm_source=gBcvfFpabk3CnzmXKdYe3w"}, {"transactions": ["delivery", "pickup"], "distance": 4153.468840482, "phone": "+17183023888", "categories": [{"alias": "chinese", "title": "Chinese"}], "id": "china-city-brooklyn-2", "display_phone": "(718) 302-3888", "is_closed": false, "location": {"address2": "", "country": "US", "display_address": ["903 Myrtle Ave", "Brooklyn, NY 11206"], "address1": "903 Myrtle Ave", "city": "Brooklyn", "zip_code": "11206", "address3": "", "state": "NY"}, "coordinates": {"longitude": -73.9466552734375, "latitude": 40.695873260498}, "review_count": 17, "image_url": "https://s3-media3.fl.yelpcdn.com/bphoto/fKXzq_ZCXXSrbGrHRIvnOQ/o.jpg", "price": "$", "rating": 2.5, "name": "China City", "url": "https://www.yelp.com/biz/china-city-brooklyn-2?adjust_creative=gBcvfFpabk3CnzmXKdYe3w&utm_campaign=yelp_api_v3&utm_medium=api_v3_business_search&utm_source=gBcvfFpabk3CnzmXKdYe3w"}, {"transactions": [], "distance": 7703.41007526, "phone": "+17188333899", "categories": [{"alias": "seafood", "title": "Seafood"}, {"alias": "cantonese", "title": "Cantonese"}], "id": "restaurant-on-58-st-brooklyn", "display_phone": "(718) 833-3899", "is_closed": false, "location": {"address2": "", "country": "US", "display_address": ["773 58th St", "Brooklyn, NY 11220"], "address1": "773 58th St", "city": "Brooklyn", "zip_code": "11220", "address3": "", "state": "NY"}, "coordinates": {"longitude": -74.00853, "latitude": 40.637012}, "review_count": 10, "image_url": "https://s3-media2.fl.yelpcdn.com/bphoto/o-WkprlsqdPwAq8hrYa5uA/o.jpg", "price": "$$", "rating": 4.0, "name": "Restaurant On 58 St", "url": "https://www.yelp.com/biz/restaurant-on-58-st-brooklyn?adjust_creative=gBcvfFpabk3CnzmXKdYe3w&utm_campaign=yelp_api_v3&utm_medium=api_v3_business_search&utm_source=gBcvfFpabk3CnzmXKdYe3w"}, {"transactions": ["delivery", "pickup"], "distance": 3659.2361812639997, "phone": "+17187890943", "categories": [{"alias": "chinese", "title": "Chinese"}, {"alias": "asianfusion", "title": "Asian Fusion"}], "id": "autumn-asian-restaurant-brooklyn", "display_phone": "(718) 789-0943", "is_closed": false, "location": {"address2": "", "country": "US", "display_address": ["349 Flatbush Ave", "Brooklyn, NY 11238"], "address1": "349 Flatbush Ave", "city": "Brooklyn", "zip_code": "11238", "address3": null, "state": "NY"}, "coordinates": {"longitude": -73.9721409, "latitude": 40.677148}, "review_count": 16, "image_url": "https://s3-media3.fl.yelpcdn.com/bphoto/-W7BWK-Lf-Fi2YifqYITzQ/o.jpg", "price": "$", "rating": 3.5, "name": "Autumn Asian Restaurant", "url": "https://www.yelp.com/biz/autumn-asian-restaurant-brooklyn?adjust_creative=gBcvfFpabk3CnzmXKdYe3w&utm_campaign=yelp_api_v3&utm_medium=api_v3_business_search&utm_source=gBcvfFpabk3CnzmXKdYe3w"}, {"transactions": [], "distance": 6582.605188075999, "phone": "+17184838288", "categories": [{"alias": "chinese", "title": "Chinese"}, {"alias": "spanish", "title": "Spanish"}], "id": "new-apollo-ii-brooklyn", "display_phone": "(718) 483-8288", "is_closed": false, "location": {"address2": "", "country": "US", "display_address": ["1477 Myrtle Ave", "Brooklyn, NY 11237"], "address1": "1477 Myrtle Ave", "city": "Brooklyn", "zip_code": "11237", "address3": "", "state": "NY"}, "coordinates": {"longitude": -73.9166564941406, "latitude": 40.6991691589355}, "review_count": 23, "image_url": "https://s3-media3.fl.yelpcdn.com/bphoto/LnECR0sKs5sX_DtRknDCtw/o.jpg", "price": "$", "rating": 3.5, "name": "New Apollo II", "url": "https://www.yelp.com/biz/new-apollo-ii-brooklyn?adjust_creative=gBcvfFpabk3CnzmXKdYe3w&utm_campaign=yelp_api_v3&utm_medium=api_v3_business_search&utm_source=gBcvfFpabk3CnzmXKdYe3w"}, {"transactions": ["delivery", "pickup"], "distance": 6564.73604232, "phone": "+12122132299", "categories": [{"alias": "chinese", "title": "Chinese"}], "id": "hunan-house-new-york-6", "display_phone": "(212) 213-2299", "is_closed": false, "location": {"address2": "", "country": "US", "display_address": ["40 W 56th St", "New York, NY 10019"], "address1": "40 W 56th St", "city": "New York", "zip_code": "10019", "address3": "", "state": "NY"}, "coordinates": {"longitude": -73.97653, "latitude": 40.76292}, "review_count": 113, "image_url": "https://s3-media4.fl.yelpcdn.com/bphoto/CGXu9ftYtUp507Z4UA025w/o.jpg", "price": "$$", "rating": 2.5, "name": "Hunan House", "url": "https://www.yelp.com/biz/hunan-house-new-york-6?adjust_creative=gBcvfFpabk3CnzmXKdYe3w&utm_campaign=yelp_api_v3&utm_medium=api_v3_business_search&utm_source=gBcvfFpabk3CnzmXKdYe3w"}, {"transactions": [], "distance": 11483.40372716, "phone": "+12125345533", "categories": [{"alias": "chinese", "title": "Chinese"}], "id": "new-hong-kong-restaurant-new-york", "display_phone": "(212) 534-5533", "is_closed": false, "location": {"address2": "", "country": "US", "display_address": ["1907 Lexington Ave", "New York, NY 10035"], "address1": "1907 Lexington Ave", "city": "New York", "zip_code": "10035", "address3": "", "state": "NY"}, "coordinates": {"longitude": -73.9404103159904, "latitude": 40.8001850545406}, "review_count": 4, "image_url": "", "price": "$", "rating": 4.5, "name": "New Hong Kong Restaurant", "url": "https://www.yelp.com/biz/new-hong-kong-restaurant-new-york?adjust_creative=gBcvfFpabk3CnzmXKdYe3w&utm_campaign=yelp_api_v3&utm_medium=api_v3_business_search&utm_source=gBcvfFpabk3CnzmXKdYe3w"}, {"transactions": [], "distance": 8145.0226273, "phone": "+17188361663", "categories": [{"alias": "chinese", "title": "Chinese"}], "id": "6321-yuan-bao-brooklyn-2", "display_phone": "(718) 836-1663", "is_closed": false, "location": {"address2": "", "country": "US", "display_address": ["6321 8th Ave", "Brooklyn, NY 11220"], "address1": "6321 8th Ave", "city": "Brooklyn", "zip_code": "11220", "address3": "", "state": "NY"}, "coordinates": {"longitude": -74.0116887655261, "latitude": 40.633392476124}, "review_count": 5, "image_url": "https://s3-media1.fl.yelpcdn.com/bphoto/YwtVaCpOpC8ktwqiMXFi7A/o.jpg", "price": "$", "rating": 4.5, "name": "6321 Yuan Bao", "url": "https://www.yelp.com/biz/6321-yuan-bao-brooklyn-2?adjust_creative=gBcvfFpabk3CnzmXKdYe3w&utm_campaign=yelp_api_v3&utm_medium=api_v3_business_search&utm_source=gBcvfFpabk3CnzmXKdYe3w"}, {"transactions": [], "distance": 9005.340385819998, "phone": "+17185077710", "categories": [{"alias": "chinese", "title": "Chinese"}], "id": "long-spring-garden-woodside", "display_phone": "(718) 507-7710", "is_closed": false, "location": {"address2": "", "country": "US", "display_address": ["6205 Roosevelt Ave", "Woodside, NY 11377"], "address1": "6205 Roosevelt Ave", "city": "Woodside", "zip_code": "11377", "address3": "", "state": "NY"}, "coordinates": {"longitude": -73.901741, "latitude": 40.745967}, "review_count": 20, "image_url": "https://s3-media3.fl.yelpcdn.com/bphoto/jQqIqoI1XObUZnsHjq4BBw/o.jpg", "price": "$", "rating": 3.5, "name": "Long Spring Garden", "url": "https://www.yelp.com/biz/long-spring-garden-woodside?adjust_creative=gBcvfFpabk3CnzmXKdYe3w&utm_campaign=yelp_api_v3&utm_medium=api_v3_business_search&utm_source=gBcvfFpabk3CnzmXKdYe3w"}, {"transactions": [], "distance": 13762.716797179999, "phone": "+17187386500", "categories": [{"alias": "chinese", "title": "Chinese"}, {"alias": "japanese", "title": "Japanese"}], "id": "dannys-szechuan-garden-howard-beach", "display_phone": "(718) 738-6500", "is_closed": false, "location": {"address2": "", "country": "US", "display_address": ["156-40B Cross Bay Blvd", "Howard Beach, NY 11414"], "address1": "156-40B Cross Bay Blvd", "city": "Howard Beach", "zip_code": "11414", "address3": "", "state": "NY"}, "coordinates": {"longitude": -73.8433990478516, "latitude": 40.6595993041992}, "review_count": 82, "image_url": "https://s3-media4.fl.yelpcdn.com/bphoto/oJV-QhIVg-H1E0crH7IElg/o.jpg", "price": "$$", "rating": 3.0, "name": "Danny's Szechuan Garden", "url": "https://www.yelp.com/biz/dannys-szechuan-garden-howard-beach?adjust_creative=gBcvfFpabk3CnzmXKdYe3w&utm_campaign=yelp_api_v3&utm_medium=api_v3_business_search&utm_source=gBcvfFpabk3CnzmXKdYe3w"}, {"transactions": [], "distance": 12534.622040216, "phone": "+12128653600", "categories": [{"alias": "chinese", "title": "Chinese"}], "id": "peking-garden-new-york-2", "display_phone": "(212) 865-3600", "is_closed": false, "location": {"address2": "", "country": "US", "display_address": ["3163 Broadway", "New York, NY 10027"], "address1": "3163 Broadway", "city": "New York", "zip_code": "10027", "address3": "", "state": "NY"}, "coordinates": {"longitude": -73.959297, "latitude": 40.81501}, "review_count": 25, "image_url": "https://s3-media4.fl.yelpcdn.com/bphoto/kuWx6tCwnlaWChfRe0c2MA/o.jpg", "price": "$", "rating": 3.5, "name": "Peking Garden", "url": "https://www.yelp.com/biz/peking-garden-new-york-2?adjust_creative=gBcvfFpabk3CnzmXKdYe3w&utm_campaign=yelp_api_v3&utm_medium=api_v3_business_search&utm_source=gBcvfFpabk3CnzmXKdYe3w"}, {"transactions": [], "distance": 10443.506638202, "phone": "+17182328008", "categories": [{"alias": "chinese", "title": "Chinese"}], "id": "bay-parkway-cafe-brooklyn", "display_phone": "(718) 232-8008", "is_closed": false, "location": {"address2": "", "country": "US", "display_address": ["6812 Bay Pkwy", "Brooklyn, NY 11204"], "address1": "6812 Bay Pkwy", "city": "Brooklyn", "zip_code": "11204", "address3": "", "state": "NY"}, "coordinates": {"longitude": -73.983757019043, "latitude": 40.6120414733887}, "review_count": 22, "image_url": "https://s3-media2.fl.yelpcdn.com/bphoto/43539YAK5fjrIvabCgbB5Q/o.jpg", "price": "$$", "rating": 3.5, "name": "Bay Parkway Cafe", "url": "https://www.yelp.com/biz/bay-parkway-cafe-brooklyn?adjust_creative=gBcvfFpabk3CnzmXKdYe3w&utm_campaign=yelp_api_v3&utm_medium=api_v3_business_search&utm_source=gBcvfFpabk3CnzmXKdYe3w"}, {"transactions": [], "distance": 6969.18732442, "phone": "+17188510403", "categories": [{"alias": "mexican", "title": "Mexican"}, {"alias": "chinese", "title": "Chinese"}], "id": "403-restaurant-brooklyn", "display_phone": "(718) 851-0403", "is_closed": false, "location": {"address2": "", "country": "US", "display_address": ["403 Church Ave", "Brooklyn, NY 11218"], "address1": "403 Church Ave", "city": "Brooklyn", "zip_code": "11218", "address3": "", "state": "NY"}, "coordinates": {"longitude": -73.9764, "latitude": 40.64422}, "review_count": 16, "image_url": "https://s3-media1.fl.yelpcdn.com/bphoto/aHes-6mFMaiKz97jyET6UQ/o.jpg", "price": "$", "rating": 3.5, "name": "403 Restaurant", "url": "https://www.yelp.com/biz/403-restaurant-brooklyn?adjust_creative=gBcvfFpabk3CnzmXKdYe3w&utm_campaign=yelp_api_v3&utm_medium=api_v3_business_search&utm_source=gBcvfFpabk3CnzmXKdYe3w"}, {"transactions": [], "distance": 15454.487191979999, "phone": "", "categories": [{"alias": "chinese", "title": "Chinese"}], "id": "lao-dong-bei-flushing", "display_phone": "", "is_closed": false, "location": {"address2": "", "country": "US", "display_address": ["44-09 Kissena Blvd", "Flushing, NY 11355"], "address1": "44-09 Kissena Blvd", "city": "Flushing", "zip_code": "11355", "address3": "", "state": "NY"}, "coordinates": {"longitude": -73.8224843144417, "latitude": 40.7536909729242}, "review_count": 78, "image_url": "https://s3-media1.fl.yelpcdn.com/bphoto/j6fJcegTLPx-26k485VbtQ/o.jpg", "price": "$$", "rating": 4.0, "name": "Lao Dong Bei", "url": "https://www.yelp.com/biz/lao-dong-bei-flushing?adjust_creative=gBcvfFpabk3CnzmXKdYe3w&utm_campaign=yelp_api_v3&utm_medium=api_v3_business_search&utm_source=gBcvfFpabk3CnzmXKdYe3w"}, {"transactions": [], "distance": 18626.483457259998, "phone": "+17189871111", "categories": [{"alias": "chinese", "title": "Chinese"}, {"alias": "panasian", "title": "Pan Asian"}], "id": "empire-east-staten-island-4", "display_phone": "(718) 987-1111", "is_closed": false, "location": {"address2": null, "country": "US", "display_address": ["2740 Hylan Blvd", "Staten Island, NY 10306"], "address1": "2740 Hylan Blvd", "city": "Staten Island", "zip_code": "10306", "address3": "", "state": "NY"}, "coordinates": {"longitude": -74.1137849176055, "latitude": 40.5645969932634}, "review_count": 81, "image_url": "https://s3-media2.fl.yelpcdn.com/bphoto/ddle631jR5yosI-710jWYQ/o.jpg", "price": "$$", "rating": 3.5, "name": "Empire East", "url": "https://www.yelp.com/biz/empire-east-staten-island-4?adjust_creative=gBcvfFpabk3CnzmXKdYe3w&utm_campaign=yelp_api_v3&utm_medium=api_v3_business_search&utm_source=gBcvfFpabk3CnzmXKdYe3w"}, {"transactions": [], "distance": 17853.42411354, "phone": "+17182398888", "categories": [{"alias": "chinese", "title": "Chinese"}], "id": "new-general-tsos-restaurant-bronx", "display_phone": "(718) 239-8888", "is_closed": false, "location": {"address2": "", "country": "US", "display_address": ["1215 White Plains Rd", "Bronx, NY 10472"], "address1": "1215 White Plains Rd", "city": "Bronx", "zip_code": "10472", "address3": "", "state": "NY"}, "coordinates": {"longitude": -73.8619766, "latitude": 40.8308945}, "review_count": 11, "image_url": "https://s3-media2.fl.yelpcdn.com/bphoto/L4XvQ3KN4EJZQEWQOhiJEA/o.jpg", "price": "$", "rating": 4.5, "name": "New General Tso's Restaurant", "url": "https://www.yelp.com/biz/new-general-tsos-restaurant-bronx?adjust_creative=gBcvfFpabk3CnzmXKdYe3w&utm_campaign=yelp_api_v3&utm_medium=api_v3_business_search&utm_source=gBcvfFpabk3CnzmXKdYe3w"}, {"transactions": [], "distance": 2869.5015001999996, "phone": "+12125332007", "categories": [{"alias": "chinese", "title": "Chinese"}, {"alias": "taiwanese", "title": "Taiwanese"}], "id": "mimi-chengs-dumplings-new-york", "display_phone": "(212) 533-2007", "is_closed": false, "location": {"address2": "", "country": "US", "display_address": ["179 2nd Ave", "New York, NY 10003"], "address1": "179 2nd Ave", "city": "New York", "zip_code": "10003", "address3": "", "state": "NY"}, "coordinates": {"longitude": -73.986285, "latitude": 40.7305254}, "review_count": 427, "image_url": "https://s3-media1.fl.yelpcdn.com/bphoto/pykWGIa_pL2FkGqJE3vmsw/o.jpg", "price": "$$", "rating": 3.5, "name": "Mimi Cheng's Dumplings", "url": "https://www.yelp.com/biz/mimi-chengs-dumplings-new-york?adjust_creative=gBcvfFpabk3CnzmXKdYe3w&utm_campaign=yelp_api_v3&utm_medium=api_v3_business_search&utm_source=gBcvfFpabk3CnzmXKdYe3w"}, {"transactions": ["delivery", "pickup"], "distance": 15296.2617112, "phone": "+17183531808", "categories": [{"alias": "chinese", "title": "Chinese"}, {"alias": "seafood", "title": "Seafood"}, {"alias": "asianfusion", "title": "Asian Fusion"}], "id": "hunan-house-flushing", "display_phone": "(718) 353-1808", "is_closed": false, "location": {"address2": "", "country": "US", "display_address": ["137-40 Northern Blvd", "Flushing, NY 11354"], "address1": "137-40 Northern Blvd", "city": "Flushing", "zip_code": "11354", "address3": "", "state": "NY"}, "coordinates": {"longitude": -73.829631, "latitude": 40.763365}, "review_count": 125, "image_url": "https://s3-media2.fl.yelpcdn.com/bphoto/mPkzmFkOqFu2nR_YY5PM6g/o.jpg", "price": "$$", "rating": 4.0, "name": "Hunan House", "url": "https://www.yelp.com/biz/hunan-house-flushing?adjust_creative=gBcvfFpabk3CnzmXKdYe3w&utm_campaign=yelp_api_v3&utm_medium=api_v3_business_search&utm_source=gBcvfFpabk3CnzmXKdYe3w"}, {"transactions": ["delivery", "pickup"], "distance": 7615.626050016, "phone": "+17183925630", "categories": [{"alias": "chinese", "title": "Chinese"}], "id": "wah-yeungs-kitchen-sunnyside", "display_phone": "(718) 392-5630", "is_closed": false, "location": {"address2": "", "country": "US", "display_address": ["43-24 43rd Ave", "Sunnyside, NY 11104"], "address1": "43-24 43rd Ave", "city": "Sunnyside", "zip_code": "11104", "address3": "", "state": "NY"}, "coordinates": {"longitude": -73.9207394, "latitude": 40.745041}, "review_count": 18, "image_url": "https://s3-media1.fl.yelpcdn.com/bphoto/pg7_eKDs2MOVFXyrkfbWOQ/o.jpg", "price": "$", "rating": 3.0, "name": "Wah Yeung's Kitchen", "url": "https://www.yelp.com/biz/wah-yeungs-kitchen-sunnyside?adjust_creative=gBcvfFpabk3CnzmXKdYe3w&utm_campaign=yelp_api_v3&utm_medium=api_v3_business_search&utm_source=gBcvfFpabk3CnzmXKdYe3w"}, {"transactions": ["delivery", "pickup"], "distance": 4755.203158624, "phone": "+17185741686", "categories": [{"alias": "sushi", "title": "Sushi Bars"}, {"alias": "chinese", "title": "Chinese"}, {"alias": "asianfusion", "title": "Asian Fusion"}], "id": "linda-asian-kitchen-brooklyn", "display_phone": "(718) 574-1686", "is_closed": false, "location": {"address2": "", "country": "US", "display_address": ["882 Dekalb Ave", "Brooklyn, NY 11221"], "address1": "882 Dekalb Ave", "city": "Brooklyn", "zip_code": "11221", "address3": "", "state": "NY"}, "coordinates": {"longitude": -73.940589, "latitude": 40.692363}, "review_count": 10, "image_url": "https://s3-media2.fl.yelpcdn.com/bphoto/3fx2u6yXjsAT6Zpc4k63Eg/o.jpg", "rating": 3.0, "name": "Linda Asian Kitchen", "url": "https://www.yelp.com/biz/linda-asian-kitchen-brooklyn?adjust_creative=gBcvfFpabk3CnzmXKdYe3w&utm_campaign=yelp_api_v3&utm_medium=api_v3_business_search&utm_source=gBcvfFpabk3CnzmXKdYe3w"}, {"transactions": ["delivery", "pickup"], "distance": 8449.618224816, "phone": "+12126500189", "categories": [{"alias": "chinese", "title": "Chinese"}], "id": "china-taste-new-york", "display_phone": "(212) 650-0189", "is_closed": false, "location": {"address2": "", "country": "US", "display_address": ["1570 A 2nd Ave", "New York, NY 10028"], "address1": "1570 A 2nd Ave", "city": "New York", "zip_code": "10028", "address3": "", "state": "NY"}, "coordinates": {"longitude": -73.9537757635117, "latitude": 40.7749559083727}, "review_count": 49, "image_url": "https://s3-media2.fl.yelpcdn.com/bphoto/5O7VARyML6CGuQow16ppOA/o.jpg", "price": "$", "rating": 3.0, "name": "China Taste", "url": "https://www.yelp.com/biz/china-taste-new-york?adjust_creative=gBcvfFpabk3CnzmXKdYe3w&utm_campaign=yelp_api_v3&utm_medium=api_v3_business_search&utm_source=gBcvfFpabk3CnzmXKdYe3w"}, {"transactions": [], "distance": 15035.46575019, "phone": "", "categories": [{"alias": "chinese", "title": "Chinese"}, {"alias": "noodles", "title": "Noodles"}, {"alias": "burgers", "title": "Burgers"}], "id": "xian-famous-foods-flushing", "display_phone": "", "is_closed": false, "location": {"address2": "Ste 36", "country": "US", "display_address": ["41-28 Main St Basement", "Ste 36", "Flushing, NY 11355"], "address1": "41-28 Main St Basement", "city": "Flushing", "zip_code": "11355", "address3": "", "state": "NY"}, "coordinates": {"longitude": -73.829437, "latitude": 40.757189}, "review_count": 448, "image_url": "https://s3-media1.fl.yelpcdn.com/bphoto/C4a3tcJTUNPHysKlclVVYA/o.jpg", "price": "$", "rating": 4.0, "name": "Xi'an Famous Foods", "url": "https://www.yelp.com/biz/xian-famous-foods-flushing?adjust_creative=gBcvfFpabk3CnzmXKdYe3w&utm_campaign=yelp_api_v3&utm_medium=api_v3_business_search&utm_source=gBcvfFpabk3CnzmXKdYe3w"}, {"transactions": [], "distance": 15445.318782, "phone": "+17188155826", "categories": [{"alias": "chinese", "title": "Chinese"}], "id": "china-new-star-restaurant-staten-island", "display_phone": "(718) 815-5826", "is_closed": false, "location": {"address2": "", "country": "US", "display_address": ["1640 Forest Ave", "Staten Island, NY 10302"], "address1": "1640 Forest Ave", "city": "Staten Island", "zip_code": "10302", "address3": "", "state": "NY"}, "coordinates": {"longitude": -74.14344, "latitude": 40.62479}, "review_count": 30, "image_url": "https://s3-media1.fl.yelpcdn.com/bphoto/iyVUvPxfZ7rfzUkMBR4E0g/o.jpg", "price": "$$", "rating": 3.5, "name": "China New Star Restaurant", "url": "https://www.yelp.com/biz/china-new-star-restaurant-staten-island?adjust_creative=gBcvfFpabk3CnzmXKdYe3w&utm_campaign=yelp_api_v3&utm_medium=api_v3_business_search&utm_source=gBcvfFpabk3CnzmXKdYe3w"}, {"transactions": ["delivery", "pickup"], "distance": 3097.1318606219997, "phone": "+12125291329", "categories": [{"alias": "chinese", "title": "Chinese"}], "id": "vanessas-dumpling-new-york", "display_phone": "(212) 529-1329", "is_closed": false, "location": {"address2": "", "country": "US", "display_address": ["220 E 14th St", "New York, NY 10003"], "address1": "220 E 14th St", "city": "New York", "zip_code": "10003", "address3": "", "state": "NY"}, "coordinates": {"longitude": -73.986442565918, "latitude": 40.732666015625}, "review_count": 851, "image_url": "https://s3-media3.fl.yelpcdn.com/bphoto/yVwLNJK4PNe0qoAgvW9Ssg/o.jpg", "price": "$", "rating": 3.5, "name": "Vanessa's Dumpling", "url": "https://www.yelp.com/biz/vanessas-dumpling-new-york?adjust_creative=gBcvfFpabk3CnzmXKdYe3w&utm_campaign=yelp_api_v3&utm_medium=api_v3_business_search&utm_source=gBcvfFpabk3CnzmXKdYe3w"}, {"transactions": [], "distance": 6076.872024284, "phone": "+17188563888", "categories": [{"alias": "chinese", "title": "Chinese"}], "id": "taste-of-china-brooklyn-3", "display_phone": "(718) 856-3888", "is_closed": false, "location": {"address2": "", "country": "US", "display_address": ["1078 Nostrand Ave", "Brooklyn, NY 11225"], "address1": "1078 Nostrand Ave", "city": "Brooklyn", "zip_code": "11225", "address3": "", "state": "NY"}, "coordinates": {"longitude": -73.951042, "latitude": 40.661731}, "review_count": 2, "image_url": "https://s3-media1.fl.yelpcdn.com/bphoto/2dUJU-hCoE24J-2blHuZ0A/o.jpg", "price": "$", "rating": 4.0, "name": "Taste of China", "url": "https://www.yelp.com/biz/taste-of-china-brooklyn-3?adjust_creative=gBcvfFpabk3CnzmXKdYe3w&utm_campaign=yelp_api_v3&utm_medium=api_v3_business_search&utm_source=gBcvfFpabk3CnzmXKdYe3w"}, {"transactions": [], "distance": 8773.59783983, "phone": "+17184241011", "categories": [{"alias": "chinese", "title": "Chinese"}], "id": "panda-garden-restaurant-woodside", "display_phone": "(718) 424-1011", "is_closed": false, "location": {"address2": "", "country": "US", "display_address": ["5917 Roosevelt Ave", "Woodside, NY 11377"], "address1": "5917 Roosevelt Ave", "city": "Woodside", "zip_code": "11377", "address3": "", "state": "NY"}, "coordinates": {"longitude": -73.9046832050162, "latitude": 40.7456198920624}, "review_count": 16, "image_url": "https://s3-media2.fl.yelpcdn.com/bphoto/kLx1XGtTksx8rK__TKb6IQ/o.jpg", "price": "$", "rating": 3.5, "name": "Panda Garden Restaurant", "url": "https://www.yelp.com/biz/panda-garden-restaurant-woodside?adjust_creative=gBcvfFpabk3CnzmXKdYe3w&utm_campaign=yelp_api_v3&utm_medium=api_v3_business_search&utm_source=gBcvfFpabk3CnzmXKdYe3w"}, {"transactions": [], "distance": 12776.16562774, "phone": "+17188488436", "categories": [{"alias": "chinese", "title": "Chinese"}], "id": "win-hou-chinese-restaurant-howard-beach", "display_phone": "(718) 848-8436", "is_closed": false, "location": {"address2": "", "country": "US", "display_address": ["8221 153rd Ave", "Howard Beach, NY 11414"], "address1": "8221 153rd Ave", "city": "Howard Beach", "zip_code": "11414", "address3": "", "state": "NY"}, "coordinates": {"longitude": -73.8517151, "latitude": 40.666256}, "review_count": 18, "image_url": "https://s3-media4.fl.yelpcdn.com/bphoto/Jdrp2GZ5IO-28OoJJsgavQ/o.jpg", "price": "$$", "rating": 3.0, "name": "Win Hou Chinese Restaurant", "url": "https://www.yelp.com/biz/win-hou-chinese-restaurant-howard-beach?adjust_creative=gBcvfFpabk3CnzmXKdYe3w&utm_campaign=yelp_api_v3&utm_medium=api_v3_business_search&utm_source=gBcvfFpabk3CnzmXKdYe3w"}, {"transactions": [], "distance": 9454.831139962, "phone": "+17182326222", "categories": [{"alias": "chinese", "title": "Chinese"}, {"alias": "hkcafe", "title": "Hong Kong Style Cafe"}, {"alias": "sushi", "title": "Sushi Bars"}], "id": "jin-jin-hong-kong-cafe-brooklyn", "display_phone": "(718) 232-6222", "is_closed": false, "location": {"address2": "", "country": "US", "display_address": ["6224 18th Ave", "Brooklyn, NY 11204"], "address1": "6224 18th Ave", "city": "Brooklyn", "zip_code": "11204", "address3": "", "state": "NY"}, "coordinates": {"longitude": -73.989128112793, "latitude": 40.6205291748047}, "review_count": 185, "image_url": "https://s3-media3.fl.yelpcdn.com/bphoto/5dL3nySlh0moIxkYqVK5Qg/o.jpg", "price": "$", "rating": 3.5, "name": "Jin Jin Hong Kong Cafe", "url": "https://www.yelp.com/biz/jin-jin-hong-kong-cafe-brooklyn?adjust_creative=gBcvfFpabk3CnzmXKdYe3w&utm_campaign=yelp_api_v3&utm_medium=api_v3_business_search&utm_source=gBcvfFpabk3CnzmXKdYe3w"}, {"transactions": [], "distance": 1352.8721336124, "phone": "+16464845707", "categories": [{"alias": "mongolian", "title": "Mongolian"}, {"alias": "hotpot", "title": "Hot Pot"}, {"alias": "chinese", "title": "Chinese"}], "id": "little-sheep-mongolian-hot-pot-new-york-2", "display_phone": "(646) 484-5707", "is_closed": false, "location": {"address2": "", "country": "US", "display_address": ["105 Bowery", "New York, NY 10002"], "address1": "105 Bowery", "city": "New York", "zip_code": "10002", "address3": null, "state": "NY"}, "coordinates": {"longitude": -73.99489, "latitude": 40.71759}, "review_count": 86, "image_url": "https://s3-media1.fl.yelpcdn.com/bphoto/p51PIUQAUmcPEFeW3IpEfw/o.jpg", "price": "$$", "rating": 3.5, "name": "Little Sheep Mongolian Hot Pot", "url": "https://www.yelp.com/biz/little-sheep-mongolian-hot-pot-new-york-2?adjust_creative=gBcvfFpabk3CnzmXKdYe3w&utm_campaign=yelp_api_v3&utm_medium=api_v3_business_search&utm_source=gBcvfFpabk3CnzmXKdYe3w"}, {"transactions": [], "distance": 12854.607434284, "phone": "+17187431054", "categories": [{"alias": "chinese", "title": "Chinese"}], "id": "mei-mei-chinese-restaurant-brooklyn", "display_phone": "(718) 743-1054", "is_closed": false, "location": {"address2": "", "country": "US", "display_address": ["3566 Nostrand Ave", "Brooklyn, NY 11229"], "address1": "3566 Nostrand Ave", "city": "Brooklyn", "zip_code": "11229", "address3": "", "state": "NY"}, "coordinates": {"longitude": -73.9413834, "latitude": 40.5969532}, "review_count": 6, "image_url": "https://s3-media3.fl.yelpcdn.com/bphoto/UvPyslRg3yQmzYN0pCmJAA/o.jpg", "price": "$$", "rating": 4.0, "name": "Mei Mei Chinese Restaurant", "url": "https://www.yelp.com/biz/mei-mei-chinese-restaurant-brooklyn?adjust_creative=gBcvfFpabk3CnzmXKdYe3w&utm_campaign=yelp_api_v3&utm_medium=api_v3_business_search&utm_source=gBcvfFpabk3CnzmXKdYe3w"}, {"transactions": [], "distance": 14415.54717752, "phone": "+17188483100", "categories": [{"alias": "chinese", "title": "Chinese"}, {"alias": "seafood", "title": "Seafood"}], "id": "chopsticks-south-richmond-hill", "display_phone": "(718) 848-3100", "is_closed": false, "location": {"address2": "", "country": "US", "display_address": ["11716 Liberty Ave", "South Richmond Hill, NY 11419"], "address1": "11716 Liberty Ave", "city": "South Richmond Hill", "zip_code": "11419", "address3": "", "state": "NY"}, "coordinates": {"longitude": -73.8256182, "latitude": 40.6857552}, "review_count": 50, "image_url": "https://s3-media1.fl.yelpcdn.com/bphoto/7-MjA7X79S7qJkHrdadHzQ/o.jpg", "price": "$$", "rating": 3.5, "name": "Chopsticks", "url": "https://www.yelp.com/biz/chopsticks-south-richmond-hill?adjust_creative=gBcvfFpabk3CnzmXKdYe3w&utm_campaign=yelp_api_v3&utm_medium=api_v3_business_search&utm_source=gBcvfFpabk3CnzmXKdYe3w"}, {"transactions": ["delivery", "pickup"], "distance": 10926.739458519998, "phone": "+17184298973", "categories": [{"alias": "latin", "title": "Latin American"}, {"alias": "chinese", "title": "Chinese"}, {"alias": "cuban", "title": "Cuban"}], "id": "mi-estrella-elmhurst", "display_phone": "(718) 429-8973", "is_closed": false, "location": {"address2": "", "country": "US", "display_address": ["88-19 Roosevelt Ave", "Elmhurst, NY 11372"], "address1": "88-19 Roosevelt Ave", "city": "Elmhurst", "zip_code": "11372", "address3": "", "state": "NY"}, "coordinates": {"longitude": -73.8776654005051, "latitude": 40.7483366131783}, "review_count": 40, "image_url": "https://s3-media2.fl.yelpcdn.com/bphoto/ZXo2Q6B8Y-OSeH423awLNg/o.jpg", "price": "$$", "rating": 3.5, "name": "Mi Estrella", "url": "https://www.yelp.com/biz/mi-estrella-elmhurst?adjust_creative=gBcvfFpabk3CnzmXKdYe3w&utm_campaign=yelp_api_v3&utm_medium=api_v3_business_search&utm_source=gBcvfFpabk3CnzmXKdYe3w"}, {"transactions": [], "distance": 5927.415837164, "phone": "+17186131123", "categories": [{"alias": "chinese", "title": "Chinese"}], "id": "lucky-chan-brooklyn", "display_phone": "(718) 613-1123", "is_closed": false, "location": {"address2": "", "country": "US", "display_address": ["227 Albany Ave", "Brooklyn, NY 11213"], "address1": "227 Albany Ave", "city": "Brooklyn", "zip_code": "11213", "address3": "", "state": "NY"}, "coordinates": {"longitude": -73.938835, "latitude": 40.672684}, "review_count": 3, "image_url": "https://s3-media2.fl.yelpcdn.com/bphoto/y2vOEUXGC8RomVopmOzohQ/o.jpg", "price": "$", "rating": 4.0, "name": "Lucky Chan", "url": "https://www.yelp.com/biz/lucky-chan-brooklyn?adjust_creative=gBcvfFpabk3CnzmXKdYe3w&utm_campaign=yelp_api_v3&utm_medium=api_v3_business_search&utm_source=gBcvfFpabk3CnzmXKdYe3w"}, {"transactions": ["delivery", "pickup"], "distance": 12114.391501283999, "phone": "+17182758000", "categories": [{"alias": "shanghainese", "title": "Shanghainese"}], "id": "the-bund-forest-hills", "display_phone": "(718) 275-8000", "is_closed": false, "location": {"address2": "", "country": "US", "display_address": ["100-30 Queens Blvd", "Forest Hills, NY 11375"], "address1": "100-30 Queens Blvd", "city": "Forest Hills", "zip_code": "11375", "address3": null, "state": "NY"}, "coordinates": {"longitude": -73.8532474276788, "latitude": 40.7264404960967}, "review_count": 91, "image_url": "https://s3-media2.fl.yelpcdn.com/bphoto/Dvnv8wEoSPhJq4dt6JiX-Q/o.jpg", "price": "$$", "rating": 3.5, "name": "The Bund", "url": "https://www.yelp.com/biz/the-bund-forest-hills?adjust_creative=gBcvfFpabk3CnzmXKdYe3w&utm_campaign=yelp_api_v3&utm_medium=api_v3_business_search&utm_source=gBcvfFpabk3CnzmXKdYe3w"}, {"transactions": [], "distance": 7457.5238446799995, "phone": "+17188568056", "categories": [{"alias": "chinese", "title": "Chinese"}], "id": "new-china-kitchen-brooklyn", "display_phone": "(718) 856-8056", "is_closed": false, "location": {"address2": "", "country": "US", "display_address": ["2107 Cortelyou Rd", "Brooklyn, NY 11226"], "address1": "2107 Cortelyou Rd", "city": "Brooklyn", "zip_code": "11226", "address3": "", "state": "NY"}, "coordinates": {"longitude": -73.9584503, "latitude": 40.6440506}, "review_count": 2, "image_url": "", "rating": 4.5, "name": "New China Kitchen", "url": "https://www.yelp.com/biz/new-china-kitchen-brooklyn?adjust_creative=gBcvfFpabk3CnzmXKdYe3w&utm_campaign=yelp_api_v3&utm_medium=api_v3_business_search&utm_source=gBcvfFpabk3CnzmXKdYe3w"}]}