{"region": {"center": {"longitude": -73.99429321289062, "latitude": 40.70544486444615}}, "total": 2613, "businesses": [{"transactions": [], "distance": 4553.571524968, "phone": "", "categories": [{"alias": "chinese", "title": "Chinese"}], "id": "dragon-house-brooklyn", "display_phone": "", "is_closed": false, "location": {"address2": "", "country": "US", "display_address": ["803A Washington Ave", "Brooklyn, NY 11238"], "address1": "803A Washington Ave", "city": "Brooklyn", "zip_code": "11238", "address3": "", "state": "NY"}, "coordinates": {"longitude": -73.9626297354698, "latitude": 40.6722812354565}, "review_count": 2, "image_url": "https://s3-media1.fl.yelpcdn.com/bphoto/AYUAZuSvtDOEIeXCAW2GfA/o.jpg", "rating": 4.0, "name": "Dragon House", "url": "https://www.yelp.com/biz/dragon-house-brooklyn?adjust_creative=gBcvfFpabk3CnzmXKdYe3w&utm_campaign=yelp_api_v3&utm_medium=api_v3_business_search&utm_source=gBcvfFpabk3CnzmXKdYe3w"}, {"transactions": [], "distance": 7778.11081004, "phone": "+17184395278", "categories": [{"alias": "chinese", "title": "Chinese"}], "id": "wei-mei-xian-brooklyn", "display_phone": "(718) 439-5278", "is_closed": false, "location": {"address2": null, "country": "US", "display_address": ["705 60th St", "Brooklyn, NY 11220"], "address1": "705 60th St", "city": "Brooklyn", "zip_code": "11220", "address3": null, "state": "NY"}, "coordinates": {"longitude": -74.0114613622427, "latitude": 40.6366796046495}, "review_count": 4, "image_url": "https://s3-media1.fl.yelpcdn.com/bphoto/6QacYuuynn-3VI6pTJC6Ag/o.jpg", "rating": 4.5, "name": "Wei Mei Xian", "url": "https://www.yelp.com/biz/wei-mei-xian-brooklyn?adjust_creative=gBcvfFpabk3CnzmXKdYe3w&utm_campaign=yelp_api_v3&utm_medium=api_v3_business_search&utm_source=gBcvfFpabk3CnzmXKdYe3w"}, {"transactions": [], "distance": 4502.864118379999, "phone": "+17187882613", "categories": [{"alias": "chinese", "title": "Chinese"}], "id": "taste-of-oriental-brooklyn", "display_phone": "(718) 788-2613", "is_closed": false, "location": {"address2": "", "country": "US", "display_address": ["614 4th Ave", "Brooklyn, NY 11215"], "address1": "614 4th Ave", "city": "Brooklyn", "zip_code": "11215", "address3": "", "state": "NY"}, "coordinates": {"longitude": -73.9937515258789, "latitude": 40.6649551391602}, "review_count": 14, "image_url": "https://s3-media1.fl.yelpcdn.com/bphoto/chvbpkqJm_hibmvTBstD5w/o.jpg", "price": "$", "rating": 3.0, "name": "Taste of Oriental", "url": "https://www.yelp.com/biz/taste-of-oriental-brooklyn?adjust_creative=gBcvfFpabk3CnzmXKdYe3w&utm_campaign=yelp_api_v3&utm_medium=api_v3_business_search&utm_source=gBcvfFpabk3CnzmXKdYe3w"}, {"transactions": [], "distance": 10664.158900384, "phone": "+17186491711", "categories": [{"alias": "chinese", "title": "Chinese"}], "id": "chens-garden-brooklyn", "display_phone": "(718) 649-1711", "is_closed": false, "location": {"address2": null, "country": "US", "display_address": ["11046 Flatlands Ave", "Brooklyn, NY 11207"], "address1": "11046 Flatlands Ave", "city": "Brooklyn", "zip_code": "11207", "address3": null, "state": "NY"}, "coordinates": {"longitude": -73.8910026848316, "latitude": 40.6501074135303}, "review_count": 6, "image_url": "https://s3-media4.fl.yelpcdn.com/bphoto/69asOfyMTc_pBiQHK5FD4Q/o.jpg", "price": "$", "rating": 4.5, "name": "Chen's Garden", "url": "https://www.yelp.com/biz/chens-garden-brooklyn?adjust_creative=gBcvfFpabk3CnzmXKdYe3w&utm_campaign=yelp_api_v3&utm_medium=api_v3_business_search&utm_source=gBcvfFpabk3CnzmXKdYe3w"}, {"transactions": ["delivery", "pickup"], "distance": 4926.524804588, "phone": "+17189652874", "categories": [{"alias": "chinese", "title": "Chinese"}], "id": "joy-kitchen-brooklyn", "display_phone": "(718) 965-2874", "is_closed": false, "location": {"address2": "", "country": "US", "display_address": ["497 7th Ave", "Brooklyn, NY 11215"], "address1": "497 7th Ave", "city": "Brooklyn", "zip_code": "11215", "address3": "", "state": "NY"}, "coordinates": {"longitude": -73.98589, "latitude": 40.66152}, "review_count": 28, "image_url": "https://s3-media1.fl.yelpcdn.com/bphoto/hvLjOesGGo0hLQ581ZJEzg/o.jpg", "price": "$", "rating": 3.5, "name": "Joy Kitchen", "url": "https://www.yelp.com/biz/joy-kitchen-brooklyn?adjust_creative=gBcvfFpabk3CnzmXKdYe3w&utm_campaign=yelp_api_v3&utm_medium=api_v3_business_search&utm_source=gBcvfFpabk3CnzmXKdYe3w"}, {"transactions": [], "distance": 4868.276996363999, "phone": "+12128200333", "categories": [{"alias": "asianfusion", "title": "Asian Fusion"}, {"alias": "chinese", "title": "Chinese"}, {"alias": "thai", "title": "Thai"}], "id": "chop-shop-new-york", "display_phone": "(212) 820-0333", "is_closed": false, "location": {"address2": null, "country": "US", "display_address": ["254 10th Ave", "New York, NY 10001"], "address1": "254 10th Ave", "city": "New York", "zip_code": "10001", "address3": "", "state": "NY"}, "coordinates": {"longitude": -74.0031128, "latitude": 40.7486687}, "review_count": 188, "image_url": "https://s3-media3.fl.yelpcdn.com/bphoto/muJ45xkxzik7ykAplSdMVQ/o.jpg", "price": "$$", "rating": 3.5, "name": "Chop Shop", "url": "https://www.yelp.com/biz/chop-shop-new-york?adjust_creative=gBcvfFpabk3CnzmXKdYe3w&utm_campaign=yelp_api_v3&utm_medium=api_v3_business_search&utm_source=gBcvfFpabk3CnzmXKdYe3w"}, {"transactions": ["delivery", "pickup"], "distance": 8941.95813926, "phone": "+12128769332", "categories": [{"alias": "chinese", "title": "Chinese"}], "id": "new-sunny-east-88-new-york", "display_phone": "(212) 876-9332", "is_closed": false, "location": {"address2": "", "country": "US", "display_address": ["1680 1st Ave", "New York, NY 10128"], "address1": "1680 1st Ave", "city": "New York", "zip_code": "10128", "address3": "", "state": "NY"}, "coordinates": {"longitude": -73.9482650756836, "latitude": 40.7779006958008}, "review_count": 46, "image_url": "https://s3-media4.fl.yelpcdn.com/bphoto/8u4mMRdDpthbeJFyDYOJ9Q/o.jpg", "price": "$", "rating": 3.5, "name": "New Sunny East 88", "url": "https://www.yelp.com/biz/new-sunny-east-88-new-york?adjust_creative=gBcvfFpabk3CnzmXKdYe3w&utm_campaign=yelp_api_v3&utm_medium=api_v3_business_search&utm_source=gBcvfFpabk3CnzmXKdYe3w"}, {"transactions": [], "distance": 4968.590699112, "phone": "+17184431111", "categories": [{"alias": "chinese", "title": "Chinese"}], "id": "chinacity-restaurant-brooklyn", "display_phone": "(718) 443-1111", "is_closed": false, "location": {"address2": "", "country": "US", "display_address": ["914 Broadway", "Brooklyn, NY 11206"], "address1": "914 Broadway", "city": "Brooklyn", "zip_code": "11206", "address3": "", "state": "NY"}, "coordinates": {"longitude": -73.936363, "latitude": 40.697288}, "review_count": 6, "image_url": "https://s3-media2.fl.yelpcdn.com/bphoto/6-BuN-LZ8hpozomaI2FP8Q/o.jpg", "rating": 3.5, "name": "Chinacity Restaurant", "url": "https://www.yelp.com/biz/chinacity-restaurant-brooklyn?adjust_creative=gBcvfFpabk3CnzmXKdYe3w&utm_campaign=yelp_api_v3&utm_medium=api_v3_business_search&utm_source=gBcvfFpabk3CnzmXKdYe3w"}, {"transactions": ["delivery", "pickup"], "distance": 5812.989831956, "phone": "+12122230888", "categories": [{"alias": "shanghainese", "title": "Shanghainese"}, {"alias": "cantonese", "title": "Cantonese"}], "id": "jef-chinese-new-york", "display_phone": "(212) 223-0888", "is_closed": false, "location": {"address2": "", "country": "US", "display_address": ["919 2nd Ave", "New York, NY 10017"], "address1": "919 2nd Ave", "city": "New York", "zip_code": "10017", "address3": "", "state": "NY"}, "coordinates": {"longitude": -73.9694108, "latitude": 40.7542031}, "review_count": 7, "image_url": "https://s3-media4.fl.yelpcdn.com/bphoto/_3ZEKD7dqCiTq8_HykNEXA/o.jpg", "price": "$$", "rating": 3.5, "name": "Jef Chinese", "url": "https://www.yelp.com/biz/jef-chinese-new-york?adjust_creative=gBcvfFpabk3CnzmXKdYe3w&utm_campaign=yelp_api_v3&utm_medium=api_v3_business_search&utm_source=gBcvfFpabk3CnzmXKdYe3w"}, {"transactions": ["delivery", "pickup"], "distance": 11923.88813186, "phone": "+17186451993", "categories": [{"alias": "chinese", "title": "Chinese"}], "id": "grand-wok-brooklyn", "display_phone": "(718) 645-1993", "is_closed": false, "location": {"address2": "", "country": "US", "display_address": ["3510 Ave S", "Brooklyn, NY 11234"], "address1": "3510 Ave S", "city": "Brooklyn", "zip_code": "11234", "address3": "", "state": "NY"}, "coordinates": {"longitude": -73.931625, "latitude": 40.609279}, "review_count": 12, "image_url": "https://s3-media2.fl.yelpcdn.com/bphoto/CgnDee3p_lm_vRyELdRBww/o.jpg", "price": "$", "rating": 4.0, "name": "Grand Wok", "url": "https://www.yelp.com/biz/grand-wok-brooklyn?adjust_creative=gBcvfFpabk3CnzmXKdYe3w&utm_campaign=yelp_api_v3&utm_medium=api_v3_business_search&utm_source=gBcvfFpabk3CnzmXKdYe3w"}, {"transactions": ["delivery", "pickup"], "distance": 1476.0510172124, "phone": "+12129252319", "categories": [{"alias": "chinese", "title": "Chinese"}, {"alias": "noodles", "title": "Noodles"}], "id": "new-asian-cuisine-new-york", "display_phone": "(212) 925-2319", "is_closed": false, "location": {"address2": "", "country": "US", "display_address": ["153D Centre St", "New York, NY 10013"], "address1": "153D Centre St", "city": "New York", "zip_code": "10013", "address3": "", "state": "NY"}, "coordinates": {"longitude": -74.00021, "latitude": 40.71792}, "review_count": 10, "image_url": "https://s3-media3.fl.yelpcdn.com/bphoto/hyDImlvcAdIBMBZP54RJKw/o.jpg", "price": "$", "rating": 4.0, "name": "New Asian Cuisine", "url": "https://www.yelp.com/biz/new-asian-cuisine-new-york?adjust_creative=gBcvfFpabk3CnzmXKdYe3w&utm_campaign=yelp_api_v3&utm_medium=api_v3_business_search&utm_source=gBcvfFpabk3CnzmXKdYe3w"}, {"transactions": [], "distance": 742.759333936, "phone": "+12122335142", "categories": [{"alias": "coffee", "title": "Coffee & Tea"}, {"alias": "chinese", "title": "Chinese"}], "id": "lee-chung-cafe-new-york", "display_phone": "(212) 233-5142", "is_closed": false, "location": {"address2": "", "country": "US", "display_address": ["82 Madison St", "New York, NY 10002"], "address1": "82 Madison St", "city": "New York", "zip_code": "10002", "address3": "", "state": "NY"}, "coordinates": {"longitude": -73.996322, "latitude": 40.711925}, "review_count": 15, "image_url": "https://s3-media2.fl.yelpcdn.com/bphoto/2xS0ZHrY4hUdS_0yWTL0WQ/o.jpg", "price": "$", "rating": 3.5, "name": "Lee Chung Cafe", "url": "https://www.yelp.com/biz/lee-chung-cafe-new-york?adjust_creative=gBcvfFpabk3CnzmXKdYe3w&utm_campaign=yelp_api_v3&utm_medium=api_v3_business_search&utm_source=gBcvfFpabk3CnzmXKdYe3w"}, {"transactions": [], "distance": 10160.74833608, "phone": "", "categories": [{"alias": "chinese", "title": "Chinese"}], "id": "golden-village-chinese-kitchen-brooklyn", "display_phone": "", "is_closed": false, "location": {"address2": "", "country": "US", "display_address": ["5912 Glenwood Rd", "Brooklyn, NY 11234"], "address1": "5912 Glenwood Rd", "city": "Brooklyn", "zip_code": "11234", "address3": "", "state": "NY"}, "coordinates": {"longitude": -73.9193497, "latitude": 40.6340103}, "review_count": 7, "image_url": "https://s3-media3.fl.yelpcdn.com/bphoto/dd2FsiaKqAJXHVgcsRjSnA/o.jpg", "rating": 4.0, "name": "Golden Village Chinese Kitchen", "url": "https://www.yelp.com/biz/golden-village-chinese-kitchen-brooklyn?adjust_creative=gBcvfFpabk3CnzmXKdYe3w&utm_campaign=yelp_api_v3&utm_medium=api_v3_business_search&utm_source=gBcvfFpabk3CnzmXKdYe3w"}, {"transactions": [], "distance": 4123.804519998, "phone": "+17186360632", "categories": [{"alias": "chinese", "title": "Chinese"}], "id": "hood-hing-restaurant-brooklyn", "display_phone": "(718) 636-0632", "is_closed": false, "location": {"address2": "", "country": "US", "display_address": ["198 Underhill Ave", "Brooklyn, NY 11238"], "address1": "198 Underhill Ave", "city": "Brooklyn", "zip_code": "11238", "address3": "", "state": "NY"}, "coordinates": {"longitude": -73.9670563, "latitude": 40.6747017}, "review_count": 14, "image_url": "https://s3-media3.fl.yelpcdn.com/bphoto/nO6Z_Nl2fuKbkkzA-uvWEA/o.jpg", "price": "$", "rating": 3.5, "name": "Hood Hing Restaurant", "url": "https://www.yelp.com/biz/hood-hing-restaurant-brooklyn?adjust_creative=gBcvfFpabk3CnzmXKdYe3w&utm_campaign=yelp_api_v3&utm_medium=api_v3_business_search&utm_source=gBcvfFpabk3CnzmXKdYe3w"}, {"transactions": [], "distance": 6756.140481209999, "phone": "+17188568656", "categories": [{"alias": "chinese", "title": "Chinese"}], "id": "new-chin-chin-wu-restaurant-brooklyn", "display_phone": "(718) 856-8656", "is_closed": false, "location": {"address2": "", "country": "US", "display_address": ["1615 Church Ave", "Brooklyn, NY 11226"], "address1": "1615 Church Ave", "city": "Brooklyn", "zip_code": "11226", "address3": "", "state": "NY"}, "coordinates": {"longitude": -73.9644623, "latitude": 40.6490402}, "review_count": 3, "image_url": "https://s3-media3.fl.yelpcdn.com/bphoto/yoPcxwnK7DwY1Lig3SDs2A/o.jpg", "rating": 4.0, "name": "New Chin Chin Wu Restaurant", "url": "https://www.yelp.com/biz/new-chin-chin-wu-restaurant-brooklyn?adjust_creative=gBcvfFpabk3CnzmXKdYe3w&utm_campaign=yelp_api_v3&utm_medium=api_v3_business_search&utm_source=gBcvfFpabk3CnzmXKdYe3w"}, {"transactions": ["delivery", "pickup"], "distance": 6517.049205977999, "phone": "+17182840088", "categories": [{"alias": "chinese", "title": "Chinese"}, {"alias": "thai", "title": "Thai"}], "id": "green-lake-restaurant-brooklyn", "display_phone": "(718) 284-0088", "is_closed": false, "location": {"address2": "", "country": "US", "display_address": ["795 Flatbush Ave", "Brooklyn, NY 11226"], "address1": "795 Flatbush Ave", "city": "Brooklyn", "zip_code": "11226", "address3": "", "state": "NY"}, "coordinates": {"longitude": -73.9590606689453, "latitude": 40.6532363891602}, "review_count": 38, "image_url": "https://s3-media1.fl.yelpcdn.com/bphoto/CD62dbH83TSWDcYUv0iOnQ/o.jpg", "price": "$", "rating": 3.0, "name": "Green Lake Restaurant", "url": "https://www.yelp.com/biz/green-lake-restaurant-brooklyn?adjust_creative=gBcvfFpabk3CnzmXKdYe3w&utm_campaign=yelp_api_v3&utm_medium=api_v3_business_search&utm_source=gBcvfFpabk3CnzmXKdYe3w"}, {"transactions": [], "distance": 6847.061914784, "phone": "+17183910588", "categories": [{"alias": "chinese", "title": "Chinese"}], "id": "empire-express-long-island-city", "display_phone": "(718) 391-0588", "is_closed": false, "location": {"address2": "", "country": "US", "display_address": ["3308 Queens Blvd", "Long Island City, NY 11101"], "address1": "3308 Queens Blvd", "city": "Long Island City", "zip_code": "11101", "address3": "", "state": "NY"}, "coordinates": {"longitude": -73.9313001176036, "latitude": 40.7443362968621}, "review_count": 13, "image_url": "https://s3-media1.fl.yelpcdn.com/bphoto/IOgwvh2nToO3t_R3MO7UhQ/o.jpg", "price": "$", "rating": 3.5, "name": "Empire Express", "url": "https://www.yelp.com/biz/empire-express-long-island-city?adjust_creative=gBcvfFpabk3CnzmXKdYe3w&utm_campaign=yelp_api_v3&utm_medium=api_v3_business_search&utm_source=gBcvfFpabk3CnzmXKdYe3w"}, {"transactions": ["delivery", "pickup"], "distance": 10113.419256019999, "phone": "+17184848881", "categories": [{"alias": "kosher", "title": "Kosher"}, {"alias": "chinese", "title": "Chinese"}], "id": "brooklyn-delight-brooklyn", "display_phone": "(718) 484-8881", "is_closed": false, "location": {"address2": null, "country": "US", "display_address": ["1636 Coney Island Ave", "Brooklyn, NY 11230"], "address1": "1636 Coney Island Ave", "city": "Brooklyn", "zip_code": "11230", "address3": "", "state": "NY"}, "coordinates": {"longitude": -73.9641342163086, "latitude": 40.6174278259277}, "review_count": 22, "image_url": "https://s3-media2.fl.yelpcdn.com/bphoto/Di9gp-maSpCAPQQyIabcyQ/o.jpg", "price": "$$", "rating": 4.0, "name": "Brooklyn Delight", "url": "https://www.yelp.com/biz/brooklyn-delight-brooklyn?adjust_creative=gBcvfFpabk3CnzmXKdYe3w&utm_campaign=yelp_api_v3&utm_medium=api_v3_business_search&utm_source=gBcvfFpabk3CnzmXKdYe3w"}, {"transactions": [], "distance": 3341.96510004, "phone": "+12125298818", "categories": [{"alias": "chinese", "title": "Chinese"}], "id": "j-east-new-york", "display_phone": "(212) 529-8818", "is_closed": false, "location": {"address2": "", "country": "US", "display_address": ["175 3rd Ave", "New York, NY 10003"], "address1": "175 3rd Ave", "city": "New York", "zip_code": "10003", "address3": "", "state": "NY"}, "coordinates": {"longitude": -73.9857635498047, "latitude": 40.7347984313965}, "review_count": 53, "image_url": "https://s3-media1.fl.yelpcdn.com/bphoto/xGoGX3aET1fsMqb1g_AeNg/o.jpg", "price": "$", "rating": 3.0, "name": "J East", "url": "https://www.yelp.com/biz/j-east-new-york?adjust_creative=gBcvfFpabk3CnzmXKdYe3w&utm_campaign=yelp_api_v3&utm_medium=api_v3_business_search&utm_source=gBcvfFpabk3CnzmXKdYe3w"}, {"transactions": ["delivery", "pickup"], "distance": 7891.752744799999, "phone": "+17187291188", "categories": [{"alias": "chinese", "title": "Chinese"}], "id": "east-garden-astoria-2", "display_phone": "(718) 729-1188", "is_closed": false, "location": {"address2": "", "country": "US", "display_address": ["32-10 36th Ave", "Astoria, NY 11106"], "address1": "32-10 36th Ave", "city": "Astoria", "zip_code": "11106", "address3": "", "state": "NY"}, "coordinates": {"longitude": -73.9285962, "latitude": 40.7560263}, "review_count": 29, "image_url": "https://s3-media3.fl.yelpcdn.com/bphoto/m_TihKYI_DyOg976TkADtA/o.jpg", "price": "$", "rating": 3.5, "name": "East Garden", "url": "https://www.yelp.com/biz/east-garden-astoria-2?adjust_creative=gBcvfFpabk3CnzmXKdYe3w&utm_campaign=yelp_api_v3&utm_medium=api_v3_business_search&utm_source=gBcvfFpabk3CnzmXKdYe3w"}, {"transactions": [], "distance": 10917.23067313, "phone": "+17184463333", "categories": [{"alias": "chinese", "title": "Chinese"}], "id": "no-1-hunan-chinese-restaurant-elmhurst", "display_phone": "(718) 446-3333", "is_closed": false, "location": {"address2": "", "country": "US", "display_address": ["9028 43rd Ave", "Elmhurst, NY 11373"], "address1": "9028 43rd Ave", "city": "Elmhurst", "zip_code": "11373", "address3": "", "state": "NY"}, "coordinates": {"longitude": -73.874626, "latitude": 40.743103}, "review_count": 5, "image_url": "https://s3-media1.fl.yelpcdn.com/bphoto/2c0SJMswnVMFPbOKUzs_FQ/o.jpg", "rating": 4.5, "name": "No 1 Hunan Chinese Restaurant", "url": "https://www.yelp.com/biz/no-1-hunan-chinese-restaurant-elmhurst?adjust_creative=gBcvfFpabk3CnzmXKdYe3w&utm_campaign=yelp_api_v3&utm_medium=api_v3_business_search&utm_source=gBcvfFpabk3CnzmXKdYe3w"}, {"transactions": [], "distance": 13218.038892859999, "phone": "+17188150161", "categories": [{"alias": "chinese", "title": "Chinese"}], "id": "green-garden-staten-island", "display_phone": "(718) 815-0161", "is_closed": false, "location": {"address2": "", "country": "US", "display_address": ["752 Forest Ave", "Staten Island, NY 10310"], "address1": "752 Forest Ave", "city": "Staten Island", "zip_code": "10310", "address3": "", "state": "NY"}, "coordinates": {"longitude": -74.11416, "latitude": 40.62896}, "review_count": 19, "image_url": "https://s3-media2.fl.yelpcdn.com/bphoto/KEWY4QjCyx497dRWKHvlsw/o.jpg", "price": "$$", "rating": 3.5, "name": "Green Garden", "url": "https://www.yelp.com/biz/green-garden-staten-island?adjust_creative=gBcvfFpabk3CnzmXKdYe3w&utm_campaign=yelp_api_v3&utm_medium=api_v3_business_search&utm_source=gBcvfFpabk3CnzmXKdYe3w"}, {"transactions": [], "distance": 5683.924626372, "phone": "+17186936163", "categories": [{"alias": "chinese", "title": "Chinese"}], "id": "new-peking-restaurant-brooklyn-2", "display_phone": "(718) 693-6163", "is_closed": false, "location": {"address2": "", "country": "US", "display_address": ["1137 Washington Ave", "Brooklyn, NY 11225"], "address1": "1137 Washington Ave", "city": "Brooklyn", "zip_code": "11225", "address3": "", "state": "NY"}, "coordinates": {"longitude": -73.96057, "latitude": 40.66123}, "review_count": 15, "image_url": "https://s3-media3.fl.yelpcdn.com/bphoto/yX-PkbvfyAy7kiZGMI_Ctw/o.jpg", "price": "$", "rating": 3.0, "name": "New Peking Restaurant", "url": "https://www.yelp.com/biz/new-peking-restaurant-brooklyn-2?adjust_creative=gBcvfFpabk3CnzmXKdYe3w&utm_campaign=yelp_api_v3&utm_medium=api_v3_business_search&utm_source=gBcvfFpabk3CnzmXKdYe3w"}, {"transactions": ["delivery", "pickup"], "distance": 13704.415236999997, "phone": "+17182682288", "categories": [{"alias": "chinese", "title": "Chinese"}], "id": "king-garden-queens", "display_phone": "(718) 268-2288", "is_closed": false, "location": {"address2": "", "country": "US", "display_address": ["116-49 Queens Blvd", "Queens, NY 11375"], "address1": "116-49 Queens Blvd", "city": "Queens", "zip_code": "11375", "address3": "", "state": "NY"}, "coordinates": {"longitude": -73.8322485610843, "latitude": 40.7155121068477}, "review_count": 32, "image_url": "https://s3-media1.fl.yelpcdn.com/bphoto/Fz-OMRK67N8TYuQosEme_w/o.jpg", "price": "$", "rating": 3.5, "name": "King Garden", "url": "https://www.yelp.com/biz/king-garden-queens?adjust_creative=gBcvfFpabk3CnzmXKdYe3w&utm_campaign=yelp_api_v3&utm_medium=api_v3_business_search&utm_source=gBcvfFpabk3CnzmXKdYe3w"}, {"transactions": ["delivery", "pickup"], "distance": 10014.850077832, "phone": "+12124276540", "categories": [{"alias": "chinese", "title": "Chinese"}], "id": "moonhouse-new-york", "display_phone": "(212) 427-6540", "is_closed": false, "location": {"address2": "", "country": "US", "display_address": ["1810 3rd Ave", "New York, NY 10029"], "address1": "1810 3rd Ave", "city": "New York", "zip_code": "10029", "address3": "", "state": "NY"}, "coordinates": {"longitude": -73.947502, "latitude": 40.788337}, "review_count": 70, "image_url": "https://s3-media1.fl.yelpcdn.com/bphoto/HeHuJDGo0RPV91EOvtw6rA/o.jpg", "price": "$", "rating": 3.5, "name": "MoonHouse", "url": "https://www.yelp.com/biz/moonhouse-new-york?adjust_creative=gBcvfFpabk3CnzmXKdYe3w&utm_campaign=yelp_api_v3&utm_medium=api_v3_business_search&utm_source=gBcvfFpabk3CnzmXKdYe3w"}, {"transactions": ["delivery", "pickup"], "distance": 9242.590093289999, "phone": "+17185450101", "categories": [{"alias": "chinese", "title": "Chinese"}], "id": "golden-house-astoria-5", "display_phone": "(718) 545-0101", "is_closed": false, "location": {"address2": "", "country": "US", "display_address": ["3512 30th Ave", "Astoria, NY 11103"], "address1": "3512 30th Ave", "city": "Astoria", "zip_code": "11103", "address3": "", "state": "NY"}, "coordinates": {"longitude": -73.91789, "latitude": 40.76497}, "review_count": 78, "image_url": "https://s3-media4.fl.yelpcdn.com/bphoto/N_rLZAGOS4qpX48vd93p_Q/o.jpg", "price": "$", "rating": 3.0, "name": "Golden House", "url": "https://www.yelp.com/biz/golden-house-astoria-5?adjust_creative=gBcvfFpabk3CnzmXKdYe3w&utm_campaign=yelp_api_v3&utm_medium=api_v3_business_search&utm_source=gBcvfFpabk3CnzmXKdYe3w"}, {"transactions": [], "distance": 9374.17053636, "phone": "+17185457000", "categories": [{"alias": "chinese", "title": "Chinese"}], "id": "king-wah-astoria", "display_phone": "(718) 545-7000", "is_closed": false, "location": {"address2": "", "country": "US", "display_address": ["21-04 Newtown Ave", "Astoria, NY 11102"], "address1": "21-04 Newtown Ave", "city": "Astoria", "zip_code": "11102", "address3": "", "state": "NY"}, "coordinates": {"longitude": -73.925854, "latitude": 40.7719173}, "review_count": 34, "image_url": "https://s3-media2.fl.yelpcdn.com/bphoto/0TpQyqXTk2pHphnyBYbmIQ/o.jpg", "price": "$", "rating": 3.5, "name": "King Wah", "url": "https://www.yelp.com/biz/king-wah-astoria?adjust_creative=gBcvfFpabk3CnzmXKdYe3w&utm_campaign=yelp_api_v3&utm_medium=api_v3_business_search&utm_source=gBcvfFpabk3CnzmXKdYe3w"}, {"transactions": [], "distance": 17042.709432499996, "phone": "+12127813862", "categories": [{"alias": "cantonese", "title": "Cantonese"}, {"alias": "szechuan", "title": "Szechuan"}], "id": "king-garden-restaurant-new-york", "display_phone": "(212) 781-3862", "is_closed": false, "location": {"address2": "", "country": "US", "display_address": ["4316 Broadway", "New York, NY 10033"], "address1": "4316 Broadway", "city": "New York", "zip_code": "10033", "address3": "", "state": "NY"}, "coordinates": {"longitude": -73.934516, "latitude": 40.851825}, "review_count": 9, "image_url": "https://s3-media1.fl.yelpcdn.com/bphoto/MXc81SWIMrnyD-md7ZUD5A/o.jpg", "price": "$", "rating": 4.5, "name": "King Garden Restaurant", "url": "https://www.yelp.com/biz/king-garden-restaurant-new-york?adjust_creative=gBcvfFpabk3CnzmXKdYe3w&utm_campaign=yelp_api_v3&utm_medium=api_v3_business_search&utm_source=gBcvfFpabk3CnzmXKdYe3w"}, {"transactions": [], "distance": 13819.494312379999, "phone": "+12122830200", "categories": [{"alias": "chinese", "title": "Chinese"}], "id": "new-golden-dragon-restaurant-new-york", "display_phone": "(212) 283-0200", "is_closed": false, "location": {"address2": "", "country": "US", "display_address": ["398 W 145th St", "New York, NY 10031"], "address1": "398 W 145th St", "city": "New York", "zip_code": "10031", "address3": "", "state": "NY"}, "coordinates": {"longitude": -73.9455163, "latitude": 40.8242006}, "review_count": 20, "image_url": "https://s3-media2.fl.yelpcdn.com/bphoto/zDfYUp5W9ufmEPLUd5_YVQ/o.jpg", "price": "$", "rating": 3.5, "name": "New Golden Dragon Restaurant", "url": "https://www.yelp.com/biz/new-golden-dragon-restaurant-new-york?adjust_creative=gBcvfFpabk3CnzmXKdYe3w&utm_campaign=yelp_api_v3&utm_medium=api_v3_business_search&utm_source=gBcvfFpabk3CnzmXKdYe3w"}, {"transactions": [], "distance": 1619.803445878, "phone": "+17184889288", "categories": [{"alias": "chinese", "title": "Chinese"}], "id": "chang-heng-brooklyn", "display_phone": "(718) 488-9288", "is_closed": false, "location": {"address2": "", "country": "US", "display_address": ["54 Willoughby St", "Brooklyn, NY 11201"], "address1": "54 Willoughby St", "city": "Brooklyn", "zip_code": "11201", "address3": "", "state": "NY"}, "coordinates": {"longitude": -73.986701, "latitude": 40.692008}, "review_count": 10, "image_url": "https://s3-media2.fl.yelpcdn.com/bphoto/Vh4NcBzBttYBq52pBO06Kw/o.jpg", "price": "$", "rating": 3.5, "name": "Chang Heng", "url": "https://www.yelp.com/biz/chang-heng-brooklyn?adjust_creative=gBcvfFpabk3CnzmXKdYe3w&utm_campaign=yelp_api_v3&utm_medium=api_v3_business_search&utm_source=gBcvfFpabk3CnzmXKdYe3w"}, {"transactions": [], "distance": 10236.090231916, "phone": "+16466847208", "categories": [{"alias": "chinese", "title": "Chinese"}, {"alias": "noodles", "title": "Noodles"}, {"alias": "himalayan", "title": "Himalayan/Nepalese"}], "id": "lhasa-liang-fen-elmhurst-3", "display_phone": "(646) 684-7208", "is_closed": false, "location": {"address2": "", "country": "US", "display_address": ["81-15 Broadway", "Elmhurst, NY 11373"], "address1": "81-15 Broadway", "city": "Elmhurst", "zip_code": "11373", "address3": null, "state": "NY"}, "coordinates": {"longitude": -73.8834593072534, "latitude": 40.7431142836661}, "review_count": 13, "image_url": "https://s3-media3.fl.yelpcdn.com/bphoto/TLkQwJpBV2g8ggMS6HdxTQ/o.jpg", "rating": 4.0, "name": "Lhasa Liang Fen", "url": "https://www.yelp.com/biz/lhasa-liang-fen-elmhurst-3?adjust_creative=gBcvfFpabk3CnzmXKdYe3w&utm_campaign=yelp_api_v3&utm_medium=api_v3_business_search&utm_source=gBcvfFpabk3CnzmXKdYe3w"}, {"transactions": [], "distance": 15049.22963054, "phone": "+13474758181", "categories": [{"alias": "chinese", "title": "Chinese"}, {"alias": "foodstands", "title": "Food Stands"}], "id": "fu-yuan-\u5bcc\u6e90\u8178\u7c89\u5e97-flushing", "display_phone": "(347) 475-8181", "is_closed": false, "location": {"address2": "", "country": "US", "display_address": ["135-43 Roosevelt", "Flushing, NY 11354"], "address1": "135-43 Roosevelt", "city": "Flushing", "zip_code": "11354", "address3": "", "state": "NY"}, "coordinates": {"longitude": -73.8311831, "latitude": 40.7593451}, "review_count": 52, "image_url": "https://s3-media2.fl.yelpcdn.com/bphoto/2CLO72_eFQ0cTUf0C1nXVw/o.jpg", "price": "$", "rating": 4.0, "name": "Fu Yuan \u5bcc\u6e90\u8178\u7c89\u5e97", "url": "https://www.yelp.com/biz/fu-yuan-%E5%AF%8C%E6%BA%90%E8%85%B8%E7%B2%89%E5%BA%97-flushing?adjust_creative=gBcvfFpabk3CnzmXKdYe3w&utm_campaign=yelp_api_v3&utm_medium=api_v3_business_search&utm_source=gBcvfFpabk3CnzmXKdYe3w"}, {"transactions": [], "distance": 7401.93321773, "phone": "+17188531288", "categories": [{"alias": "breakfast_brunch", "title": "Breakfast & Brunch"}, {"alias": "cantonese", "title": "Cantonese"}], "id": "kings-kitchen-brooklyn-2", "display_phone": "(718) 853-1288", "is_closed": false, "location": {"address2": "", "country": "US", "display_address": ["5223 8th Ave", "Brooklyn, NY 11220"], "address1": "5223 8th Ave", "city": "Brooklyn", "zip_code": "11220", "address3": "", "state": "NY"}, "coordinates": {"longitude": -74.0051561594009, "latitude": 40.6393899292696}, "review_count": 86, "image_url": "https://s3-media4.fl.yelpcdn.com/bphoto/1sU_XxXuRZ0Bs9vr3DiGGw/o.jpg", "price": "$", "rating": 3.5, "name": "King's Kitchen", "url": "https://www.yelp.com/biz/kings-kitchen-brooklyn-2?adjust_creative=gBcvfFpabk3CnzmXKdYe3w&utm_campaign=yelp_api_v3&utm_medium=api_v3_business_search&utm_source=gBcvfFpabk3CnzmXKdYe3w"}, {"transactions": [], "distance": 15571.54575556, "phone": "+17189398286", "categories": [{"alias": "chinese", "title": "Chinese"}, {"alias": "breakfast_brunch", "title": "Breakfast & Brunch"}, {"alias": "hkcafe", "title": "Hong Kong Style Cafe"}], "id": "m-and-j-hong-kong-style-flushing", "display_phone": "(718) 939-8286", "is_closed": false, "location": {"address2": "", "country": "US", "display_address": ["60-10 Kissena Blvd", "Flushing, NY 11355"], "address1": "60-10 Kissena Blvd", "city": "Flushing", "zip_code": "11355", "address3": null, "state": "NY"}, "coordinates": {"longitude": -73.8151429, "latitude": 40.7397295}, "review_count": 33, "image_url": "https://s3-media4.fl.yelpcdn.com/bphoto/MT8yuB49vLohP-0K33VZIA/o.jpg", "price": "$$", "rating": 4.0, "name": "M&J Hong Kong Style", "url": "https://www.yelp.com/biz/m-and-j-hong-kong-style-flushing?adjust_creative=gBcvfFpabk3CnzmXKdYe3w&utm_campaign=yelp_api_v3&utm_medium=api_v3_business_search&utm_source=gBcvfFpabk3CnzmXKdYe3w"}, {"transactions": ["delivery", "pickup"], "distance": 6977.454504, "phone": "+17183618838", "categories": [{"alias": "chinese", "title": "Chinese"}], "id": "ten-full-restaurant-sunnyside-2", "display_phone": "(718) 361-8838", "is_closed": false, "location": {"address2": "", "country": "US", "display_address": ["39-49 48th Ave", "Sunnyside, NY 11104"], "address1": "39-49 48th Ave", "city": "Sunnyside", "zip_code": "11104", "address3": "", "state": "NY"}, "coordinates": {"longitude": -73.9250949025154, "latitude": 40.7400043308735}, "review_count": 58, "image_url": "https://s3-media3.fl.yelpcdn.com/bphoto/vmKxSsM8IkrCtFD1P-SR3Q/o.jpg", "price": "$", "rating": 3.0, "name": "Ten Full Restaurant", "url": "https://www.yelp.com/biz/ten-full-restaurant-sunnyside-2?adjust_creative=gBcvfFpabk3CnzmXKdYe3w&utm_campaign=yelp_api_v3&utm_medium=api_v3_business_search&utm_source=gBcvfFpabk3CnzmXKdYe3w"}, {"transactions": ["delivery"], "distance": 1609.2897403117997, "phone": "+12122674015", "categories": [{"alias": "chinese", "title": "Chinese"}], "id": "new-china-red-new-york", "display_phone": "(212) 267-4015", "is_closed": false, "location": {"address2": "", "country": "US", "display_address": ["118 Chambers St", "New York, NY 10007"], "address1": "118 Chambers St", "city": "New York", "zip_code": "10007", "address3": "", "state": "NY"}, "coordinates": {"longitude": -74.008636, "latitude": 40.715023}, "review_count": 24, "image_url": "https://s3-media4.fl.yelpcdn.com/bphoto/tMHoatTbuIbRNE2kdYuQhg/o.jpg", "price": "$", "rating": 2.5, "name": "New China Red", "url": "https://www.yelp.com/biz/new-china-red-new-york?adjust_creative=gBcvfFpabk3CnzmXKdYe3w&utm_campaign=yelp_api_v3&utm_medium=api_v3_business_search&utm_source=gBcvfFpabk3CnzmXKdYe3w"}, {"transactions": [], "distance": 3842.9186849659995, "phone": "+17187685555", "categories": [{"alias": "chinese", "title": "Chinese"}], "id": "taste-of-china-brooklyn-5", "display_phone": "(718) 768-5555", "is_closed": false, "location": {"address2": "", "country": "US", "display_address": ["430 4th Ave", "Brooklyn, NY 11215"], "address1": "430 4th Ave", "city": "Brooklyn", "zip_code": "11215", "address3": "", "state": "NY"}, "coordinates": {"longitude": -73.98838, "latitude": 40.67118}, "review_count": 16, "image_url": "https://s3-media4.fl.yelpcdn.com/bphoto/mU9evyfN_JkP7G2tf38OTw/o.jpg", "price": "$", "rating": 3.5, "name": "Taste of China", "url": "https://www.yelp.com/biz/taste-of-china-brooklyn-5?adjust_creative=gBcvfFpabk3CnzmXKdYe3w&utm_campaign=yelp_api_v3&utm_medium=api_v3_business_search&utm_source=gBcvfFpabk3CnzmXKdYe3w"}, {"transactions": ["delivery", "pickup"], "distance": 7900.32891766, "phone": "+12124968778", "categories": [{"alias": "chinese", "title": "Chinese"}, {"alias": "japanese", "title": "Japanese"}], "id": "empire-szechuan-new-york-4", "display_phone": "(212) 496-8778", "is_closed": false, "location": {"address2": "", "country": "US", "display_address": ["193 Columbus Ave", "New York, NY 10023"], "address1": "193 Columbus Ave", "city": "New York", "zip_code": "10023", "address3": "", "state": "NY"}, "coordinates": {"longitude": -73.980178, "latitude": 40.775683}, "review_count": 163, "image_url": "https://s3-media3.fl.yelpcdn.com/bphoto/MYlxFNq7lsrBNp-z18ARdQ/o.jpg", "price": "$$", "rating": 2.5, "name": "Empire Szechuan", "url": "https://www.yelp.com/biz/empire-szechuan-new-york-4?adjust_creative=gBcvfFpabk3CnzmXKdYe3w&utm_campaign=yelp_api_v3&utm_medium=api_v3_business_search&utm_source=gBcvfFpabk3CnzmXKdYe3w"}, {"transactions": ["delivery", "pickup"], "distance": 5418.966107452, "phone": "+12129497708", "categories": [{"alias": "chinese", "title": "Chinese"}], "id": "east-palace-new-york", "display_phone": "(212) 949-7708", "is_closed": false, "location": {"address2": "", "country": "US", "display_address": ["819 2nd Ave", "New York, NY 10017"], "address1": "819 2nd Ave", "city": "New York", "zip_code": "10017", "address3": "", "state": "NY"}, "coordinates": {"longitude": -73.9716644287109, "latitude": 40.7510528564453}, "review_count": 64, "image_url": "https://s3-media3.fl.yelpcdn.com/bphoto/9V7wPpQ1FpARs8fpKk6PvA/o.jpg", "price": "$", "rating": 3.0, "name": "East Palace", "url": "https://www.yelp.com/biz/east-palace-new-york?adjust_creative=gBcvfFpabk3CnzmXKdYe3w&utm_campaign=yelp_api_v3&utm_medium=api_v3_business_search&utm_source=gBcvfFpabk3CnzmXKdYe3w"}, {"transactions": ["delivery", "pickup"], "distance": 6546.3412861199995, "phone": "+12122468181", "categories": [{"alias": "chinese", "title": "Chinese"}], "id": "china-gourmet-new-york-2", "display_phone": "(212) 246-8181", "is_closed": false, "location": {"address2": "", "country": "US", "display_address": ["877 8th Ave", "New York, NY 10019"], "address1": "877 8th Ave", "city": "New York", "zip_code": "10019", "address3": "", "state": "NY"}, "coordinates": {"longitude": -73.98524, "latitude": 40.76381}, "review_count": 150, "image_url": "https://s3-media3.fl.yelpcdn.com/bphoto/OV1UW6NLfjY0xzfu4fZ86A/o.jpg", "price": "$", "rating": 2.5, "name": "China Gourmet", "url": "https://www.yelp.com/biz/china-gourmet-new-york-2?adjust_creative=gBcvfFpabk3CnzmXKdYe3w&utm_campaign=yelp_api_v3&utm_medium=api_v3_business_search&utm_source=gBcvfFpabk3CnzmXKdYe3w"}, {"transactions": ["delivery", "pickup"], "distance": 7372.963327456, "phone": "+17183811198", "categories": [{"alias": "chinese", "title": "Chinese"}], "id": "randys-chinese-food-ridgewood", "display_phone": "(718) 381-1198", "is_closed": false, "location": {"address2": "", "country": "US", "display_address": ["1693 Putnam Ave", "Ridgewood, NY 11385"], "address1": "1693 Putnam Ave", "city": "Ridgewood", "zip_code": "11385", "address3": "", "state": "NY"}, "coordinates": {"longitude": -73.9068985, "latitude": 40.7002945}, "review_count": 34, "image_url": "https://s3-media2.fl.yelpcdn.com/bphoto/aexsdrpJQmqiJv3S-mhPew/o.jpg", "price": "$", "rating": 3.0, "name": "Randy's Chinese Food", "url": "https://www.yelp.com/biz/randys-chinese-food-ridgewood?adjust_creative=gBcvfFpabk3CnzmXKdYe3w&utm_campaign=yelp_api_v3&utm_medium=api_v3_business_search&utm_source=gBcvfFpabk3CnzmXKdYe3w"}, {"transactions": [], "distance": 9085.658200001999, "phone": "+12127871888", "categories": [{"alias": "chinese", "title": "Chinese"}], "id": "king-food-chen-new-york", "display_phone": "(212) 787-1888", "is_closed": false, "location": {"address2": null, "country": "US", "display_address": ["489 Amsterdam Ave", "New York, NY 10024"], "address1": "489 Amsterdam Ave", "city": "New York", "zip_code": "10024", "address3": null, "state": "NY"}, "coordinates": {"longitude": -73.975876, "latitude": 40.785954}, "review_count": 48, "image_url": "https://s3-media2.fl.yelpcdn.com/bphoto/5V3ApSYtx1WE9heCp3gu9w/o.jpg", "price": "$", "rating": 3.0, "name": "King Food Chen", "url": "https://www.yelp.com/biz/king-food-chen-new-york?adjust_creative=gBcvfFpabk3CnzmXKdYe3w&utm_campaign=yelp_api_v3&utm_medium=api_v3_business_search&utm_source=gBcvfFpabk3CnzmXKdYe3w"}, {"transactions": ["delivery", "pickup"], "distance": 13477.899022659998, "phone": "+17188910391", "categories": [{"alias": "sushi", "title": "Sushi Bars"}, {"alias": "chinese", "title": "Chinese"}], "id": "chopstix-chinese-restaurant-and-sushi-bar-brooklyn", "display_phone": "(718) 891-0391", "is_closed": false, "location": {"address2": null, "country": "US", "display_address": ["3790 Nostrand Ave", "Brooklyn, NY 11235"], "address1": "3790 Nostrand Ave", "city": "Brooklyn", "zip_code": "11235", "address3": "", "state": "NY"}, "coordinates": {"longitude": -73.9402999, "latitude": 40.59116}, "review_count": 168, "image_url": "https://s3-media2.fl.yelpcdn.com/bphoto/3rGTWb5aSMEgRMNoHmlIUA/o.jpg", "price": "$$", "rating": 3.0, "name": "ChopStix Chinese Restaurant & Sushi Bar", "url": "https://www.yelp.com/biz/chopstix-chinese-restaurant-and-sushi-bar-brooklyn?adjust_creative=gBcvfFpabk3CnzmXKdYe3w&utm_campaign=yelp_api_v3&utm_medium=api_v3_business_search&utm_source=gBcvfFpabk3CnzmXKdYe3w"}, {"transactions": ["delivery", "pickup"], "distance": 8486.084742678, "phone": "+17187268482", "categories": [{"alias": "chinese", "title": "Chinese"}], "id": "hong-kong-astoria-2", "display_phone": "(718) 726-8482", "is_closed": false, "location": {"address2": "", "country": "US", "display_address": ["25-10 Broadway", "Astoria, NY 11106"], "address1": "25-10 Broadway", "city": "Astoria", "zip_code": "11106", "address3": "", "state": "NY"}, "coordinates": {"longitude": -73.92822, "latitude": 40.76302}, "review_count": 38, "image_url": "https://s3-media2.fl.yelpcdn.com/bphoto/CjsUt1bfYAqPQXCcsZ6ftQ/o.jpg", "price": "$", "rating": 3.0, "name": "Hong Kong", "url": "https://www.yelp.com/biz/hong-kong-astoria-2?adjust_creative=gBcvfFpabk3CnzmXKdYe3w&utm_campaign=yelp_api_v3&utm_medium=api_v3_business_search&utm_source=gBcvfFpabk3CnzmXKdYe3w"}, {"transactions": ["delivery", "pickup"], "distance": 4948.0360476979995, "phone": "+17187885878", "categories": [{"alias": "chinese", "title": "Chinese"}, {"alias": "japanese", "title": "Japanese"}, {"alias": "vegetarian", "title": "Vegetarian"}], "id": "5th-avenue-vegetarian-delight-brooklyn", "display_phone": "(718) 788-5878", "is_closed": false, "location": {"address2": "", "country": "US", "display_address": ["718 5th Ave", "Brooklyn, NY 11215"], "address1": "718 5th Ave", "city": "Brooklyn", "zip_code": "11215", "address3": "", "state": "NY"}, "coordinates": {"longitude": -73.994533, "latitude": 40.660945}, "review_count": 29, "image_url": "https://s3-media2.fl.yelpcdn.com/bphoto/qdW255Hfq_UW4nuKZNZmKA/o.jpg", "price": "$", "rating": 3.5, "name": "5th Avenue Vegetarian Delight", "url": "https://www.yelp.com/biz/5th-avenue-vegetarian-delight-brooklyn?adjust_creative=gBcvfFpabk3CnzmXKdYe3w&utm_campaign=yelp_api_v3&utm_medium=api_v3_business_search&utm_source=gBcvfFpabk3CnzmXKdYe3w"}, {"transactions": [], "distance": 7684.810450078, "phone": "+17182848455", "categories": [{"alias": "chinese", "title": "Chinese"}], "id": "wing-hing-restaurant-brooklyn", "display_phone": "(718) 284-8455", "is_closed": false, "location": {"address2": "", "country": "US", "display_address": ["1148 Flatbush Ave", "Brooklyn, NY 11226"], "address1": "1148 Flatbush Ave", "city": "Brooklyn", "zip_code": "11226", "address3": "", "state": "NY"}, "coordinates": {"longitude": -73.95765, "latitude": 40.64214}, "review_count": 6, "image_url": "https://s3-media2.fl.yelpcdn.com/bphoto/cwiO6O6dK6RFvn1-iKeHTQ/o.jpg", "price": "$$$", "rating": 4.0, "name": "Wing Hing Restaurant", "url": "https://www.yelp.com/biz/wing-hing-restaurant-brooklyn?adjust_creative=gBcvfFpabk3CnzmXKdYe3w&utm_campaign=yelp_api_v3&utm_medium=api_v3_business_search&utm_source=gBcvfFpabk3CnzmXKdYe3w"}, {"transactions": [], "distance": 16172.3059402, "phone": "+17189826735", "categories": [{"alias": "chinese", "title": "Chinese"}], "id": "peking-kitchen-staten-island", "display_phone": "(718) 982-6735", "is_closed": false, "location": {"address2": null, "country": "US", "display_address": ["309 Bradley Ave", "Staten Island, NY 10314"], "address1": "309 Bradley Ave", "city": "Staten Island", "zip_code": "10314", "address3": null, "state": "NY"}, "coordinates": {"longitude": -74.131264, "latitude": 40.603683}, "review_count": 15, "image_url": "https://s3-media1.fl.yelpcdn.com/bphoto/zO1pYudSel28gI97sUfvNA/o.jpg", "price": "$", "rating": 4.0, "name": "Peking Kitchen", "url": "https://www.yelp.com/biz/peking-kitchen-staten-island?adjust_creative=gBcvfFpabk3CnzmXKdYe3w&utm_campaign=yelp_api_v3&utm_medium=api_v3_business_search&utm_source=gBcvfFpabk3CnzmXKdYe3w"}, {"transactions": ["delivery", "pickup"], "distance": 7808.640794509999, "phone": "+12129888002", "categories": [{"alias": "chinese", "title": "Chinese"}], "id": "six-happiness-new-york", "display_phone": "(212) 988-8002", "is_closed": false, "location": {"address2": "", "country": "US", "display_address": ["1413 2nd Ave", "New York, NY 10021"], "address1": "1413 2nd Ave", "city": "New York", "zip_code": "10021", "address3": "", "state": "NY"}, "coordinates": {"longitude": -73.9578247070312, "latitude": 40.7700042724609}, "review_count": 93, "image_url": "https://s3-media2.fl.yelpcdn.com/bphoto/B9diSM_i5IbCirW_Gt2orw/o.jpg", "price": "$", "rating": 3.0, "name": "Six Happiness", "url": "https://www.yelp.com/biz/six-happiness-new-york?adjust_creative=gBcvfFpabk3CnzmXKdYe3w&utm_campaign=yelp_api_v3&utm_medium=api_v3_business_search&utm_source=gBcvfFpabk3CnzmXKdYe3w"}, {"transactions": [], "distance": 13727.25820896, "phone": "+17188488989", "categories": [{"alias": "chinese", "title": "Chinese"}], "id": "tonys-dragon-garden-ozone-park-2", "display_phone": "(718) 848-8989", "is_closed": false, "location": {"address2": "", "country": "US", "display_address": ["10718 Liberty Ave", "Ozone Park, NY 11417"], "address1": "10718 Liberty Ave", "city": "Ozone Park", "zip_code": "11417", "address3": "", "state": "NY"}, "coordinates": {"longitude": -73.833847, "latitude": 40.683361}, "review_count": 3, "image_url": "https://s3-media3.fl.yelpcdn.com/bphoto/gSt1P_YDG3098j7eT9yjLA/o.jpg", "price": "$$", "rating": 4.5, "name": "Tony's Dragon Garden", "url": "https://www.yelp.com/biz/tonys-dragon-garden-ozone-park-2?adjust_creative=gBcvfFpabk3CnzmXKdYe3w&utm_campaign=yelp_api_v3&utm_medium=api_v3_business_search&utm_source=gBcvfFpabk3CnzmXKdYe3w"}, {"transactions": [], "distance": 1580.7895037299998, "phone": "+12122741535", "categories": [{"alias": "cantonese", "title": "Cantonese"}, {"alias": "asianfusion", "title": "Asian Fusion"}], "id": "august-gatherings-new-york-2", "display_phone": "(212) 274-1535", "is_closed": false, "location": {"address2": "", "country": "US", "display_address": ["266 Canal St", "New York, NY 10013"], "address1": "266 Canal St", "city": "New York", "zip_code": "10013", "address3": "", "state": "NY"}, "coordinates": {"longitude": -74.0011004, "latitude": 40.7186556}, "review_count": 94, "image_url": "https://s3-media1.fl.yelpcdn.com/bphoto/XElR5Gcuh7F7cbZgkPel3A/o.jpg", "price": "$$", "rating": 3.5, "name": "August Gatherings", "url": "https://www.yelp.com/biz/august-gatherings-new-york-2?adjust_creative=gBcvfFpabk3CnzmXKdYe3w&utm_campaign=yelp_api_v3&utm_medium=api_v3_business_search&utm_source=gBcvfFpabk3CnzmXKdYe3w"}]}