{"region": {"center": {"longitude": -73.99429321289062, "latitude": 40.70544486444615}}, "total": 2613, "businesses": [{"transactions": ["delivery", "pickup"], "distance": 15186.95694774, "phone": "+17183804900", "categories": [{"alias": "chinese", "title": "Chinese"}, {"alias": "mexican", "title": "Mexican"}], "id": "panda-garden-flushing", "display_phone": "(718) 380-4900", "is_closed": false, "location": {"address2": null, "country": "US", "display_address": ["14701 Union Tpke", "Flushing, NY 11367"], "address1": "14701 Union Tpke", "city": "Flushing", "zip_code": "11367", "address3": null, "state": "NY"}, "coordinates": {"longitude": -73.8149337768555, "latitude": 40.718563079834}, "review_count": 26, "image_url": "https://s3-media1.fl.yelpcdn.com/bphoto/C4U9z1SzwiXuhQ86CdWEgA/o.jpg", "price": "$", "rating": 3.5, "name": "Panda Garden", "url": "https://www.yelp.com/biz/panda-garden-flushing?adjust_creative=gBcvfFpabk3CnzmXKdYe3w&utm_campaign=yelp_api_v3&utm_medium=api_v3_business_search&utm_source=gBcvfFpabk3CnzmXKdYe3w"}, {"transactions": [], "distance": 7142.050235301999, "phone": "+12125177798", "categories": [{"alias": "chinese", "title": "Chinese"}], "id": "new-wong-asian-food-new-york", "display_phone": "(212) 517-7798", "is_closed": false, "location": {"address2": "", "country": "US", "display_address": ["1217 1st Ave", "New York, NY 10065"], "address1": "1217 1st Ave", "city": "New York", "zip_code": "10065", "address3": null, "state": "NY"}, "coordinates": {"longitude": -73.9588390469633, "latitude": 40.763786524489}, "review_count": 6, "image_url": "https://s3-media2.fl.yelpcdn.com/bphoto/6eh5ZUTbKTq8AXzKUXQT3Q/o.jpg", "rating": 3.0, "name": "New Wong Asian Food", "url": "https://www.yelp.com/biz/new-wong-asian-food-new-york?adjust_creative=gBcvfFpabk3CnzmXKdYe3w&utm_campaign=yelp_api_v3&utm_medium=api_v3_business_search&utm_source=gBcvfFpabk3CnzmXKdYe3w"}, {"transactions": [], "distance": 20545.0838877, "phone": "+17187618080", "categories": [{"alias": "chinese", "title": "Chinese"}], "id": "jade-island-staten-island", "display_phone": "(718) 761-8080", "is_closed": false, "location": {"address2": "", "country": "US", "display_address": ["2845 Richmond Ave", "Staten Island, NY 10314"], "address1": "2845 Richmond Ave", "city": "Staten Island", "zip_code": "10314", "address3": "", "state": "NY"}, "coordinates": {"longitude": -74.1680475263602, "latitude": 40.5760005243465}, "review_count": 130, "image_url": "https://s3-media2.fl.yelpcdn.com/bphoto/VnfyDrnPZ7INaCxRCy9uFA/o.jpg", "price": "$$", "rating": 3.5, "name": "Jade Island", "url": "https://www.yelp.com/biz/jade-island-staten-island?adjust_creative=gBcvfFpabk3CnzmXKdYe3w&utm_campaign=yelp_api_v3&utm_medium=api_v3_business_search&utm_source=gBcvfFpabk3CnzmXKdYe3w"}, {"transactions": [], "distance": 9727.939356641999, "phone": "+17185339131", "categories": [{"alias": "chinese", "title": "Chinese"}, {"alias": "indpak", "title": "Indian"}], "id": "talk-of-the-town-jackson-heights", "display_phone": "(718) 533-9131", "is_closed": false, "location": {"address2": "", "country": "US", "display_address": ["37-21 72nd St", "Jackson Heights, NY 11372"], "address1": "37-21 72nd St", "city": "Jackson Heights", "zip_code": "11372", "address3": "", "state": "NY"}, "coordinates": {"longitude": -73.893493, "latitude": 40.748085}, "review_count": 65, "image_url": "https://s3-media4.fl.yelpcdn.com/bphoto/JdpH9tTu_XDRMabvb1vlkw/o.jpg", "price": "$$", "rating": 3.0, "name": "Talk of the Town", "url": "https://www.yelp.com/biz/talk-of-the-town-jackson-heights?adjust_creative=gBcvfFpabk3CnzmXKdYe3w&utm_campaign=yelp_api_v3&utm_medium=api_v3_business_search&utm_source=gBcvfFpabk3CnzmXKdYe3w"}, {"transactions": [], "distance": 7252.977696284001, "phone": "+17188714753", "categories": [{"alias": "chinese", "title": "Chinese"}], "id": "golden-dragon-brooklyn-2", "display_phone": "(718) 871-4753", "is_closed": false, "location": {"address2": "", "country": "US", "display_address": ["4413 New Utrecht Ave", "Brooklyn, NY 11219"], "address1": "4413 New Utrecht Ave", "city": "Brooklyn", "zip_code": "11219", "address3": "", "state": "NY"}, "coordinates": {"longitude": -73.994018, "latitude": 40.640174}, "review_count": 5, "image_url": "https://s3-media1.fl.yelpcdn.com/bphoto/HAwh6P28lQLPRDHVMdj6Xg/o.jpg", "price": "$", "rating": 4.0, "name": "Golden Dragon", "url": "https://www.yelp.com/biz/golden-dragon-brooklyn-2?adjust_creative=gBcvfFpabk3CnzmXKdYe3w&utm_campaign=yelp_api_v3&utm_medium=api_v3_business_search&utm_source=gBcvfFpabk3CnzmXKdYe3w"}, {"transactions": [], "distance": 16124.1223006, "phone": "+17183800956", "categories": [{"alias": "chinese", "title": "Chinese"}], "id": "chefs-garden-jamaica", "display_phone": "(718) 380-0956", "is_closed": false, "location": {"address2": "", "country": "US", "display_address": ["8009 164th St", "Jamaica, NY 11432"], "address1": "8009 164th St", "city": "Jamaica", "zip_code": "11432", "address3": "", "state": "NY"}, "coordinates": {"longitude": -73.8041, "latitude": 40.72118}, "review_count": 16, "image_url": "https://s3-media1.fl.yelpcdn.com/bphoto/CW38l0fcbI30yc2REe31oQ/o.jpg", "price": "$", "rating": 3.5, "name": "Chef's Garden", "url": "https://www.yelp.com/biz/chefs-garden-jamaica?adjust_creative=gBcvfFpabk3CnzmXKdYe3w&utm_campaign=yelp_api_v3&utm_medium=api_v3_business_search&utm_source=gBcvfFpabk3CnzmXKdYe3w"}, {"transactions": [], "distance": 8489.71589652, "phone": "+17183263661", "categories": [{"alias": "chinese", "title": "Chinese"}], "id": "double-chinese-restaurant-queens", "display_phone": "(718) 326-3661", "is_closed": false, "location": {"address2": "", "country": "US", "display_address": ["61-10 Myrtle Ave", "Queens, NY 11385"], "address1": "61-10 Myrtle Ave", "city": "Queens", "zip_code": "11385", "address3": "", "state": "NY"}, "coordinates": {"longitude": -73.893798, "latitude": 40.700626}, "review_count": 6, "image_url": "", "price": "$", "rating": 4.0, "name": "Double Chinese Restaurant", "url": "https://www.yelp.com/biz/double-chinese-restaurant-queens?adjust_creative=gBcvfFpabk3CnzmXKdYe3w&utm_campaign=yelp_api_v3&utm_medium=api_v3_business_search&utm_source=gBcvfFpabk3CnzmXKdYe3w"}, {"transactions": [], "distance": 1254.6853346084, "phone": "", "categories": [{"alias": "foodtrucks", "title": "Food Trucks"}, {"alias": "chinese", "title": "Chinese"}], "id": "chopstix-new-york", "display_phone": "", "is_closed": false, "location": {"address2": "", "country": "US", "display_address": ["1 Hanover Square", "Old Slip (water & Pearl)", "New York, NY 10004"], "address1": "1 Hanover Square", "city": "New York", "zip_code": "10004", "address3": "Old Slip (water & Pearl)", "state": "NY"}, "coordinates": {"longitude": -74.0091101794667, "latitude": 40.7043655812028}, "review_count": 8, "image_url": "https://s3-media3.fl.yelpcdn.com/bphoto/xwApIxGQ66eK7JlMgC8ZOQ/o.jpg", "price": "$", "rating": 2.5, "name": "Chopstix", "url": "https://www.yelp.com/biz/chopstix-new-york?adjust_creative=gBcvfFpabk3CnzmXKdYe3w&utm_campaign=yelp_api_v3&utm_medium=api_v3_business_search&utm_source=gBcvfFpabk3CnzmXKdYe3w"}, {"transactions": [], "distance": 7310.854390703999, "phone": "+17182826686", "categories": [{"alias": "chinese", "title": "Chinese"}, {"alias": "mexican", "title": "Mexican"}], "id": "wing-luck-brooklyn", "display_phone": "(718) 282-6686", "is_closed": false, "location": {"address2": "", "country": "US", "display_address": ["3312 Church Ave", "Brooklyn, NY 11203"], "address1": "3312 Church Ave", "city": "Brooklyn", "zip_code": "11203", "address3": "", "state": "NY"}, "coordinates": {"longitude": -73.946182, "latitude": 40.65076}, "review_count": 3, "image_url": "https://s3-media4.fl.yelpcdn.com/bphoto/WRskirk_WE_7LDSrP7ZwcQ/o.jpg", "price": "$", "rating": 3.0, "name": "Wing Luck", "url": "https://www.yelp.com/biz/wing-luck-brooklyn?adjust_creative=gBcvfFpabk3CnzmXKdYe3w&utm_campaign=yelp_api_v3&utm_medium=api_v3_business_search&utm_source=gBcvfFpabk3CnzmXKdYe3w"}, {"transactions": [], "distance": 15310.50597954, "phone": "+17185918688", "categories": [{"alias": "japanese", "title": "Japanese"}, {"alias": "thai", "title": "Thai"}, {"alias": "chinese", "title": "Chinese"}], "id": "new-peters-kitchen-flushing", "display_phone": "(718) 591-8688", "is_closed": false, "location": {"address2": "", "country": "US", "display_address": ["14909 Union Tpke", "Flushing, NY 11367"], "address1": "14909 Union Tpke", "city": "Flushing", "zip_code": "11367", "address3": "", "state": "NY"}, "coordinates": {"longitude": -73.813611, "latitude": 40.7188261}, "review_count": 59, "image_url": "https://s3-media1.fl.yelpcdn.com/bphoto/TQRsrbjkW4koTB4-lCaZAg/o.jpg", "price": "$", "rating": 3.5, "name": "New Peter's Kitchen", "url": "https://www.yelp.com/biz/new-peters-kitchen-flushing?adjust_creative=gBcvfFpabk3CnzmXKdYe3w&utm_campaign=yelp_api_v3&utm_medium=api_v3_business_search&utm_source=gBcvfFpabk3CnzmXKdYe3w"}, {"transactions": [], "distance": 11111.73309152, "phone": "+17183821825", "categories": [{"alias": "chinese", "title": "Chinese"}], "id": "wah-lung-chinese-food-brooklyn", "display_phone": "(718) 382-1825", "is_closed": false, "location": {"address2": "", "country": "US", "display_address": ["1932 Kings Hwy", "Brooklyn, NY 11229"], "address1": "1932 Kings Hwy", "city": "Brooklyn", "zip_code": "11229", "address3": "", "state": "NY"}, "coordinates": {"longitude": -73.953704, "latitude": 40.610332}, "review_count": 4, "image_url": "https://s3-media2.fl.yelpcdn.com/bphoto/WRR25f8k26ygfrAhuebQqQ/o.jpg", "price": "$", "rating": 4.0, "name": "Wah Lung Chinese Food", "url": "https://www.yelp.com/biz/wah-lung-chinese-food-brooklyn?adjust_creative=gBcvfFpabk3CnzmXKdYe3w&utm_campaign=yelp_api_v3&utm_medium=api_v3_business_search&utm_source=gBcvfFpabk3CnzmXKdYe3w"}, {"transactions": [], "distance": 9649.147196779999, "phone": "+17187596300", "categories": [{"alias": "chinese", "title": "Chinese"}], "id": "kings-rice-restaurant-brooklyn", "display_phone": "(718) 759-6300", "is_closed": false, "location": {"address2": "", "country": "US", "display_address": ["6515 18th Ave", "Brooklyn, NY 11204"], "address1": "6515 18th Ave", "city": "Brooklyn", "zip_code": "11204", "address3": "", "state": "NY"}, "coordinates": {"longitude": -73.990414403379, "latitude": 40.6187164889835}, "review_count": 29, "image_url": "https://s3-media2.fl.yelpcdn.com/bphoto/RwflPTa9rSBlXYeBPsAYmA/o.jpg", "price": "$$", "rating": 3.0, "name": "Kings Rice Restaurant", "url": "https://www.yelp.com/biz/kings-rice-restaurant-brooklyn?adjust_creative=gBcvfFpabk3CnzmXKdYe3w&utm_campaign=yelp_api_v3&utm_medium=api_v3_business_search&utm_source=gBcvfFpabk3CnzmXKdYe3w"}, {"transactions": [], "distance": 1426.6684032189999, "phone": "", "categories": [{"alias": "streetvendors", "title": "Street Vendors"}, {"alias": "chinese", "title": "Chinese"}], "id": "zongzi-lady-new-york", "display_phone": "", "is_closed": false, "location": {"address2": "", "country": "US", "display_address": ["Chrystie St", "Grand St", "New York, NY 10002"], "address1": "Chrystie St", "city": "New York", "zip_code": "10002", "address3": "Grand St", "state": "NY"}, "coordinates": {"longitude": -73.9938071136549, "latitude": 40.7182699448353}, "review_count": 5, "image_url": "https://s3-media3.fl.yelpcdn.com/bphoto/Ocgs3ez2itKBtuQJBrlExA/o.jpg", "rating": 4.0, "name": "Zongzi lady", "url": "https://www.yelp.com/biz/zongzi-lady-new-york?adjust_creative=gBcvfFpabk3CnzmXKdYe3w&utm_campaign=yelp_api_v3&utm_medium=api_v3_business_search&utm_source=gBcvfFpabk3CnzmXKdYe3w"}, {"transactions": [], "distance": 1551.1960585795998, "phone": "+12129668998", "categories": [{"alias": "taiwanese", "title": "Taiwanese"}, {"alias": "noodles", "title": "Noodles"}, {"alias": "chinese", "title": "Chinese"}], "id": "yiwanmen-new-york-2", "display_phone": "(212) 966-8998", "is_closed": false, "location": {"address2": "", "country": "US", "display_address": ["150 Mott St", "New York, NY 10013"], "address1": "150 Mott St", "city": "New York", "zip_code": "10013", "address3": null, "state": "NY"}, "coordinates": {"longitude": -73.9962630421457, "latitude": 40.7193132739237}, "review_count": 27, "image_url": "https://s3-media3.fl.yelpcdn.com/bphoto/hjqC1FDXcXF-TlnBOZ_-dg/o.jpg", "price": "$", "rating": 3.5, "name": "Yiwanmen", "url": "https://www.yelp.com/biz/yiwanmen-new-york-2?adjust_creative=gBcvfFpabk3CnzmXKdYe3w&utm_campaign=yelp_api_v3&utm_medium=api_v3_business_search&utm_source=gBcvfFpabk3CnzmXKdYe3w"}, {"transactions": ["delivery", "pickup"], "distance": 10616.3170846, "phone": "+13477133702", "categories": [{"alias": "szechuan", "title": "Szechuan"}], "id": "szechuan-garden-brooklyn-63", "display_phone": "(347) 713-3702", "is_closed": false, "location": {"address2": null, "country": "US", "display_address": ["84 Ave O", "Brooklyn, NY 11204"], "address1": "84 Ave O", "city": "Brooklyn", "zip_code": "11204", "address3": "", "state": "NY"}, "coordinates": {"longitude": -73.98184, "latitude": 40.6102}, "review_count": 12, "image_url": "https://s3-media4.fl.yelpcdn.com/bphoto/BHdb4mxvelGCYpdU94QPbw/o.jpg", "price": "$", "rating": 4.5, "name": "Szechuan Garden", "url": "https://www.yelp.com/biz/szechuan-garden-brooklyn-63?adjust_creative=gBcvfFpabk3CnzmXKdYe3w&utm_campaign=yelp_api_v3&utm_medium=api_v3_business_search&utm_source=gBcvfFpabk3CnzmXKdYe3w"}, {"transactions": [], "distance": 17734.453654039997, "phone": "+12123042913", "categories": [{"alias": "tex-mex", "title": "Tex-Mex"}, {"alias": "chinese", "title": "Chinese"}], "id": "no-1-restaurant-new-york-2", "display_phone": "(212) 304-2913", "is_closed": false, "location": {"address2": "", "country": "US", "display_address": ["4480 Broadway", "New York, NY 10040"], "address1": "4480 Broadway", "city": "New York", "zip_code": "10040", "address3": "", "state": "NY"}, "coordinates": {"longitude": -73.9319991019366, "latitude": 40.8577976485116}, "review_count": 15, "image_url": "https://s3-media2.fl.yelpcdn.com/bphoto/IZltxlCniHmNGr8Ow-2DEg/o.jpg", "price": "$$", "rating": 3.5, "name": "No. 1 Restaurant", "url": "https://www.yelp.com/biz/no-1-restaurant-new-york-2?adjust_creative=gBcvfFpabk3CnzmXKdYe3w&utm_campaign=yelp_api_v3&utm_medium=api_v3_business_search&utm_source=gBcvfFpabk3CnzmXKdYe3w"}, {"transactions": [], "distance": 7546.521956019999, "phone": "+17188712880", "categories": [{"alias": "dimsum", "title": "Dim Sum"}, {"alias": "cantonese", "title": "Cantonese"}], "id": "pacificana-brooklyn", "display_phone": "(718) 871-2880", "is_closed": false, "location": {"address2": "", "country": "US", "display_address": ["813 55th St", "Brooklyn, NY 11220"], "address1": "813 55th St", "city": "Brooklyn", "zip_code": "11220", "address3": "", "state": "NY"}, "coordinates": {"longitude": -74.0061977741468, "latitude": 40.6381792085612}, "review_count": 282, "image_url": "https://s3-media2.fl.yelpcdn.com/bphoto/nIAcY7x8_gDCYHTycqhE9g/o.jpg", "price": "$$", "rating": 3.5, "name": "Pacificana", "url": "https://www.yelp.com/biz/pacificana-brooklyn?adjust_creative=gBcvfFpabk3CnzmXKdYe3w&utm_campaign=yelp_api_v3&utm_medium=api_v3_business_search&utm_source=gBcvfFpabk3CnzmXKdYe3w"}, {"transactions": ["delivery", "pickup"], "distance": 14097.15535192, "phone": "+17188460125", "categories": [{"alias": "chinese", "title": "Chinese"}, {"alias": "japanese", "title": "Japanese"}], "id": "new-shanghai-kew-gardens", "display_phone": "(718) 846-0125", "is_closed": false, "location": {"address2": "", "country": "US", "display_address": ["12502 84th Rd", "Kew Gardens, NY 11415"], "address1": "12502 84th Rd", "city": "Kew Gardens", "zip_code": "11415", "address3": "", "state": "NY"}, "coordinates": {"longitude": -73.8271331787109, "latitude": 40.7080688476562}, "review_count": 30, "image_url": "https://s3-media4.fl.yelpcdn.com/bphoto/q8XTe6mnzIOzzLaniIGkLw/o.jpg", "price": "$", "rating": 3.0, "name": "New Shanghai", "url": "https://www.yelp.com/biz/new-shanghai-kew-gardens?adjust_creative=gBcvfFpabk3CnzmXKdYe3w&utm_campaign=yelp_api_v3&utm_medium=api_v3_business_search&utm_source=gBcvfFpabk3CnzmXKdYe3w"}, {"transactions": [], "distance": 15007.54450586, "phone": "+17188866628", "categories": [{"alias": "chinese", "title": "Chinese"}], "id": "corner-28-flushing-2", "display_phone": "(718) 886-6628", "is_closed": false, "location": {"address2": "", "country": "US", "display_address": ["137-28 40th Rd", "Flushing, NY 11354"], "address1": "137-28 40th Rd", "city": "Flushing", "zip_code": "11354", "address3": "", "state": "NY"}, "coordinates": {"longitude": -73.8315124511719, "latitude": 40.7583618164062}, "review_count": 94, "image_url": "https://s3-media3.fl.yelpcdn.com/bphoto/cCHORWD45EqJIfaQjwjVFQ/o.jpg", "price": "$", "rating": 3.5, "name": "Corner 28", "url": "https://www.yelp.com/biz/corner-28-flushing-2?adjust_creative=gBcvfFpabk3CnzmXKdYe3w&utm_campaign=yelp_api_v3&utm_medium=api_v3_business_search&utm_source=gBcvfFpabk3CnzmXKdYe3w"}, {"transactions": [], "distance": 10723.167604559998, "phone": "+17189277570", "categories": [{"alias": "chinese", "title": "Chinese"}], "id": "new-shun-hing-chinese-restaurnt-brooklyn", "display_phone": "(718) 927-7570", "is_closed": false, "location": {"address2": "", "country": "US", "display_address": ["1111 Pennsylvania Ave", "Brooklyn, NY 11207"], "address1": "1111 Pennsylvania Ave", "city": "Brooklyn", "zip_code": "11207", "address3": "", "state": "NY"}, "coordinates": {"longitude": -73.88698, "latitude": 40.65401}, "review_count": 1, "image_url": "https://s3-media3.fl.yelpcdn.com/bphoto/TqLgPNh6nyrNmW4S_0_Cag/o.jpg", "rating": 5.0, "name": "New Shun Hing Chinese Restaurnt", "url": "https://www.yelp.com/biz/new-shun-hing-chinese-restaurnt-brooklyn?adjust_creative=gBcvfFpabk3CnzmXKdYe3w&utm_campaign=yelp_api_v3&utm_medium=api_v3_business_search&utm_source=gBcvfFpabk3CnzmXKdYe3w"}, {"transactions": [], "distance": 7643.73092004, "phone": "+17186336111", "categories": [{"alias": "chinese", "title": "Chinese"}, {"alias": "seafood", "title": "Seafood"}], "id": "wang-chunju-seafood-restaurant-brooklyn", "display_phone": "(718) 633-6111", "is_closed": false, "location": {"address2": "", "country": "US", "display_address": ["5609 8th Ave", "Brooklyn, NY 11220"], "address1": "5609 8th Ave", "city": "Brooklyn", "zip_code": "11220", "address3": "", "state": "NY"}, "coordinates": {"longitude": -74.0072021484375, "latitude": 40.6374015808105}, "review_count": 7, "image_url": "https://s3-media1.fl.yelpcdn.com/bphoto/gw2hqXCNkhJSkaI8ZiMp2w/o.jpg", "price": "$$", "rating": 4.0, "name": "Wang Chunju Seafood Restaurant", "url": "https://www.yelp.com/biz/wang-chunju-seafood-restaurant-brooklyn?adjust_creative=gBcvfFpabk3CnzmXKdYe3w&utm_campaign=yelp_api_v3&utm_medium=api_v3_business_search&utm_source=gBcvfFpabk3CnzmXKdYe3w"}, {"transactions": [], "distance": 14213.426948239998, "phone": "+12128622702", "categories": [{"alias": "chinese", "title": "Chinese"}], "id": "yong-sheng-new-york", "display_phone": "(212) 862-2702", "is_closed": false, "location": {"address2": "", "country": "US", "display_address": ["2825 8th Ave", "New York, NY 10039"], "address1": "2825 8th Ave", "city": "New York", "zip_code": "10039", "address3": "", "state": "NY"}, "coordinates": {"longitude": -73.9393877238035, "latitude": 40.8263956010342}, "review_count": 10, "image_url": "https://s3-media4.fl.yelpcdn.com/bphoto/nE6CWjkUj_mvJlFdqV7LtQ/o.jpg", "price": "$", "rating": 3.5, "name": "Yong Sheng", "url": "https://www.yelp.com/biz/yong-sheng-new-york?adjust_creative=gBcvfFpabk3CnzmXKdYe3w&utm_campaign=yelp_api_v3&utm_medium=api_v3_business_search&utm_source=gBcvfFpabk3CnzmXKdYe3w"}, {"transactions": ["delivery", "pickup"], "distance": 7050.15161048, "phone": "+17184181288", "categories": [{"alias": "chinese", "title": "Chinese"}], "id": "jims-china-king-ridgewood", "display_phone": "(718) 418-1288", "is_closed": false, "location": {"address2": "", "country": "US", "display_address": ["563 Seneca Ave", "Ridgewood, NY 11385"], "address1": "563 Seneca Ave", "city": "Ridgewood", "zip_code": "11385", "address3": "", "state": "NY"}, "coordinates": {"longitude": -73.9106750488281, "latitude": 40.7048454284668}, "review_count": 27, "image_url": "https://s3-media3.fl.yelpcdn.com/bphoto/yAjzBCByXF_bn9Xp8l50xA/o.jpg", "price": "$", "rating": 2.5, "name": "Jim's China King", "url": "https://www.yelp.com/biz/jims-china-king-ridgewood?adjust_creative=gBcvfFpabk3CnzmXKdYe3w&utm_campaign=yelp_api_v3&utm_medium=api_v3_business_search&utm_source=gBcvfFpabk3CnzmXKdYe3w"}, {"transactions": ["delivery"], "distance": 11255.624824655999, "phone": "+17182657800", "categories": [{"alias": "sushi", "title": "Sushi Bars"}, {"alias": "japanese", "title": "Japanese"}, {"alias": "chinese", "title": "Chinese"}], "id": "hk-tea-and-sushi-brooklyn", "display_phone": "(718) 265-7800", "is_closed": false, "location": {"address2": "", "country": "US", "display_address": ["2033 86th St", "Brooklyn, NY 11214"], "address1": "2033 86th St", "city": "Brooklyn", "zip_code": "11214", "address3": "", "state": "NY"}, "coordinates": {"longitude": -73.9972499, "latitude": 40.60421}, "review_count": 360, "image_url": "https://s3-media2.fl.yelpcdn.com/bphoto/0t_HTqJ-CYBTg82PFMcSsw/o.jpg", "price": "$", "rating": 3.0, "name": "HK Tea and Sushi", "url": "https://www.yelp.com/biz/hk-tea-and-sushi-brooklyn?adjust_creative=gBcvfFpabk3CnzmXKdYe3w&utm_campaign=yelp_api_v3&utm_medium=api_v3_business_search&utm_source=gBcvfFpabk3CnzmXKdYe3w"}, {"transactions": [], "distance": 18186.0650355, "phone": "+17187618668", "categories": [{"alias": "chinese", "title": "Chinese"}], "id": "oriental-plaza-chinese-and-japanese-restaurant-staten-island", "display_phone": "(718) 761-8668", "is_closed": false, "location": {"address2": "", "country": "US", "display_address": ["1845 Richmond Ave", "Staten Island, NY 10314"], "address1": "1845 Richmond Ave", "city": "Staten Island", "zip_code": "10314", "address3": "", "state": "NY"}, "coordinates": {"longitude": -74.162377, "latitude": 40.603032}, "review_count": 87, "image_url": "https://s3-media3.fl.yelpcdn.com/bphoto/f9gHmW7sZkRAjd2K33rLYA/o.jpg", "price": "$$", "rating": 3.0, "name": "Oriental Plaza Chinese & Japanese Restaurant", "url": "https://www.yelp.com/biz/oriental-plaza-chinese-and-japanese-restaurant-staten-island?adjust_creative=gBcvfFpabk3CnzmXKdYe3w&utm_campaign=yelp_api_v3&utm_medium=api_v3_business_search&utm_source=gBcvfFpabk3CnzmXKdYe3w"}, {"transactions": ["delivery", "pickup"], "distance": 6762.214452238, "phone": "+17184696800", "categories": [{"alias": "thai", "title": "Thai"}, {"alias": "chinese", "title": "Chinese"}], "id": "china-thai-chinese-restaurant-brooklyn-2", "display_phone": "(718) 469-6800", "is_closed": false, "location": {"address2": "", "country": "US", "display_address": ["867 Flatbush Ave", "Brooklyn, NY 11226"], "address1": "867 Flatbush Ave", "city": "Brooklyn", "zip_code": "11226", "address3": "", "state": "NY"}, "coordinates": {"longitude": -73.9586027, "latitude": 40.6509874}, "review_count": 4, "image_url": "https://s3-media1.fl.yelpcdn.com/bphoto/pWYmx4xlIKfmKYUu-igHxw/o.jpg", "price": "$", "rating": 3.5, "name": "China Thai Chinese Restaurant", "url": "https://www.yelp.com/biz/china-thai-chinese-restaurant-brooklyn-2?adjust_creative=gBcvfFpabk3CnzmXKdYe3w&utm_campaign=yelp_api_v3&utm_medium=api_v3_business_search&utm_source=gBcvfFpabk3CnzmXKdYe3w"}, {"transactions": [], "distance": 6888.43225256, "phone": "+17184676618", "categories": [{"alias": "chinese", "title": "Chinese"}], "id": "happy-garden-brooklyn", "display_phone": "(718) 467-6618", "is_closed": false, "location": {"address2": "", "country": "US", "display_address": ["370 Utica Ave", "Brooklyn, NY 11213"], "address1": "370 Utica Ave", "city": "Brooklyn", "zip_code": "11213", "address3": "", "state": "NY"}, "coordinates": {"longitude": -73.931762, "latitude": 40.665596}, "review_count": 8, "image_url": "", "rating": 3.5, "name": "Happy Garden", "url": "https://www.yelp.com/biz/happy-garden-brooklyn?adjust_creative=gBcvfFpabk3CnzmXKdYe3w&utm_campaign=yelp_api_v3&utm_medium=api_v3_business_search&utm_source=gBcvfFpabk3CnzmXKdYe3w"}, {"transactions": [], "distance": 1057.0467953604, "phone": "+12129626047", "categories": [{"alias": "dimsum", "title": "Dim Sum"}], "id": "nom-wah-tea-parlor-new-york", "display_phone": "(212) 962-6047", "is_closed": false, "location": {"address2": "", "country": "US", "display_address": ["13 Doyers St", "New York, NY 10013"], "address1": "13 Doyers St", "city": "New York", "zip_code": "10013", "address3": "", "state": "NY"}, "coordinates": {"longitude": -73.998153857324, "latitude": 40.714490521829}, "review_count": 1298, "image_url": "https://s3-media2.fl.yelpcdn.com/bphoto/Zrxn4qUV5oN4kSJqQc5BYg/o.jpg", "price": "$$", "rating": 3.5, "name": "Nom Wah Tea Parlor", "url": "https://www.yelp.com/biz/nom-wah-tea-parlor-new-york?adjust_creative=gBcvfFpabk3CnzmXKdYe3w&utm_campaign=yelp_api_v3&utm_medium=api_v3_business_search&utm_source=gBcvfFpabk3CnzmXKdYe3w"}, {"transactions": [], "distance": 12585.41860424, "phone": "+17188977438", "categories": [{"alias": "chinese", "title": "Chinese"}], "id": "fan-shun-forest-hills", "display_phone": "(718) 897-7438", "is_closed": false, "location": {"address2": "", "country": "US", "display_address": ["6359 108th St", "Forest Hills, NY 11375"], "address1": "6359 108th St", "city": "Forest Hills", "zip_code": "11375", "address3": "", "state": "NY"}, "coordinates": {"longitude": -73.8496514, "latitude": 40.7334343}, "review_count": 29, "image_url": "https://s3-media4.fl.yelpcdn.com/bphoto/NOMQ_Qk78TJFOSsRDQFIxw/o.jpg", "price": "$", "rating": 3.0, "name": "Fan Shun", "url": "https://www.yelp.com/biz/fan-shun-forest-hills?adjust_creative=gBcvfFpabk3CnzmXKdYe3w&utm_campaign=yelp_api_v3&utm_medium=api_v3_business_search&utm_source=gBcvfFpabk3CnzmXKdYe3w"}, {"transactions": [], "distance": 15613.863350859998, "phone": "+17188881623", "categories": [{"alias": "szechuan", "title": "Szechuan"}, {"alias": "asianfusion", "title": "Asian Fusion"}], "id": "cin-chinese-restaurant-flushing-4", "display_phone": "(718) 888-1623", "is_closed": false, "location": {"address2": null, "country": "US", "display_address": ["41-81 Bowne St", "Flushing, NY 11355"], "address1": "41-81 Bowne St", "city": "Flushing", "zip_code": "11355", "address3": "", "state": "NY"}, "coordinates": {"longitude": -73.8222040235996, "latitude": 40.7575230091653}, "review_count": 42, "image_url": "https://s3-media1.fl.yelpcdn.com/bphoto/4u-gcIWobUfKQOodLlmP4w/o.jpg", "price": "$$", "rating": 3.5, "name": "CIN Chinese Restaurant", "url": "https://www.yelp.com/biz/cin-chinese-restaurant-flushing-4?adjust_creative=gBcvfFpabk3CnzmXKdYe3w&utm_campaign=yelp_api_v3&utm_medium=api_v3_business_search&utm_source=gBcvfFpabk3CnzmXKdYe3w"}, {"transactions": [], "distance": 11504.474815779999, "phone": "+17182666900", "categories": [{"alias": "cantonese", "title": "Cantonese"}], "id": "free-time-hangout-brooklyn", "display_phone": "(718) 266-6900", "is_closed": false, "location": {"address2": "", "country": "US", "display_address": ["2170 86th St", "Brooklyn, NY 11214"], "address1": "2170 86th St", "city": "Brooklyn", "zip_code": "11214", "address3": "", "state": "NY"}, "coordinates": {"longitude": -73.994507, "latitude": 40.601984}, "review_count": 27, "image_url": "https://s3-media1.fl.yelpcdn.com/bphoto/b2T-OXlW_7fEmvpgzJgr9g/o.jpg", "price": "$$", "rating": 3.5, "name": "Free Time Hangout", "url": "https://www.yelp.com/biz/free-time-hangout-brooklyn?adjust_creative=gBcvfFpabk3CnzmXKdYe3w&utm_campaign=yelp_api_v3&utm_medium=api_v3_business_search&utm_source=gBcvfFpabk3CnzmXKdYe3w"}, {"transactions": [], "distance": 12544.52205616, "phone": "+17184781817", "categories": [{"alias": "chinese", "title": "Chinese"}], "id": "number-1-chinese-restaurant-corona", "display_phone": "(718) 478-1817", "is_closed": false, "location": {"address2": "", "country": "US", "display_address": ["10614 Northern Blvd", "Corona, NY 11368"], "address1": "10614 Northern Blvd", "city": "Corona", "zip_code": "11368", "address3": "", "state": "NY"}, "coordinates": {"longitude": -73.862266, "latitude": 40.757507}, "review_count": 9, "image_url": "https://s3-media4.fl.yelpcdn.com/bphoto/v-OjKFgOC0tTYZgLGnSblA/o.jpg", "price": "$", "rating": 3.0, "name": "Number 1 Chinese Restaurant", "url": "https://www.yelp.com/biz/number-1-chinese-restaurant-corona?adjust_creative=gBcvfFpabk3CnzmXKdYe3w&utm_campaign=yelp_api_v3&utm_medium=api_v3_business_search&utm_source=gBcvfFpabk3CnzmXKdYe3w"}, {"transactions": [], "distance": 5902.180098492, "phone": "+12128888060", "categories": [{"alias": "cantonese", "title": "Cantonese"}, {"alias": "noodles", "title": "Noodles"}], "id": "radiance-noodle-bar-new-york", "display_phone": "(212) 888-8060", "is_closed": false, "location": {"address2": null, "country": "US", "display_address": ["208 E 50th St", "New York, NY 10022"], "address1": "208 E 50th St", "city": "New York", "zip_code": "10022", "address3": "", "state": "NY"}, "coordinates": {"longitude": -73.970861, "latitude": 40.755466}, "review_count": 15, "image_url": "https://s3-media3.fl.yelpcdn.com/bphoto/Quogik0uKeSAUH2hP6WCpQ/o.jpg", "price": "$", "rating": 3.0, "name": "Radiance Noodle Bar", "url": "https://www.yelp.com/biz/radiance-noodle-bar-new-york?adjust_creative=gBcvfFpabk3CnzmXKdYe3w&utm_campaign=yelp_api_v3&utm_medium=api_v3_business_search&utm_source=gBcvfFpabk3CnzmXKdYe3w"}, {"transactions": ["delivery", "pickup"], "distance": 9365.105124139998, "phone": "+17185051305", "categories": [{"alias": "chinese", "title": "Chinese"}], "id": "maxim-chinese-restaurant-woodside", "display_phone": "(718) 505-1305", "is_closed": false, "location": {"address2": "", "country": "US", "display_address": ["6812 Roosevelt Ave", "Woodside, NY 11377"], "address1": "6812 Roosevelt Ave", "city": "Woodside", "zip_code": "11377", "address3": "", "state": "NY"}, "coordinates": {"longitude": -73.8969407, "latitude": 40.7461429}, "review_count": 21, "image_url": "https://s3-media3.fl.yelpcdn.com/bphoto/ZksIE5QFhN5EJCKde9rBBQ/o.jpg", "price": "$", "rating": 3.0, "name": "Maxim Chinese Restaurant", "url": "https://www.yelp.com/biz/maxim-chinese-restaurant-woodside?adjust_creative=gBcvfFpabk3CnzmXKdYe3w&utm_campaign=yelp_api_v3&utm_medium=api_v3_business_search&utm_source=gBcvfFpabk3CnzmXKdYe3w"}, {"transactions": [], "distance": 11203.0019816, "phone": "+17183730888", "categories": [{"alias": "chinese", "title": "Chinese"}, {"alias": "steak", "title": "Steakhouses"}], "id": "ting-fai-cuisine-brooklyn-2", "display_phone": "(718) 373-0888", "is_closed": false, "location": {"address2": "", "country": "US", "display_address": ["1962 86th St", "Brooklyn, NY 11214"], "address1": "1962 86th St", "city": "Brooklyn", "zip_code": "11214", "address3": "", "state": "NY"}, "coordinates": {"longitude": -73.999101, "latitude": 40.604761}, "review_count": 37, "image_url": "https://s3-media3.fl.yelpcdn.com/bphoto/3_VNCoKMyx3esLUnzFqocQ/o.jpg", "price": "$", "rating": 3.5, "name": "Ting Fai Cuisine", "url": "https://www.yelp.com/biz/ting-fai-cuisine-brooklyn-2?adjust_creative=gBcvfFpabk3CnzmXKdYe3w&utm_campaign=yelp_api_v3&utm_medium=api_v3_business_search&utm_source=gBcvfFpabk3CnzmXKdYe3w"}, {"transactions": ["delivery", "pickup"], "distance": 19300.484705299998, "phone": "+17188226888", "categories": [{"alias": "chinese", "title": "Chinese"}, {"alias": "sushi", "title": "Sushi Bars"}, {"alias": "asianfusion", "title": "Asian Fusion"}], "id": "lins-asian-cuisine-east-bronx", "display_phone": "(718) 822-6888", "is_closed": false, "location": {"address2": "", "country": "US", "display_address": ["1506 Bronxdale Ave", "East Bronx, NY 10462"], "address1": "1506 Bronxdale Ave", "city": "East Bronx", "zip_code": "10462", "address3": "", "state": "NY"}, "coordinates": {"longitude": -73.8538535671128, "latitude": 40.8426181840383}, "review_count": 30, "image_url": "https://s3-media3.fl.yelpcdn.com/bphoto/jEf-UIdQI24Zv-XV7ogPSA/o.jpg", "price": "$$", "rating": 3.5, "name": "Lin's Asian Cuisine", "url": "https://www.yelp.com/biz/lins-asian-cuisine-east-bronx?adjust_creative=gBcvfFpabk3CnzmXKdYe3w&utm_campaign=yelp_api_v3&utm_medium=api_v3_business_search&utm_source=gBcvfFpabk3CnzmXKdYe3w"}, {"transactions": [], "distance": 10362.969953779999, "phone": "+17186492121", "categories": [{"alias": "chinese", "title": "Chinese"}], "id": "china-one-restaurant-brooklyn", "display_phone": "(718) 649-2121", "is_closed": false, "location": {"address2": "", "country": "US", "display_address": ["8901 Flatlands Ave", "Brooklyn, NY 11236"], "address1": "8901 Flatlands Ave", "city": "Brooklyn", "zip_code": "11236", "address3": "", "state": "NY"}, "coordinates": {"longitude": -73.9068374633789, "latitude": 40.6400108337402}, "review_count": 2, "image_url": "", "rating": 3.5, "name": "China One Restaurant", "url": "https://www.yelp.com/biz/china-one-restaurant-brooklyn?adjust_creative=gBcvfFpabk3CnzmXKdYe3w&utm_campaign=yelp_api_v3&utm_medium=api_v3_business_search&utm_source=gBcvfFpabk3CnzmXKdYe3w"}, {"transactions": ["delivery", "pickup"], "distance": 10816.180375463999, "phone": "+17182780390", "categories": [{"alias": "chinese", "title": "Chinese"}], "id": "wah-lung-kitchen-astoria", "display_phone": "(718) 278-0390", "is_closed": false, "location": {"address2": "", "country": "US", "display_address": ["2111 21st Ave", "Astoria, NY 11105"], "address1": "2111 21st Ave", "city": "Astoria", "zip_code": "11105", "address3": "", "state": "NY"}, "coordinates": {"longitude": -73.914604, "latitude": 40.781677}, "review_count": 13, "image_url": "https://s3-media1.fl.yelpcdn.com/bphoto/_7Y-SEOdovjZpDX3Wn7lYA/o.jpg", "price": "$", "rating": 3.5, "name": "Wah Lung Kitchen", "url": "https://www.yelp.com/biz/wah-lung-kitchen-astoria?adjust_creative=gBcvfFpabk3CnzmXKdYe3w&utm_campaign=yelp_api_v3&utm_medium=api_v3_business_search&utm_source=gBcvfFpabk3CnzmXKdYe3w"}, {"transactions": ["delivery", "pickup"], "distance": 4302.87304592, "phone": "+12126850563", "categories": [{"alias": "chinese", "title": "Chinese"}], "id": "profit-chinese-restaurant-new-york", "display_phone": "(212) 685-0563", "is_closed": false, "location": {"address2": "", "country": "US", "display_address": ["538 2nd Ave", "New York, NY 10016"], "address1": "538 2nd Ave", "city": "New York", "zip_code": "10016", "address3": "", "state": "NY"}, "coordinates": {"longitude": -73.97765, "latitude": 40.74206}, "review_count": 43, "image_url": "https://s3-media2.fl.yelpcdn.com/bphoto/iN_F0tfHtJ7uLVqlZihZ0Q/o.jpg", "price": "$", "rating": 2.5, "name": "Profit Chinese Restaurant", "url": "https://www.yelp.com/biz/profit-chinese-restaurant-new-york?adjust_creative=gBcvfFpabk3CnzmXKdYe3w&utm_campaign=yelp_api_v3&utm_medium=api_v3_business_search&utm_source=gBcvfFpabk3CnzmXKdYe3w"}, {"transactions": [], "distance": 1045.808999448, "phone": "+12122199876", "categories": [{"alias": "chinese", "title": "Chinese"}], "id": "hua-ji-pork-chop-fast-food-new-york", "display_phone": "(212) 219-9876", "is_closed": false, "location": {"address2": "", "country": "US", "display_address": ["7 Allen St", "New York, NY 10002"], "address1": "7 Allen St", "city": "New York", "zip_code": "10002", "address3": "", "state": "NY"}, "coordinates": {"longitude": -73.993072, "latitude": 40.714809}, "review_count": 63, "image_url": "https://s3-media1.fl.yelpcdn.com/bphoto/-R8Z1MbQCgcfMrh_lNZOsw/o.jpg", "price": "$", "rating": 4.0, "name": "Hua Ji Pork Chop Fast Food", "url": "https://www.yelp.com/biz/hua-ji-pork-chop-fast-food-new-york?adjust_creative=gBcvfFpabk3CnzmXKdYe3w&utm_campaign=yelp_api_v3&utm_medium=api_v3_business_search&utm_source=gBcvfFpabk3CnzmXKdYe3w"}, {"transactions": ["delivery", "pickup"], "distance": 3178.34511158, "phone": "+17183991666", "categories": [{"alias": "chinese", "title": "Chinese"}], "id": "lins-garden-restaurant-brooklyn", "display_phone": "(718) 399-1666", "is_closed": false, "location": {"address2": "", "country": "US", "display_address": ["175 4th Ave", "Brooklyn, NY 11217"], "address1": "175 4th Ave", "city": "Brooklyn", "zip_code": "11217", "address3": "", "state": "NY"}, "coordinates": {"longitude": -73.98197, "latitude": 40.67843}, "review_count": 13, "image_url": "https://s3-media4.fl.yelpcdn.com/bphoto/eeuBvI7rbQu1a9tcIMeH6g/o.jpg", "price": "$$", "rating": 3.0, "name": "Lin's Garden Restaurant", "url": "https://www.yelp.com/biz/lins-garden-restaurant-brooklyn?adjust_creative=gBcvfFpabk3CnzmXKdYe3w&utm_campaign=yelp_api_v3&utm_medium=api_v3_business_search&utm_source=gBcvfFpabk3CnzmXKdYe3w"}, {"transactions": ["delivery", "pickup"], "distance": 14935.79208196, "phone": "+17186579407", "categories": [{"alias": "chinese", "title": "Chinese"}], "id": "maxim-garden-chinese-restaurant-jamaica", "display_phone": "(718) 657-9407", "is_closed": false, "location": {"address2": "", "country": "US", "display_address": ["13861 Queens Blvd", "Jamaica, NY 11435"], "address1": "13861 Queens Blvd", "city": "Jamaica", "zip_code": "11435", "address3": "", "state": "NY"}, "coordinates": {"longitude": -73.8171551, "latitude": 40.7074798}, "review_count": 33, "image_url": "https://s3-media3.fl.yelpcdn.com/bphoto/AUlBQpsTF40K4SIEJB6aVQ/o.jpg", "price": "$", "rating": 3.0, "name": "Maxim Garden Chinese Restaurant", "url": "https://www.yelp.com/biz/maxim-garden-chinese-restaurant-jamaica?adjust_creative=gBcvfFpabk3CnzmXKdYe3w&utm_campaign=yelp_api_v3&utm_medium=api_v3_business_search&utm_source=gBcvfFpabk3CnzmXKdYe3w"}, {"transactions": [], "distance": 12406.382747919999, "phone": "+17186998781", "categories": [{"alias": "chinese", "title": "Chinese"}], "id": "panda-garden-chinese-restaurants-corona", "display_phone": "(718) 699-8781", "is_closed": false, "location": {"address2": "", "country": "US", "display_address": ["10718 Corona Ave", "Corona, NY 11368"], "address1": "10718 Corona Ave", "city": "Corona", "zip_code": "11368", "address3": "", "state": "NY"}, "coordinates": {"longitude": -73.8558578491211, "latitude": 40.743350982666}, "review_count": 6, "image_url": "https://s3-media1.fl.yelpcdn.com/bphoto/pkScgl2E5YzyrsumumRVhw/o.jpg", "price": "$", "rating": 4.0, "name": "Panda Garden Chinese Restaurants", "url": "https://www.yelp.com/biz/panda-garden-chinese-restaurants-corona?adjust_creative=gBcvfFpabk3CnzmXKdYe3w&utm_campaign=yelp_api_v3&utm_medium=api_v3_business_search&utm_source=gBcvfFpabk3CnzmXKdYe3w"}, {"transactions": [], "distance": 14440.654490859999, "phone": "+17182922493", "categories": [{"alias": "chinese", "title": "Chinese"}], "id": "new-china-restaurant-bronx-2", "display_phone": "(718) 292-2493", "is_closed": false, "location": {"address2": "", "country": "US", "display_address": ["3035 3rd Ave", "Bronx, NY 10455"], "address1": "3035 3rd Ave", "city": "Bronx", "zip_code": "10455", "address3": "", "state": "NY"}, "coordinates": {"longitude": -73.9133950213959, "latitude": 40.8199502681327}, "review_count": 5, "image_url": "https://s3-media3.fl.yelpcdn.com/bphoto/wASCceYeDs_zZFoNKdiiEA/o.jpg", "price": "$", "rating": 4.0, "name": "New China Restaurant", "url": "https://www.yelp.com/biz/new-china-restaurant-bronx-2?adjust_creative=gBcvfFpabk3CnzmXKdYe3w&utm_campaign=yelp_api_v3&utm_medium=api_v3_business_search&utm_source=gBcvfFpabk3CnzmXKdYe3w"}, {"transactions": ["delivery", "pickup"], "distance": 2013.712102572, "phone": "+12125299888", "categories": [{"alias": "chinese", "title": "Chinese"}], "id": "china-town-chinese-restaurant-new-york", "display_phone": "(212) 529-9888", "is_closed": false, "location": {"address2": "", "country": "US", "display_address": ["250 E Houston St", "New York, NY 10002"], "address1": "250 E Houston St", "city": "New York", "zip_code": "10002", "address3": "", "state": "NY"}, "coordinates": {"longitude": -73.9849090576172, "latitude": 40.722095489502}, "review_count": 6, "image_url": "https://s3-media3.fl.yelpcdn.com/bphoto/Ud7D9UGV5iIUEsujqV-FYg/o.jpg", "price": "$", "rating": 3.0, "name": "China Town Chinese Restaurant", "url": "https://www.yelp.com/biz/china-town-chinese-restaurant-new-york?adjust_creative=gBcvfFpabk3CnzmXKdYe3w&utm_campaign=yelp_api_v3&utm_medium=api_v3_business_search&utm_source=gBcvfFpabk3CnzmXKdYe3w"}, {"transactions": [], "distance": 5815.829834253999, "phone": "+17185743923", "categories": [{"alias": "chinese", "title": "Chinese"}], "id": "king-men-brooklyn", "display_phone": "(718) 574-3923", "is_closed": false, "location": {"address2": "", "country": "US", "display_address": ["204 Malcolm X Blvd", "Brooklyn, NY 11221"], "address1": "204 Malcolm X Blvd", "city": "Brooklyn", "zip_code": "11221", "address3": "", "state": "NY"}, "coordinates": {"longitude": -73.930061340332, "latitude": 40.6864585876465}, "review_count": 8, "image_url": "https://s3-media4.fl.yelpcdn.com/bphoto/DuCb231euXzpkixV7Y1eeA/o.jpg", "price": "$", "rating": 3.0, "name": "King Men", "url": "https://www.yelp.com/biz/king-men-brooklyn?adjust_creative=gBcvfFpabk3CnzmXKdYe3w&utm_campaign=yelp_api_v3&utm_medium=api_v3_business_search&utm_source=gBcvfFpabk3CnzmXKdYe3w"}, {"transactions": [], "distance": 1434.3847379038, "phone": "+12129663766", "categories": [{"alias": "bakeries", "title": "Bakeries"}, {"alias": "chinese", "title": "Chinese"}], "id": "manna-house-bakery-new-york", "display_phone": "(212) 966-3766", "is_closed": false, "location": {"address2": "", "country": "US", "display_address": ["125 Mott St", "New York, NY 10013"], "address1": "125 Mott St", "city": "New York", "zip_code": "10013", "address3": "", "state": "NY"}, "coordinates": {"longitude": -73.99705, "latitude": 40.71815}, "review_count": 56, "image_url": "https://s3-media4.fl.yelpcdn.com/bphoto/vT-bXj9G4cNfrBtRgSjhKQ/o.jpg", "price": "$", "rating": 4.0, "name": "Manna House Bakery", "url": "https://www.yelp.com/biz/manna-house-bakery-new-york?adjust_creative=gBcvfFpabk3CnzmXKdYe3w&utm_campaign=yelp_api_v3&utm_medium=api_v3_business_search&utm_source=gBcvfFpabk3CnzmXKdYe3w"}, {"transactions": ["delivery", "pickup"], "distance": 7029.33640692, "phone": "+17188548500", "categories": [{"alias": "chinese", "title": "Chinese"}], "id": "friendlys-chinese-restaurant-brooklyn", "display_phone": "(718) 854-8500", "is_closed": false, "location": {"address2": "", "country": "US", "display_address": ["125 Church Ave", "Brooklyn, NY 11218"], "address1": "125 Church Ave", "city": "Brooklyn", "zip_code": "11218", "address3": "", "state": "NY"}, "coordinates": {"longitude": -73.978652, "latitude": 40.643386}, "review_count": 16, "image_url": "https://s3-media2.fl.yelpcdn.com/bphoto/scHjJk4uiaVqqZOmI5FCMg/o.jpg", "price": "$", "rating": 3.0, "name": "Friendly's Chinese Restaurant", "url": "https://www.yelp.com/biz/friendlys-chinese-restaurant-brooklyn?adjust_creative=gBcvfFpabk3CnzmXKdYe3w&utm_campaign=yelp_api_v3&utm_medium=api_v3_business_search&utm_source=gBcvfFpabk3CnzmXKdYe3w"}, {"transactions": [], "distance": 15564.08968334, "phone": "+17186611616", "categories": [{"alias": "hotpot", "title": "Hot Pot"}, {"alias": "chinese", "title": "Chinese"}], "id": "fukuoka-shabu-shabu-flushing", "display_phone": "(718) 661-1616", "is_closed": false, "location": {"address2": "", "country": "US", "display_address": ["45-68 Kissena Blvd", "Flushing, NY 11355"], "address1": "45-68 Kissena Blvd", "city": "Flushing", "zip_code": "11355", "address3": "", "state": "NY"}, "coordinates": {"longitude": -73.8195, "latitude": 40.75057}, "review_count": 131, "image_url": "https://s3-media1.fl.yelpcdn.com/bphoto/2Oi5fXJRIWJJA3AswpsepQ/o.jpg", "price": "$$", "rating": 4.0, "name": "Fukuoka Shabu Shabu", "url": "https://www.yelp.com/biz/fukuoka-shabu-shabu-flushing?adjust_creative=gBcvfFpabk3CnzmXKdYe3w&utm_campaign=yelp_api_v3&utm_medium=api_v3_business_search&utm_source=gBcvfFpabk3CnzmXKdYe3w"}, {"transactions": [], "distance": 1005.2728952478, "phone": "+12122670220", "categories": [{"alias": "dimsum", "title": "Dim Sum"}], "id": "hop-shing-restaurant-new-york", "display_phone": "(212) 267-0220", "is_closed": false, "location": {"address2": "Ste 1", "country": "US", "display_address": ["9 Chatham Sq", "Ste 1", "New York, NY 10038"], "address1": "9 Chatham Sq", "city": "New York", "zip_code": "10038", "address3": "", "state": "NY"}, "coordinates": {"longitude": -73.9980164, "latitude": 40.7139511}, "review_count": 417, "image_url": "https://s3-media1.fl.yelpcdn.com/bphoto/AvcwryP1B5VgPE_1YEDTmg/o.jpg", "price": "$", "rating": 3.5, "name": "Hop Shing Restaurant", "url": "https://www.yelp.com/biz/hop-shing-restaurant-new-york?adjust_creative=gBcvfFpabk3CnzmXKdYe3w&utm_campaign=yelp_api_v3&utm_medium=api_v3_business_search&utm_source=gBcvfFpabk3CnzmXKdYe3w"}]}