{"region": {"center": {"longitude": -73.99429321289062, "latitude": 40.70544486444615}}, "total": 2613, "businesses": [{"transactions": [], "distance": 8749.087269762, "phone": "+17188590010", "categories": [{"alias": "chinese", "title": "Chinese"}], "id": "good-taste-chinese-brooklyn", "display_phone": "(718) 859-0010", "is_closed": false, "location": {"address2": "", "country": "US", "display_address": ["1015 Ave H", "Brooklyn, NY 11230"], "address1": "1015 Ave H", "city": "Brooklyn", "zip_code": "11230", "address3": "", "state": "NY"}, "coordinates": {"longitude": -73.9664971, "latitude": 40.6296397}, "review_count": 3, "image_url": "https://s3-media2.fl.yelpcdn.com/bphoto/_fVJ8JzD53b39XXqyz2j0Q/o.jpg", "price": "$$", "rating": 4.0, "name": "Good Taste Chinese", "url": "https://www.yelp.com/biz/good-taste-chinese-brooklyn?adjust_creative=gBcvfFpabk3CnzmXKdYe3w&utm_campaign=yelp_api_v3&utm_medium=api_v3_business_search&utm_source=gBcvfFpabk3CnzmXKdYe3w"}, {"transactions": [], "distance": 13632.62579828, "phone": "+17189818383", "categories": [{"alias": "chinese", "title": "Chinese"}, {"alias": "japanese", "title": "Japanese"}, {"alias": "sushi", "title": "Sushi Bars"}], "id": "fortune-hawaii-chinese-and-sushi-restaurant-staten-island-2", "display_phone": "(718) 981-8383", "is_closed": false, "location": {"address2": null, "country": "US", "display_address": ["900 Hylan Blvd", "Staten Island, NY 10305"], "address1": "900 Hylan Blvd", "city": "Staten Island", "zip_code": "10305", "address3": "", "state": "NY"}, "coordinates": {"longitude": -74.072319, "latitude": 40.598247}, "review_count": 25, "image_url": "https://s3-media2.fl.yelpcdn.com/bphoto/hXK0FM8ruwdMOGlG_11e0w/o.jpg", "price": "$$", "rating": 3.0, "name": "Fortune Hawaii Chinese and Sushi Restaurant", "url": "https://www.yelp.com/biz/fortune-hawaii-chinese-and-sushi-restaurant-staten-island-2?adjust_creative=gBcvfFpabk3CnzmXKdYe3w&utm_campaign=yelp_api_v3&utm_medium=api_v3_business_search&utm_source=gBcvfFpabk3CnzmXKdYe3w"}, {"transactions": ["delivery", "pickup"], "distance": 9906.461833502, "phone": "+12122226511", "categories": [{"alias": "chinese", "title": "Chinese"}], "id": "hunan-park-new-york-3", "display_phone": "(212) 222-6511", "is_closed": false, "location": {"address2": "", "country": "US", "display_address": ["721 Columbus Ave", "New York, NY 10025"], "address1": "721 Columbus Ave", "city": "New York", "zip_code": "10025", "address3": "", "state": "NY"}, "coordinates": {"longitude": -73.96774, "latitude": 40.79222}, "review_count": 54, "image_url": "https://s3-media1.fl.yelpcdn.com/bphoto/MVlVJppm4j7AQoeEhGPiUw/o.jpg", "price": "$$", "rating": 3.0, "name": "Hunan Park", "url": "https://www.yelp.com/biz/hunan-park-new-york-3?adjust_creative=gBcvfFpabk3CnzmXKdYe3w&utm_campaign=yelp_api_v3&utm_medium=api_v3_business_search&utm_source=gBcvfFpabk3CnzmXKdYe3w"}, {"transactions": [], "distance": 11554.213077819999, "phone": "", "categories": [{"alias": "cantonese", "title": "Cantonese"}], "id": "new-86-wong-restaurant-brooklyn", "display_phone": "", "is_closed": false, "location": {"address2": "", "country": "US", "display_address": ["2210 86th St", "Brooklyn, NY 11214"], "address1": "2210 86th St", "city": "Brooklyn", "zip_code": "11214", "address3": "", "state": "NY"}, "coordinates": {"longitude": -73.9936578646303, "latitude": 40.6015341362493}, "review_count": 20, "image_url": "https://s3-media2.fl.yelpcdn.com/bphoto/4w6ba0pIQgUzY_Kj7QvWWQ/o.jpg", "price": "$", "rating": 3.5, "name": "New 86 Wong Restaurant", "url": "https://www.yelp.com/biz/new-86-wong-restaurant-brooklyn?adjust_creative=gBcvfFpabk3CnzmXKdYe3w&utm_campaign=yelp_api_v3&utm_medium=api_v3_business_search&utm_source=gBcvfFpabk3CnzmXKdYe3w"}, {"transactions": [], "distance": 5001.45374378, "phone": "+17187733076", "categories": [{"alias": "chinese", "title": "Chinese"}], "id": "hing-hung-kitchen-brooklyn", "display_phone": "(718) 773-3076", "is_closed": false, "location": {"address2": "", "country": "US", "display_address": ["619 Nostrand Ave", "Brooklyn, NY 11216"], "address1": "619 Nostrand Ave", "city": "Brooklyn", "zip_code": "11216", "address3": "", "state": "NY"}, "coordinates": {"longitude": -73.9496383666992, "latitude": 40.6758232116699}, "review_count": 8, "image_url": "https://s3-media1.fl.yelpcdn.com/bphoto/XPGlDp98LRKk4-m8fjktoQ/o.jpg", "price": "$", "rating": 3.0, "name": "Hing Hung Kitchen", "url": "https://www.yelp.com/biz/hing-hung-kitchen-brooklyn?adjust_creative=gBcvfFpabk3CnzmXKdYe3w&utm_campaign=yelp_api_v3&utm_medium=api_v3_business_search&utm_source=gBcvfFpabk3CnzmXKdYe3w"}, {"transactions": ["delivery", "pickup"], "distance": 4341.721869784, "phone": "+12126858871", "categories": [{"alias": "chinese", "title": "Chinese"}, {"alias": "sushi", "title": "Sushi Bars"}, {"alias": "japanese", "title": "Japanese"}], "id": "chef-28-new-york", "display_phone": "(212) 685-8871", "is_closed": false, "location": {"address2": "", "country": "US", "display_address": ["29 E 28th St", "New York, NY 10016"], "address1": "29 E 28th St", "city": "New York", "zip_code": "10016", "address3": "", "state": "NY"}, "coordinates": {"longitude": -73.9850082, "latitude": 40.7438316}, "review_count": 78, "image_url": "https://s3-media2.fl.yelpcdn.com/bphoto/oZphk1eCqrkIdRj9coYrWg/o.jpg", "price": "$$", "rating": 3.0, "name": "Chef 28", "url": "https://www.yelp.com/biz/chef-28-new-york?adjust_creative=gBcvfFpabk3CnzmXKdYe3w&utm_campaign=yelp_api_v3&utm_medium=api_v3_business_search&utm_source=gBcvfFpabk3CnzmXKdYe3w"}, {"transactions": [], "distance": 4200.1881416159995, "phone": "+17188579998", "categories": [{"alias": "chinese", "title": "Chinese"}], "id": "lucky-family-1-takeout-kitchn-brooklyn", "display_phone": "(718) 857-9998", "is_closed": false, "location": {"address2": "", "country": "US", "display_address": ["1120 Fulton St", "Brooklyn, NY 11238"], "address1": "1120 Fulton St", "city": "Brooklyn", "zip_code": "11238", "address3": "", "state": "NY"}, "coordinates": {"longitude": -73.956291, "latitude": 40.680992}, "review_count": 2, "image_url": "", "rating": 3.0, "name": "Lucky Family 1 Takeout Kitchn", "url": "https://www.yelp.com/biz/lucky-family-1-takeout-kitchn-brooklyn?adjust_creative=gBcvfFpabk3CnzmXKdYe3w&utm_campaign=yelp_api_v3&utm_medium=api_v3_business_search&utm_source=gBcvfFpabk3CnzmXKdYe3w"}, {"transactions": ["delivery", "pickup"], "distance": 12388.73070213, "phone": "+17184414538", "categories": [{"alias": "chinese", "title": "Chinese"}], "id": "cheung-king-kitchen-woodhaven", "display_phone": "(718) 441-4538", "is_closed": false, "location": {"address2": "", "country": "US", "display_address": ["9717 Jamaica Ave", "Woodhaven, NY 11421"], "address1": "9717 Jamaica Ave", "city": "Woodhaven", "zip_code": "11421", "address3": "", "state": "NY"}, "coordinates": {"longitude": -73.84801, "latitude": 40.69494}, "review_count": 5, "image_url": "https://s3-media1.fl.yelpcdn.com/bphoto/27pfJCNy76yR6rPrOJycWA/o.jpg", "price": "$", "rating": 4.5, "name": "Cheung King Kitchen", "url": "https://www.yelp.com/biz/cheung-king-kitchen-woodhaven?adjust_creative=gBcvfFpabk3CnzmXKdYe3w&utm_campaign=yelp_api_v3&utm_medium=api_v3_business_search&utm_source=gBcvfFpabk3CnzmXKdYe3w"}, {"transactions": [], "distance": 7256.181570356, "phone": "+17188533385", "categories": [{"alias": "chinese", "title": "Chinese"}, {"alias": "noodles", "title": "Noodles"}], "id": "8th-ave-noodles-brooklyn", "display_phone": "(718) 853-3385", "is_closed": false, "location": {"address2": "", "country": "US", "display_address": ["5017 8th Ave", "Brooklyn, NY 11220"], "address1": "5017 8th Ave", "city": "Brooklyn", "zip_code": "11220", "address3": "", "state": "NY"}, "coordinates": {"longitude": -74.003883, "latitude": 40.640594}, "review_count": 8, "image_url": "https://s3-media3.fl.yelpcdn.com/bphoto/dvKIi0FWV_IiSQFLYHpzlA/o.jpg", "price": "$", "rating": 3.5, "name": "8th Ave Noodles", "url": "https://www.yelp.com/biz/8th-ave-noodles-brooklyn?adjust_creative=gBcvfFpabk3CnzmXKdYe3w&utm_campaign=yelp_api_v3&utm_medium=api_v3_business_search&utm_source=gBcvfFpabk3CnzmXKdYe3w"}, {"transactions": [], "distance": 11094.840654209998, "phone": "+17182416570", "categories": [{"alias": "chinese", "title": "Chinese"}], "id": "yi-hong-brooklyn", "display_phone": "(718) 241-6570", "is_closed": false, "location": {"address2": "", "country": "US", "display_address": ["9103 Ave L", "Brooklyn, NY 11236"], "address1": "9103 Ave L", "city": "Brooklyn", "zip_code": "11236", "address3": "", "state": "NY"}, "coordinates": {"longitude": -73.8995743, "latitude": 40.6360703}, "review_count": 3, "image_url": "https://s3-media4.fl.yelpcdn.com/bphoto/-c--NB8aVEqsMQDqHaOkhg/o.jpg", "price": "$", "rating": 4.5, "name": "Yi Hong", "url": "https://www.yelp.com/biz/yi-hong-brooklyn?adjust_creative=gBcvfFpabk3CnzmXKdYe3w&utm_campaign=yelp_api_v3&utm_medium=api_v3_business_search&utm_source=gBcvfFpabk3CnzmXKdYe3w"}, {"transactions": [], "distance": 16127.85918808, "phone": "+17183003722", "categories": [{"alias": "chinese", "title": "Chinese"}, {"alias": "thai", "title": "Thai"}, {"alias": "halal", "title": "Halal"}], "id": "dumpling-flushing-3", "display_phone": "(718) 300-3722", "is_closed": false, "location": {"address2": "", "country": "US", "display_address": ["147-16 45th Ave", "Flushing, NY 11355"], "address1": "147-16 45th Ave", "city": "Flushing", "zip_code": "11355", "address3": "", "state": "NY"}, "coordinates": {"longitude": -73.8146592100034, "latitude": 40.7555176117587}, "review_count": 16, "image_url": "https://s3-media1.fl.yelpcdn.com/bphoto/uZVIo3n5g_qI2GPiGTpbGw/o.jpg", "price": "$", "rating": 4.5, "name": "Dumpling", "url": "https://www.yelp.com/biz/dumpling-flushing-3?adjust_creative=gBcvfFpabk3CnzmXKdYe3w&utm_campaign=yelp_api_v3&utm_medium=api_v3_business_search&utm_source=gBcvfFpabk3CnzmXKdYe3w"}, {"transactions": [], "distance": 14026.346001259999, "phone": "+12122838118", "categories": [{"alias": "chinese", "title": "Chinese"}], "id": "jing-hui-new-york", "display_phone": "(212) 283-8118", "is_closed": false, "location": {"address2": "", "country": "US", "display_address": ["255 W 148th St", "New York, NY 10039"], "address1": "255 W 148th St", "city": "New York", "zip_code": "10039", "address3": "", "state": "NY"}, "coordinates": {"longitude": -73.9396286010742, "latitude": 40.8246154785156}, "review_count": 11, "image_url": "https://s3-media3.fl.yelpcdn.com/bphoto/yMazwmWnprcZTxZaG4S5FQ/o.jpg", "price": "$", "rating": 3.0, "name": "Jing Hui", "url": "https://www.yelp.com/biz/jing-hui-new-york?adjust_creative=gBcvfFpabk3CnzmXKdYe3w&utm_campaign=yelp_api_v3&utm_medium=api_v3_business_search&utm_source=gBcvfFpabk3CnzmXKdYe3w"}, {"transactions": [], "distance": 15060.606054999998, "phone": "+17183530086", "categories": [{"alias": "chinese", "title": "Chinese"}, {"alias": "mongolian", "title": "Mongolian"}], "id": "rural-restaurant-flushing", "display_phone": "(718) 353-0086", "is_closed": false, "location": {"address2": "", "country": "US", "display_address": ["42-85 Main St", "Flushing, NY 11355"], "address1": "42-85 Main St", "city": "Flushing", "zip_code": "11355", "address3": "", "state": "NY"}, "coordinates": {"longitude": -73.8270154, "latitude": 40.7531604}, "review_count": 14, "image_url": "https://s3-media3.fl.yelpcdn.com/bphoto/7Eqp0VYBWVzdMiFXOlG8UQ/o.jpg", "price": "$$", "rating": 4.0, "name": "Rural Restaurant", "url": "https://www.yelp.com/biz/rural-restaurant-flushing?adjust_creative=gBcvfFpabk3CnzmXKdYe3w&utm_campaign=yelp_api_v3&utm_medium=api_v3_business_search&utm_source=gBcvfFpabk3CnzmXKdYe3w"}, {"transactions": [], "distance": 1575.4406047456, "phone": "+12123889800", "categories": [{"alias": "chinese", "title": "Chinese"}], "id": "happy-wok-restaurant-new-york", "display_phone": "(212) 388-9800", "is_closed": false, "location": {"address2": "", "country": "US", "display_address": ["158 Delancey St", "New York, NY 10002"], "address1": "158 Delancey St", "city": "New York", "zip_code": "10002", "address3": "", "state": "NY"}, "coordinates": {"longitude": -73.9858322, "latitude": 40.7180023}, "review_count": 8, "image_url": "https://s3-media1.fl.yelpcdn.com/bphoto/oGIV6kfk8DWaWKP-WAhJsg/o.jpg", "price": "$", "rating": 3.5, "name": "Happy Wok Restaurant", "url": "https://www.yelp.com/biz/happy-wok-restaurant-new-york?adjust_creative=gBcvfFpabk3CnzmXKdYe3w&utm_campaign=yelp_api_v3&utm_medium=api_v3_business_search&utm_source=gBcvfFpabk3CnzmXKdYe3w"}, {"transactions": [], "distance": 4887.2701051760005, "phone": "+17187358899", "categories": [{"alias": "chinese", "title": "Chinese"}], "id": "china-city-brooklyn-3", "display_phone": "(718) 735-8899", "is_closed": false, "location": {"address2": "", "country": "US", "display_address": ["626 Nostrand Ave", "Brooklyn, NY 11216"], "address1": "626 Nostrand Ave", "city": "Brooklyn", "zip_code": "11216", "address3": "", "state": "NY"}, "coordinates": {"longitude": -73.9499588, "latitude": 40.6771202}, "review_count": 1, "image_url": "", "rating": 4.0, "name": "China City", "url": "https://www.yelp.com/biz/china-city-brooklyn-3?adjust_creative=gBcvfFpabk3CnzmXKdYe3w&utm_campaign=yelp_api_v3&utm_medium=api_v3_business_search&utm_source=gBcvfFpabk3CnzmXKdYe3w"}, {"transactions": [], "distance": 10556.99198418, "phone": "+17186491480", "categories": [{"alias": "chinese", "title": "Chinese"}], "id": "panda-kitchen-brooklyn", "display_phone": "(718) 649-1480", "is_closed": false, "location": {"address2": "", "country": "US", "display_address": ["943 Pennsylvania Ave", "Brooklyn, NY 11207"], "address1": "943 Pennsylvania Ave", "city": "Brooklyn", "zip_code": "11207", "address3": "", "state": "NY"}, "coordinates": {"longitude": -73.8879972696304, "latitude": 40.6552746891975}, "review_count": 7, "image_url": "https://s3-media3.fl.yelpcdn.com/bphoto/07jzxFmdGYnUpYSJ8B-ZQg/o.jpg", "price": "$", "rating": 3.0, "name": "Panda Kitchen", "url": "https://www.yelp.com/biz/panda-kitchen-brooklyn?adjust_creative=gBcvfFpabk3CnzmXKdYe3w&utm_campaign=yelp_api_v3&utm_medium=api_v3_business_search&utm_source=gBcvfFpabk3CnzmXKdYe3w"}, {"transactions": [], "distance": 1384.3322200419998, "phone": "+12129647256", "categories": [{"alias": "chinese", "title": "Chinese"}], "id": "sun-sai-gai-restaurant-new-york", "display_phone": "(212) 964-7256", "is_closed": false, "location": {"address2": "Ste A", "country": "US", "display_address": ["220 Canal St", "Ste A", "New York, NY 10013"], "address1": "220 Canal St", "city": "New York", "zip_code": "10013", "address3": "", "state": "NY"}, "coordinates": {"longitude": -73.9992065, "latitude": 40.7172966}, "review_count": 175, "image_url": "https://s3-media3.fl.yelpcdn.com/bphoto/4KV-d3_ylUEyy7PZ8YtrNw/o.jpg", "price": "$", "rating": 3.0, "name": "Sun Sai Gai Restaurant", "url": "https://www.yelp.com/biz/sun-sai-gai-restaurant-new-york?adjust_creative=gBcvfFpabk3CnzmXKdYe3w&utm_campaign=yelp_api_v3&utm_medium=api_v3_business_search&utm_source=gBcvfFpabk3CnzmXKdYe3w"}, {"transactions": [], "distance": 10919.910385164, "phone": "+12123488889", "categories": [{"alias": "chinese", "title": "Chinese"}], "id": "shun-cheong-chinese-kitchen-new-york", "display_phone": "(212) 348-8889", "is_closed": false, "location": {"address2": "", "country": "US", "display_address": ["2 W 111th St", "New York, NY 10026"], "address1": "2 W 111th St", "city": "New York", "zip_code": "10026", "address3": "", "state": "NY"}, "coordinates": {"longitude": -73.9491501, "latitude": 40.7975311}, "review_count": 1, "image_url": "https://s3-media1.fl.yelpcdn.com/bphoto/M9Bi-qOawA-UnOgabRoAFA/o.jpg", "rating": 5.0, "name": "Shun Cheong Chinese Kitchen", "url": "https://www.yelp.com/biz/shun-cheong-chinese-kitchen-new-york?adjust_creative=gBcvfFpabk3CnzmXKdYe3w&utm_campaign=yelp_api_v3&utm_medium=api_v3_business_search&utm_source=gBcvfFpabk3CnzmXKdYe3w"}, {"transactions": [], "distance": 11866.543485244, "phone": "+17182095999", "categories": [{"alias": "chinese", "title": "Chinese"}], "id": "china-wok-brooklyn-4", "display_phone": "(718) 209-5999", "is_closed": false, "location": {"address2": "", "country": "US", "display_address": ["5813 Avenue T", "Brooklyn, NY 11234"], "address1": "5813 Avenue T", "city": "Brooklyn", "zip_code": "11234", "address3": "", "state": "NY"}, "coordinates": {"longitude": -73.91841, "latitude": 40.6155}, "review_count": 3, "image_url": "https://s3-media2.fl.yelpcdn.com/bphoto/NUkLUnP9sISZZPLCjXHtlw/o.jpg", "price": "$", "rating": 4.0, "name": "China Wok", "url": "https://www.yelp.com/biz/china-wok-brooklyn-4?adjust_creative=gBcvfFpabk3CnzmXKdYe3w&utm_campaign=yelp_api_v3&utm_medium=api_v3_business_search&utm_source=gBcvfFpabk3CnzmXKdYe3w"}, {"transactions": [], "distance": 8717.866556563999, "phone": "+12128742780", "categories": [{"alias": "cuban", "title": "Cuban"}, {"alias": "chinese", "title": "Chinese"}], "id": "la-unica-caridad-restaurant-new-york", "display_phone": "(212) 874-2780", "is_closed": false, "location": {"address2": "", "country": "US", "display_address": ["2199 Broadway", "New York, NY 10024"], "address1": "2199 Broadway", "city": "New York", "zip_code": "10024", "address3": "", "state": "NY"}, "coordinates": {"longitude": -73.9807237, "latitude": 40.7832742}, "review_count": 4, "image_url": "https://s3-media1.fl.yelpcdn.com/bphoto/LykFsSVvhhs-XKx_09B_ww/o.jpg", "price": "$$", "rating": 4.0, "name": "La Unica Caridad  Restaurant", "url": "https://www.yelp.com/biz/la-unica-caridad-restaurant-new-york?adjust_creative=gBcvfFpabk3CnzmXKdYe3w&utm_campaign=yelp_api_v3&utm_medium=api_v3_business_search&utm_source=gBcvfFpabk3CnzmXKdYe3w"}, {"transactions": [], "distance": 15006.953878079998, "phone": "+17188866628", "categories": [{"alias": "foodstands", "title": "Food Stands"}, {"alias": "chinese", "title": "Chinese"}], "id": "peking-duck-sandwich-stall-flushing-2", "display_phone": "(718) 886-6628", "is_closed": false, "location": {"address2": "", "country": "US", "display_address": ["137-28 40th Rd", "Flushing, NY 11354"], "address1": "137-28 40th Rd", "city": "Flushing", "zip_code": "11354", "address3": "", "state": "NY"}, "coordinates": {"longitude": -73.830616, "latitude": 40.7586601}, "review_count": 49, "image_url": "https://s3-media4.fl.yelpcdn.com/bphoto/-DLXvSwbbFedLDZ2r1y1TA/o.jpg", "price": "$", "rating": 4.5, "name": "Peking Duck Sandwich Stall", "url": "https://www.yelp.com/biz/peking-duck-sandwich-stall-flushing-2?adjust_creative=gBcvfFpabk3CnzmXKdYe3w&utm_campaign=yelp_api_v3&utm_medium=api_v3_business_search&utm_source=gBcvfFpabk3CnzmXKdYe3w"}, {"transactions": ["delivery", "pickup"], "distance": 9597.35058888, "phone": "+17186393535", "categories": [{"alias": "japanese", "title": "Japanese"}, {"alias": "chinese", "title": "Chinese"}], "id": "east-21-jackson-heights-2", "display_phone": "(718) 639-3535", "is_closed": false, "location": {"address2": "", "country": "US", "display_address": ["71-26 Roosevelt Ave", "Jackson Heights, NY 11372"], "address1": "71-26 Roosevelt Ave", "city": "Jackson Heights", "zip_code": "11372", "address3": "", "state": "NY"}, "coordinates": {"longitude": -73.8940858840942, "latitude": 40.7464685299281}, "review_count": 55, "image_url": "https://s3-media4.fl.yelpcdn.com/bphoto/R67Q-EhT9EUcxitNQWq0Fg/o.jpg", "price": "$", "rating": 3.5, "name": "East 21", "url": "https://www.yelp.com/biz/east-21-jackson-heights-2?adjust_creative=gBcvfFpabk3CnzmXKdYe3w&utm_campaign=yelp_api_v3&utm_medium=api_v3_business_search&utm_source=gBcvfFpabk3CnzmXKdYe3w"}, {"transactions": ["pickup"], "distance": 6365.606449562, "phone": "+16465642255", "categories": [{"alias": "dimsum", "title": "Dim Sum"}, {"alias": "vegetarian", "title": "Vegetarian"}], "id": "wok-chi-new-york", "display_phone": "(646) 564-2255", "is_closed": false, "location": {"address2": "", "country": "US", "display_address": ["918 3rd Ave", "New York, NY 10022"], "address1": "918 3rd Ave", "city": "New York", "zip_code": "10022", "address3": null, "state": "NY"}, "coordinates": {"longitude": -73.9683998376131, "latitude": 40.7592222653598}, "review_count": 21, "image_url": "https://s3-media4.fl.yelpcdn.com/bphoto/-0fPsBG8QfU_T8pkJgewQA/o.jpg", "price": "$$", "rating": 3.5, "name": "Wok Chi", "url": "https://www.yelp.com/biz/wok-chi-new-york?adjust_creative=gBcvfFpabk3CnzmXKdYe3w&utm_campaign=yelp_api_v3&utm_medium=api_v3_business_search&utm_source=gBcvfFpabk3CnzmXKdYe3w"}, {"transactions": ["delivery", "pickup"], "distance": 19212.860970319998, "phone": "+17184949393", "categories": [{"alias": "szechuan", "title": "Szechuan"}, {"alias": "thai", "title": "Thai"}], "id": "peking-taste-restaurant-staten-island-2", "display_phone": "(718) 494-9393", "is_closed": false, "location": {"address2": "", "country": "US", "display_address": ["2343 Richmond Ave", "Staten Island, NY 10314"], "address1": "2343 Richmond Ave", "city": "Staten Island", "zip_code": "10314", "address3": "", "state": "NY"}, "coordinates": {"longitude": -74.1645943330109, "latitude": 40.5907324460688}, "review_count": 24, "image_url": "https://s3-media4.fl.yelpcdn.com/bphoto/uYiuD_u2TavnciiTBlxMRw/o.jpg", "price": "$$", "rating": 3.5, "name": "Peking Taste Restaurant", "url": "https://www.yelp.com/biz/peking-taste-restaurant-staten-island-2?adjust_creative=gBcvfFpabk3CnzmXKdYe3w&utm_campaign=yelp_api_v3&utm_medium=api_v3_business_search&utm_source=gBcvfFpabk3CnzmXKdYe3w"}, {"transactions": [], "distance": 1120.158898108, "phone": "+12123495260", "categories": [{"alias": "dimsum", "title": "Dim Sum"}, {"alias": "cafes", "title": "Cafes"}], "id": "mee-sum-cafe-new-york", "display_phone": "(212) 349-5260", "is_closed": false, "location": {"address2": "", "country": "US", "display_address": ["26 Pell St", "New York, NY 10013"], "address1": "26 Pell St", "city": "New York", "zip_code": "10013", "address3": "", "state": "NY"}, "coordinates": {"longitude": -73.998291, "latitude": 40.715045}, "review_count": 14, "image_url": "https://s3-media3.fl.yelpcdn.com/bphoto/JYmc58UllEyllD6i9sMezA/o.jpg", "price": "$", "rating": 3.5, "name": "Mee Sum Cafe", "url": "https://www.yelp.com/biz/mee-sum-cafe-new-york?adjust_creative=gBcvfFpabk3CnzmXKdYe3w&utm_campaign=yelp_api_v3&utm_medium=api_v3_business_search&utm_source=gBcvfFpabk3CnzmXKdYe3w"}, {"transactions": [], "distance": 8347.39552296, "phone": "+17188597357", "categories": [{"alias": "chinese", "title": "Chinese"}], "id": "new-nice-china-town-brooklyn", "display_phone": "(718) 859-7357", "is_closed": false, "location": {"address2": "", "country": "US", "display_address": ["1411 Foster Ave", "Brooklyn, NY 11230"], "address1": "1411 Foster Ave", "city": "Brooklyn", "zip_code": "11230", "address3": "", "state": "NY"}, "coordinates": {"longitude": -73.9635925292969, "latitude": 40.6340942382812}, "review_count": 12, "image_url": "https://s3-media1.fl.yelpcdn.com/bphoto/rEZB59VPT7omm60rWg2HIA/o.jpg", "price": "$", "rating": 3.0, "name": "New Nice China Town", "url": "https://www.yelp.com/biz/new-nice-china-town-brooklyn?adjust_creative=gBcvfFpabk3CnzmXKdYe3w&utm_campaign=yelp_api_v3&utm_medium=api_v3_business_search&utm_source=gBcvfFpabk3CnzmXKdYe3w"}, {"transactions": [], "distance": 15919.183312309999, "phone": "+17187390158", "categories": [{"alias": "chinese", "title": "Chinese"}], "id": "shanghai-chinese-restaurant-jamaica", "display_phone": "(718) 739-0158", "is_closed": false, "location": {"address2": "", "country": "US", "display_address": ["9537 Sutphin Blvd", "Jamaica, NY 11435"], "address1": "9537 Sutphin Blvd", "city": "Jamaica", "zip_code": "11435", "address3": "", "state": "NY"}, "coordinates": {"longitude": -73.805603, "latitude": 40.697571}, "review_count": 8, "image_url": "https://s3-media3.fl.yelpcdn.com/bphoto/Y1OjM1-_fQsZBT8oNzQg2A/o.jpg", "price": "$$", "rating": 3.5, "name": "Shanghai Chinese Restaurant", "url": "https://www.yelp.com/biz/shanghai-chinese-restaurant-jamaica?adjust_creative=gBcvfFpabk3CnzmXKdYe3w&utm_campaign=yelp_api_v3&utm_medium=api_v3_business_search&utm_source=gBcvfFpabk3CnzmXKdYe3w"}, {"transactions": ["delivery", "pickup"], "distance": 5854.7325710079995, "phone": "+12122074787", "categories": [{"alias": "chinese", "title": "Chinese"}], "id": "china-moon-new-york-2", "display_phone": "(212) 207-4787", "is_closed": false, "location": {"address2": "", "country": "US", "display_address": ["7 E 47th St", "New York, NY 10017"], "address1": "7 E 47th St", "city": "New York", "zip_code": "10017", "address3": "", "state": "NY"}, "coordinates": {"longitude": -73.9776763916016, "latitude": 40.756534576416}, "review_count": 86, "image_url": "https://s3-media4.fl.yelpcdn.com/bphoto/OQUBbBWmBsLh0LlP4pAxgw/o.jpg", "price": "$$", "rating": 2.0, "name": "China Moon", "url": "https://www.yelp.com/biz/china-moon-new-york-2?adjust_creative=gBcvfFpabk3CnzmXKdYe3w&utm_campaign=yelp_api_v3&utm_medium=api_v3_business_search&utm_source=gBcvfFpabk3CnzmXKdYe3w"}, {"transactions": [], "distance": 5331.985786604, "phone": "+12122798887", "categories": [{"alias": "chinese", "title": "Chinese"}], "id": "mr-dengs-new-york", "display_phone": "(212) 279-8887", "is_closed": false, "location": {"address2": null, "country": "US", "display_address": ["365 W 34th St", "New York, NY 10001"], "address1": "365 W 34th St", "city": "New York", "zip_code": "10001", "address3": "", "state": "NY"}, "coordinates": {"longitude": -73.9957733154297, "latitude": 40.7533912658691}, "review_count": 1, "image_url": "", "rating": 5.0, "name": "Mr. Deng's", "url": "https://www.yelp.com/biz/mr-dengs-new-york?adjust_creative=gBcvfFpabk3CnzmXKdYe3w&utm_campaign=yelp_api_v3&utm_medium=api_v3_business_search&utm_source=gBcvfFpabk3CnzmXKdYe3w"}, {"transactions": ["delivery", "pickup"], "distance": 15944.803200440001, "phone": "+12125681600", "categories": [{"alias": "chinese", "title": "Chinese"}, {"alias": "noodles", "title": "Noodles"}], "id": "empire-szechuan-noodle-house-new-york", "display_phone": "(212) 568-1600", "is_closed": false, "location": {"address2": "", "country": "US", "display_address": ["4041 Broadway", "New York, NY 10032"], "address1": "4041 Broadway", "city": "New York", "zip_code": "10032", "address3": "", "state": "NY"}, "coordinates": {"longitude": -73.939643, "latitude": 40.842861}, "review_count": 130, "image_url": "https://s3-media4.fl.yelpcdn.com/bphoto/PmUHEHR2D8IV4YZwiFof2g/o.jpg", "price": "$$", "rating": 2.5, "name": "Empire Szechuan Noodle House", "url": "https://www.yelp.com/biz/empire-szechuan-noodle-house-new-york?adjust_creative=gBcvfFpabk3CnzmXKdYe3w&utm_campaign=yelp_api_v3&utm_medium=api_v3_business_search&utm_source=gBcvfFpabk3CnzmXKdYe3w"}, {"transactions": [], "distance": 5939.144224281999, "phone": "+12017985050", "categories": [{"alias": "chinese", "title": "Chinese"}], "id": "lo-fatt-chow-hoboken", "display_phone": "(201) 798-5050", "is_closed": false, "location": {"address2": "", "country": "US", "display_address": ["720 Monroe St C-103", "(Monroe & 8th St)", "Hoboken, NJ 07030"], "address1": "720 Monroe St C-103", "city": "Hoboken", "zip_code": "07030", "address3": "(Monroe & 8th St)", "state": "NJ"}, "coordinates": {"longitude": -74.0378006521148, "latitude": 40.7474615723213}, "review_count": 71, "image_url": "https://s3-media2.fl.yelpcdn.com/bphoto/Bjstxh9NYEGTp7Fe1nObQQ/o.jpg", "price": "$", "rating": 4.0, "name": "Lo-Fatt-Chow", "url": "https://www.yelp.com/biz/lo-fatt-chow-hoboken?adjust_creative=gBcvfFpabk3CnzmXKdYe3w&utm_campaign=yelp_api_v3&utm_medium=api_v3_business_search&utm_source=gBcvfFpabk3CnzmXKdYe3w"}, {"transactions": [], "distance": 8440.280512267998, "phone": "+17184175167", "categories": [{"alias": "chinese", "title": "Chinese"}], "id": "no-1-fusion-queens", "display_phone": "(718) 417-5167", "is_closed": false, "location": {"address2": "", "country": "US", "display_address": ["16-35 Woodbine St", "Queens, NY 11385"], "address1": "16-35 Woodbine St", "city": "Queens", "zip_code": "11385", "address3": "", "state": "NY"}, "coordinates": {"longitude": -73.909462, "latitude": 40.7000923}, "review_count": 2, "image_url": "https://s3-media2.fl.yelpcdn.com/bphoto/yVVe3IH3NO9_2AfaaVvpGQ/o.jpg", "rating": 4.5, "name": "No 1 Fusion", "url": "https://www.yelp.com/biz/no-1-fusion-queens?adjust_creative=gBcvfFpabk3CnzmXKdYe3w&utm_campaign=yelp_api_v3&utm_medium=api_v3_business_search&utm_source=gBcvfFpabk3CnzmXKdYe3w"}, {"transactions": ["delivery", "pickup"], "distance": 11252.66138598, "phone": "+17182530212", "categories": [{"alias": "chinese", "title": "Chinese"}], "id": "kam-fung-kitchen-brooklyn", "display_phone": "(718) 253-0212", "is_closed": false, "location": {"address2": "", "country": "US", "display_address": ["5221 Ave N", "Brooklyn, NY 11234"], "address1": "5221 Ave N", "city": "Brooklyn", "zip_code": "11234", "address3": "", "state": "NY"}, "coordinates": {"longitude": -73.9243088, "latitude": 40.6192513}, "review_count": 12, "image_url": "https://s3-media2.fl.yelpcdn.com/bphoto/z4FajVfHnbBSu08829g3hg/o.jpg", "price": "$$", "rating": 3.0, "name": "Kam Fung Kitchen", "url": "https://www.yelp.com/biz/kam-fung-kitchen-brooklyn?adjust_creative=gBcvfFpabk3CnzmXKdYe3w&utm_campaign=yelp_api_v3&utm_medium=api_v3_business_search&utm_source=gBcvfFpabk3CnzmXKdYe3w"}, {"transactions": [], "distance": 11033.313172, "phone": "+17185050999", "categories": [{"alias": "chinese", "title": "Chinese"}], "id": "asia-restaurant-jackson-heights", "display_phone": "(718) 505-0999", "is_closed": false, "location": {"address2": "", "country": "US", "display_address": ["8802 Roosevelt Ave", "Jackson Heights, NY 11372"], "address1": "8802 Roosevelt Ave", "city": "Jackson Heights", "zip_code": "11372", "address3": "", "state": "NY"}, "coordinates": {"longitude": -73.8784215, "latitude": 40.748088}, "review_count": 4, "image_url": "https://s3-media3.fl.yelpcdn.com/bphoto/J-2E_mog1aGFQdBPGLAYvw/o.jpg", "price": "$", "rating": 4.0, "name": "Asia Restaurant", "url": "https://www.yelp.com/biz/asia-restaurant-jackson-heights?adjust_creative=gBcvfFpabk3CnzmXKdYe3w&utm_campaign=yelp_api_v3&utm_medium=api_v3_business_search&utm_source=gBcvfFpabk3CnzmXKdYe3w"}, {"transactions": [], "distance": 11281.93688992, "phone": "+17183731188", "categories": [{"alias": "chinese", "title": "Chinese"}, {"alias": "bbq", "title": "Barbeque"}, {"alias": "chicken_wings", "title": "Chicken Wings"}], "id": "kings-kitchen-brooklyn-5", "display_phone": "(718) 373-1188", "is_closed": false, "location": {"address2": "", "country": "US", "display_address": ["2051 86th St", "Brooklyn, NY 11214"], "address1": "2051 86th St", "city": "Brooklyn", "zip_code": "11214", "address3": "", "state": "NY"}, "coordinates": {"longitude": -73.9969891682267, "latitude": 40.6040020469898}, "review_count": 87, "image_url": "https://s3-media1.fl.yelpcdn.com/bphoto/uzNcCwXNVT3zdUYup8YnvQ/o.jpg", "price": "$", "rating": 3.0, "name": "King's Kitchen", "url": "https://www.yelp.com/biz/kings-kitchen-brooklyn-5?adjust_creative=gBcvfFpabk3CnzmXKdYe3w&utm_campaign=yelp_api_v3&utm_medium=api_v3_business_search&utm_source=gBcvfFpabk3CnzmXKdYe3w"}, {"transactions": [], "distance": 7859.46294704, "phone": "+17188260138", "categories": [{"alias": "chinese", "title": "Chinese"}], "id": "yummy-chinese-restaurant-brooklyn", "display_phone": "(718) 826-0138", "is_closed": false, "location": {"address2": null, "country": "US", "display_address": ["1195 Flatbush Ave", "Brooklyn, NY 11226"], "address1": "1195 Flatbush Ave", "city": "Brooklyn", "zip_code": "11226", "address3": null, "state": "NY"}, "coordinates": {"longitude": -73.955795, "latitude": 40.641075}, "review_count": 3, "image_url": "https://s3-media1.fl.yelpcdn.com/bphoto/xrHNAhjl3XQtHtxX9EkRWw/o.jpg", "price": "$", "rating": 3.5, "name": "Yummy Chinese Restaurant", "url": "https://www.yelp.com/biz/yummy-chinese-restaurant-brooklyn?adjust_creative=gBcvfFpabk3CnzmXKdYe3w&utm_campaign=yelp_api_v3&utm_medium=api_v3_business_search&utm_source=gBcvfFpabk3CnzmXKdYe3w"}, {"transactions": ["delivery", "pickup"], "distance": 4877.973430798, "phone": "+17187881166", "categories": [{"alias": "chinese", "title": "Chinese"}], "id": "china-one-brooklyn", "display_phone": "(718) 788-1166", "is_closed": false, "location": {"address2": "", "country": "US", "display_address": ["677 5th Ave", "Brooklyn, NY 11215"], "address1": "677 5th Ave", "city": "Brooklyn", "zip_code": "11215", "address3": "", "state": "NY"}, "coordinates": {"longitude": -73.992790222168, "latitude": 40.6616096496582}, "review_count": 13, "image_url": "", "price": "$", "rating": 3.0, "name": "China One", "url": "https://www.yelp.com/biz/china-one-brooklyn?adjust_creative=gBcvfFpabk3CnzmXKdYe3w&utm_campaign=yelp_api_v3&utm_medium=api_v3_business_search&utm_source=gBcvfFpabk3CnzmXKdYe3w"}, {"transactions": [], "distance": 12282.409976898, "phone": "+17183362338", "categories": [{"alias": "cantonese", "title": "Cantonese"}, {"alias": "dimsum", "title": "Dim Sum"}, {"alias": "seafood", "title": "Seafood"}], "id": "shing-wong-restaurant-new-york", "display_phone": "(718) 336-2338", "is_closed": false, "location": {"address2": "", "country": "US", "display_address": ["1232 Ave U", "New York, NY 11229"], "address1": "1232 Ave U", "city": "New York", "zip_code": "11229", "address3": "", "state": "NY"}, "coordinates": {"longitude": -73.9588280428588, "latitude": 40.5983106377502}, "review_count": 19, "image_url": "https://s3-media1.fl.yelpcdn.com/bphoto/AKGQ34kc1AI5v3BCDRSwsQ/o.jpg", "price": "$", "rating": 3.5, "name": "Shing Wong Restaurant", "url": "https://www.yelp.com/biz/shing-wong-restaurant-new-york?adjust_creative=gBcvfFpabk3CnzmXKdYe3w&utm_campaign=yelp_api_v3&utm_medium=api_v3_business_search&utm_source=gBcvfFpabk3CnzmXKdYe3w"}, {"transactions": [], "distance": 957.7247357335999, "phone": "+12129666688", "categories": [{"alias": "chinese", "title": "Chinese"}], "id": "new-ah-ping-snacketeria-new-york", "display_phone": "(212) 966-6688", "is_closed": false, "location": {"address2": "", "country": "US", "display_address": ["45 Division St", "New York, NY 10002"], "address1": "45 Division St", "city": "New York", "zip_code": "10002", "address3": "", "state": "NY"}, "coordinates": {"longitude": -73.995353, "latitude": 40.714019}, "review_count": 2, "image_url": "https://s3-media4.fl.yelpcdn.com/bphoto/LCf813T7EXk0t8T_hubZgw/o.jpg", "price": "$", "rating": 4.5, "name": "New Ah Ping Snacketeria", "url": "https://www.yelp.com/biz/new-ah-ping-snacketeria-new-york?adjust_creative=gBcvfFpabk3CnzmXKdYe3w&utm_campaign=yelp_api_v3&utm_medium=api_v3_business_search&utm_source=gBcvfFpabk3CnzmXKdYe3w"}, {"transactions": ["delivery", "pickup"], "distance": 6130.023213662, "phone": "+12123550666", "categories": [{"alias": "chinese", "title": "Chinese"}], "id": "fusion-grills-new-york", "display_phone": "(212) 355-0666", "is_closed": false, "location": {"address2": "", "country": "US", "display_address": ["875 3rd Ave", "New York, NY 10022"], "address1": "875 3rd Ave", "city": "New York", "zip_code": "10022", "address3": "", "state": "NY"}, "coordinates": {"longitude": -73.969192, "latitude": 40.757217}, "review_count": 25, "image_url": "https://s3-media1.fl.yelpcdn.com/bphoto/P-K5VZ0XixBdnivPSsx0PQ/o.jpg", "price": "$", "rating": 3.0, "name": "Fusion Grills", "url": "https://www.yelp.com/biz/fusion-grills-new-york?adjust_creative=gBcvfFpabk3CnzmXKdYe3w&utm_campaign=yelp_api_v3&utm_medium=api_v3_business_search&utm_source=gBcvfFpabk3CnzmXKdYe3w"}, {"transactions": [], "distance": 12521.23168768, "phone": "+17183680180", "categories": [{"alias": "tex-mex", "title": "Tex-Mex"}, {"alias": "chinese", "title": "Chinese"}], "id": "didi-restaurant-brooklyn", "display_phone": "(718) 368-0180", "is_closed": false, "location": {"address2": "", "country": "US", "display_address": ["2972 Ave U", "Brooklyn, NY 11229"], "address1": "2972 Ave U", "city": "Brooklyn", "zip_code": "11229", "address3": "", "state": "NY"}, "coordinates": {"longitude": -73.9401414245367, "latitude": 40.6005777418613}, "review_count": 6, "image_url": "https://s3-media4.fl.yelpcdn.com/bphoto/XGkTgGYlfB9dSQt2ng30QQ/o.jpg", "price": "$", "rating": 4.0, "name": "Didi Restaurant", "url": "https://www.yelp.com/biz/didi-restaurant-brooklyn?adjust_creative=gBcvfFpabk3CnzmXKdYe3w&utm_campaign=yelp_api_v3&utm_medium=api_v3_business_search&utm_source=gBcvfFpabk3CnzmXKdYe3w"}, {"transactions": [], "distance": 9822.1158413, "phone": "+17184248600", "categories": [{"alias": "indpak", "title": "Indian"}, {"alias": "bangladeshi", "title": "Bangladeshi"}, {"alias": "chinese", "title": "Chinese"}], "id": "dhaka-garden-jackson-heights", "display_phone": "(718) 424-8600", "is_closed": false, "location": {"address2": "", "country": "US", "display_address": ["7223 37th Ave", "Jackson Heights, NY 11372"], "address1": "7223 37th Ave", "city": "Jackson Heights", "zip_code": "11372", "address3": "", "state": "NY"}, "coordinates": {"longitude": -73.892934, "latitude": 40.749065}, "review_count": 31, "image_url": "https://s3-media4.fl.yelpcdn.com/bphoto/97lHZ5wFYV0MQtKvRhwGAg/o.jpg", "price": "$$", "rating": 3.0, "name": "Dhaka Garden", "url": "https://www.yelp.com/biz/dhaka-garden-jackson-heights?adjust_creative=gBcvfFpabk3CnzmXKdYe3w&utm_campaign=yelp_api_v3&utm_medium=api_v3_business_search&utm_source=gBcvfFpabk3CnzmXKdYe3w"}, {"transactions": [], "distance": 14361.85154842, "phone": "+17184419662", "categories": [{"alias": "chinese", "title": "Chinese"}], "id": "yong-sheng-chinese-restaurant-south-richmond-hill", "display_phone": "(718) 441-9662", "is_closed": false, "location": {"address2": "", "country": "US", "display_address": ["119-19 101st Ave Jamaica", "South Richmond Hill, NY 11419"], "address1": "119-19 101st Ave Jamaica", "city": "South Richmond Hill", "zip_code": "11419", "address3": "", "state": "NY"}, "coordinates": {"longitude": -73.8251145195613, "latitude": 40.6902841458635}, "review_count": 6, "image_url": "", "rating": 4.5, "name": "Yong Sheng Chinese Restaurant", "url": "https://www.yelp.com/biz/yong-sheng-chinese-restaurant-south-richmond-hill?adjust_creative=gBcvfFpabk3CnzmXKdYe3w&utm_campaign=yelp_api_v3&utm_medium=api_v3_business_search&utm_source=gBcvfFpabk3CnzmXKdYe3w"}, {"transactions": [], "distance": 7041.632247322, "phone": "+12122626162", "categories": [{"alias": "chinese", "title": "Chinese"}], "id": "bei-jing-chinese-foods-new-york", "display_phone": "(212) 262-6162", "is_closed": false, "location": {"address2": "", "country": "US", "display_address": ["860 10th Ave", "New York, NY 10019"], "address1": "860 10th Ave", "city": "New York", "zip_code": "10019", "address3": "", "state": "NY"}, "coordinates": {"longitude": -73.98851, "latitude": 40.768619}, "review_count": 9, "image_url": "https://s3-media3.fl.yelpcdn.com/bphoto/FyM4_sSUWjd_T-kRxNxWDQ/o.jpg", "price": "$", "rating": 3.0, "name": "Bei Jing Chinese Foods", "url": "https://www.yelp.com/biz/bei-jing-chinese-foods-new-york?adjust_creative=gBcvfFpabk3CnzmXKdYe3w&utm_campaign=yelp_api_v3&utm_medium=api_v3_business_search&utm_source=gBcvfFpabk3CnzmXKdYe3w"}, {"transactions": [], "distance": 19790.5448287, "phone": "+17188222888", "categories": [{"alias": "chinese", "title": "Chinese"}], "id": "boe-lee-chinese-bronx", "display_phone": "(718) 822-2888", "is_closed": false, "location": {"address2": "", "country": "US", "display_address": ["741 Lydig Ave", "Bronx, NY 10462"], "address1": "741 Lydig Ave", "city": "Bronx", "zip_code": "10462", "address3": "", "state": "NY"}, "coordinates": {"longitude": -73.8660202, "latitude": 40.8545685}, "review_count": 19, "image_url": "https://s3-media1.fl.yelpcdn.com/bphoto/-jioA102iEAJsdk5yHrHAw/o.jpg", "price": "$", "rating": 3.5, "name": "Boe Lee Chinese", "url": "https://www.yelp.com/biz/boe-lee-chinese-bronx?adjust_creative=gBcvfFpabk3CnzmXKdYe3w&utm_campaign=yelp_api_v3&utm_medium=api_v3_business_search&utm_source=gBcvfFpabk3CnzmXKdYe3w"}, {"transactions": ["delivery", "pickup"], "distance": 7403.698985577999, "phone": "+17189196067", "categories": [{"alias": "thai", "title": "Thai"}, {"alias": "chinese", "title": "Chinese"}], "id": "liu-garden-brooklyn-2", "display_phone": "(718) 919-6067", "is_closed": false, "location": {"address2": "", "country": "US", "display_address": ["560 Wilson Ave", "Brooklyn, NY 11207"], "address1": "560 Wilson Ave", "city": "Brooklyn", "zip_code": "11207", "address3": "", "state": "NY"}, "coordinates": {"longitude": -73.908683, "latitude": 40.690765}, "review_count": 17, "image_url": "https://s3-media4.fl.yelpcdn.com/bphoto/2qBzl2NQQG6sNMljf-Twmg/o.jpg", "price": "$", "rating": 2.5, "name": "Liu Garden", "url": "https://www.yelp.com/biz/liu-garden-brooklyn-2?adjust_creative=gBcvfFpabk3CnzmXKdYe3w&utm_campaign=yelp_api_v3&utm_medium=api_v3_business_search&utm_source=gBcvfFpabk3CnzmXKdYe3w"}, {"transactions": ["delivery", "pickup"], "distance": 5772.1151709, "phone": "+17184178333", "categories": [{"alias": "chinese", "title": "Chinese"}], "id": "new-city-brooklyn", "display_phone": "(718) 417-8333", "is_closed": false, "location": {"address2": "", "country": "US", "display_address": ["236 Knickerbocker Ave", "Brooklyn, NY 11237"], "address1": "236 Knickerbocker Ave", "city": "Brooklyn", "zip_code": "11237", "address3": "", "state": "NY"}, "coordinates": {"longitude": -73.9258919279945, "latitude": 40.7029774649578}, "review_count": 8, "image_url": "https://s3-media1.fl.yelpcdn.com/bphoto/HcPkgJAbJ6U4Uer4MEoGHQ/o.jpg", "rating": 3.0, "name": "New City", "url": "https://www.yelp.com/biz/new-city-brooklyn?adjust_creative=gBcvfFpabk3CnzmXKdYe3w&utm_campaign=yelp_api_v3&utm_medium=api_v3_business_search&utm_source=gBcvfFpabk3CnzmXKdYe3w"}, {"transactions": [], "distance": 12461.30952212, "phone": "+17187601021", "categories": [{"alias": "chinese", "title": "Chinese"}], "id": "double-chinese-restaurant-corona-2", "display_phone": "(718) 760-1021", "is_closed": false, "location": {"address2": "", "country": "US", "display_address": ["5316 108th St", "Corona, NY 11368"], "address1": "5316 108th St", "city": "Corona", "zip_code": "11368", "address3": "", "state": "NY"}, "coordinates": {"longitude": -73.85458, "latitude": 40.74218}, "review_count": 10, "image_url": "https://s3-media2.fl.yelpcdn.com/bphoto/wud0wXY_NnIjk6muuwZ9SA/o.jpg", "price": "$", "rating": 3.0, "name": "Double Chinese Restaurant", "url": "https://www.yelp.com/biz/double-chinese-restaurant-corona-2?adjust_creative=gBcvfFpabk3CnzmXKdYe3w&utm_campaign=yelp_api_v3&utm_medium=api_v3_business_search&utm_source=gBcvfFpabk3CnzmXKdYe3w"}, {"transactions": [], "distance": 15045.2690448, "phone": "+17183537683", "categories": [{"alias": "chinese", "title": "Chinese"}, {"alias": "noodles", "title": "Noodles"}], "id": "red-bowl-noodle-shop-flushing", "display_phone": "(718) 353-7683", "is_closed": false, "location": {"address2": "", "country": "US", "display_address": ["40-52 Main St", "Flushing, NY 11354"], "address1": "40-52 Main St", "city": "Flushing", "zip_code": "11354", "address3": "", "state": "NY"}, "coordinates": {"longitude": -73.82982, "latitude": 40.7581599}, "review_count": 229, "image_url": "https://s3-media1.fl.yelpcdn.com/bphoto/ncahFpH6MN1Bi2qZqfie-w/o.jpg", "price": "$$", "rating": 3.0, "name": "Red Bowl Noodle Shop", "url": "https://www.yelp.com/biz/red-bowl-noodle-shop-flushing?adjust_creative=gBcvfFpabk3CnzmXKdYe3w&utm_campaign=yelp_api_v3&utm_medium=api_v3_business_search&utm_source=gBcvfFpabk3CnzmXKdYe3w"}, {"transactions": ["delivery", "pickup"], "distance": 11734.631357199998, "phone": "+12013139888", "categories": [{"alias": "chinese", "title": "Chinese"}], "id": "fairview-chinese-restaurant-fairview", "display_phone": "(201) 313-9888", "is_closed": false, "location": {"address2": "", "country": "US", "display_address": ["363 Fairview Ave", "Fairview, NJ 07022"], "address1": "363 Fairview Ave", "city": "Fairview", "zip_code": "07022", "address3": "", "state": "NJ"}, "coordinates": {"longitude": -74.00097, "latitude": 40.81084}, "review_count": 109, "image_url": "https://s3-media3.fl.yelpcdn.com/bphoto/e9Z9wo6acmdqHUWIAdpukA/o.jpg", "price": "$", "rating": 4.5, "name": "Fairview Chinese Restaurant", "url": "https://www.yelp.com/biz/fairview-chinese-restaurant-fairview?adjust_creative=gBcvfFpabk3CnzmXKdYe3w&utm_campaign=yelp_api_v3&utm_medium=api_v3_business_search&utm_source=gBcvfFpabk3CnzmXKdYe3w"}]}