{"region": {"center": {"longitude": -73.99429321289062, "latitude": 40.70544486444615}}, "total": 2613, "businesses": [{"transactions": [], "distance": 5650.7419667799995, "phone": "+17186287867", "categories": [{"alias": "chinese", "title": "Chinese"}], "id": "no-1-restaurant-brooklyn-2", "display_phone": "(718) 628-7867", "is_closed": false, "location": {"address2": "", "country": "US", "display_address": ["186 Knickerbocker Ave", "Brooklyn, NY 11237"], "address1": "186 Knickerbocker Ave", "city": "Brooklyn", "zip_code": "11237", "address3": "", "state": "NY"}, "coordinates": {"longitude": -73.927337, "latitude": 40.703636}, "review_count": 12, "image_url": "https://s3-media4.fl.yelpcdn.com/bphoto/fhf6gWVc6bFVYRyX-Mppdw/o.jpg", "price": "$", "rating": 3.5, "name": "No 1 Restaurant", "url": "https://www.yelp.com/biz/no-1-restaurant-brooklyn-2?adjust_creative=gBcvfFpabk3CnzmXKdYe3w&utm_campaign=yelp_api_v3&utm_medium=api_v3_business_search&utm_source=gBcvfFpabk3CnzmXKdYe3w"}, {"transactions": [], "distance": 7615.092071004, "phone": "+17188260808", "categories": [{"alias": "chinese", "title": "Chinese"}], "id": "new-neighbor-kitchen-brooklyn", "display_phone": "(718) 826-0808", "is_closed": false, "location": {"address2": "", "country": "US", "display_address": ["1404 Cortelyou Rd", "Brooklyn, NY 11226"], "address1": "1404 Cortelyou Rd", "city": "Brooklyn", "zip_code": "11226", "address3": "", "state": "NY"}, "coordinates": {"longitude": -73.9650497436523, "latitude": 40.6406555175781}, "review_count": 11, "image_url": "https://s3-media2.fl.yelpcdn.com/bphoto/_VAzLbckOy_ZKCXhayS0aw/o.jpg", "price": "$", "rating": 3.5, "name": "New Neighbor Kitchen", "url": "https://www.yelp.com/biz/new-neighbor-kitchen-brooklyn?adjust_creative=gBcvfFpabk3CnzmXKdYe3w&utm_campaign=yelp_api_v3&utm_medium=api_v3_business_search&utm_source=gBcvfFpabk3CnzmXKdYe3w"}, {"transactions": ["delivery", "pickup"], "distance": 6772.157437559999, "phone": "+12125865333", "categories": [{"alias": "chinese", "title": "Chinese"}, {"alias": "japanese", "title": "Japanese"}, {"alias": "gluten_free", "title": "Gluten-Free"}], "id": "lilis-57-new-york", "display_phone": "(212) 586-5333", "is_closed": false, "location": {"address2": null, "country": "US", "display_address": ["200 W 57th St", "New York, NY 10019"], "address1": "200 W 57th St", "city": "New York", "zip_code": "10019", "address3": "", "state": "NY"}, "coordinates": {"longitude": -73.98046, "latitude": 40.76554}, "review_count": 203, "image_url": "https://s3-media4.fl.yelpcdn.com/bphoto/R5FZoGusEIDU790Np4pCiA/o.jpg", "price": "$$", "rating": 3.0, "name": "Lili's 57", "url": "https://www.yelp.com/biz/lilis-57-new-york?adjust_creative=gBcvfFpabk3CnzmXKdYe3w&utm_campaign=yelp_api_v3&utm_medium=api_v3_business_search&utm_source=gBcvfFpabk3CnzmXKdYe3w"}, {"transactions": ["pickup"], "distance": 15160.74562716, "phone": "+16462037380", "categories": [{"alias": "dimsum", "title": "Dim Sum"}, {"alias": "cantonese", "title": "Cantonese"}], "id": "joes-steam-rice-rolls-flushing", "display_phone": "(646) 203-7380", "is_closed": false, "location": {"address2": null, "country": "US", "display_address": ["136-21 Roosevelt Ave", "Flushing, NY 11354"], "address1": "136-21 Roosevelt Ave", "city": "Flushing", "zip_code": "11354", "address3": "", "state": "NY"}, "coordinates": {"longitude": -73.82941, "latitude": 40.76012}, "review_count": 52, "image_url": "https://s3-media3.fl.yelpcdn.com/bphoto/CiWsOTfSvAVfduHrQCM-uw/o.jpg", "price": "$", "rating": 4.5, "name": "Joe's Steam Rice Rolls", "url": "https://www.yelp.com/biz/joes-steam-rice-rolls-flushing?adjust_creative=gBcvfFpabk3CnzmXKdYe3w&utm_campaign=yelp_api_v3&utm_medium=api_v3_business_search&utm_source=gBcvfFpabk3CnzmXKdYe3w"}, {"transactions": [], "distance": 7892.552908647999, "phone": "+17189725040", "categories": [{"alias": "chinese", "title": "Chinese"}], "id": "family-garden-chinese-food-take-out-brooklyn", "display_phone": "(718) 972-5040", "is_closed": false, "location": {"address2": "", "country": "US", "display_address": ["111A Ditmas Ave", "Brooklyn, NY 11218"], "address1": "111A Ditmas Ave", "city": "Brooklyn", "zip_code": "11218", "address3": "", "state": "NY"}, "coordinates": {"longitude": -73.9778117090464, "latitude": 40.6356114149094}, "review_count": 6, "image_url": "https://s3-media3.fl.yelpcdn.com/bphoto/HO9Eylr4N6Uvd_GnV6hFGA/o.jpg", "price": "$", "rating": 4.5, "name": "Family Garden Chinese Food Take Out", "url": "https://www.yelp.com/biz/family-garden-chinese-food-take-out-brooklyn?adjust_creative=gBcvfFpabk3CnzmXKdYe3w&utm_campaign=yelp_api_v3&utm_medium=api_v3_business_search&utm_source=gBcvfFpabk3CnzmXKdYe3w"}, {"transactions": ["delivery", "pickup"], "distance": 8466.03043507, "phone": "+17188987128", "categories": [{"alias": "chinese", "title": "Chinese"}], "id": "yummy-yummy-chinese-restaurant-maspeth", "display_phone": "(718) 898-7128", "is_closed": false, "location": {"address2": "", "country": "US", "display_address": ["5273 65th Pl", "Maspeth, NY 11378"], "address1": "5273 65th Pl", "city": "Maspeth", "zip_code": "11378", "address3": "", "state": "NY"}, "coordinates": {"longitude": -73.8999329, "latitude": 40.7318726}, "review_count": 25, "image_url": "https://s3-media4.fl.yelpcdn.com/bphoto/rN18om5BvIjXZMzxWQMXrA/o.jpg", "price": "$", "rating": 4.0, "name": "Yummy Yummy Chinese Restaurant", "url": "https://www.yelp.com/biz/yummy-yummy-chinese-restaurant-maspeth?adjust_creative=gBcvfFpabk3CnzmXKdYe3w&utm_campaign=yelp_api_v3&utm_medium=api_v3_business_search&utm_source=gBcvfFpabk3CnzmXKdYe3w"}, {"transactions": ["delivery", "pickup"], "distance": 8108.165522619999, "phone": "+12126288161", "categories": [{"alias": "chinese", "title": "Chinese"}, {"alias": "japanese", "title": "Japanese"}], "id": "hunan-delight-new-york", "display_phone": "(212) 628-8161", "is_closed": false, "location": {"address2": "", "country": "US", "display_address": ["1467 York Ave", "New York, NY 10075"], "address1": "1467 York Ave", "city": "New York", "zip_code": "10075", "address3": "", "state": "NY"}, "coordinates": {"longitude": -73.951296, "latitude": 40.770678}, "review_count": 144, "image_url": "https://s3-media2.fl.yelpcdn.com/bphoto/P3Ndue2gnj2eLxaSJQ9XzQ/o.jpg", "price": "$$", "rating": 3.5, "name": "Hunan Delight", "url": "https://www.yelp.com/biz/hunan-delight-new-york?adjust_creative=gBcvfFpabk3CnzmXKdYe3w&utm_campaign=yelp_api_v3&utm_medium=api_v3_business_search&utm_source=gBcvfFpabk3CnzmXKdYe3w"}, {"transactions": ["delivery", "pickup"], "distance": 10389.16196228, "phone": "+17188338900", "categories": [{"alias": "chinese", "title": "Chinese"}], "id": "mid-china-brooklyn", "display_phone": "(718) 833-8900", "is_closed": false, "location": {"address2": "", "country": "US", "display_address": ["9409 5th Ave", "Brooklyn, NY 11209"], "address1": "9409 5th Ave", "city": "Brooklyn", "zip_code": "11209", "address3": "", "state": "NY"}, "coordinates": {"longitude": -74.0304641723633, "latitude": 40.6161155700684}, "review_count": 14, "image_url": "https://s3-media2.fl.yelpcdn.com/bphoto/Hkr1fPqZXKH8WA6pF7pYXg/o.jpg", "price": "$", "rating": 4.0, "name": "Mid China", "url": "https://www.yelp.com/biz/mid-china-brooklyn?adjust_creative=gBcvfFpabk3CnzmXKdYe3w&utm_campaign=yelp_api_v3&utm_medium=api_v3_business_search&utm_source=gBcvfFpabk3CnzmXKdYe3w"}, {"transactions": ["delivery", "pickup"], "distance": 1082.4411183959999, "phone": "+12122333888", "categories": [{"alias": "szechuan", "title": "Szechuan"}, {"alias": "hotpot", "title": "Hot Pot"}], "id": "famous-sichuan-new-york", "display_phone": "(212) 233-3888", "is_closed": false, "location": {"address2": "", "country": "US", "display_address": ["10 Pell St", "New York, NY 10013"], "address1": "10 Pell St", "city": "New York", "zip_code": "10013", "address3": "", "state": "NY"}, "coordinates": {"longitude": -73.99758, "latitude": 40.71487}, "review_count": 251, "image_url": "https://s3-media2.fl.yelpcdn.com/bphoto/waI6d3S3zYpCYYH1FJunUw/o.jpg", "price": "$$", "rating": 3.5, "name": "Famous Sichuan", "url": "https://www.yelp.com/biz/famous-sichuan-new-york?adjust_creative=gBcvfFpabk3CnzmXKdYe3w&utm_campaign=yelp_api_v3&utm_medium=api_v3_business_search&utm_source=gBcvfFpabk3CnzmXKdYe3w"}, {"transactions": ["delivery", "pickup"], "distance": 9243.694422397999, "phone": "+12129961570", "categories": [{"alias": "thai", "title": "Thai"}, {"alias": "chinese", "title": "Chinese"}], "id": "big-bowl-new-york-2", "display_phone": "(212) 996-1570", "is_closed": false, "location": {"address2": "", "country": "US", "display_address": ["1764 1st Ave", "New York, NY 10128"], "address1": "1764 1st Ave", "city": "New York", "zip_code": "10128", "address3": null, "state": "NY"}, "coordinates": {"longitude": -73.9465, "latitude": 40.78028}, "review_count": 26, "image_url": "https://s3-media3.fl.yelpcdn.com/bphoto/HoKLT331cM7JqQJtmYVAnA/o.jpg", "price": "$$", "rating": 4.0, "name": "Big Bowl", "url": "https://www.yelp.com/biz/big-bowl-new-york-2?adjust_creative=gBcvfFpabk3CnzmXKdYe3w&utm_campaign=yelp_api_v3&utm_medium=api_v3_business_search&utm_source=gBcvfFpabk3CnzmXKdYe3w"}, {"transactions": ["delivery", "pickup"], "distance": 8460.755340418, "phone": "+17184723766", "categories": [{"alias": "chinese", "title": "Chinese"}, {"alias": "japanese", "title": "Japanese"}], "id": "king-garden-long-island-city", "display_phone": "(718) 472-3766", "is_closed": false, "location": {"address2": "Ste A", "country": "US", "display_address": ["4306 34th Ave", "Ste A", "Long Island City, NY 11101"], "address1": "4306 34th Ave", "city": "Long Island City", "zip_code": "11101", "address3": "", "state": "NY"}, "coordinates": {"longitude": -73.91837, "latitude": 40.75524}, "review_count": 40, "image_url": "https://s3-media3.fl.yelpcdn.com/bphoto/-SX2hEAreZspZCfl_kRjIQ/o.jpg", "price": "$", "rating": 3.5, "name": "King Garden", "url": "https://www.yelp.com/biz/king-garden-long-island-city?adjust_creative=gBcvfFpabk3CnzmXKdYe3w&utm_campaign=yelp_api_v3&utm_medium=api_v3_business_search&utm_source=gBcvfFpabk3CnzmXKdYe3w"}, {"transactions": [], "distance": 5355.535580692, "phone": "+12127683100", "categories": [{"alias": "chinese", "title": "Chinese"}], "id": "gingers-new-york", "display_phone": "(212) 768-3100", "is_closed": false, "location": {"address2": "", "country": "US", "display_address": ["512 Fashion Ave", "New York, NY 10018"], "address1": "512 Fashion Ave", "city": "New York", "zip_code": "10018", "address3": "", "state": "NY"}, "coordinates": {"longitude": -73.989273, "latitude": 40.753448}, "review_count": 318, "image_url": "https://s3-media4.fl.yelpcdn.com/bphoto/c3nr7PN9n0HxwRYMqY-rOQ/o.jpg", "price": "$$", "rating": 3.5, "name": "Ginger's", "url": "https://www.yelp.com/biz/gingers-new-york?adjust_creative=gBcvfFpabk3CnzmXKdYe3w&utm_campaign=yelp_api_v3&utm_medium=api_v3_business_search&utm_source=gBcvfFpabk3CnzmXKdYe3w"}, {"transactions": ["delivery", "pickup"], "distance": 12057.192982739998, "phone": "+17187637020", "categories": [{"alias": "chinese", "title": "Chinese"}], "id": "china-kettle-brooklyn", "display_phone": "(718) 763-7020", "is_closed": false, "location": {"address2": "", "country": "US", "display_address": ["6606 Ave U", "Brooklyn, NY 11234"], "address1": "6606 Ave U", "city": "Brooklyn", "zip_code": "11234", "address3": "", "state": "NY"}, "coordinates": {"longitude": -73.9107497781515, "latitude": 40.617403909564}, "review_count": 28, "image_url": "https://s3-media2.fl.yelpcdn.com/bphoto/MgtaIhjOPGyUb_IAxxN72w/o.jpg", "price": "$$", "rating": 4.0, "name": "China Kettle", "url": "https://www.yelp.com/biz/china-kettle-brooklyn?adjust_creative=gBcvfFpabk3CnzmXKdYe3w&utm_campaign=yelp_api_v3&utm_medium=api_v3_business_search&utm_source=gBcvfFpabk3CnzmXKdYe3w"}, {"transactions": [], "distance": 13477.21022514, "phone": "+17182681668", "categories": [{"alias": "dimsum", "title": "Dim Sum"}, {"alias": "cantonese", "title": "Cantonese"}], "id": "east-ocean-palace-forest-hills-2", "display_phone": "(718) 268-1668", "is_closed": false, "location": {"address2": "", "country": "US", "display_address": ["113-09 Queens Blvd", "Forest Hills, NY 11375"], "address1": "113-09 Queens Blvd", "city": "Forest Hills", "zip_code": "11375", "address3": "", "state": "NY"}, "coordinates": {"longitude": -73.8353998214006, "latitude": 40.7177701592445}, "review_count": 224, "image_url": "https://s3-media4.fl.yelpcdn.com/bphoto/Kl_kNVH7KJcW0uo-RHklbg/o.jpg", "price": "$$", "rating": 3.5, "name": "East Ocean Palace", "url": "https://www.yelp.com/biz/east-ocean-palace-forest-hills-2?adjust_creative=gBcvfFpabk3CnzmXKdYe3w&utm_campaign=yelp_api_v3&utm_medium=api_v3_business_search&utm_source=gBcvfFpabk3CnzmXKdYe3w"}, {"transactions": [], "distance": 11247.11238166, "phone": "+17182780799", "categories": [{"alias": "chinese", "title": "Chinese"}], "id": "dragon-gate-chinese-cuisine-queens", "display_phone": "(718) 278-0799", "is_closed": false, "location": {"address2": "", "country": "US", "display_address": ["1944 37th St", "Queens, NY 11105"], "address1": "1944 37th St", "city": "Queens", "zip_code": "11105", "address3": "", "state": "NY"}, "coordinates": {"longitude": -73.9019072055817, "latitude": 40.7784616409036}, "review_count": 10, "image_url": "https://s3-media4.fl.yelpcdn.com/bphoto/HLEZJYVmk3Wkp7MDHbHdKg/o.jpg", "price": "$$", "rating": 4.0, "name": "Dragon Gate Chinese Cuisine", "url": "https://www.yelp.com/biz/dragon-gate-chinese-cuisine-queens?adjust_creative=gBcvfFpabk3CnzmXKdYe3w&utm_campaign=yelp_api_v3&utm_medium=api_v3_business_search&utm_source=gBcvfFpabk3CnzmXKdYe3w"}, {"transactions": [], "distance": 5638.878234168, "phone": "+15163767225", "categories": [{"alias": "foodtrucks", "title": "Food Trucks"}, {"alias": "chinese", "title": "Chinese"}], "id": "mr-bing-new-york-3", "display_phone": "(516) 376-7225", "is_closed": false, "location": {"address2": null, "country": "US", "display_address": ["230 Park Ave", "New York, NY 10021"], "address1": "230 Park Ave", "city": "New York", "zip_code": "10021", "address3": "", "state": "NY"}, "coordinates": {"longitude": -73.976532557234, "latitude": 40.7543376550143}, "review_count": 88, "image_url": "https://s3-media1.fl.yelpcdn.com/bphoto/CGcO_ARQ4qm60-aRqEYsPg/o.jpg", "price": "$$", "rating": 3.5, "name": "Mr Bing", "url": "https://www.yelp.com/biz/mr-bing-new-york-3?adjust_creative=gBcvfFpabk3CnzmXKdYe3w&utm_campaign=yelp_api_v3&utm_medium=api_v3_business_search&utm_source=gBcvfFpabk3CnzmXKdYe3w"}, {"transactions": [], "distance": 7664.98225474, "phone": "+17188712889", "categories": [{"alias": "bakeries", "title": "Bakeries"}, {"alias": "chinese", "title": "Chinese"}], "id": "xin-fa-bakery-brooklyn", "display_phone": "(718) 871-2889", "is_closed": false, "location": {"address2": "", "country": "US", "display_address": ["5617 8th Ave", "Brooklyn, NY 11220"], "address1": "5617 8th Ave", "city": "Brooklyn", "zip_code": "11220", "address3": "", "state": "NY"}, "coordinates": {"longitude": -74.00738, "latitude": 40.63723}, "review_count": 92, "image_url": "https://s3-media3.fl.yelpcdn.com/bphoto/MyUEt5S0RzZykX1Fasb9hQ/o.jpg", "price": "$", "rating": 4.0, "name": "Xin Fa Bakery", "url": "https://www.yelp.com/biz/xin-fa-bakery-brooklyn?adjust_creative=gBcvfFpabk3CnzmXKdYe3w&utm_campaign=yelp_api_v3&utm_medium=api_v3_business_search&utm_source=gBcvfFpabk3CnzmXKdYe3w"}, {"transactions": [], "distance": 3946.328275072, "phone": "+12124666618", "categories": [{"alias": "chinese", "title": "Chinese"}, {"alias": "gourmet", "title": "Specialty Food"}], "id": "didi-dumpling-new-york", "display_phone": "(212) 466-6618", "is_closed": false, "location": {"address2": "", "country": "US", "display_address": ["38 Lexington Ave", "New York, NY 10010"], "address1": "38 Lexington Ave", "city": "New York", "zip_code": "10010", "address3": "", "state": "NY"}, "coordinates": {"longitude": -73.9845239, "latitude": 40.7401539}, "review_count": 123, "image_url": "https://s3-media4.fl.yelpcdn.com/bphoto/zZVVZZDBfKdNvSP56bkeiA/o.jpg", "price": "$", "rating": 3.5, "name": "DiDi Dumpling", "url": "https://www.yelp.com/biz/didi-dumpling-new-york?adjust_creative=gBcvfFpabk3CnzmXKdYe3w&utm_campaign=yelp_api_v3&utm_medium=api_v3_business_search&utm_source=gBcvfFpabk3CnzmXKdYe3w"}, {"transactions": [], "distance": 5085.3978837839995, "phone": "+17189198919", "categories": [{"alias": "chinese", "title": "Chinese"}], "id": "kings-kitchen-brooklyn-4", "display_phone": "(718) 919-8919", "is_closed": false, "location": {"address2": "", "country": "US", "display_address": ["158 Lewis Ave", "Brooklyn, NY 11221"], "address1": "158 Lewis Ave", "city": "Brooklyn", "zip_code": "11221", "address3": "", "state": "NY"}, "coordinates": {"longitude": -73.93684, "latitude": 40.69129}, "review_count": 4, "image_url": "", "rating": 5.0, "name": "King's Kitchen", "url": "https://www.yelp.com/biz/kings-kitchen-brooklyn-4?adjust_creative=gBcvfFpabk3CnzmXKdYe3w&utm_campaign=yelp_api_v3&utm_medium=api_v3_business_search&utm_source=gBcvfFpabk3CnzmXKdYe3w"}, {"transactions": [], "distance": 1161.8602288417999, "phone": "+12122271333", "categories": [{"alias": "chinese", "title": "Chinese"}], "id": "wing-kee-wk-restaurant-new-york", "display_phone": "(212) 227-1333", "is_closed": false, "location": {"address2": "", "country": "US", "display_address": ["69 Bayard St", "New York, NY 10013"], "address1": "69 Bayard St", "city": "New York", "zip_code": "10013", "address3": "", "state": "NY"}, "coordinates": {"longitude": -73.998397, "latitude": 40.715423}, "review_count": 26, "image_url": "https://s3-media1.fl.yelpcdn.com/bphoto/I00FEKnIX02bNAFCL_cS2A/o.jpg", "price": "$", "rating": 4.0, "name": "Wing Kee WK Restaurant", "url": "https://www.yelp.com/biz/wing-kee-wk-restaurant-new-york?adjust_creative=gBcvfFpabk3CnzmXKdYe3w&utm_campaign=yelp_api_v3&utm_medium=api_v3_business_search&utm_source=gBcvfFpabk3CnzmXKdYe3w"}, {"transactions": [], "distance": 5568.077734878, "phone": "+17189535152", "categories": [{"alias": "chinese", "title": "Chinese"}], "id": "wing-hing-chinese-restaurant-brooklyn", "display_phone": "(718) 953-5152", "is_closed": false, "location": {"address2": "", "country": "US", "display_address": ["312 Rogers Ave", "Brooklyn, NY 11225"], "address1": "312 Rogers Ave", "city": "Brooklyn", "zip_code": "11225", "address3": "", "state": "NY"}, "coordinates": {"longitude": -73.953918, "latitude": 40.665832}, "review_count": 6, "image_url": "https://s3-media1.fl.yelpcdn.com/bphoto/0KBMmIs-UnoI5OBu2LJzFA/o.jpg", "price": "$", "rating": 4.0, "name": "Wing Hing Chinese Restaurant", "url": "https://www.yelp.com/biz/wing-hing-chinese-restaurant-brooklyn?adjust_creative=gBcvfFpabk3CnzmXKdYe3w&utm_campaign=yelp_api_v3&utm_medium=api_v3_business_search&utm_source=gBcvfFpabk3CnzmXKdYe3w"}, {"transactions": [], "distance": 11336.77434575, "phone": "+17183389085", "categories": [{"alias": "chinese", "title": "Chinese"}], "id": "china-new-star-brooklyn-2", "display_phone": "(718) 338-9085", "is_closed": false, "location": {"address2": "", "country": "US", "display_address": ["2212 Flatbush Ave", "Brooklyn, NY 11234"], "address1": "2212 Flatbush Ave", "city": "Brooklyn", "zip_code": "11234", "address3": "", "state": "NY"}, "coordinates": {"longitude": -73.9297638, "latitude": 40.6159592}, "review_count": 68, "image_url": "https://s3-media2.fl.yelpcdn.com/bphoto/_5hK9lkKdedSBOWGS88wUQ/o.jpg", "price": "$$", "rating": 3.5, "name": "China New Star", "url": "https://www.yelp.com/biz/china-new-star-brooklyn-2?adjust_creative=gBcvfFpabk3CnzmXKdYe3w&utm_campaign=yelp_api_v3&utm_medium=api_v3_business_search&utm_source=gBcvfFpabk3CnzmXKdYe3w"}, {"transactions": [], "distance": 1366.1399188139999, "phone": "", "categories": [{"alias": "foodstands", "title": "Food Stands"}, {"alias": "chinese", "title": "Chinese"}, {"alias": "streetvendors", "title": "Street Vendors"}], "id": "cheong-fun-cart-new-york", "display_phone": "", "is_closed": false, "location": {"address2": "", "country": "US", "display_address": ["On The Corner Of Elizabeth St And Hester St", "New York, NY 10013"], "address1": "On The Corner Of Elizabeth St And Hester St", "city": "New York", "zip_code": "10013", "address3": "", "state": "NY"}, "coordinates": {"longitude": -73.9963736857056, "latitude": 40.7176279773311}, "review_count": 20, "image_url": "https://s3-media3.fl.yelpcdn.com/bphoto/pi3rXIEE2Iwj4rHU_Ed_4Q/o.jpg", "price": "$", "rating": 5.0, "name": "Cheong Fun Cart", "url": "https://www.yelp.com/biz/cheong-fun-cart-new-york?adjust_creative=gBcvfFpabk3CnzmXKdYe3w&utm_campaign=yelp_api_v3&utm_medium=api_v3_business_search&utm_source=gBcvfFpabk3CnzmXKdYe3w"}, {"transactions": [], "distance": 1161.8602288417999, "phone": "+12122271173", "categories": [{"alias": "chinese", "title": "Chinese"}], "id": "69-chinese-restaurant-new-york", "display_phone": "(212) 227-1173", "is_closed": false, "location": {"address2": null, "country": "US", "display_address": ["69 Bayard St", "New York, NY 10013"], "address1": "69 Bayard St", "city": "New York", "zip_code": "10013", "address3": "", "state": "NY"}, "coordinates": {"longitude": -73.998397, "latitude": 40.715423}, "review_count": 307, "image_url": "https://s3-media2.fl.yelpcdn.com/bphoto/9DebTbfJQb9DhVHCFT2uYw/o.jpg", "price": "$", "rating": 3.5, "name": "69 Chinese Restaurant", "url": "https://www.yelp.com/biz/69-chinese-restaurant-new-york?adjust_creative=gBcvfFpabk3CnzmXKdYe3w&utm_campaign=yelp_api_v3&utm_medium=api_v3_business_search&utm_source=gBcvfFpabk3CnzmXKdYe3w"}, {"transactions": [], "distance": 7810.556713779999, "phone": "+12124969714", "categories": [{"alias": "chinese", "title": "Chinese"}], "id": "wok-city-new-york", "display_phone": "(212) 496-9714", "is_closed": false, "location": {"address2": "", "country": "US", "display_address": ["153 Amsterdam Ave", "New York, NY 10023"], "address1": "153 Amsterdam Ave", "city": "New York", "zip_code": "10023", "address3": "", "state": "NY"}, "coordinates": {"longitude": -73.983876645396, "latitude": 40.7752417820046}, "review_count": 63, "image_url": "https://s3-media1.fl.yelpcdn.com/bphoto/P1dPOXojMGogfxGPJkL7JA/o.jpg", "price": "$", "rating": 3.0, "name": "Wok City", "url": "https://www.yelp.com/biz/wok-city-new-york?adjust_creative=gBcvfFpabk3CnzmXKdYe3w&utm_campaign=yelp_api_v3&utm_medium=api_v3_business_search&utm_source=gBcvfFpabk3CnzmXKdYe3w"}, {"transactions": [], "distance": 915.0236186182, "phone": "+16462888434", "categories": [{"alias": "chinese", "title": "Chinese"}], "id": "forever-taste-new-york", "display_phone": "(646) 288-8434", "is_closed": false, "location": {"address2": "", "country": "US", "display_address": ["27 Rutgers St", "New York, NY 10002"], "address1": "27 Rutgers St", "city": "New York", "zip_code": "10002", "address3": "", "state": "NY"}, "coordinates": {"longitude": -73.989784, "latitude": 40.71294}, "review_count": 23, "image_url": "https://s3-media4.fl.yelpcdn.com/bphoto/zqMCmD0lQHDpwvvFCoIJCg/o.jpg", "price": "$", "rating": 4.0, "name": "Forever Taste", "url": "https://www.yelp.com/biz/forever-taste-new-york?adjust_creative=gBcvfFpabk3CnzmXKdYe3w&utm_campaign=yelp_api_v3&utm_medium=api_v3_business_search&utm_source=gBcvfFpabk3CnzmXKdYe3w"}, {"transactions": ["delivery", "pickup"], "distance": 1854.5103961480002, "phone": "+17186255870", "categories": [{"alias": "chinese", "title": "Chinese"}], "id": "chung-hing-brooklyn", "display_phone": "(718) 625-5870", "is_closed": false, "location": {"address2": "", "country": "US", "display_address": ["157 Court St", "Brooklyn, NY 11201"], "address1": "157 Court St", "city": "Brooklyn", "zip_code": "11201", "address3": "", "state": "NY"}, "coordinates": {"longitude": -73.992523, "latitude": 40.688842}, "review_count": 24, "image_url": "https://s3-media3.fl.yelpcdn.com/bphoto/ubddsk5sWJ6yDK4XFRZaSQ/o.jpg", "price": "$", "rating": 3.0, "name": "Chung Hing", "url": "https://www.yelp.com/biz/chung-hing-brooklyn?adjust_creative=gBcvfFpabk3CnzmXKdYe3w&utm_campaign=yelp_api_v3&utm_medium=api_v3_business_search&utm_source=gBcvfFpabk3CnzmXKdYe3w"}, {"transactions": [], "distance": 15394.46202866, "phone": "+17183592188", "categories": [{"alias": "chinese", "title": "Chinese"}], "id": "dunhuang-lanzhou-beef-noodle-flushing", "display_phone": "(718) 359-2188", "is_closed": false, "location": {"address2": "", "country": "US", "display_address": ["136-93 37th Ave", "Flushing, NY 11354"], "address1": "136-93 37th Ave", "city": "Flushing", "zip_code": "11354", "address3": "", "state": "NY"}, "coordinates": {"longitude": -73.8277914002538, "latitude": 40.7624444092074}, "review_count": 88, "image_url": "https://s3-media3.fl.yelpcdn.com/bphoto/nFuubwU3fernsVEy0HXIng/o.jpg", "price": "$", "rating": 4.5, "name": "Dunhuang Lanzhou Beef Noodle", "url": "https://www.yelp.com/biz/dunhuang-lanzhou-beef-noodle-flushing?adjust_creative=gBcvfFpabk3CnzmXKdYe3w&utm_campaign=yelp_api_v3&utm_medium=api_v3_business_search&utm_source=gBcvfFpabk3CnzmXKdYe3w"}, {"transactions": [], "distance": 5322.408765198, "phone": "+12127364004", "categories": [{"alias": "chinese", "title": "Chinese"}], "id": "golden-city-chinese-restaurant-new-york", "display_phone": "(212) 736-4004", "is_closed": false, "location": {"address2": "", "country": "US", "display_address": ["423 9th Ave", "New York, NY 10001"], "address1": "423 9th Ave", "city": "New York", "zip_code": "10001", "address3": "", "state": "NY"}, "coordinates": {"longitude": -73.996643608314, "latitude": 40.753277148143}, "review_count": 63, "image_url": "https://s3-media4.fl.yelpcdn.com/bphoto/7VBMpl9s0wOc9ngvHkYHFw/o.jpg", "price": "$", "rating": 3.5, "name": "Golden City Chinese Restaurant", "url": "https://www.yelp.com/biz/golden-city-chinese-restaurant-new-york?adjust_creative=gBcvfFpabk3CnzmXKdYe3w&utm_campaign=yelp_api_v3&utm_medium=api_v3_business_search&utm_source=gBcvfFpabk3CnzmXKdYe3w"}, {"transactions": ["delivery", "pickup"], "distance": 10800.699651202, "phone": "+12123908886", "categories": [{"alias": "bbq", "title": "Barbeque"}, {"alias": "sushi", "title": "Sushi Bars"}, {"alias": "chinese", "title": "Chinese"}], "id": "uncle-luoyang-new-york-3", "display_phone": "(212) 390-8886", "is_closed": false, "location": {"address2": "", "country": "US", "display_address": ["928 Amsterdam Ave", "New York, NY 10025"], "address1": "928 Amsterdam Ave", "city": "New York", "zip_code": "10025", "address3": "", "state": "NY"}, "coordinates": {"longitude": -73.96626, "latitude": 40.80023}, "review_count": 56, "image_url": "https://s3-media3.fl.yelpcdn.com/bphoto/L9jHZD8oWAAKlaLpbE4Y3Q/o.jpg", "price": "$$", "rating": 3.5, "name": "Uncle Luoyang", "url": "https://www.yelp.com/biz/uncle-luoyang-new-york-3?adjust_creative=gBcvfFpabk3CnzmXKdYe3w&utm_campaign=yelp_api_v3&utm_medium=api_v3_business_search&utm_source=gBcvfFpabk3CnzmXKdYe3w"}, {"transactions": [], "distance": 4346.83619137, "phone": "+12126456888", "categories": [{"alias": "chinese", "title": "Chinese"}], "id": "chinese-fast-wok-eat-in-and-take-out-new-york", "display_phone": "(212) 645-6888", "is_closed": false, "location": {"address2": "", "country": "US", "display_address": ["230 7th Ave", "New York, NY 10011"], "address1": "230 7th Ave", "city": "New York", "zip_code": "10011", "address3": "", "state": "NY"}, "coordinates": {"longitude": -73.9957, "latitude": 40.74452}, "review_count": 50, "image_url": "https://s3-media4.fl.yelpcdn.com/bphoto/ntnM2RQE7WGsJJ__80qF2Q/o.jpg", "price": "$", "rating": 3.0, "name": "Chinese Fast Wok - Eat In & Take Out", "url": "https://www.yelp.com/biz/chinese-fast-wok-eat-in-and-take-out-new-york?adjust_creative=gBcvfFpabk3CnzmXKdYe3w&utm_campaign=yelp_api_v3&utm_medium=api_v3_business_search&utm_source=gBcvfFpabk3CnzmXKdYe3w"}, {"transactions": [], "distance": 4360.203691278, "phone": "+17182187777", "categories": [{"alias": "chinese", "title": "Chinese"}], "id": "east-met-west-brooklyn", "display_phone": "(718) 218-7777", "is_closed": false, "location": {"address2": "", "country": "US", "display_address": ["752 Metropolitan Ave", "Brooklyn, NY 11211"], "address1": "752 Metropolitan Ave", "city": "Brooklyn", "zip_code": "11211", "address3": "", "state": "NY"}, "coordinates": {"longitude": -73.943832, "latitude": 40.714361}, "review_count": 44, "image_url": "https://s3-media1.fl.yelpcdn.com/bphoto/oozMsx1rfTfcqj612T-3kQ/o.jpg", "price": "$", "rating": 3.0, "name": "East Met West", "url": "https://www.yelp.com/biz/east-met-west-brooklyn?adjust_creative=gBcvfFpabk3CnzmXKdYe3w&utm_campaign=yelp_api_v3&utm_medium=api_v3_business_search&utm_source=gBcvfFpabk3CnzmXKdYe3w"}, {"transactions": [], "distance": 15061.81627868, "phone": "", "categories": [{"alias": "chinese", "title": "Chinese"}, {"alias": "noodles", "title": "Noodles"}], "id": "lamb-noodle-soup-flushing", "display_phone": "", "is_closed": false, "location": {"address2": "", "country": "US", "display_address": ["41-28 Main St", "Golden Mall", "Flushing, NY 11355"], "address1": "41-28 Main St", "city": "Flushing", "zip_code": "11355", "address3": "Golden Mall", "state": "NY"}, "coordinates": {"longitude": -73.829110133573, "latitude": 40.7572087904699}, "review_count": 133, "image_url": "https://s3-media3.fl.yelpcdn.com/bphoto/O6ie4tTNcdKvXXnT_33zhQ/o.jpg", "price": "$", "rating": 4.5, "name": "Lamb Noodle Soup", "url": "https://www.yelp.com/biz/lamb-noodle-soup-flushing?adjust_creative=gBcvfFpabk3CnzmXKdYe3w&utm_campaign=yelp_api_v3&utm_medium=api_v3_business_search&utm_source=gBcvfFpabk3CnzmXKdYe3w"}, {"transactions": ["delivery", "pickup"], "distance": 10671.661804398, "phone": "+12129323300", "categories": [{"alias": "bbq", "title": "Barbeque"}, {"alias": "noodles", "title": "Noodles"}, {"alias": "szechuan", "title": "Szechuan"}], "id": "ollies-noodle-shop-and-grille-new-york", "display_phone": "(212) 932-3300", "is_closed": false, "location": {"address2": "", "country": "US", "display_address": ["2705 Broadway", "New York, NY 10025"], "address1": "2705 Broadway", "city": "New York", "zip_code": "10025", "address3": "", "state": "NY"}, "coordinates": {"longitude": -73.96868, "latitude": 40.79942}, "review_count": 69, "image_url": "https://s3-media4.fl.yelpcdn.com/bphoto/q8P01rRE3TOUH2D653hMiA/o.jpg", "price": "$$", "rating": 3.0, "name": "Ollie's Noodle Shop & Grille", "url": "https://www.yelp.com/biz/ollies-noodle-shop-and-grille-new-york?adjust_creative=gBcvfFpabk3CnzmXKdYe3w&utm_campaign=yelp_api_v3&utm_medium=api_v3_business_search&utm_source=gBcvfFpabk3CnzmXKdYe3w"}, {"transactions": ["delivery", "pickup"], "distance": 12401.163175498, "phone": "+17188306313", "categories": [{"alias": "asianfusion", "title": "Asian Fusion"}, {"alias": "chinese", "title": "Chinese"}, {"alias": "thai", "title": "Thai"}], "id": "asian-fortune-restaurant-forest-hills", "display_phone": "(718) 830-6313", "is_closed": false, "location": {"address2": "", "country": "US", "display_address": ["103-35 Queens Blvd", "Forest Hills, NY 11375"], "address1": "103-35 Queens Blvd", "city": "Forest Hills", "zip_code": "11375", "address3": "", "state": "NY"}, "coordinates": {"longitude": -73.8493213, "latitude": 40.7244621}, "review_count": 38, "image_url": "https://s3-media1.fl.yelpcdn.com/bphoto/qhV50d-c3lDpI_LC0so6sQ/o.jpg", "price": "$$", "rating": 3.5, "name": "Asian Fortune Restaurant", "url": "https://www.yelp.com/biz/asian-fortune-restaurant-forest-hills?adjust_creative=gBcvfFpabk3CnzmXKdYe3w&utm_campaign=yelp_api_v3&utm_medium=api_v3_business_search&utm_source=gBcvfFpabk3CnzmXKdYe3w"}, {"transactions": [], "distance": 2265.145728132, "phone": "+17188552119", "categories": [{"alias": "chinese", "title": "Chinese"}], "id": "chung-chun-kitchen-brooklyn-2", "display_phone": "(718) 855-2119", "is_closed": false, "location": {"address2": null, "country": "US", "display_address": ["338 Myrtle Ave", "Brooklyn, NY 11205"], "address1": "338 Myrtle Ave", "city": "Brooklyn", "zip_code": "11205", "address3": null, "state": "NY"}, "coordinates": {"longitude": -73.972984, "latitude": 40.693035}, "review_count": 12, "image_url": "https://s3-media2.fl.yelpcdn.com/bphoto/BiQVxjC71uhb7KKQafkfdw/o.jpg", "price": "$", "rating": 4.0, "name": "Chung Chun Kitchen", "url": "https://www.yelp.com/biz/chung-chun-kitchen-brooklyn-2?adjust_creative=gBcvfFpabk3CnzmXKdYe3w&utm_campaign=yelp_api_v3&utm_medium=api_v3_business_search&utm_source=gBcvfFpabk3CnzmXKdYe3w"}, {"transactions": [], "distance": 14924.764884279999, "phone": "+17183591601", "categories": [{"alias": "szechuan", "title": "Szechuan"}], "id": "spicy-and-tasty-flushing", "display_phone": "(718) 359-1601", "is_closed": false, "location": {"address2": "", "country": "US", "display_address": ["39-07 Prince St", "Flushing, NY 11354"], "address1": "39-07 Prince St", "city": "Flushing", "zip_code": "11354", "address3": "", "state": "NY"}, "coordinates": {"longitude": -73.832034, "latitude": 40.759269}, "review_count": 378, "image_url": "https://s3-media3.fl.yelpcdn.com/bphoto/J2Cb5MgYm3KcnVSA-Gw31Q/o.jpg", "price": "$$", "rating": 4.0, "name": "Spicy & Tasty", "url": "https://www.yelp.com/biz/spicy-and-tasty-flushing?adjust_creative=gBcvfFpabk3CnzmXKdYe3w&utm_campaign=yelp_api_v3&utm_medium=api_v3_business_search&utm_source=gBcvfFpabk3CnzmXKdYe3w"}, {"transactions": [], "distance": 1122.3168621139998, "phone": "+12129253298", "categories": [{"alias": "diners", "title": "Diners"}, {"alias": "chinese", "title": "Chinese"}], "id": "cup-and-saucer-new-york", "display_phone": "(212) 925-3298", "is_closed": false, "location": {"address2": "", "country": "US", "display_address": ["89 Canal St", "New York, NY 10002"], "address1": "89 Canal St", "city": "New York", "zip_code": "10002", "address3": "", "state": "NY"}, "coordinates": {"longitude": -73.99347, "latitude": 40.7155}, "review_count": 193, "image_url": "https://s3-media3.fl.yelpcdn.com/bphoto/3qg33kXPDME1NlxAVbb1wA/o.jpg", "price": "$", "rating": 4.0, "name": "Cup & Saucer", "url": "https://www.yelp.com/biz/cup-and-saucer-new-york?adjust_creative=gBcvfFpabk3CnzmXKdYe3w&utm_campaign=yelp_api_v3&utm_medium=api_v3_business_search&utm_source=gBcvfFpabk3CnzmXKdYe3w"}, {"transactions": [], "distance": 15034.980534179998, "phone": "+12125181952", "categories": [{"alias": "chinese", "title": "Chinese"}, {"alias": "foodstands", "title": "Food Stands"}], "id": "tianjin-hanmade-dumpling-flushing", "display_phone": "(212) 518-1952", "is_closed": false, "location": {"address2": "", "country": "US", "display_address": ["41-28 Main St", "Flushing, NY 11355"], "address1": "41-28 Main St", "city": "Flushing", "zip_code": "11355", "address3": "", "state": "NY"}, "coordinates": {"longitude": -73.829437, "latitude": 40.757178}, "review_count": 144, "image_url": "https://s3-media4.fl.yelpcdn.com/bphoto/9wW9nDdOF_4xNxH2B8hmZQ/o.jpg", "price": "$", "rating": 4.5, "name": "Tianjin Hanmade Dumpling", "url": "https://www.yelp.com/biz/tianjin-hanmade-dumpling-flushing?adjust_creative=gBcvfFpabk3CnzmXKdYe3w&utm_campaign=yelp_api_v3&utm_medium=api_v3_business_search&utm_source=gBcvfFpabk3CnzmXKdYe3w"}, {"transactions": ["delivery", "pickup"], "distance": 6685.46711978, "phone": "+12127652929", "categories": [{"alias": "chinese", "title": "Chinese"}, {"alias": "noodles", "title": "Noodles"}], "id": "mee-noodle-shop-new-york-2", "display_phone": "(212) 765-2929", "is_closed": false, "location": {"address2": "", "country": "US", "display_address": ["795 9th Ave", "New York, NY 10019"], "address1": "795 9th Ave", "city": "New York", "zip_code": "10019", "address3": "", "state": "NY"}, "coordinates": {"longitude": -73.98791, "latitude": 40.76537}, "review_count": 405, "image_url": "https://s3-media3.fl.yelpcdn.com/bphoto/Vxhey_cZKbdpfeKhKbuXgQ/o.jpg", "price": "$", "rating": 3.0, "name": "Mee Noodle Shop", "url": "https://www.yelp.com/biz/mee-noodle-shop-new-york-2?adjust_creative=gBcvfFpabk3CnzmXKdYe3w&utm_campaign=yelp_api_v3&utm_medium=api_v3_business_search&utm_source=gBcvfFpabk3CnzmXKdYe3w"}, {"transactions": ["delivery", "pickup"], "distance": 3271.618595564, "phone": "+12124638182", "categories": [{"alias": "chinese", "title": "Chinese"}], "id": "christophers-golden-woks-new-york", "display_phone": "(212) 463-8182", "is_closed": false, "location": {"address2": "", "country": "US", "display_address": ["159 Christopher St", "New York, NY 10014"], "address1": "159 Christopher St", "city": "New York", "zip_code": "10014", "address3": "", "state": "NY"}, "coordinates": {"longitude": -74.00836, "latitude": 40.73284}, "review_count": 39, "image_url": "https://s3-media3.fl.yelpcdn.com/bphoto/A07xZaSN-2-S4w-BZ-LAwg/o.jpg", "price": "$", "rating": 3.5, "name": "Christopher's Golden Woks", "url": "https://www.yelp.com/biz/christophers-golden-woks-new-york?adjust_creative=gBcvfFpabk3CnzmXKdYe3w&utm_campaign=yelp_api_v3&utm_medium=api_v3_business_search&utm_source=gBcvfFpabk3CnzmXKdYe3w"}, {"transactions": [], "distance": 11821.85597586, "phone": "+17189815335", "categories": [{"alias": "chinese", "title": "Chinese"}], "id": "new-win-hing-staten-island", "display_phone": "(718) 981-5335", "is_closed": false, "location": {"address2": "", "country": "US", "display_address": ["1180 Bay St", "Staten Island, NY 10305"], "address1": "1180 Bay St", "city": "Staten Island", "zip_code": "10305", "address3": "", "state": "NY"}, "coordinates": {"longitude": -74.0664883, "latitude": 40.6143029}, "review_count": 20, "image_url": "https://s3-media1.fl.yelpcdn.com/bphoto/JYj42nmL1cntNnG-O9CDJQ/o.jpg", "price": "$", "rating": 3.5, "name": "New Win Hing", "url": "https://www.yelp.com/biz/new-win-hing-staten-island?adjust_creative=gBcvfFpabk3CnzmXKdYe3w&utm_campaign=yelp_api_v3&utm_medium=api_v3_business_search&utm_source=gBcvfFpabk3CnzmXKdYe3w"}, {"transactions": ["delivery", "pickup"], "distance": 6673.486066282, "phone": "+12123714777", "categories": [{"alias": "japanese", "title": "Japanese"}, {"alias": "chinese", "title": "Chinese"}], "id": "asian-eatery-new-york", "display_phone": "(212) 371-4777", "is_closed": false, "location": {"address2": "", "country": "US", "display_address": ["207 E 59th St", "New York, NY 10022"], "address1": "207 E 59th St", "city": "New York", "zip_code": "10022", "address3": "", "state": "NY"}, "coordinates": {"longitude": -73.9659424, "latitude": 40.7615318}, "review_count": 44, "image_url": "https://s3-media1.fl.yelpcdn.com/bphoto/lBeIAHP_34LFQV4rSBOqgw/o.jpg", "price": "$", "rating": 3.5, "name": "Asian Eatery", "url": "https://www.yelp.com/biz/asian-eatery-new-york?adjust_creative=gBcvfFpabk3CnzmXKdYe3w&utm_campaign=yelp_api_v3&utm_medium=api_v3_business_search&utm_source=gBcvfFpabk3CnzmXKdYe3w"}, {"transactions": ["pickup"], "distance": 18766.95308982, "phone": "+17184234888", "categories": [{"alias": "szechuan", "title": "Szechuan"}], "id": "legend-of-taste-whitestone", "display_phone": "(718) 423-4888", "is_closed": false, "location": {"address2": null, "country": "US", "display_address": ["2002 Utopia Pkwy", "Whitestone, NY 11357"], "address1": "2002 Utopia Pkwy", "city": "Whitestone", "zip_code": "11357", "address3": "", "state": "NY"}, "coordinates": {"longitude": -73.7941589355469, "latitude": 40.7794990539551}, "review_count": 36, "image_url": "https://s3-media2.fl.yelpcdn.com/bphoto/mK89wjD2u6AdC-ioUCeDAQ/o.jpg", "price": "$$", "rating": 4.5, "name": "Legend of Taste", "url": "https://www.yelp.com/biz/legend-of-taste-whitestone?adjust_creative=gBcvfFpabk3CnzmXKdYe3w&utm_campaign=yelp_api_v3&utm_medium=api_v3_business_search&utm_source=gBcvfFpabk3CnzmXKdYe3w"}, {"transactions": [], "distance": 10478.71529592, "phone": "+17188986686", "categories": [{"alias": "chinese", "title": "Chinese"}, {"alias": "seafood", "title": "Seafood"}, {"alias": "asianfusion", "title": "Asian Fusion"}], "id": "j-j-chans-garden-east-elmhurst", "display_phone": "(718) 898-6686", "is_closed": false, "location": {"address2": "", "country": "US", "display_address": ["7521 31st Ave", "East Elmhurst, NY 11370"], "address1": "7521 31st Ave", "city": "East Elmhurst", "zip_code": "11370", "address3": "", "state": "NY"}, "coordinates": {"longitude": -73.8922424, "latitude": 40.758709}, "review_count": 90, "image_url": "https://s3-media1.fl.yelpcdn.com/bphoto/GEaQNuJi6YTX8tNdrKN3aQ/o.jpg", "price": "$$", "rating": 3.5, "name": "J J Chan's Garden", "url": "https://www.yelp.com/biz/j-j-chans-garden-east-elmhurst?adjust_creative=gBcvfFpabk3CnzmXKdYe3w&utm_campaign=yelp_api_v3&utm_medium=api_v3_business_search&utm_source=gBcvfFpabk3CnzmXKdYe3w"}, {"transactions": [], "distance": 10876.707652864, "phone": "+17184163333", "categories": [{"alias": "chinese", "title": "Chinese"}], "id": "asia-rego-park", "display_phone": "(718) 416-3333", "is_closed": false, "location": {"address2": "", "country": "US", "display_address": ["63104 Woodhaven Blvd", "Rego Park, NY 11374"], "address1": "63104 Woodhaven Blvd", "city": "Rego Park", "zip_code": "11374", "address3": "", "state": "NY"}, "coordinates": {"longitude": -73.8666669, "latitude": 40.721936}, "review_count": 22, "image_url": "https://s3-media1.fl.yelpcdn.com/bphoto/NNSrY-5rQAAF2mh0veqS6Q/o.jpg", "price": "$", "rating": 4.0, "name": "Asia", "url": "https://www.yelp.com/biz/asia-rego-park?adjust_creative=gBcvfFpabk3CnzmXKdYe3w&utm_campaign=yelp_api_v3&utm_medium=api_v3_business_search&utm_source=gBcvfFpabk3CnzmXKdYe3w"}, {"transactions": ["delivery", "pickup"], "distance": 7348.9009585779995, "phone": "+17183818980", "categories": [{"alias": "chinese", "title": "Chinese"}], "id": "jade-palace-ridgewood", "display_phone": "(718) 381-8980", "is_closed": false, "location": {"address2": "", "country": "US", "display_address": ["55-33 Myrtle Ave", "Ridgewood, NY 11385"], "address1": "55-33 Myrtle Ave", "city": "Ridgewood", "zip_code": "11385", "address3": "", "state": "NY"}, "coordinates": {"longitude": -73.9073868, "latitude": 40.7001495}, "review_count": 19, "image_url": "https://s3-media2.fl.yelpcdn.com/bphoto/8gYJ4nkqYfwNv2_S0Cc1qQ/o.jpg", "price": "$$", "rating": 4.0, "name": "Jade Palace", "url": "https://www.yelp.com/biz/jade-palace-ridgewood?adjust_creative=gBcvfFpabk3CnzmXKdYe3w&utm_campaign=yelp_api_v3&utm_medium=api_v3_business_search&utm_source=gBcvfFpabk3CnzmXKdYe3w"}, {"transactions": ["delivery", "pickup"], "distance": 8014.66447796, "phone": "+17188942392", "categories": [{"alias": "chinese", "title": "Chinese"}], "id": "moon-palace-kitchen-maspeth-2", "display_phone": "(718) 894-2392", "is_closed": false, "location": {"address2": null, "country": "US", "display_address": ["63-12 Flushing Ave", "Maspeth, NY 11378"], "address1": "63-12 Flushing Ave", "city": "Maspeth", "zip_code": "11378", "address3": null, "state": "NY"}, "coordinates": {"longitude": -73.901771, "latitude": 40.722206}, "review_count": 11, "image_url": "https://s3-media2.fl.yelpcdn.com/bphoto/2qqcRgpcpCWSSmDeI1Ntlw/o.jpg", "rating": 4.0, "name": "Moon Palace Kitchen", "url": "https://www.yelp.com/biz/moon-palace-kitchen-maspeth-2?adjust_creative=gBcvfFpabk3CnzmXKdYe3w&utm_campaign=yelp_api_v3&utm_medium=api_v3_business_search&utm_source=gBcvfFpabk3CnzmXKdYe3w"}, {"transactions": [], "distance": 14814.18874222, "phone": "+17183598600", "categories": [{"alias": "seafood", "title": "Seafood"}, {"alias": "dimsum", "title": "Dim Sum"}, {"alias": "cantonese", "title": "Cantonese"}], "id": "asian-jewels-seafood-restaurant-flushing", "display_phone": "(718) 359-8600", "is_closed": false, "location": {"address2": null, "country": "US", "display_address": ["13330 39th Ave", "Flushing, NY 11354"], "address1": "13330 39th Ave", "city": "Flushing", "zip_code": "11354", "address3": "", "state": "NY"}, "coordinates": {"longitude": -73.8337556, "latitude": 40.759076}, "review_count": 824, "image_url": "https://s3-media3.fl.yelpcdn.com/bphoto/HKUDbLPsLTpP7VZjvfV8wg/o.jpg", "price": "$$", "rating": 4.0, "name": "Asian Jewels Seafood Restaurant", "url": "https://www.yelp.com/biz/asian-jewels-seafood-restaurant-flushing?adjust_creative=gBcvfFpabk3CnzmXKdYe3w&utm_campaign=yelp_api_v3&utm_medium=api_v3_business_search&utm_source=gBcvfFpabk3CnzmXKdYe3w"}, {"transactions": [], "distance": 6911.8288374799995, "phone": "+17182872345", "categories": [{"alias": "chinese", "title": "Chinese"}], "id": "good-friend-chinese-restaurant-brooklyn", "display_phone": "(718) 287-2345", "is_closed": false, "location": {"address2": "", "country": "US", "display_address": ["1376 Nostrand Ave", "Brooklyn, NY 11226"], "address1": "1376 Nostrand Ave", "city": "Brooklyn", "zip_code": "11226", "address3": "", "state": "NY"}, "coordinates": {"longitude": -73.9500732421875, "latitude": 40.653133392334}, "review_count": 13, "image_url": "https://s3-media2.fl.yelpcdn.com/bphoto/l6CKDu1UXU6M8p3ZKnWMuQ/o.jpg", "price": "$", "rating": 4.0, "name": "Good Friend Chinese Restaurant", "url": "https://www.yelp.com/biz/good-friend-chinese-restaurant-brooklyn?adjust_creative=gBcvfFpabk3CnzmXKdYe3w&utm_campaign=yelp_api_v3&utm_medium=api_v3_business_search&utm_source=gBcvfFpabk3CnzmXKdYe3w"}]}