{"region": {"center": {"longitude": -73.99429321289062, "latitude": 40.70544486444615}}, "total": 40, "businesses": [{"transactions": [], "distance": 3617.052643986, "phone": "+12124755829", "categories": [{"alias": "newamerican", "title": "American (New)"}, {"alias": "french", "title": "French"}], "id": "abc-kitchen-new-york", "display_phone": "(212) 475-5829", "is_closed": false, "location": {"address2": "", "country": "US", "display_address": ["35 E 18th St", "New York, NY 10003"], "address1": "35 E 18th St", "city": "New York", "zip_code": "10003", "address3": "", "state": "NY"}, "coordinates": {"longitude": -73.9895899828034, "latitude": 40.7377792928906}, "review_count": 2393, "image_url": "https://s3-media4.fl.yelpcdn.com/bphoto/6Jyzgv-PNwMjCoQBr6NJfg/o.jpg", "price": "$$$", "rating": 4.0, "name": "ABC Kitchen", "url": "https://www.yelp.com/biz/abc-kitchen-new-york?adjust_creative=gBcvfFpabk3CnzmXKdYe3w&utm_campaign=yelp_api_v3&utm_medium=api_v3_business_search&utm_source=gBcvfFpabk3CnzmXKdYe3w"}, {"transactions": [], "distance": 1951.804977056, "phone": "+12129651414", "categories": [{"alias": "french", "title": "French"}, {"alias": "breakfast_brunch", "title": "Breakfast & Brunch"}], "id": "balthazar-restaurant-new-york", "display_phone": "(212) 965-1414", "is_closed": false, "location": {"address2": "", "country": "US", "display_address": ["80 Spring St", "New York, NY 10012"], "address1": "80 Spring St", "city": "New York", "zip_code": "10012", "address3": "", "state": "NY"}, "coordinates": {"longitude": -73.998330776327, "latitude": 40.722730394629}, "review_count": 2370, "image_url": "https://s3-media4.fl.yelpcdn.com/bphoto/UTUC5jtME4HcuazmQqxETw/o.jpg", "price": "$$$", "rating": 4.0, "name": "Balthazar Restaurant", "url": "https://www.yelp.com/biz/balthazar-restaurant-new-york?adjust_creative=gBcvfFpabk3CnzmXKdYe3w&utm_campaign=yelp_api_v3&utm_medium=api_v3_business_search&utm_source=gBcvfFpabk3CnzmXKdYe3w"}, {"transactions": [], "distance": 6328.259300852, "phone": "+12125541515", "categories": [{"alias": "french", "title": "French"}, {"alias": "lounges", "title": "Lounges"}], "id": "le-bernardin-new-york", "display_phone": "(212) 554-1515", "is_closed": false, "location": {"address2": "", "country": "US", "display_address": ["155 W 51st St", "The Equitable Bldg", "New York, NY 10019"], "address1": "155 W 51st St", "city": "New York", "zip_code": "10019", "address3": "The Equitable Bldg", "state": "NY"}, "coordinates": {"longitude": -73.981763, "latitude": 40.761557}, "review_count": 1896, "image_url": "https://s3-media2.fl.yelpcdn.com/bphoto/O2auTfVN7mp7qSMoKQ81hQ/o.jpg", "price": "$$$$", "rating": 4.5, "name": "Le Bernardin", "url": "https://www.yelp.com/biz/le-bernardin-new-york?adjust_creative=gBcvfFpabk3CnzmXKdYe3w&utm_campaign=yelp_api_v3&utm_medium=api_v3_business_search&utm_source=gBcvfFpabk3CnzmXKdYe3w"}, {"transactions": [], "distance": 2782.248879024, "phone": "+12124753850", "categories": [{"alias": "french", "title": "French"}, {"alias": "newamerican", "title": "American (New)"}, {"alias": "breakfast_brunch", "title": "Breakfast & Brunch"}], "id": "minetta-tavern-new-york", "display_phone": "(212) 475-3850", "is_closed": false, "location": {"address2": "", "country": "US", "display_address": ["113 Macdougal St", "New York, NY 10012"], "address1": "113 Macdougal St", "city": "New York", "zip_code": "10012", "address3": "", "state": "NY"}, "coordinates": {"longitude": -74.0006073834151, "latitude": 40.7300047976758}, "review_count": 1777, "image_url": "https://s3-media4.fl.yelpcdn.com/bphoto/J5VE0w-yFfRbaJWE7evXXA/o.jpg", "price": "$$$", "rating": 4.0, "name": "Minetta Tavern", "url": "https://www.yelp.com/biz/minetta-tavern-new-york?adjust_creative=gBcvfFpabk3CnzmXKdYe3w&utm_campaign=yelp_api_v3&utm_medium=api_v3_business_search&utm_source=gBcvfFpabk3CnzmXKdYe3w"}, {"transactions": [], "distance": 3035.998344844, "phone": "+12125332962", "categories": [{"alias": "french", "title": "French"}, {"alias": "wine_bars", "title": "Wine Bars"}], "id": "am\u00e9lie-new-york", "display_phone": "(212) 533-2962", "is_closed": false, "location": {"address2": "", "country": "US", "display_address": ["22 W 8th St", "New York, NY 10011"], "address1": "22 W 8th St", "city": "New York", "zip_code": "10011", "address3": "", "state": "NY"}, "coordinates": {"longitude": -73.99766, "latitude": 40.7327}, "review_count": 1586, "image_url": "https://s3-media4.fl.yelpcdn.com/bphoto/cSDgVuPMnJgMLTrTNSEXug/o.jpg", "price": "$$", "rating": 4.5, "name": "Am\u00e9lie", "url": "https://www.yelp.com/biz/am%C3%A9lie-new-york?adjust_creative=gBcvfFpabk3CnzmXKdYe3w&utm_campaign=yelp_api_v3&utm_medium=api_v3_business_search&utm_source=gBcvfFpabk3CnzmXKdYe3w"}, {"transactions": [], "distance": 4074.52218398, "phone": "+12128890905", "categories": [{"alias": "newamerican", "title": "American (New)"}, {"alias": "french", "title": "French"}, {"alias": "cocktailbars", "title": "Cocktail Bars"}], "id": "eleven-madison-park-new-york", "display_phone": "(212) 889-0905", "is_closed": false, "location": {"address2": "", "country": "US", "display_address": ["11 Madison Ave", "New York, NY 10010"], "address1": "11 Madison Ave", "city": "New York", "zip_code": "10010", "address3": "", "state": "NY"}, "coordinates": {"longitude": -73.9872074872255, "latitude": 40.7416907417333}, "review_count": 1623, "image_url": "https://s3-media2.fl.yelpcdn.com/bphoto/LdksHnnLXrazkmBK2ohRKA/o.jpg", "price": "$$$$", "rating": 4.5, "name": "Eleven Madison Park", "url": "https://www.yelp.com/biz/eleven-madison-park-new-york?adjust_creative=gBcvfFpabk3CnzmXKdYe3w&utm_campaign=yelp_api_v3&utm_medium=api_v3_business_search&utm_source=gBcvfFpabk3CnzmXKdYe3w"}, {"transactions": [], "distance": 7161.946022919999, "phone": "+12122993900", "categories": [{"alias": "french", "title": "French"}], "id": "jean-georges-new-york", "display_phone": "(212) 299-3900", "is_closed": false, "location": {"address2": "", "country": "US", "display_address": ["1 Central Park W", "New York, NY 10023"], "address1": "1 Central Park W", "city": "New York", "zip_code": "10023", "address3": "", "state": "NY"}, "coordinates": {"longitude": -73.9814290717583, "latitude": 40.7691122743293}, "review_count": 1544, "image_url": "https://s3-media1.fl.yelpcdn.com/bphoto/iaGpNeGJMFrBIm0WyKE8oA/o.jpg", "price": "$$$$", "rating": 4.5, "name": "Jean-Georges", "url": "https://www.yelp.com/biz/jean-georges-new-york?adjust_creative=gBcvfFpabk3CnzmXKdYe3w&utm_campaign=yelp_api_v3&utm_medium=api_v3_business_search&utm_source=gBcvfFpabk3CnzmXKdYe3w"}, {"transactions": [], "distance": 2313.391005454, "phone": "+12129253061", "categories": [{"alias": "french", "title": "French"}], "id": "la-sirene-new-york", "display_phone": "(212) 925-3061", "is_closed": false, "location": {"address2": "", "country": "US", "display_address": ["558 Broome St", "New York, NY 10013"], "address1": "558 Broome St", "city": "New York", "zip_code": "10013", "address3": "", "state": "NY"}, "coordinates": {"longitude": -74.005708694458, "latitude": 40.7243642217227}, "review_count": 1348, "image_url": "https://s3-media2.fl.yelpcdn.com/bphoto/cJI9If-bg-Z9ZjDhckZPsQ/o.jpg", "price": "$$$", "rating": 4.5, "name": "La Sirene", "url": "https://www.yelp.com/biz/la-sirene-new-york?adjust_creative=gBcvfFpabk3CnzmXKdYe3w&utm_campaign=yelp_api_v3&utm_medium=api_v3_business_search&utm_source=gBcvfFpabk3CnzmXKdYe3w"}, {"transactions": [], "distance": 7032.933281819999, "phone": "+12128239366", "categories": [{"alias": "bakeries", "title": "Bakeries"}, {"alias": "french", "title": "French"}, {"alias": "cafes", "title": "Cafes"}], "id": "bouchon-bakery-and-cafe-new-york-2", "display_phone": "(212) 823-9366", "is_closed": false, "location": {"address2": "3rd Flr", "country": "US", "display_address": ["10 Columbus Cir", "3rd Flr", "New York, NY 10019"], "address1": "10 Columbus Cir", "city": "New York", "zip_code": "10019", "address3": "", "state": "NY"}, "coordinates": {"longitude": -73.9825344085693, "latitude": 40.7680617093661}, "review_count": 1194, "image_url": "https://s3-media1.fl.yelpcdn.com/bphoto/6RLV4neWNvUtKxgXs_LdXg/o.jpg", "price": "$$", "rating": 4.0, "name": "Bouchon Bakery & Cafe", "url": "https://www.yelp.com/biz/bouchon-bakery-and-cafe-new-york-2?adjust_creative=gBcvfFpabk3CnzmXKdYe3w&utm_campaign=yelp_api_v3&utm_medium=api_v3_business_search&utm_source=gBcvfFpabk3CnzmXKdYe3w"}, {"transactions": [], "distance": 7180.597146982001, "phone": "+12122880033", "categories": [{"alias": "french", "title": "French"}, {"alias": "tradamerican", "title": "American (Traditional)"}, {"alias": "cocktailbars", "title": "Cocktail Bars"}], "id": "daniel-new-york-4", "display_phone": "(212) 288-0033", "is_closed": false, "location": {"address2": "", "country": "US", "display_address": ["60 E 65th St.", "New York, NY 10065"], "address1": "60 E 65th St.", "city": "New York", "zip_code": "10065", "address3": "", "state": "NY"}, "coordinates": {"longitude": -73.967607, "latitude": 40.7667736797858}, "review_count": 1244, "image_url": "https://s3-media3.fl.yelpcdn.com/bphoto/LasG7T2JB_8FicF0SDbRMA/o.jpg", "price": "$$$$", "rating": 4.5, "name": "Daniel", "url": "https://www.yelp.com/biz/daniel-new-york-4?adjust_creative=gBcvfFpabk3CnzmXKdYe3w&utm_campaign=yelp_api_v3&utm_medium=api_v3_business_search&utm_source=gBcvfFpabk3CnzmXKdYe3w"}, {"transactions": [], "distance": 7040.32498044, "phone": "+12128239335", "categories": [{"alias": "french", "title": "French"}], "id": "per-se-new-york", "display_phone": "(212) 823-9335", "is_closed": false, "location": {"address2": "Fl 4", "country": "US", "display_address": ["10 Columbus Cir", "Fl 4", "Time Warner Ctr", "New York, NY 10019"], "address1": "10 Columbus Cir", "city": "New York", "zip_code": "10019", "address3": "Time Warner Ctr", "state": "NY"}, "coordinates": {"longitude": -73.9827629623657, "latitude": 40.7681528889558}, "review_count": 1241, "image_url": "https://s3-media1.fl.yelpcdn.com/bphoto/ILP6ea-RW8l-kfNBftbqvA/o.jpg", "price": "$$$$", "rating": 4.5, "name": "Per Se", "url": "https://www.yelp.com/biz/per-se-new-york?adjust_creative=gBcvfFpabk3CnzmXKdYe3w&utm_campaign=yelp_api_v3&utm_medium=api_v3_business_search&utm_source=gBcvfFpabk3CnzmXKdYe3w"}, {"transactions": [], "distance": 4414.505236888, "phone": "+13474725660", "categories": [{"alias": "french", "title": "French"}, {"alias": "newamerican", "title": "American (New)"}, {"alias": "gastropubs", "title": "Gastropubs"}], "id": "the-nomad-restaurant-new-york", "display_phone": "(347) 472-5660", "is_closed": false, "location": {"address2": "", "country": "US", "display_address": ["1170 Broadway", "New York, NY 10001"], "address1": "1170 Broadway", "city": "New York", "zip_code": "10001", "address3": "", "state": "NY"}, "coordinates": {"longitude": -73.988482, "latitude": 40.7449}, "review_count": 1144, "image_url": "https://s3-media1.fl.yelpcdn.com/bphoto/04L163ClGH5OwIJLjySBPw/o.jpg", "price": "$$$", "rating": 4.0, "name": "The NoMad Restaurant", "url": "https://www.yelp.com/biz/the-nomad-restaurant-new-york?adjust_creative=gBcvfFpabk3CnzmXKdYe3w&utm_campaign=yelp_api_v3&utm_medium=api_v3_business_search&utm_source=gBcvfFpabk3CnzmXKdYe3w"}, {"transactions": [], "distance": 3160.2401975139996, "phone": "+12122553590", "categories": [{"alias": "french", "title": "French"}, {"alias": "italian", "title": "Italian"}, {"alias": "breakfast_brunch", "title": "Breakfast & Brunch"}], "id": "buvette-new-york", "display_phone": "(212) 255-3590", "is_closed": false, "location": {"address2": "", "country": "US", "display_address": ["42 Grove St", "New York, NY 10014"], "address1": "42 Grove St", "city": "New York", "zip_code": "10014", "address3": "", "state": "NY"}, "coordinates": {"longitude": -74.004213, "latitude": 40.732852}, "review_count": 1146, "image_url": "https://s3-media3.fl.yelpcdn.com/bphoto/hkrgfxvjBczxwpplZJel3w/o.jpg", "price": "$$", "rating": 4.0, "name": "Buvette", "url": "https://www.yelp.com/biz/buvette-new-york?adjust_creative=gBcvfFpabk3CnzmXKdYe3w&utm_campaign=yelp_api_v3&utm_medium=api_v3_business_search&utm_source=gBcvfFpabk3CnzmXKdYe3w"}, {"transactions": [], "distance": 1775.8632378199998, "phone": "+12129642525", "categories": [{"alias": "french", "title": "French"}], "id": "bouley-new-york-2", "display_phone": "(212) 964-2525", "is_closed": false, "location": {"address2": "", "country": "US", "display_address": ["163 Duane St", "New York, NY 10013"], "address1": "163 Duane St", "city": "New York", "zip_code": "10013", "address3": "", "state": "NY"}, "coordinates": {"longitude": -74.00889704957, "latitude": 40.716958735395}, "review_count": 1084, "image_url": "https://s3-media3.fl.yelpcdn.com/bphoto/hM08RKH7KrSv1Z-giu-z5w/o.jpg", "price": "$$$$", "rating": 4.5, "name": "Bouley", "url": "https://www.yelp.com/biz/bouley-new-york-2?adjust_creative=gBcvfFpabk3CnzmXKdYe3w&utm_campaign=yelp_api_v3&utm_medium=api_v3_business_search&utm_source=gBcvfFpabk3CnzmXKdYe3w"}, {"transactions": [], "distance": 2336.1269563039996, "phone": "+17186253815", "categories": [{"alias": "french", "title": "French"}, {"alias": "breakfast_brunch", "title": "Breakfast & Brunch"}, {"alias": "cafes", "title": "Cafes"}], "id": "cafe-luluc-brooklyn", "display_phone": "(718) 625-3815", "is_closed": false, "location": {"address2": "", "country": "US", "display_address": ["214 Smith St", "Brooklyn, NY 11201"], "address1": "214 Smith St", "city": "Brooklyn", "zip_code": "11201", "address3": "", "state": "NY"}, "coordinates": {"longitude": -73.992248, "latitude": 40.684509}, "review_count": 1039, "image_url": "https://s3-media4.fl.yelpcdn.com/bphoto/S3kdCHg7OUH80gfRWVsgWQ/o.jpg", "price": "$$", "rating": 4.0, "name": "Cafe Luluc", "url": "https://www.yelp.com/biz/cafe-luluc-brooklyn?adjust_creative=gBcvfFpabk3CnzmXKdYe3w&utm_campaign=yelp_api_v3&utm_medium=api_v3_business_search&utm_source=gBcvfFpabk3CnzmXKdYe3w"}, {"transactions": ["delivery"], "distance": 3782.583401828, "phone": "+17187827372", "categories": [{"alias": "breakfast_brunch", "title": "Breakfast & Brunch"}, {"alias": "french", "title": "French"}, {"alias": "bars", "title": "Bars"}], "id": "le-barricou-brooklyn", "display_phone": "(718) 782-7372", "is_closed": false, "location": {"address2": "", "country": "US", "display_address": ["533 Grand St", "Brooklyn, NY 11211"], "address1": "533 Grand St", "city": "Brooklyn", "zip_code": "11211", "address3": "", "state": "NY"}, "coordinates": {"longitude": -73.95005, "latitude": 40.7113}, "review_count": 940, "image_url": "https://s3-media1.fl.yelpcdn.com/bphoto/cerZ2-3RV6CTUl16CufEyg/o.jpg", "price": "$$", "rating": 4.0, "name": "Le Barricou", "url": "https://www.yelp.com/biz/le-barricou-brooklyn?adjust_creative=gBcvfFpabk3CnzmXKdYe3w&utm_campaign=yelp_api_v3&utm_medium=api_v3_business_search&utm_source=gBcvfFpabk3CnzmXKdYe3w"}, {"transactions": [], "distance": 7155.688265263999, "phone": "+12122993900", "categories": [{"alias": "french", "title": "French"}, {"alias": "breakfast_brunch", "title": "Breakfast & Brunch"}], "id": "nougatine-at-jean-georges-new-york", "display_phone": "(212) 299-3900", "is_closed": false, "location": {"address2": "", "country": "US", "display_address": ["1 Central Park W", "New York, NY 10023"], "address1": "1 Central Park W", "city": "New York", "zip_code": "10023", "address3": "", "state": "NY"}, "coordinates": {"longitude": -73.98176, "latitude": 40.76891}, "review_count": 942, "image_url": "https://s3-media1.fl.yelpcdn.com/bphoto/6Cq3_lTRA6mi4S9eHslKcw/o.jpg", "price": "$$$", "rating": 4.0, "name": "Nougatine at Jean-Georges", "url": "https://www.yelp.com/biz/nougatine-at-jean-georges-new-york?adjust_creative=gBcvfFpabk3CnzmXKdYe3w&utm_campaign=yelp_api_v3&utm_medium=api_v3_business_search&utm_source=gBcvfFpabk3CnzmXKdYe3w"}, {"transactions": [], "distance": 5055.121531298, "phone": "+12126138660", "categories": [{"alias": "italian", "title": "Italian"}, {"alias": "french", "title": "French"}, {"alias": "seafood", "title": "Seafood"}], "id": "ai-fiori-new-york", "display_phone": "(212) 613-8660", "is_closed": false, "location": {"address2": "", "country": "US", "display_address": ["400 5th Ave", "2nd level", "New York, NY 10018"], "address1": "400 5th Ave", "city": "New York", "zip_code": "10018", "address3": "2nd level", "state": "NY"}, "coordinates": {"longitude": -73.98381, "latitude": 40.7501}, "review_count": 890, "image_url": "https://s3-media4.fl.yelpcdn.com/bphoto/AmsJmvCsiSgoRfVuTVAUGQ/o.jpg", "price": "$$$$", "rating": 4.0, "name": "Ai Fiori", "url": "https://www.yelp.com/biz/ai-fiori-new-york?adjust_creative=gBcvfFpabk3CnzmXKdYe3w&utm_campaign=yelp_api_v3&utm_medium=api_v3_business_search&utm_source=gBcvfFpabk3CnzmXKdYe3w"}, {"transactions": ["delivery", "pickup"], "distance": 3521.933407956, "phone": "+12122292611", "categories": [{"alias": "french", "title": "French"}, {"alias": "breakfast_brunch", "title": "Breakfast & Brunch"}, {"alias": "bakeries", "title": "Bakeries"}], "id": "tartine-new-york", "display_phone": "(212) 229-2611", "is_closed": false, "location": {"address2": "", "country": "US", "display_address": ["253 W 11th St", "New York, NY 10014"], "address1": "253 W 11th St", "city": "New York", "zip_code": "10014", "address3": "", "state": "NY"}, "coordinates": {"longitude": -74.00346, "latitude": 40.73635}, "review_count": 847, "image_url": "https://s3-media2.fl.yelpcdn.com/bphoto/ij4ioWmS0Eo8TP9-ewl_Jg/o.jpg", "price": "$$", "rating": 4.0, "name": "Tartine", "url": "https://www.yelp.com/biz/tartine-new-york?adjust_creative=gBcvfFpabk3CnzmXKdYe3w&utm_campaign=yelp_api_v3&utm_medium=api_v3_business_search&utm_source=gBcvfFpabk3CnzmXKdYe3w"}, {"transactions": [], "distance": 8970.01698216, "phone": "+12127225133", "categories": [{"alias": "french", "title": "French"}, {"alias": "breakfast_brunch", "title": "Breakfast & Brunch"}, {"alias": "dinnertheater", "title": "Dinner Theater"}], "id": "cafe-d-alsace-new-york", "display_phone": "(212) 722-5133", "is_closed": false, "location": {"address2": null, "country": "US", "display_address": ["1695 2nd Ave", "New York, NY 10128"], "address1": "1695 2nd Ave", "city": "New York", "zip_code": "10128", "address3": "", "state": "NY"}, "coordinates": {"longitude": -73.95104, "latitude": 40.77916}, "review_count": 891, "image_url": "https://s3-media1.fl.yelpcdn.com/bphoto/2PzLGSqRcmlWikOGZwrmiQ/o.jpg", "price": "$$", "rating": 4.0, "name": "Cafe D'Alsace", "url": "https://www.yelp.com/biz/cafe-d-alsace-new-york?adjust_creative=gBcvfFpabk3CnzmXKdYe3w&utm_campaign=yelp_api_v3&utm_medium=api_v3_business_search&utm_source=gBcvfFpabk3CnzmXKdYe3w"}, {"transactions": ["pickup"], "distance": 3879.686793144, "phone": "+12122287557", "categories": [{"alias": "newamerican", "title": "American (New)"}, {"alias": "french", "title": "French"}], "id": "almond-new-york", "display_phone": "(212) 228-7557", "is_closed": false, "location": {"address2": "", "country": "US", "display_address": ["12 E 22nd St", "New York, NY 10010"], "address1": "12 E 22nd St", "city": "New York", "zip_code": "10010", "address3": null, "state": "NY"}, "coordinates": {"longitude": -73.9887542724609, "latitude": 40.7400817871094}, "review_count": 812, "image_url": "https://s3-media3.fl.yelpcdn.com/bphoto/mOFiPSt49oaUlIWax0NZ2g/o.jpg", "price": "$$", "rating": 3.5, "name": "Almond", "url": "https://www.yelp.com/biz/almond-new-york?adjust_creative=gBcvfFpabk3CnzmXKdYe3w&utm_campaign=yelp_api_v3&utm_medium=api_v3_business_search&utm_source=gBcvfFpabk3CnzmXKdYe3w"}, {"transactions": [], "distance": 3480.7771123999996, "phone": "+12123521900", "categories": [{"alias": "newamerican", "title": "American (New)"}, {"alias": "french", "title": "French"}], "id": "perry-st-new-york", "display_phone": "(212) 352-1900", "is_closed": false, "location": {"address2": "", "country": "US", "display_address": ["176 Perry St", "New York, NY 10014"], "address1": "176 Perry St", "city": "New York", "zip_code": "10014", "address3": "", "state": "NY"}, "coordinates": {"longitude": -74.00971, "latitude": 40.73442}, "review_count": 790, "image_url": "https://s3-media2.fl.yelpcdn.com/bphoto/_KSdlR2eZg1anQ6wVR2POQ/o.jpg", "price": "$$$", "rating": 4.0, "name": "Perry St", "url": "https://www.yelp.com/biz/perry-st-new-york?adjust_creative=gBcvfFpabk3CnzmXKdYe3w&utm_campaign=yelp_api_v3&utm_medium=api_v3_business_search&utm_source=gBcvfFpabk3CnzmXKdYe3w"}, {"transactions": [], "distance": 4623.278799596, "phone": "+12128895489", "categories": [{"alias": "french", "title": "French"}], "id": "le-parisien-new-york", "display_phone": "(212) 889-5489", "is_closed": false, "location": {"address2": "", "country": "US", "display_address": ["163 E 33rd St", "New York, NY 10016"], "address1": "163 E 33rd St", "city": "New York", "zip_code": "10016", "address3": "", "state": "NY"}, "coordinates": {"longitude": -73.9791478306885, "latitude": 40.7454079308793}, "review_count": 722, "image_url": "https://s3-media2.fl.yelpcdn.com/bphoto/BWVX-2Do3ifDROPviMa5iA/o.jpg", "price": "$$", "rating": 4.0, "name": "Le Parisien", "url": "https://www.yelp.com/biz/le-parisien-new-york?adjust_creative=gBcvfFpabk3CnzmXKdYe3w&utm_campaign=yelp_api_v3&utm_medium=api_v3_business_search&utm_source=gBcvfFpabk3CnzmXKdYe3w"}, {"transactions": ["pickup"], "distance": 1330.1590353903998, "phone": "+12122858585", "categories": [{"alias": "french", "title": "French"}, {"alias": "steak", "title": "Steakhouses"}, {"alias": "breakfast_brunch", "title": "Breakfast & Brunch"}], "id": "les-halles-new-york-5", "display_phone": "(212) 285-8585", "is_closed": false, "location": {"address2": "", "country": "US", "display_address": ["15 John St", "New York, NY 10038"], "address1": "15 John St", "city": "New York", "zip_code": "10038", "address3": "", "state": "NY"}, "coordinates": {"longitude": -74.0088362209015, "latitude": 40.7100925407286}, "review_count": 717, "image_url": "https://s3-media3.fl.yelpcdn.com/bphoto/5rodJz9dqTeL8Wos5mDFfQ/o.jpg", "price": "$$", "rating": 3.5, "name": "Les Halles", "url": "https://www.yelp.com/biz/les-halles-new-york-5?adjust_creative=gBcvfFpabk3CnzmXKdYe3w&utm_campaign=yelp_api_v3&utm_medium=api_v3_business_search&utm_source=gBcvfFpabk3CnzmXKdYe3w"}, {"transactions": [], "distance": 3497.498798736, "phone": "+17183021878", "categories": [{"alias": "french", "title": "French"}, {"alias": "desserts", "title": "Desserts"}], "id": "pates-et-traditions-brooklyn", "display_phone": "(718) 302-1878", "is_closed": false, "location": {"address2": "", "country": "US", "display_address": ["52 Havemeyer St", "Brooklyn, NY 11211"], "address1": "52 Havemeyer St", "city": "Brooklyn", "zip_code": "11211", "address3": "", "state": "NY"}, "coordinates": {"longitude": -73.95474, "latitude": 40.71491}, "review_count": 690, "image_url": "https://s3-media3.fl.yelpcdn.com/bphoto/sLrK7b4eIKt0WCp3jxJT5g/o.jpg", "price": "$$", "rating": 4.5, "name": "Pates Et Traditions", "url": "https://www.yelp.com/biz/pates-et-traditions-brooklyn?adjust_creative=gBcvfFpabk3CnzmXKdYe3w&utm_campaign=yelp_api_v3&utm_medium=api_v3_business_search&utm_source=gBcvfFpabk3CnzmXKdYe3w"}, {"transactions": [], "distance": 7456.88332736, "phone": "+12125950303", "categories": [{"alias": "french", "title": "French"}, {"alias": "wine_bars", "title": "Wine Bars"}], "id": "bar-boulud-new-york-2", "display_phone": "(212) 595-0303", "is_closed": false, "location": {"address2": "", "country": "US", "display_address": ["1900 Broadway", "New York, NY 10023"], "address1": "1900 Broadway", "city": "New York", "zip_code": "10023", "address3": "", "state": "NY"}, "coordinates": {"longitude": -73.9818808860381, "latitude": 40.7718443592464}, "review_count": 686, "image_url": "https://s3-media2.fl.yelpcdn.com/bphoto/cplqFFlPnApLa15t8X76zw/o.jpg", "price": "$$$", "rating": 3.5, "name": "Bar Boulud", "url": "https://www.yelp.com/biz/bar-boulud-new-york-2?adjust_creative=gBcvfFpabk3CnzmXKdYe3w&utm_campaign=yelp_api_v3&utm_medium=api_v3_business_search&utm_source=gBcvfFpabk3CnzmXKdYe3w"}, {"transactions": ["delivery", "pickup"], "distance": 3680.992848724, "phone": "+12122545858", "categories": [{"alias": "french", "title": "French"}, {"alias": "bars", "title": "Bars"}], "id": "l-express-new-york-3", "display_phone": "(212) 254-5858", "is_closed": false, "location": {"address2": "", "country": "US", "display_address": ["249 Park Ave S", "New York, NY 10003"], "address1": "249 Park Ave S", "city": "New York", "zip_code": "10003", "address3": "", "state": "NY"}, "coordinates": {"longitude": -73.987646111269, "latitude": 40.738162056865}, "review_count": 665, "image_url": "https://s3-media2.fl.yelpcdn.com/bphoto/flxcRMM2hDC5y1Ak1H3bAw/o.jpg", "price": "$$", "rating": 3.5, "name": "L'Express", "url": "https://www.yelp.com/biz/l-express-new-york-3?adjust_creative=gBcvfFpabk3CnzmXKdYe3w&utm_campaign=yelp_api_v3&utm_medium=api_v3_business_search&utm_source=gBcvfFpabk3CnzmXKdYe3w"}, {"transactions": ["delivery", "pickup"], "distance": 1972.181152664, "phone": "+12123349552", "categories": [{"alias": "french", "title": "French"}, {"alias": "moroccan", "title": "Moroccan"}], "id": "caf\u00e9-gitane-new-york-3", "display_phone": "(212) 334-9552", "is_closed": false, "location": {"address2": "", "country": "US", "display_address": ["242 Mott St", "New York, NY 10012"], "address1": "242 Mott St", "city": "New York", "zip_code": "10012", "address3": "", "state": "NY"}, "coordinates": {"longitude": -73.9946175625656, "latitude": 40.7231802723335}, "review_count": 646, "image_url": "https://s3-media3.fl.yelpcdn.com/bphoto/OlzGsEwKEgPTMEVUoquBzA/o.jpg", "price": "$$", "rating": 4.0, "name": "Caf\u00e9 Gitane", "url": "https://www.yelp.com/biz/caf%C3%A9-gitane-new-york-3?adjust_creative=gBcvfFpabk3CnzmXKdYe3w&utm_campaign=yelp_api_v3&utm_medium=api_v3_business_search&utm_source=gBcvfFpabk3CnzmXKdYe3w"}, {"transactions": [], "distance": 6066.400209838, "phone": "+12123332323", "categories": [{"alias": "french", "title": "French"}], "id": "marseille-new-york", "display_phone": "(212) 333-2323", "is_closed": false, "location": {"address2": "", "country": "US", "display_address": ["630 9th Ave", "New York, NY 10036"], "address1": "630 9th Ave", "city": "New York", "zip_code": "10036", "address3": "", "state": "NY"}, "coordinates": {"longitude": -73.9913483, "latitude": 40.7598991}, "review_count": 665, "image_url": "https://s3-media4.fl.yelpcdn.com/bphoto/J448CRbPK_GYUSiStU10vg/o.jpg", "price": "$$$", "rating": 3.5, "name": "Marseille", "url": "https://www.yelp.com/biz/marseille-new-york?adjust_creative=gBcvfFpabk3CnzmXKdYe3w&utm_campaign=yelp_api_v3&utm_medium=api_v3_business_search&utm_source=gBcvfFpabk3CnzmXKdYe3w"}, {"transactions": [], "distance": 2440.9434314379996, "phone": "+12129791012", "categories": [{"alias": "french", "title": "French"}, {"alias": "newamerican", "title": "American (New)"}, {"alias": "spanish", "title": "Spanish"}], "id": "degustation-new-york", "display_phone": "(212) 979-1012", "is_closed": false, "location": {"address2": null, "country": "US", "display_address": ["239 E 5th St", "New York, NY 10003"], "address1": "239 E 5th St", "city": "New York", "zip_code": "10003", "address3": "", "state": "NY"}, "coordinates": {"longitude": -73.98922, "latitude": 40.72699}, "review_count": 597, "image_url": "https://s3-media2.fl.yelpcdn.com/bphoto/FshTGqMzJMdaGEXZkDGHwA/o.jpg", "price": "$$$", "rating": 4.0, "name": "Degustation", "url": "https://www.yelp.com/biz/degustation-new-york?adjust_creative=gBcvfFpabk3CnzmXKdYe3w&utm_campaign=yelp_api_v3&utm_medium=api_v3_business_search&utm_source=gBcvfFpabk3CnzmXKdYe3w"}, {"transactions": ["delivery", "pickup"], "distance": 3232.027222224, "phone": "+17183889222", "categories": [{"alias": "bars", "title": "Bars"}, {"alias": "french", "title": "French"}], "id": "juliette-brooklyn", "display_phone": "(718) 388-9222", "is_closed": false, "location": {"address2": null, "country": "US", "display_address": ["135 N 5th St", "Brooklyn, NY 11249"], "address1": "135 N 5th St", "city": "Brooklyn", "zip_code": "11249", "address3": "", "state": "NY"}, "coordinates": {"longitude": -73.9590377807617, "latitude": 40.7170829772949}, "review_count": 629, "image_url": "https://s3-media4.fl.yelpcdn.com/bphoto/5hDQNcYCsSjXVROZ1tBimw/o.jpg", "price": "$$", "rating": 3.5, "name": "Juliette", "url": "https://www.yelp.com/biz/juliette-brooklyn?adjust_creative=gBcvfFpabk3CnzmXKdYe3w&utm_campaign=yelp_api_v3&utm_medium=api_v3_business_search&utm_source=gBcvfFpabk3CnzmXKdYe3w"}, {"transactions": [], "distance": 8526.55207978, "phone": "+12123623800", "categories": [{"alias": "newamerican", "title": "American (New)"}, {"alias": "french", "title": "French"}], "id": "dovetail-new-york", "display_phone": "(212) 362-3800", "is_closed": false, "location": {"address2": "", "country": "US", "display_address": ["103 W 77th St", "New York, NY 10024"], "address1": "103 W 77th St", "city": "New York", "zip_code": "10024", "address3": "", "state": "NY"}, "coordinates": {"longitude": -73.976599, "latitude": 40.780944}, "review_count": 643, "image_url": "https://s3-media2.fl.yelpcdn.com/bphoto/MUG0yRxCk13sRv8sqO5AcA/o.jpg", "price": "$$$$", "rating": 4.0, "name": "Dovetail", "url": "https://www.yelp.com/biz/dovetail-new-york?adjust_creative=gBcvfFpabk3CnzmXKdYe3w&utm_campaign=yelp_api_v3&utm_medium=api_v3_business_search&utm_source=gBcvfFpabk3CnzmXKdYe3w"}, {"transactions": [], "distance": 3643.983822348, "phone": "+12122556900", "categories": [{"alias": "breakfast_brunch", "title": "Breakfast & Brunch"}, {"alias": "french", "title": "French"}, {"alias": "newamerican", "title": "American (New)"}], "id": "cafe-cluny-new-york-3", "display_phone": "(212) 255-6900", "is_closed": false, "location": {"address2": null, "country": "US", "display_address": ["284 W 12th St", "New York, NY 10014"], "address1": "284 W 12th St", "city": "New York", "zip_code": "10014", "address3": "", "state": "NY"}, "coordinates": {"longitude": -74.003966, "latitude": 40.737385}, "review_count": 613, "image_url": "https://s3-media3.fl.yelpcdn.com/bphoto/DMRwg-ag7_Rtq5MvrRrXnw/o.jpg", "price": "$$", "rating": 4.0, "name": "Cafe Cluny", "url": "https://www.yelp.com/biz/cafe-cluny-new-york-3?adjust_creative=gBcvfFpabk3CnzmXKdYe3w&utm_campaign=yelp_api_v3&utm_medium=api_v3_business_search&utm_source=gBcvfFpabk3CnzmXKdYe3w"}, {"transactions": [], "distance": 6487.796071864, "phone": "+12125867650", "categories": [{"alias": "french", "title": "French"}, {"alias": "newamerican", "title": "American (New)"}, {"alias": "salad", "title": "Salad"}], "id": "la-bonne-soupe-new-york", "display_phone": "(212) 586-7650", "is_closed": false, "location": {"address2": "", "country": "US", "display_address": ["48 W 55th St", "New York, NY 10019"], "address1": "48 W 55th St", "city": "New York", "zip_code": "10019", "address3": "", "state": "NY"}, "coordinates": {"longitude": -73.97702, "latitude": 40.76232}, "review_count": 585, "image_url": "https://s3-media4.fl.yelpcdn.com/bphoto/zWmts_L6pboGJGGRg8rKSg/o.jpg", "price": "$$", "rating": 3.5, "name": "La Bonne Soupe", "url": "https://www.yelp.com/biz/la-bonne-soupe-new-york?adjust_creative=gBcvfFpabk3CnzmXKdYe3w&utm_campaign=yelp_api_v3&utm_medium=api_v3_business_search&utm_source=gBcvfFpabk3CnzmXKdYe3w"}, {"transactions": [], "distance": 3192.0980484179995, "phone": "+16464298383", "categories": [{"alias": "newamerican", "title": "American (New)"}, {"alias": "french", "title": "French"}], "id": "joseph-leonard-new-york", "display_phone": "(646) 429-8383", "is_closed": false, "location": {"address2": "", "country": "US", "display_address": ["170 Waverly Pl", "New York, NY 10014"], "address1": "170 Waverly Pl", "city": "New York", "zip_code": "10014", "address3": "", "state": "NY"}, "coordinates": {"longitude": -74.001675412843, "latitude": 40.7336021670705}, "review_count": 549, "image_url": "https://s3-media1.fl.yelpcdn.com/bphoto/cObv8BDzUAkKW0jiKHO0KQ/o.jpg", "price": "$$", "rating": 4.0, "name": "Joseph Leonard", "url": "https://www.yelp.com/biz/joseph-leonard-new-york?adjust_creative=gBcvfFpabk3CnzmXKdYe3w&utm_campaign=yelp_api_v3&utm_medium=api_v3_business_search&utm_source=gBcvfFpabk3CnzmXKdYe3w"}, {"transactions": [], "distance": 6113.806699152, "phone": "+12127583989", "categories": [{"alias": "steak", "title": "Steakhouses"}, {"alias": "french", "title": "French"}, {"alias": "brasseries", "title": "Brasseries"}], "id": "le-relais-de-venise-l-entrec\u00f4te-new-york-2", "display_phone": "(212) 758-3989", "is_closed": false, "location": {"address2": "", "country": "US", "display_address": ["590 Lexington Ave", "New York, NY 10022"], "address1": "590 Lexington Ave", "city": "New York", "zip_code": "10022", "address3": "", "state": "NY"}, "coordinates": {"longitude": -73.9717626571655, "latitude": 40.7577089110773}, "review_count": 572, "image_url": "https://s3-media3.fl.yelpcdn.com/bphoto/VhBKomQMOeiN5OqqCXN88g/o.jpg", "price": "$$", "rating": 3.5, "name": "Le Relais De Venise L'Entrec\u00f4te", "url": "https://www.yelp.com/biz/le-relais-de-venise-l-entrec%C3%B4te-new-york-2?adjust_creative=gBcvfFpabk3CnzmXKdYe3w&utm_campaign=yelp_api_v3&utm_medium=api_v3_business_search&utm_source=gBcvfFpabk3CnzmXKdYe3w"}, {"transactions": [], "distance": 8772.970036296, "phone": "+12128736423", "categories": [{"alias": "french", "title": "French"}, {"alias": "breakfast_brunch", "title": "Breakfast & Brunch"}, {"alias": "gluten_free", "title": "Gluten-Free"}], "id": "nice-matin-new-york", "display_phone": "(212) 873-6423", "is_closed": false, "location": {"address2": "", "country": "US", "display_address": ["201 W 79th St", "New York, NY 10024"], "address1": "201 W 79th St", "city": "New York", "zip_code": "10024", "address3": "", "state": "NY"}, "coordinates": {"longitude": -73.97847, "latitude": 40.78337}, "review_count": 588, "image_url": "https://s3-media1.fl.yelpcdn.com/bphoto/QWwPmok4tl7jhy2p75yZsg/o.jpg", "price": "$$", "rating": 3.5, "name": "Nice Matin", "url": "https://www.yelp.com/biz/nice-matin-new-york?adjust_creative=gBcvfFpabk3CnzmXKdYe3w&utm_campaign=yelp_api_v3&utm_medium=api_v3_business_search&utm_source=gBcvfFpabk3CnzmXKdYe3w"}, {"transactions": [], "distance": 5356.949546815999, "phone": "+17183839315", "categories": [{"alias": "french", "title": "French"}, {"alias": "breakfast_brunch", "title": "Breakfast & Brunch"}, {"alias": "cafes", "title": "Cafes"}], "id": "caf\u00e9-henri-long-island-city-2", "display_phone": "(718) 383-9315", "is_closed": false, "location": {"address2": null, "country": "US", "display_address": ["1010 50th Ave", "Long Island City, NY 11101"], "address1": "1010 50th Ave", "city": "Long Island City", "zip_code": "11101", "address3": "", "state": "NY"}, "coordinates": {"longitude": -73.95380581161, "latitude": 40.7425829065175}, "review_count": 538, "image_url": "https://s3-media2.fl.yelpcdn.com/bphoto/2r-WWAXRhuPrpPrK6Bo8dw/o.jpg", "price": "$$", "rating": 4.0, "name": "Caf\u00e9 Henri", "url": "https://www.yelp.com/biz/caf%C3%A9-henri-long-island-city-2?adjust_creative=gBcvfFpabk3CnzmXKdYe3w&utm_campaign=yelp_api_v3&utm_medium=api_v3_business_search&utm_source=gBcvfFpabk3CnzmXKdYe3w"}, {"transactions": [], "distance": 7885.91727796, "phone": "+12127443100", "categories": [{"alias": "breakfast_brunch", "title": "Breakfast & Brunch"}, {"alias": "bakeries", "title": "Bakeries"}, {"alias": "french", "title": "French"}], "id": "maison-kayser-new-york-28", "display_phone": "(212) 744-3100", "is_closed": false, "location": {"address2": "", "country": "US", "display_address": ["1294 3rd Ave", "New York, NY 10021"], "address1": "1294 3rd Ave", "city": "New York", "zip_code": "10021", "address3": "", "state": "NY"}, "coordinates": {"longitude": -73.9597375208537, "latitude": 40.7713534588679}, "review_count": 553, "image_url": "https://s3-media4.fl.yelpcdn.com/bphoto/3ng1uA0ScEYSdoTYT260xA/o.jpg", "price": "$$", "rating": 4.0, "name": "Maison Kayser", "url": "https://www.yelp.com/biz/maison-kayser-new-york-28?adjust_creative=gBcvfFpabk3CnzmXKdYe3w&utm_campaign=yelp_api_v3&utm_medium=api_v3_business_search&utm_source=gBcvfFpabk3CnzmXKdYe3w"}, {"transactions": [], "distance": 8070.21889476, "phone": "+12127722600", "categories": [{"alias": "french", "title": "French"}], "id": "cafe-boulud-new-york-4", "display_phone": "(212) 772-2600", "is_closed": false, "location": {"address2": "", "country": "US", "display_address": ["20 E 76th St", "New York, NY 10021"], "address1": "20 E 76th St", "city": "New York", "zip_code": "10021", "address3": "", "state": "NY"}, "coordinates": {"longitude": -73.96396, "latitude": 40.77444}, "review_count": 521, "image_url": "https://s3-media2.fl.yelpcdn.com/bphoto/yl9Bnyaoa6rJzkLQuHR5lQ/o.jpg", "price": "$$$$", "rating": 4.0, "name": "Cafe Boulud", "url": "https://www.yelp.com/biz/cafe-boulud-new-york-4?adjust_creative=gBcvfFpabk3CnzmXKdYe3w&utm_campaign=yelp_api_v3&utm_medium=api_v3_business_search&utm_source=gBcvfFpabk3CnzmXKdYe3w"}, {"transactions": ["delivery"], "distance": 4495.899216727999, "phone": "+16464863000", "categories": [{"alias": "french", "title": "French"}, {"alias": "cafes", "title": "Cafes"}], "id": "le-grainne-cafe-new-york", "display_phone": "(646) 486-3000", "is_closed": false, "location": {"address2": null, "country": "US", "display_address": ["183 9th Ave", "New York, NY 10011"], "address1": "183 9th Ave", "city": "New York", "zip_code": "10011", "address3": "", "state": "NY"}, "coordinates": {"longitude": -74.0024026704959, "latitude": 40.7454064780449}, "review_count": 530, "image_url": "https://s3-media1.fl.yelpcdn.com/bphoto/drTyqotVovE1C-5a6yrK1Q/o.jpg", "price": "$$", "rating": 4.0, "name": "Le Grainne Cafe", "url": "https://www.yelp.com/biz/le-grainne-cafe-new-york?adjust_creative=gBcvfFpabk3CnzmXKdYe3w&utm_campaign=yelp_api_v3&utm_medium=api_v3_business_search&utm_source=gBcvfFpabk3CnzmXKdYe3w"}, {"transactions": [], "distance": 2328.156860888, "phone": "+12122282222", "categories": [{"alias": "fondue", "title": "Fondue"}, {"alias": "french", "title": "French"}], "id": "taureau-new-york", "display_phone": "(212) 228-2222", "is_closed": false, "location": {"address2": "", "country": "US", "display_address": ["558 Broome St", "New York, NY 10013"], "address1": "558 Broome St", "city": "New York", "zip_code": "10013", "address3": "", "state": "NY"}, "coordinates": {"longitude": -74.005683, "latitude": 40.724521}, "review_count": 519, "image_url": "https://s3-media1.fl.yelpcdn.com/bphoto/mwRVqEkCw64zN0QIotayKQ/o.jpg", "price": "$$$", "rating": 4.5, "name": "Taureau", "url": "https://www.yelp.com/biz/taureau-new-york?adjust_creative=gBcvfFpabk3CnzmXKdYe3w&utm_campaign=yelp_api_v3&utm_medium=api_v3_business_search&utm_source=gBcvfFpabk3CnzmXKdYe3w"}, {"transactions": ["delivery", "pickup"], "distance": 2855.3116275519997, "phone": "+19178535377", "categories": [{"alias": "sandwiches", "title": "Sandwiches"}, {"alias": "french", "title": "French"}], "id": "raclette-new-york", "display_phone": "(917) 853-5377", "is_closed": false, "location": {"address2": "", "country": "US", "display_address": ["511 E 12th St", "New York, NY 10009"], "address1": "511 E 12th St", "city": "New York", "zip_code": "10009", "address3": "", "state": "NY"}, "coordinates": {"longitude": -73.980601, "latitude": 40.7289298}, "review_count": 568, "image_url": "https://s3-media3.fl.yelpcdn.com/bphoto/aTGfzGj3BlvStujtltje7Q/o.jpg", "price": "$$", "rating": 4.0, "name": "Raclette", "url": "https://www.yelp.com/biz/raclette-new-york?adjust_creative=gBcvfFpabk3CnzmXKdYe3w&utm_campaign=yelp_api_v3&utm_medium=api_v3_business_search&utm_source=gBcvfFpabk3CnzmXKdYe3w"}, {"transactions": [], "distance": 2903.669719608, "phone": "+12124323825", "categories": [{"alias": "french", "title": "French"}, {"alias": "cajun", "title": "Cajun/Creole"}, {"alias": "tradamerican", "title": "American (Traditional)"}], "id": "ducks-eatery-new-york-2", "display_phone": "(212) 432-3825", "is_closed": false, "location": {"address2": "", "country": "US", "display_address": ["351 E 12th St", "New York, NY 10003"], "address1": "351 E 12th St", "city": "New York", "zip_code": "10003", "address3": "", "state": "NY"}, "coordinates": {"longitude": -73.9846268, "latitude": 40.7306252}, "review_count": 476, "image_url": "https://s3-media1.fl.yelpcdn.com/bphoto/f593FL9LgDtIYVbm_yWLUA/o.jpg", "price": "$$", "rating": 4.0, "name": "Ducks Eatery", "url": "https://www.yelp.com/biz/ducks-eatery-new-york-2?adjust_creative=gBcvfFpabk3CnzmXKdYe3w&utm_campaign=yelp_api_v3&utm_medium=api_v3_business_search&utm_source=gBcvfFpabk3CnzmXKdYe3w"}, {"transactions": ["delivery", "pickup"], "distance": 1712.6686403039998, "phone": "+12122330507", "categories": [{"alias": "newamerican", "title": "American (New)"}, {"alias": "french", "title": "French"}, {"alias": "italian", "title": "Italian"}], "id": "the-odeon-new-york", "display_phone": "(212) 233-0507", "is_closed": false, "location": {"address2": "", "country": "US", "display_address": ["145 W Broadway", "New York, NY 10013"], "address1": "145 W Broadway", "city": "New York", "zip_code": "10013", "address3": "", "state": "NY"}, "coordinates": {"longitude": -74.00792, "latitude": 40.71692}, "review_count": 497, "image_url": "https://s3-media2.fl.yelpcdn.com/bphoto/6EnDYRpoU5-EoQhrY8f44g/o.jpg", "price": "$$$", "rating": 4.0, "name": "The Odeon", "url": "https://www.yelp.com/biz/the-odeon-new-york?adjust_creative=gBcvfFpabk3CnzmXKdYe3w&utm_campaign=yelp_api_v3&utm_medium=api_v3_business_search&utm_source=gBcvfFpabk3CnzmXKdYe3w"}, {"transactions": [], "distance": 1754.35843207, "phone": "+12122541675", "categories": [{"alias": "french", "title": "French"}, {"alias": "wine_bars", "title": "Wine Bars"}], "id": "jadis-new-york", "display_phone": "(212) 254-1675", "is_closed": false, "location": {"address2": "", "country": "US", "display_address": ["42 Rivington St", "New York, NY 10002"], "address1": "42 Rivington St", "city": "New York", "zip_code": "10002", "address3": "", "state": "NY"}, "coordinates": {"longitude": -73.9910054106201, "latitude": 40.7210234741789}, "review_count": 441, "image_url": "https://s3-media2.fl.yelpcdn.com/bphoto/aeo37qGbEBdVLKeypVba8w/o.jpg", "price": "$$", "rating": 4.0, "name": "Jadis", "url": "https://www.yelp.com/biz/jadis-new-york?adjust_creative=gBcvfFpabk3CnzmXKdYe3w&utm_campaign=yelp_api_v3&utm_medium=api_v3_business_search&utm_source=gBcvfFpabk3CnzmXKdYe3w"}, {"transactions": [], "distance": 2033.534987088, "phone": "+17189230918", "categories": [{"alias": "french", "title": "French"}, {"alias": "breweries", "title": "Breweries"}], "id": "bar-tabac-brooklyn", "display_phone": "(718) 923-0918", "is_closed": false, "location": {"address2": "", "country": "US", "display_address": ["128 Smith St", "Brooklyn, NY 11201"], "address1": "128 Smith St", "city": "Brooklyn", "zip_code": "11201", "address3": "", "state": "NY"}, "coordinates": {"longitude": -73.9902407, "latitude": 40.6874173}, "review_count": 491, "image_url": "https://s3-media1.fl.yelpcdn.com/bphoto/nu96OPgpJHXgNn-grrnhyg/o.jpg", "price": "$$", "rating": 3.5, "name": "Bar Tabac", "url": "https://www.yelp.com/biz/bar-tabac-brooklyn?adjust_creative=gBcvfFpabk3CnzmXKdYe3w&utm_campaign=yelp_api_v3&utm_medium=api_v3_business_search&utm_source=gBcvfFpabk3CnzmXKdYe3w"}, {"transactions": [], "distance": 6359.053699884, "phone": "+12123331220", "categories": [{"alias": "lounges", "title": "Lounges"}, {"alias": "french", "title": "French"}], "id": "the-modern-bar-room-new-york", "display_phone": "(212) 333-1220", "is_closed": false, "location": {"address2": "", "country": "US", "display_address": ["9 W 53rd St", "New York, NY 10019"], "address1": "9 W 53rd St", "city": "New York", "zip_code": "10019", "address3": "", "state": "NY"}, "coordinates": {"longitude": -73.9765593703613, "latitude": 40.7610309319265}, "review_count": 420, "image_url": "https://s3-media4.fl.yelpcdn.com/bphoto/mjsoOpXWJvbP-lcw77zqyw/o.jpg", "price": "$$$", "rating": 4.0, "name": "The Modern - Bar Room", "url": "https://www.yelp.com/biz/the-modern-bar-room-new-york?adjust_creative=gBcvfFpabk3CnzmXKdYe3w&utm_campaign=yelp_api_v3&utm_medium=api_v3_business_search&utm_source=gBcvfFpabk3CnzmXKdYe3w"}, {"transactions": [], "distance": 2410.704093772, "phone": "+12123589683", "categories": [{"alias": "french", "title": "French"}, {"alias": "cocktailbars", "title": "Cocktail Bars"}, {"alias": "breakfast_brunch", "title": "Breakfast & Brunch"}], "id": "pmf-pardon-my-french-new-york", "display_phone": "(212) 358-9683", "is_closed": false, "location": {"address2": "", "country": "US", "display_address": ["103 Ave B", "New York, NY 10009"], "address1": "103 Ave B", "city": "New York", "zip_code": "10009", "address3": "", "state": "NY"}, "coordinates": {"longitude": -73.98115, "latitude": 40.72473}, "review_count": 450, "image_url": "https://s3-media3.fl.yelpcdn.com/bphoto/jdmRrUkUXVWfDcPRWqdR0w/o.jpg", "price": "$$", "rating": 4.0, "name": "PMF Pardon My French", "url": "https://www.yelp.com/biz/pmf-pardon-my-french-new-york?adjust_creative=gBcvfFpabk3CnzmXKdYe3w&utm_campaign=yelp_api_v3&utm_medium=api_v3_business_search&utm_source=gBcvfFpabk3CnzmXKdYe3w"}, {"transactions": ["delivery", "pickup"], "distance": 3512.7833444519997, "phone": "+12127771616", "categories": [{"alias": "african", "title": "African"}, {"alias": "french", "title": "French"}], "id": "ponty-bistro-new-york", "display_phone": "(212) 777-1616", "is_closed": false, "location": {"address2": "", "country": "US", "display_address": ["218 3rd Ave", "New York, NY 10003"], "address1": "218 3rd Ave", "city": "New York", "zip_code": "10003", "address3": "", "state": "NY"}, "coordinates": {"longitude": -73.985316, "latitude": 40.736295}, "review_count": 454, "image_url": "https://s3-media4.fl.yelpcdn.com/bphoto/0GcjzeENldOzFAAm72sYOA/o.jpg", "price": "$$", "rating": 4.0, "name": "Ponty Bistro", "url": "https://www.yelp.com/biz/ponty-bistro-new-york?adjust_creative=gBcvfFpabk3CnzmXKdYe3w&utm_campaign=yelp_api_v3&utm_medium=api_v3_business_search&utm_source=gBcvfFpabk3CnzmXKdYe3w"}]}