{"region": {"center": {"longitude": -73.99429321289062, "latitude": 40.70544486444615}}, "total": 353, "businesses": [{"transactions": [], "distance": 6409.66406327, "phone": "+12122231133", "categories": [{"alias": "french", "title": "French"}], "id": "cafe-du-pont-new-york", "display_phone": "(212) 223-1133", "is_closed": false, "location": {"address2": "", "country": "US", "display_address": ["1038 1st Ave", "New York, NY 10022"], "address1": "1038 1st Ave", "city": "New York", "zip_code": "10022", "address3": "", "state": "NY"}, "coordinates": {"longitude": -73.9629593, "latitude": 40.7579422}, "review_count": 2, "image_url": "", "rating": 3.5, "name": "Cafe Du Pont", "url": "https://www.yelp.com/biz/cafe-du-pont-new-york?adjust_creative=gBcvfFpabk3CnzmXKdYe3w&utm_campaign=yelp_api_v3&utm_medium=api_v3_business_search&utm_source=gBcvfFpabk3CnzmXKdYe3w"}, {"transactions": [], "distance": 7839.469311549999, "phone": "+18552737369", "categories": [{"alias": "creperies", "title": "Creperies"}, {"alias": "french", "title": "French"}, {"alias": "desserts", "title": "Desserts"}], "id": "vive-la-crepe-new-york-2", "display_phone": "(855) 273-7369", "is_closed": false, "location": {"address2": "", "country": "US", "display_address": ["189 Columbus Ave", "New York, NY 10023"], "address1": "189 Columbus Ave", "city": "New York", "zip_code": "10023", "address3": "", "state": "NY"}, "coordinates": {"longitude": -73.9803745597601, "latitude": 40.7751459628344}, "review_count": 158, "image_url": "https://s3-media2.fl.yelpcdn.com/bphoto/eP8hBiYII_BR0yXkPgBuPw/o.jpg", "price": "$$", "rating": 3.5, "name": "Vive La Crepe", "url": "https://www.yelp.com/biz/vive-la-crepe-new-york-2?adjust_creative=gBcvfFpabk3CnzmXKdYe3w&utm_campaign=yelp_api_v3&utm_medium=api_v3_business_search&utm_source=gBcvfFpabk3CnzmXKdYe3w"}, {"transactions": [], "distance": 6799.72301775, "phone": "+16465599429", "categories": [{"alias": "wine_bars", "title": "Wine Bars"}, {"alias": "french", "title": "French"}, {"alias": "breakfast_brunch", "title": "Breakfast & Brunch"}], "id": "vin-sur-vingt-new-york-4", "display_phone": "(646) 559-9429", "is_closed": false, "location": {"address2": "", "country": "US", "display_address": ["1 W 59th St", "The Plaza Food Hall", "New York, NY 10019"], "address1": "1 W 59th St", "city": "New York", "zip_code": "10019", "address3": "The Plaza Food Hall", "state": "NY"}, "coordinates": {"longitude": -73.9738467335701, "latitude": 40.7645700126886}, "review_count": 19, "image_url": "https://s3-media3.fl.yelpcdn.com/bphoto/Bt_5zCcXVU8K6aBR0NFdRw/o.jpg", "price": "$$", "rating": 3.5, "name": "Vin Sur Vingt", "url": "https://www.yelp.com/biz/vin-sur-vingt-new-york-4?adjust_creative=gBcvfFpabk3CnzmXKdYe3w&utm_campaign=yelp_api_v3&utm_medium=api_v3_business_search&utm_source=gBcvfFpabk3CnzmXKdYe3w"}, {"transactions": [], "distance": 5760.916739444, "phone": "+12127823040", "categories": [{"alias": "french", "title": "French"}, {"alias": "modern_european", "title": "Modern European"}, {"alias": "bars", "title": "Bars"}], "id": "gaby-new-york-2", "display_phone": "(212) 782-3040", "is_closed": false, "location": {"address2": "44 W 45th St", "country": "US", "display_address": ["Sofitel Luxury Hotel", "44 W 45th St", "New York, NY 10036"], "address1": "Sofitel Luxury Hotel", "city": "New York", "zip_code": "10036", "address3": "", "state": "NY"}, "coordinates": {"longitude": -73.98154, "latitude": 40.75613}, "review_count": 67, "image_url": "https://s3-media3.fl.yelpcdn.com/bphoto/kGUIbGKEuM_UIOH517m-mQ/o.jpg", "price": "$$$", "rating": 3.5, "name": "Gaby", "url": "https://www.yelp.com/biz/gaby-new-york-2?adjust_creative=gBcvfFpabk3CnzmXKdYe3w&utm_campaign=yelp_api_v3&utm_medium=api_v3_business_search&utm_source=gBcvfFpabk3CnzmXKdYe3w"}, {"transactions": ["delivery", "pickup"], "distance": 8140.735345539999, "phone": "+12129881884", "categories": [{"alias": "french", "title": "French"}], "id": "la-bouchon-new-york", "display_phone": "(212) 988-1884", "is_closed": false, "location": {"address2": "", "country": "US", "display_address": ["304 E 78th St", "New York, NY 10075"], "address1": "304 E 78th St", "city": "New York", "zip_code": "10075", "address3": "", "state": "NY"}, "coordinates": {"longitude": -73.9551558, "latitude": 40.772382}, "review_count": 1, "image_url": "", "rating": 4.0, "name": "La Bouchon", "url": "https://www.yelp.com/biz/la-bouchon-new-york?adjust_creative=gBcvfFpabk3CnzmXKdYe3w&utm_campaign=yelp_api_v3&utm_medium=api_v3_business_search&utm_source=gBcvfFpabk3CnzmXKdYe3w"}, {"transactions": [], "distance": 1911.485377366, "phone": "", "categories": [{"alias": "french", "title": "French"}, {"alias": "wine_bars", "title": "Wine Bars"}, {"alias": "beerbar", "title": "Beer Bar"}], "id": "bar-a-vin-new-york-2", "display_phone": "", "is_closed": false, "location": {"address2": "", "country": "US", "display_address": ["225 Liberty St", "New York, NY 10286"], "address1": "225 Liberty St", "city": "New York", "zip_code": "10286", "address3": null, "state": "NY"}, "coordinates": {"longitude": -74.01533, "latitude": 40.71156}, "review_count": 2, "image_url": "https://s3-media1.fl.yelpcdn.com/bphoto/LQX-vKSXH60wbbziM5mOvg/o.jpg", "rating": 3.0, "name": "Bar a Vin", "url": "https://www.yelp.com/biz/bar-a-vin-new-york-2?adjust_creative=gBcvfFpabk3CnzmXKdYe3w&utm_campaign=yelp_api_v3&utm_medium=api_v3_business_search&utm_source=gBcvfFpabk3CnzmXKdYe3w"}, {"transactions": ["delivery", "pickup"], "distance": 9738.86951112, "phone": "+12129871700", "categories": [{"alias": "french", "title": "French"}], "id": "champignon-on-madison-new-york", "display_phone": "(212) 987-1700", "is_closed": false, "location": {"address2": "", "country": "US", "display_address": ["1389 Madison Ave", "New York, NY 10029"], "address1": "1389 Madison Ave", "city": "New York", "zip_code": "10029", "address3": "", "state": "NY"}, "coordinates": {"longitude": -73.95387, "latitude": 40.78737}, "review_count": 119, "image_url": "https://s3-media3.fl.yelpcdn.com/bphoto/fwaWj00aqwTAAPTFzMvCbA/o.jpg", "price": "$", "rating": 3.0, "name": "Champignon on Madison", "url": "https://www.yelp.com/biz/champignon-on-madison-new-york?adjust_creative=gBcvfFpabk3CnzmXKdYe3w&utm_campaign=yelp_api_v3&utm_medium=api_v3_business_search&utm_source=gBcvfFpabk3CnzmXKdYe3w"}, {"transactions": [], "distance": 14686.407146219999, "phone": "+17186483906", "categories": [{"alias": "french", "title": "French"}, {"alias": "russian", "title": "Russian"}], "id": "anyway-cafe-brooklyn-2", "display_phone": "(718) 648-3906", "is_closed": false, "location": {"address2": "", "country": "US", "display_address": ["111 Oriental Blvd", "Brooklyn, NY 11235"], "address1": "111 Oriental Blvd", "city": "Brooklyn", "zip_code": "11235", "address3": "", "state": "NY"}, "coordinates": {"longitude": -73.95249, "latitude": 40.57719}, "review_count": 34, "image_url": "https://s3-media2.fl.yelpcdn.com/bphoto/FMlWsqSO2NyPQm8PJOsBNQ/o.jpg", "price": "$$", "rating": 4.0, "name": "Anyway Cafe", "url": "https://www.yelp.com/biz/anyway-cafe-brooklyn-2?adjust_creative=gBcvfFpabk3CnzmXKdYe3w&utm_campaign=yelp_api_v3&utm_medium=api_v3_business_search&utm_source=gBcvfFpabk3CnzmXKdYe3w"}, {"transactions": [], "distance": 6942.589440372, "phone": "+12122074555", "categories": [{"alias": "italian", "title": "Italian"}, {"alias": "french", "title": "French"}, {"alias": "bars", "title": "Bars"}], "id": "fig-and-olive-new-york", "display_phone": "(212) 207-4555", "is_closed": false, "location": {"address2": "", "country": "US", "display_address": ["808 Lexington Ave", "New York, NY 10065"], "address1": "808 Lexington Ave", "city": "New York", "zip_code": "10065", "address3": "", "state": "NY"}, "coordinates": {"longitude": -73.966877, "latitude": 40.764324}, "review_count": 347, "image_url": "https://s3-media1.fl.yelpcdn.com/bphoto/WwBxBW7-08xlPRqRR9n2mA/o.jpg", "price": "$$$", "rating": 3.5, "name": "Fig & Olive", "url": "https://www.yelp.com/biz/fig-and-olive-new-york?adjust_creative=gBcvfFpabk3CnzmXKdYe3w&utm_campaign=yelp_api_v3&utm_medium=api_v3_business_search&utm_source=gBcvfFpabk3CnzmXKdYe3w"}, {"transactions": [], "distance": 4532.68679792, "phone": "+19292950982", "categories": [{"alias": "french", "title": "French"}, {"alias": "bakeries", "title": "Bakeries"}, {"alias": "coffee", "title": "Coffee & Tea"}], "id": "le-french-tart-brooklyn", "display_phone": "(929) 295-0982", "is_closed": false, "location": {"address2": "", "country": "US", "display_address": ["579 5th Ave", "Brooklyn, NY 11215"], "address1": "579 5th Ave", "city": "Brooklyn", "zip_code": "11215", "address3": null, "state": "NY"}, "coordinates": {"longitude": -73.98981, "latitude": 40.66475}, "review_count": 1, "image_url": "https://s3-media2.fl.yelpcdn.com/bphoto/O67J6wJ6xKi6wFp8Fdc9Dw/o.jpg", "rating": 4.0, "name": "Le French Tart", "url": "https://www.yelp.com/biz/le-french-tart-brooklyn?adjust_creative=gBcvfFpabk3CnzmXKdYe3w&utm_campaign=yelp_api_v3&utm_medium=api_v3_business_search&utm_source=gBcvfFpabk3CnzmXKdYe3w"}, {"transactions": [], "distance": 7119.333918399999, "phone": "+12128236123", "categories": [{"alias": "breakfast_brunch", "title": "Breakfast & Brunch"}, {"alias": "newamerican", "title": "American (New)"}, {"alias": "french", "title": "French"}], "id": "landmarc-new-york-4", "display_phone": "(212) 823-6123", "is_closed": false, "location": {"address2": "Fl 3", "country": "US", "display_address": ["10 Columbus Cir", "Fl 3", "New York, NY 10019"], "address1": "10 Columbus Cir", "city": "New York", "zip_code": "10019", "address3": "", "state": "NY"}, "coordinates": {"longitude": -73.9823654294014, "latitude": 40.7688295724672}, "review_count": 908, "image_url": "https://s3-media2.fl.yelpcdn.com/bphoto/LnD7W52Y6E8_bGOqyVdYsQ/o.jpg", "price": "$$$", "rating": 3.5, "name": "Landmarc", "url": "https://www.yelp.com/biz/landmarc-new-york-4?adjust_creative=gBcvfFpabk3CnzmXKdYe3w&utm_campaign=yelp_api_v3&utm_medium=api_v3_business_search&utm_source=gBcvfFpabk3CnzmXKdYe3w"}, {"transactions": ["delivery", "pickup"], "distance": 4307.616897438, "phone": "+13474425650", "categories": [{"alias": "french", "title": "French"}, {"alias": "newamerican", "title": "American (New)"}], "id": "jolie-cafe-brooklyn", "display_phone": "(347) 442-5650", "is_closed": false, "location": {"address2": "", "country": "US", "display_address": ["1230 Bedford Ave", "Brooklyn, NY 11216"], "address1": "1230 Bedford Ave", "city": "Brooklyn", "zip_code": "11216", "address3": "", "state": "NY"}, "coordinates": {"longitude": -73.9538123558197, "latitude": 40.6818076486752}, "review_count": 16, "image_url": "https://s3-media4.fl.yelpcdn.com/bphoto/QMN4mLKpifnUHeSTKxGOrg/o.jpg", "price": "$$", "rating": 2.5, "name": "Jolie Cafe", "url": "https://www.yelp.com/biz/jolie-cafe-brooklyn?adjust_creative=gBcvfFpabk3CnzmXKdYe3w&utm_campaign=yelp_api_v3&utm_medium=api_v3_business_search&utm_source=gBcvfFpabk3CnzmXKdYe3w"}, {"transactions": ["delivery", "pickup"], "distance": 1465.9355267357998, "phone": "+12122276521", "categories": [{"alias": "creperies", "title": "Creperies"}, {"alias": "french", "title": "French"}], "id": "by-suzette-new-york-2", "display_phone": "(212) 227-6521", "is_closed": false, "location": {"address2": null, "country": "US", "display_address": ["78 Chambers St", "New York, NY 10007"], "address1": "78 Chambers St", "city": "New York", "zip_code": "10007", "address3": "", "state": "NY"}, "coordinates": {"longitude": -74.0069646, "latitude": 40.714473}, "review_count": 118, "image_url": "https://s3-media3.fl.yelpcdn.com/bphoto/CmJHt5gzE0Wnc8ack6jfog/o.jpg", "price": "$", "rating": 3.5, "name": "By Suzette", "url": "https://www.yelp.com/biz/by-suzette-new-york-2?adjust_creative=gBcvfFpabk3CnzmXKdYe3w&utm_campaign=yelp_api_v3&utm_medium=api_v3_business_search&utm_source=gBcvfFpabk3CnzmXKdYe3w"}, {"transactions": [], "distance": 9176.54438903, "phone": "+12129334342", "categories": [{"alias": "desserts", "title": "Desserts"}, {"alias": "creperies", "title": "Creperies"}, {"alias": "french", "title": "French"}], "id": "vive-la-crepe-new-york-9", "display_phone": "(212) 933-4342", "is_closed": false, "location": {"address2": null, "country": "US", "display_address": ["532 Columbus Ave", "New York, NY 10023"], "address1": "532 Columbus Ave", "city": "New York", "zip_code": "10023", "address3": "", "state": "NY"}, "coordinates": {"longitude": -73.9725494, "latitude": 40.7862892}, "review_count": 34, "image_url": "https://s3-media4.fl.yelpcdn.com/bphoto/QAFrLby1hjNu-dMqQMIa2g/o.jpg", "price": "$$", "rating": 3.5, "name": "Vive La Crepe", "url": "https://www.yelp.com/biz/vive-la-crepe-new-york-9?adjust_creative=gBcvfFpabk3CnzmXKdYe3w&utm_campaign=yelp_api_v3&utm_medium=api_v3_business_search&utm_source=gBcvfFpabk3CnzmXKdYe3w"}, {"transactions": ["delivery", "pickup"], "distance": 5650.7419667799995, "phone": "+17184842447", "categories": [{"alias": "italian", "title": "Italian"}, {"alias": "french", "title": "French"}], "id": "francescos-restaurant-brooklyn-5", "display_phone": "(718) 484-2447", "is_closed": false, "location": {"address2": "", "country": "US", "display_address": ["186 Knickerbocker Ave", "Brooklyn, NY 11237"], "address1": "186 Knickerbocker Ave", "city": "Brooklyn", "zip_code": "11237", "address3": "", "state": "NY"}, "coordinates": {"longitude": -73.92734, "latitude": 40.70364}, "review_count": 3, "image_url": "https://s3-media4.fl.yelpcdn.com/bphoto/FCQO0TjUh7_rONpAfeTZ7g/o.jpg", "price": "$", "rating": 3.0, "name": "Francesco's Restaurant", "url": "https://www.yelp.com/biz/francescos-restaurant-brooklyn-5?adjust_creative=gBcvfFpabk3CnzmXKdYe3w&utm_campaign=yelp_api_v3&utm_medium=api_v3_business_search&utm_source=gBcvfFpabk3CnzmXKdYe3w"}, {"transactions": [], "distance": 20159.6308643, "phone": "+19736809222", "categories": [{"alias": "japanese", "title": "Japanese"}, {"alias": "french", "title": "French"}], "id": "wabi-sabi-bloomfield", "display_phone": "(973) 680-9222", "is_closed": false, "location": {"address2": null, "country": "US", "display_address": ["407 Broad St", "Bloomfield, NJ 07003"], "address1": "407 Broad St", "city": "Bloomfield", "zip_code": "07003", "address3": "", "state": "NJ"}, "coordinates": {"longitude": -74.1921234130859, "latitude": 40.8073616027832}, "review_count": 82, "image_url": "https://s3-media3.fl.yelpcdn.com/bphoto/PWFhUVI97PAYvPxkg5v3zQ/o.jpg", "price": "$$", "rating": 4.5, "name": "Wabi Sabi", "url": "https://www.yelp.com/biz/wabi-sabi-bloomfield?adjust_creative=gBcvfFpabk3CnzmXKdYe3w&utm_campaign=yelp_api_v3&utm_medium=api_v3_business_search&utm_source=gBcvfFpabk3CnzmXKdYe3w"}, {"transactions": [], "distance": 5952.987927896, "phone": "+12127587816", "categories": [{"alias": "french", "title": "French"}], "id": "paradigm-new-york", "display_phone": "(212) 758-7816", "is_closed": false, "location": {"address2": "", "country": "US", "display_address": ["12 E 49th St", "New York, NY 10017"], "address1": "12 E 49th St", "city": "New York", "zip_code": "10017", "address3": "", "state": "NY"}, "coordinates": {"longitude": -73.9771166, "latitude": 40.7575221}, "review_count": 1, "image_url": "", "rating": 4.0, "name": "Paradigm", "url": "https://www.yelp.com/biz/paradigm-new-york?adjust_creative=gBcvfFpabk3CnzmXKdYe3w&utm_campaign=yelp_api_v3&utm_medium=api_v3_business_search&utm_source=gBcvfFpabk3CnzmXKdYe3w"}, {"transactions": [], "distance": 10977.125640843999, "phone": "+12122220259", "categories": [{"alias": "creperies", "title": "Creperies"}, {"alias": "french", "title": "French"}, {"alias": "breakfast_brunch", "title": "Breakfast & Brunch"}], "id": "crepes-on-columbus-new-york", "display_phone": "(212) 222-0259", "is_closed": false, "location": {"address2": null, "country": "US", "display_address": ["990 Columbus Ave", "New York, NY 10025"], "address1": "990 Columbus Ave", "city": "New York", "zip_code": "10025", "address3": "", "state": "NY"}, "coordinates": {"longitude": -73.96178, "latitude": 40.80104}, "review_count": 448, "image_url": "https://s3-media2.fl.yelpcdn.com/bphoto/1RnrTwxOa8Io_0kcq6wqTg/o.jpg", "price": "$$", "rating": 3.5, "name": "Crepes on Columbus", "url": "https://www.yelp.com/biz/crepes-on-columbus-new-york?adjust_creative=gBcvfFpabk3CnzmXKdYe3w&utm_campaign=yelp_api_v3&utm_medium=api_v3_business_search&utm_source=gBcvfFpabk3CnzmXKdYe3w"}, {"transactions": [], "distance": 6508.20958416, "phone": "+12126883939", "categories": [{"alias": "french", "title": "French"}, {"alias": "lounges", "title": "Lounges"}], "id": "opia-restaurant-new-york", "display_phone": "(212) 688-3939", "is_closed": false, "location": {"address2": "", "country": "US", "display_address": ["130 E 57th St", "New York, NY 10022"], "address1": "130 E 57th St", "city": "New York", "zip_code": "10022", "address3": "", "state": "NY"}, "coordinates": {"longitude": -73.9694672, "latitude": 40.7609177}, "review_count": 156, "image_url": "https://s3-media2.fl.yelpcdn.com/bphoto/FfZ5KB6jJR_Lzs875xlfVQ/o.jpg", "price": "$$", "rating": 3.0, "name": "Opia Restaurant", "url": "https://www.yelp.com/biz/opia-restaurant-new-york?adjust_creative=gBcvfFpabk3CnzmXKdYe3w&utm_campaign=yelp_api_v3&utm_medium=api_v3_business_search&utm_source=gBcvfFpabk3CnzmXKdYe3w"}, {"transactions": ["pickup"], "distance": 8360.380321816, "phone": "+12127210076", "categories": [{"alias": "bakeries", "title": "Bakeries"}, {"alias": "cafes", "title": "Cafes"}, {"alias": "french", "title": "French"}], "id": "margot-patisserie-new-york", "display_phone": "(212) 721-0076", "is_closed": false, "location": {"address2": null, "country": "US", "display_address": ["2109 Broadway W74th St", "New York, NY 10023"], "address1": "2109 Broadway W74th St", "city": "New York", "zip_code": "10023", "address3": "", "state": "NY"}, "coordinates": {"longitude": -73.9822470380287, "latitude": 40.7800753824548}, "review_count": 75, "image_url": "https://s3-media1.fl.yelpcdn.com/bphoto/R8PlaO4896DNiUyxJGnwGw/o.jpg", "price": "$$", "rating": 3.5, "name": "Margot Patisserie", "url": "https://www.yelp.com/biz/margot-patisserie-new-york?adjust_creative=gBcvfFpabk3CnzmXKdYe3w&utm_campaign=yelp_api_v3&utm_medium=api_v3_business_search&utm_source=gBcvfFpabk3CnzmXKdYe3w"}, {"transactions": [], "distance": 3921.807727096, "phone": "", "categories": [{"alias": "creperies", "title": "Creperies"}, {"alias": "french", "title": "French"}], "id": "by-suzette-new-york-8", "display_phone": "", "is_closed": false, "location": {"address2": "", "country": "US", "display_address": ["38 E 23rd St", "New York, NY 10010"], "address1": "38 E 23rd St", "city": "New York", "zip_code": "10010", "address3": null, "state": "NY"}, "coordinates": {"longitude": -73.98744, "latitude": 40.74033}, "review_count": 2, "image_url": "", "rating": 4.0, "name": "By Suzette", "url": "https://www.yelp.com/biz/by-suzette-new-york-8?adjust_creative=gBcvfFpabk3CnzmXKdYe3w&utm_campaign=yelp_api_v3&utm_medium=api_v3_business_search&utm_source=gBcvfFpabk3CnzmXKdYe3w"}, {"transactions": [], "distance": 3693.6686543, "phone": "+12122555972", "categories": [{"alias": "french", "title": "French"}], "id": "bouchon-bistro-and-wine-bar-new-york", "display_phone": "(212) 255-5972", "is_closed": false, "location": {"address2": "", "country": "US", "display_address": ["41 Greenwich Ave Frnt", "New York, NY 10014"], "address1": "41 Greenwich Ave Frnt", "city": "New York", "zip_code": "10014", "address3": "", "state": "NY"}, "coordinates": {"longitude": -74.000686, "latitude": 40.735408}, "review_count": 2, "image_url": "", "rating": 2.0, "name": "Bouchon Bistro & Wine Bar", "url": "https://www.yelp.com/biz/bouchon-bistro-and-wine-bar-new-york?adjust_creative=gBcvfFpabk3CnzmXKdYe3w&utm_campaign=yelp_api_v3&utm_medium=api_v3_business_search&utm_source=gBcvfFpabk3CnzmXKdYe3w"}, {"transactions": [], "distance": 5903.196879503999, "phone": "+12128690900", "categories": [{"alias": "meats", "title": "Meat Shops"}, {"alias": "french", "title": "French"}, {"alias": "kosher", "title": "Kosher"}], "id": "le-marais-new-york", "display_phone": "(212) 869-0900", "is_closed": false, "location": {"address2": "", "country": "US", "display_address": ["150 W 46th St", "New York, NY 10036"], "address1": "150 W 46th St", "city": "New York", "zip_code": "10036", "address3": "", "state": "NY"}, "coordinates": {"longitude": -73.9842910766602, "latitude": 40.7580032348633}, "review_count": 200, "image_url": "https://s3-media4.fl.yelpcdn.com/bphoto/voodxc8KUw00Wk3WwPUoUg/o.jpg", "price": "$$$", "rating": 3.0, "name": "Le Marais", "url": "https://www.yelp.com/biz/le-marais-new-york?adjust_creative=gBcvfFpabk3CnzmXKdYe3w&utm_campaign=yelp_api_v3&utm_medium=api_v3_business_search&utm_source=gBcvfFpabk3CnzmXKdYe3w"}, {"transactions": [], "distance": 11401.87134408, "phone": "+12127220808", "categories": [{"alias": "french", "title": "French"}], "id": "bistro-118-manhattan", "display_phone": "(212) 722-0808", "is_closed": false, "location": {"address2": "", "country": "US", "display_address": ["170 E 118th St", "Manhattan, NY 10035"], "address1": "170 E 118th St", "city": "Manhattan", "zip_code": "10035", "address3": "", "state": "NY"}, "coordinates": {"longitude": -73.9397583, "latitude": 40.7992897}, "review_count": 8, "image_url": "", "rating": 3.5, "name": "Bistro 118", "url": "https://www.yelp.com/biz/bistro-118-manhattan?adjust_creative=gBcvfFpabk3CnzmXKdYe3w&utm_campaign=yelp_api_v3&utm_medium=api_v3_business_search&utm_source=gBcvfFpabk3CnzmXKdYe3w"}, {"transactions": [], "distance": 1621.0708011279999, "phone": "+12123434295", "categories": [{"alias": "french", "title": "French"}, {"alias": "wine_bars", "title": "Wine Bars"}], "id": "troquet-new-york-3", "display_phone": "(212) 343-4295", "is_closed": false, "location": {"address2": "", "country": "US", "display_address": ["155 Grand St", "New York, NY 10013"], "address1": "155 Grand St", "city": "New York", "zip_code": "10013", "address3": null, "state": "NY"}, "coordinates": {"longitude": -73.9984136236804, "latitude": 40.7196853588509}, "review_count": 2, "image_url": "https://s3-media2.fl.yelpcdn.com/bphoto/29RO7AuuYyBKIeu00JdPqA/o.jpg", "rating": 5.0, "name": "Troquet", "url": "https://www.yelp.com/biz/troquet-new-york-3?adjust_creative=gBcvfFpabk3CnzmXKdYe3w&utm_campaign=yelp_api_v3&utm_medium=api_v3_business_search&utm_source=gBcvfFpabk3CnzmXKdYe3w"}, {"transactions": [], "distance": 2069.4456389139996, "phone": "", "categories": [{"alias": "coffee", "title": "Coffee & Tea"}, {"alias": "bakeries", "title": "Bakeries"}, {"alias": "french", "title": "French"}], "id": "the-basque-bakery-new-york", "display_phone": "", "is_closed": false, "location": {"address2": "", "country": "US", "display_address": ["W Broadway", "New York, NY 10012"], "address1": "W Broadway", "city": "New York", "zip_code": "10012", "address3": "", "state": "NY"}, "coordinates": {"longitude": -74.0036116237043, "latitude": 40.7226636109471}, "review_count": 1, "image_url": "", "rating": 4.0, "name": "The Basque Bakery", "url": "https://www.yelp.com/biz/the-basque-bakery-new-york?adjust_creative=gBcvfFpabk3CnzmXKdYe3w&utm_campaign=yelp_api_v3&utm_medium=api_v3_business_search&utm_source=gBcvfFpabk3CnzmXKdYe3w"}, {"transactions": [], "distance": 8190.095412679999, "phone": "+12126063030", "categories": [{"alias": "french", "title": "French"}], "id": "the-mark-restaurant-new-york-2", "display_phone": "(212) 606-3030", "is_closed": false, "location": {"address2": "", "country": "US", "display_address": ["25 E 77th St", "New York, NY 10075"], "address1": "25 E 77th St", "city": "New York", "zip_code": "10075", "address3": "", "state": "NY"}, "coordinates": {"longitude": -73.9633958441275, "latitude": 40.7752785362952}, "review_count": 184, "image_url": "https://s3-media1.fl.yelpcdn.com/bphoto/9Xb-IkrAyhKmnzEtlnaovg/o.jpg", "price": "$$$$", "rating": 3.5, "name": "The Mark Restaurant", "url": "https://www.yelp.com/biz/the-mark-restaurant-new-york-2?adjust_creative=gBcvfFpabk3CnzmXKdYe3w&utm_campaign=yelp_api_v3&utm_medium=api_v3_business_search&utm_source=gBcvfFpabk3CnzmXKdYe3w"}, {"transactions": [], "distance": 8090.74280778, "phone": "+12127441600", "categories": [{"alias": "jazzandblues", "title": "Jazz & Blues"}, {"alias": "french", "title": "French"}], "id": "cafe-carlyle-new-york-4", "display_phone": "(212) 744-1600", "is_closed": false, "location": {"address2": "35 E 76th St", "country": "US", "display_address": ["The Carlyle", "35 E 76th St", "New York, NY 10021"], "address1": "The Carlyle", "city": "New York", "zip_code": "10021", "address3": "", "state": "NY"}, "coordinates": {"longitude": -73.9635195, "latitude": 40.7743698}, "review_count": 60, "image_url": "https://s3-media2.fl.yelpcdn.com/bphoto/ujJILGlVSzsMz7deyUzJDg/o.jpg", "price": "$$$$", "rating": 3.5, "name": "Cafe Carlyle", "url": "https://www.yelp.com/biz/cafe-carlyle-new-york-4?adjust_creative=gBcvfFpabk3CnzmXKdYe3w&utm_campaign=yelp_api_v3&utm_medium=api_v3_business_search&utm_source=gBcvfFpabk3CnzmXKdYe3w"}, {"transactions": [], "distance": 7743.346491095999, "phone": "", "categories": [{"alias": "french", "title": "French"}], "id": "l-atelier-gourmand-manhattan", "display_phone": "", "is_closed": false, "location": {"address2": "", "country": "US", "display_address": ["Avenue Deloffre", "Manhattan, NY 10069"], "address1": "Avenue Deloffre", "city": "Manhattan", "zip_code": "10069", "address3": "", "state": "NY"}, "coordinates": {"longitude": -73.9892349243164, "latitude": 40.7759819030762}, "review_count": 1, "image_url": "", "rating": 4.0, "name": "L'atelier gourmand", "url": "https://www.yelp.com/biz/l-atelier-gourmand-manhattan?adjust_creative=gBcvfFpabk3CnzmXKdYe3w&utm_campaign=yelp_api_v3&utm_medium=api_v3_business_search&utm_source=gBcvfFpabk3CnzmXKdYe3w"}, {"transactions": [], "distance": 7178.182171378, "phone": "+16313776330", "categories": [{"alias": "tradamerican", "title": "American (Traditional)"}, {"alias": "spanish", "title": "Spanish"}, {"alias": "french", "title": "French"}], "id": "alto-foods-nyc-brooklyn", "display_phone": "(631) 377-6330", "is_closed": false, "location": {"address2": "", "country": "US", "display_address": ["66 Eldert St", "Brooklyn, NY 11207"], "address1": "66 Eldert St", "city": "Brooklyn", "zip_code": "11207", "address3": null, "state": "NY"}, "coordinates": {"longitude": -73.9127395, "latitude": 40.6868844}, "review_count": 9, "image_url": "https://s3-media1.fl.yelpcdn.com/bphoto/vCTt-7koW-90WkN6g7SKLA/o.jpg", "price": "$$", "rating": 5.0, "name": "Alto Foods NYC", "url": "https://www.yelp.com/biz/alto-foods-nyc-brooklyn?adjust_creative=gBcvfFpabk3CnzmXKdYe3w&utm_campaign=yelp_api_v3&utm_medium=api_v3_business_search&utm_source=gBcvfFpabk3CnzmXKdYe3w"}, {"transactions": [], "distance": 13199.032587459998, "phone": "", "categories": [{"alias": "french", "title": "French"}], "id": "voyage-bakery-and-cafe-flushing", "display_phone": "", "is_closed": false, "location": {"address2": "", "country": "US", "display_address": ["Terminal C Gate 31", "Laguardia Airport", "Flushing, NY 11371"], "address1": "Terminal C Gate 31", "city": "Flushing", "zip_code": "11371", "address3": "Laguardia Airport", "state": "NY"}, "coordinates": {"longitude": -73.8650293273087, "latitude": 40.7725085842067}, "review_count": 28, "image_url": "https://s3-media4.fl.yelpcdn.com/bphoto/vAezTZykeawgSlrYlXVjrg/o.jpg", "price": "$$", "rating": 2.5, "name": "Voyage Bakery and Cafe", "url": "https://www.yelp.com/biz/voyage-bakery-and-cafe-flushing?adjust_creative=gBcvfFpabk3CnzmXKdYe3w&utm_campaign=yelp_api_v3&utm_medium=api_v3_business_search&utm_source=gBcvfFpabk3CnzmXKdYe3w"}, {"transactions": [], "distance": 6923.970181242, "phone": "+16467264374", "categories": [{"alias": "creperies", "title": "Creperies"}, {"alias": "french", "title": "French"}, {"alias": "breakfast_brunch", "title": "Breakfast & Brunch"}], "id": "by-suzette-new-york-5", "display_phone": "(646) 726-4374", "is_closed": false, "location": {"address2": "", "country": "US", "display_address": ["1000 8th Ave", "New York, NY 10019"], "address1": "1000 8th Ave", "city": "New York", "zip_code": "10019", "address3": null, "state": "NY"}, "coordinates": {"longitude": -73.9823684692383, "latitude": 40.7674102783203}, "review_count": 7, "image_url": "https://s3-media3.fl.yelpcdn.com/bphoto/J9kkDwNCydBH9GvUabeZ7w/o.jpg", "price": "$", "rating": 3.5, "name": "By Suzette", "url": "https://www.yelp.com/biz/by-suzette-new-york-5?adjust_creative=gBcvfFpabk3CnzmXKdYe3w&utm_campaign=yelp_api_v3&utm_medium=api_v3_business_search&utm_source=gBcvfFpabk3CnzmXKdYe3w"}, {"transactions": [], "distance": 1891.4930293480002, "phone": "", "categories": [{"alias": "french", "title": "French"}], "id": "lea-crepe-and-panini-manhattan", "display_phone": "", "is_closed": false, "location": {"address2": "", "country": "US", "display_address": ["188 Allen St", "Manhattan, NY 10002"], "address1": "188 Allen St", "city": "Manhattan", "zip_code": "10002", "address3": "", "state": "NY"}, "coordinates": {"longitude": -73.98861, "latitude": 40.7223}, "review_count": 9, "image_url": "https://s3-media2.fl.yelpcdn.com/bphoto/lwjbgOBMLC_jWu6z1i5QLA/o.jpg", "price": "$$", "rating": 3.5, "name": "Lea Crepe and Panini", "url": "https://www.yelp.com/biz/lea-crepe-and-panini-manhattan?adjust_creative=gBcvfFpabk3CnzmXKdYe3w&utm_campaign=yelp_api_v3&utm_medium=api_v3_business_search&utm_source=gBcvfFpabk3CnzmXKdYe3w"}, {"transactions": [], "distance": 6848.66546116, "phone": "+12122452214", "categories": [{"alias": "french", "title": "French"}, {"alias": "armenian", "title": "Armenian"}], "id": "petrossian-new-york", "display_phone": "(212) 245-2214", "is_closed": false, "location": {"address2": "", "country": "US", "display_address": ["182 W 58th St", "New York, NY 10019"], "address1": "182 W 58th St", "city": "New York", "zip_code": "10019", "address3": "", "state": "NY"}, "coordinates": {"longitude": -73.9793873699753, "latitude": 40.7659911708345}, "review_count": 215, "image_url": "https://s3-media2.fl.yelpcdn.com/bphoto/gtAEk_KJ3vV-A-db2aGqiA/o.jpg", "price": "$$$$", "rating": 3.5, "name": "Petrossian", "url": "https://www.yelp.com/biz/petrossian-new-york?adjust_creative=gBcvfFpabk3CnzmXKdYe3w&utm_campaign=yelp_api_v3&utm_medium=api_v3_business_search&utm_source=gBcvfFpabk3CnzmXKdYe3w"}, {"transactions": [], "distance": 3335.217459288, "phone": "+12126752048", "categories": [{"alias": "italian", "title": "Italian"}, {"alias": "french", "title": "French"}], "id": "genes-restaurant-new-york", "display_phone": "(212) 675-2048", "is_closed": false, "location": {"address2": "", "country": "US", "display_address": ["73 W 11th St", "New York, NY 10011"], "address1": "73 W 11th St", "city": "New York", "zip_code": "10011", "address3": "", "state": "NY"}, "coordinates": {"longitude": -73.9978, "latitude": 40.73531}, "review_count": 63, "image_url": "https://s3-media1.fl.yelpcdn.com/bphoto/SOyUWV-a3Zj2-AyTUtr1Yg/o.jpg", "price": "$$$", "rating": 3.5, "name": "Gene's Restaurant", "url": "https://www.yelp.com/biz/genes-restaurant-new-york?adjust_creative=gBcvfFpabk3CnzmXKdYe3w&utm_campaign=yelp_api_v3&utm_medium=api_v3_business_search&utm_source=gBcvfFpabk3CnzmXKdYe3w"}, {"transactions": [], "distance": 7026.740863367999, "phone": "+12128381400", "categories": [{"alias": "french", "title": "French"}, {"alias": "wine_bars", "title": "Wine Bars"}, {"alias": "mediterranean", "title": "Mediterranean"}], "id": "majorelle-new-york", "display_phone": "(212) 838-1400", "is_closed": false, "location": {"address2": "", "country": "US", "display_address": ["28 E 63rd St", "New York, NY 10065"], "address1": "28 E 63rd St", "city": "New York", "zip_code": "10065", "address3": null, "state": "NY"}, "coordinates": {"longitude": -73.9692137, "latitude": 40.7657132}, "review_count": 8, "image_url": "https://s3-media1.fl.yelpcdn.com/bphoto/k2OpUxCDBheLvJaLEUq5Kw/o.jpg", "price": "$$$", "rating": 3.5, "name": "majorelle", "url": "https://www.yelp.com/biz/majorelle-new-york?adjust_creative=gBcvfFpabk3CnzmXKdYe3w&utm_campaign=yelp_api_v3&utm_medium=api_v3_business_search&utm_source=gBcvfFpabk3CnzmXKdYe3w"}, {"transactions": [], "distance": 6061.232297229999, "phone": "+12123991100", "categories": [{"alias": "french", "title": "French"}], "id": "brasserie-athenee-new-york", "display_phone": "(212) 399-1100", "is_closed": false, "location": {"address2": "", "country": "US", "display_address": ["300 W 46th St", "New York, NY 10036"], "address1": "300 W 46th St", "city": "New York", "zip_code": "10036", "address3": "", "state": "NY"}, "coordinates": {"longitude": -73.98833, "latitude": 40.75985}, "review_count": 205, "image_url": "https://s3-media2.fl.yelpcdn.com/bphoto/SdUWwk585pgw5mQeK-zBBA/o.jpg", "price": "$$", "rating": 2.5, "name": "Brasserie Athenee", "url": "https://www.yelp.com/biz/brasserie-athenee-new-york?adjust_creative=gBcvfFpabk3CnzmXKdYe3w&utm_campaign=yelp_api_v3&utm_medium=api_v3_business_search&utm_source=gBcvfFpabk3CnzmXKdYe3w"}, {"transactions": ["delivery", "pickup"], "distance": 2536.69723023, "phone": "+12127775454", "categories": [{"alias": "moroccan", "title": "Moroccan"}, {"alias": "mediterranean", "title": "Mediterranean"}, {"alias": "french", "title": "French"}], "id": "le-souk-restaurant-new-york-2", "display_phone": "(212) 777-5454", "is_closed": false, "location": {"address2": "", "country": "US", "display_address": ["510 Laguardia Pl", "New York, NY 10012"], "address1": "510 Laguardia Pl", "city": "New York", "zip_code": "10012", "address3": "", "state": "NY"}, "coordinates": {"longitude": -73.999275, "latitude": 40.727931}, "review_count": 78, "image_url": "https://s3-media1.fl.yelpcdn.com/bphoto/-360dCryhs3IR92MWO8gvA/o.jpg", "price": "$$$", "rating": 4.0, "name": "Le Souk Restaurant", "url": "https://www.yelp.com/biz/le-souk-restaurant-new-york-2?adjust_creative=gBcvfFpabk3CnzmXKdYe3w&utm_campaign=yelp_api_v3&utm_medium=api_v3_business_search&utm_source=gBcvfFpabk3CnzmXKdYe3w"}, {"transactions": [], "distance": 5086.420136552, "phone": "+12125250000", "categories": [{"alias": "french", "title": "French"}, {"alias": "latin", "title": "Latin American"}], "id": "the-americano-new-york", "display_phone": "(212) 525-0000", "is_closed": false, "location": {"address2": "", "country": "US", "display_address": ["518 W 27th St", "New York, NY 10001"], "address1": "518 W 27th St", "city": "New York", "zip_code": "10001", "address3": "", "state": "NY"}, "coordinates": {"longitude": -74.0034013, "latitude": 40.7506619}, "review_count": 88, "image_url": "https://s3-media4.fl.yelpcdn.com/bphoto/2UUg1mMT-iTsdLZfSl2orw/o.jpg", "price": "$$$", "rating": 3.0, "name": "The Americano", "url": "https://www.yelp.com/biz/the-americano-new-york?adjust_creative=gBcvfFpabk3CnzmXKdYe3w&utm_campaign=yelp_api_v3&utm_medium=api_v3_business_search&utm_source=gBcvfFpabk3CnzmXKdYe3w"}, {"transactions": [], "distance": 2221.027925108, "phone": "", "categories": [{"alias": "french", "title": "French"}], "id": "the-hunger-pop-up-restaurant-new-york", "display_phone": "", "is_closed": false, "location": {"address2": "", "country": "US", "display_address": ["New York, NY 10013"], "address1": "", "city": "New York", "zip_code": "10013", "address3": "", "state": "NY"}, "coordinates": {"longitude": -74.0097961425781, "latitude": 40.7205772399902}, "review_count": 3, "image_url": "https://s3-media1.fl.yelpcdn.com/bphoto/KhlfdvEH1UEBPQO-eIlILg/o.jpg", "price": "$$$$", "rating": 1.5, "name": "The Hunger Pop-Up Restaurant", "url": "https://www.yelp.com/biz/the-hunger-pop-up-restaurant-new-york?adjust_creative=gBcvfFpabk3CnzmXKdYe3w&utm_campaign=yelp_api_v3&utm_medium=api_v3_business_search&utm_source=gBcvfFpabk3CnzmXKdYe3w"}, {"transactions": [], "distance": 16275.35358974, "phone": "+17187514788", "categories": [{"alias": "bakeries", "title": "Bakeries"}, {"alias": "french", "title": "French"}, {"alias": "coffee", "title": "Coffee & Tea"}], "id": "au-bon-pain-jamaica-2", "display_phone": "(718) 751-4788", "is_closed": false, "location": {"address2": "Ste 2", "country": "US", "display_address": ["JFK-John F Kennedy Intl Airport", "Ste 2", "Jamaica, NY 11430"], "address1": "JFK-John F Kennedy Intl Airport", "city": "Jamaica", "zip_code": "11430", "address3": "", "state": "NY"}, "coordinates": {"longitude": -73.7955703735352, "latitude": 40.6981925964355}, "review_count": 4, "image_url": "", "price": "$$", "rating": 1.5, "name": "Au Bon Pain", "url": "https://www.yelp.com/biz/au-bon-pain-jamaica-2?adjust_creative=gBcvfFpabk3CnzmXKdYe3w&utm_campaign=yelp_api_v3&utm_medium=api_v3_business_search&utm_source=gBcvfFpabk3CnzmXKdYe3w"}, {"transactions": [], "distance": 5446.105695343999, "phone": "", "categories": [{"alias": "french", "title": "French"}], "id": "d\u00eener-en-blanc-2013-new-york", "display_phone": "", "is_closed": false, "location": {"address2": "", "country": "US", "display_address": ["Bryant Park", "New York, NY 10018"], "address1": "Bryant Park", "city": "New York", "zip_code": "10018", "address3": "", "state": "NY"}, "coordinates": {"longitude": -73.9835858345032, "latitude": 40.7537472085141}, "review_count": 1, "image_url": "", "rating": 5.0, "name": "D\u00eener en Blanc 2013", "url": "https://www.yelp.com/biz/d%C3%AEner-en-blanc-2013-new-york?adjust_creative=gBcvfFpabk3CnzmXKdYe3w&utm_campaign=yelp_api_v3&utm_medium=api_v3_business_search&utm_source=gBcvfFpabk3CnzmXKdYe3w"}, {"transactions": [], "distance": 6475.512623379999, "phone": "+12127505656", "categories": [{"alias": "french", "title": "French"}, {"alias": "newamerican", "title": "American (New)"}], "id": "table-xii-new-york", "display_phone": "(212) 750-5656", "is_closed": false, "location": {"address2": null, "country": "US", "display_address": ["109 E 56th St", "New York, NY 10022"], "address1": "109 E 56th St", "city": "New York", "zip_code": "10022", "address3": "", "state": "NY"}, "coordinates": {"longitude": -73.970344, "latitude": 40.760807}, "review_count": 2, "image_url": "", "price": "$$$", "rating": 2.5, "name": "Table XII", "url": "https://www.yelp.com/biz/table-xii-new-york?adjust_creative=gBcvfFpabk3CnzmXKdYe3w&utm_campaign=yelp_api_v3&utm_medium=api_v3_business_search&utm_source=gBcvfFpabk3CnzmXKdYe3w"}, {"transactions": [], "distance": 5158.804387335999, "phone": "+19175252486", "categories": [{"alias": "bakeries", "title": "Bakeries"}, {"alias": "french", "title": "French"}], "id": "barclay-paris-pastries-new-york", "display_phone": "(917) 525-2486", "is_closed": false, "location": {"address2": "Fl 9", "country": "US", "display_address": ["225 W 34th St", "Fl 9", "New York, NY 10122"], "address1": "225 W 34th St", "city": "New York", "zip_code": "10122", "address3": "", "state": "NY"}, "coordinates": {"longitude": -73.991707, "latitude": 40.751865}, "review_count": 2, "image_url": "https://s3-media3.fl.yelpcdn.com/bphoto/OWGYYPOGCB7AQ4DYwAAgRw/o.jpg", "rating": 1.0, "name": "Barclay Paris Pastries", "url": "https://www.yelp.com/biz/barclay-paris-pastries-new-york?adjust_creative=gBcvfFpabk3CnzmXKdYe3w&utm_campaign=yelp_api_v3&utm_medium=api_v3_business_search&utm_source=gBcvfFpabk3CnzmXKdYe3w"}, {"transactions": ["delivery", "pickup"], "distance": 13049.8805656, "phone": "+17187692222", "categories": [{"alias": "french", "title": "French"}], "id": "w-wineoteca-brooklyn", "display_phone": "(718) 769-2222", "is_closed": false, "location": {"address2": "", "country": "US", "display_address": ["2812 Ocean Ave", "Brooklyn, NY 11229"], "address1": "2812 Ocean Ave", "city": "Brooklyn", "zip_code": "11229", "address3": "", "state": "NY"}, "coordinates": {"longitude": -73.9502184838057, "latitude": 40.592777878046}, "review_count": 2, "image_url": "", "price": "$$$$", "rating": 3.5, "name": "W Wineoteca", "url": "https://www.yelp.com/biz/w-wineoteca-brooklyn?adjust_creative=gBcvfFpabk3CnzmXKdYe3w&utm_campaign=yelp_api_v3&utm_medium=api_v3_business_search&utm_source=gBcvfFpabk3CnzmXKdYe3w"}, {"transactions": [], "distance": 3174.749202284, "phone": "+12125053355", "categories": [{"alias": "french", "title": "French"}], "id": "village-restaurant-9-street-new-york", "display_phone": "(212) 505-3355", "is_closed": false, "location": {"address2": "", "country": "US", "display_address": ["62 W 9th St", "New York, NY 10011"], "address1": "62 W 9th St", "city": "New York", "zip_code": "10011", "address3": "", "state": "NY"}, "coordinates": {"longitude": -73.9987487792969, "latitude": 40.7338066101074}, "review_count": 1, "image_url": "", "price": "$$$", "rating": 2.0, "name": "Village Restaurant 9 Street", "url": "https://www.yelp.com/biz/village-restaurant-9-street-new-york?adjust_creative=gBcvfFpabk3CnzmXKdYe3w&utm_campaign=yelp_api_v3&utm_medium=api_v3_business_search&utm_source=gBcvfFpabk3CnzmXKdYe3w"}, {"transactions": [], "distance": 4785.5591734399995, "phone": "", "categories": [{"alias": "french", "title": "French"}], "id": "bar-suzette-at-broadway-bites-new-york", "display_phone": "", "is_closed": false, "location": {"address2": "", "country": "US", "display_address": ["1271 Broadway", "New York, NY 10001"], "address1": "1271 Broadway", "city": "New York", "zip_code": "10001", "address3": "", "state": "NY"}, "coordinates": {"longitude": -73.988472, "latitude": 40.7482605}, "review_count": 8, "image_url": "https://s3-media2.fl.yelpcdn.com/bphoto/TwQEA5gqDaKXsDgTcuYWVQ/o.jpg", "price": "$$", "rating": 2.5, "name": "Bar Suzette At Broadway Bites", "url": "https://www.yelp.com/biz/bar-suzette-at-broadway-bites-new-york?adjust_creative=gBcvfFpabk3CnzmXKdYe3w&utm_campaign=yelp_api_v3&utm_medium=api_v3_business_search&utm_source=gBcvfFpabk3CnzmXKdYe3w"}, {"transactions": [], "distance": 15853.241410479997, "phone": "+12015851083", "categories": [{"alias": "cafes", "title": "Cafes"}, {"alias": "italian", "title": "Italian"}, {"alias": "french", "title": "French"}], "id": "cafe-lune-palisades-park-8", "display_phone": "(201) 585-1083", "is_closed": false, "location": {"address2": "", "country": "US", "display_address": ["280 Broad Ave", "Palisades Park, NJ 07650"], "address1": "280 Broad Ave", "city": "Palisades Park", "zip_code": "07650", "address3": null, "state": "NJ"}, "coordinates": {"longitude": -73.9974766, "latitude": 40.8479939}, "review_count": 28, "image_url": "https://s3-media2.fl.yelpcdn.com/bphoto/XWD31q1SZcGzGkgi-Z2qWQ/o.jpg", "price": "$$", "rating": 2.5, "name": "Cafe Lune", "url": "https://www.yelp.com/biz/cafe-lune-palisades-park-8?adjust_creative=gBcvfFpabk3CnzmXKdYe3w&utm_campaign=yelp_api_v3&utm_medium=api_v3_business_search&utm_source=gBcvfFpabk3CnzmXKdYe3w"}, {"transactions": [], "distance": 6279.329893096, "phone": "+12017925888", "categories": [{"alias": "french", "title": "French"}, {"alias": "mexican", "title": "Mexican"}], "id": "yummy-tortillas-jersey-city", "display_phone": "(201) 792-5888", "is_closed": false, "location": {"address2": null, "country": "US", "display_address": ["644 Newark Ave", "Jersey City, NJ 87025"], "address1": "644 Newark Ave", "city": "Jersey City", "zip_code": "87025", "address3": null, "state": "NJ"}, "coordinates": {"longitude": -74.0585321187973, "latitude": 40.7340122759342}, "review_count": 3, "image_url": "https://s3-media3.fl.yelpcdn.com/bphoto/rjl-DV7yvA71HLT9Javlcg/o.jpg", "price": "$$", "rating": 2.5, "name": "Yummy Tortillas", "url": "https://www.yelp.com/biz/yummy-tortillas-jersey-city?adjust_creative=gBcvfFpabk3CnzmXKdYe3w&utm_campaign=yelp_api_v3&utm_medium=api_v3_business_search&utm_source=gBcvfFpabk3CnzmXKdYe3w"}, {"transactions": [], "distance": 15601.0465671, "phone": "", "categories": [{"alias": "french", "title": "French"}], "id": "le-grand-comptoir-newark", "display_phone": "", "is_closed": false, "location": {"address2": "", "country": "US", "display_address": ["Newark Airport", "Newark, NJ 07114"], "address1": "Newark Airport", "city": "Newark", "zip_code": "07114", "address3": "", "state": "NJ"}, "coordinates": {"longitude": -74.1665878295898, "latitude": 40.6974639892578}, "review_count": 31, "image_url": "https://s3-media2.fl.yelpcdn.com/bphoto/2FRfZkRIN4qyB0f9x0EtUw/o.jpg", "price": "$$", "rating": 2.5, "name": "Le Grand Comptoir", "url": "https://www.yelp.com/biz/le-grand-comptoir-newark?adjust_creative=gBcvfFpabk3CnzmXKdYe3w&utm_campaign=yelp_api_v3&utm_medium=api_v3_business_search&utm_source=gBcvfFpabk3CnzmXKdYe3w"}]}