{"region": {"center": {"longitude": -73.99429321289062, "latitude": 40.70544486444615}}, "total": 353, "businesses": [{"transactions": ["pickup"], "distance": 3879.686793144, "phone": "+12122287557", "categories": [{"alias": "newamerican", "title": "American (New)"}, {"alias": "french", "title": "French"}], "id": "almond-new-york", "display_phone": "(212) 228-7557", "is_closed": false, "location": {"address2": "", "country": "US", "display_address": ["12 E 22nd St", "New York, NY 10010"], "address1": "12 E 22nd St", "city": "New York", "zip_code": "10010", "address3": null, "state": "NY"}, "coordinates": {"longitude": -73.9887542724609, "latitude": 40.7400817871094}, "review_count": 812, "image_url": "https://s3-media3.fl.yelpcdn.com/bphoto/mOFiPSt49oaUlIWax0NZ2g/o.jpg", "price": "$$", "rating": 3.5, "name": "Almond", "url": "https://www.yelp.com/biz/almond-new-york?adjust_creative=gBcvfFpabk3CnzmXKdYe3w&utm_campaign=yelp_api_v3&utm_medium=api_v3_business_search&utm_source=gBcvfFpabk3CnzmXKdYe3w"}, {"transactions": ["delivery", "pickup"], "distance": 6285.78028875, "phone": "+12122620100", "categories": [{"alias": "sandwiches", "title": "Sandwiches"}, {"alias": "french", "title": "French"}, {"alias": "breakfast_brunch", "title": "Breakfast & Brunch"}], "id": "le-bon-choix-new-york", "display_phone": "(212) 262-0100", "is_closed": false, "location": {"address2": "", "country": "US", "display_address": ["652 10th Ave", "New York, NY 10036"], "address1": "652 10th Ave", "city": "New York", "zip_code": "10036", "address3": "", "state": "NY"}, "coordinates": {"longitude": -73.99343, "latitude": 40.76198}, "review_count": 81, "image_url": "https://s3-media3.fl.yelpcdn.com/bphoto/rY9pcCNhnAbcleC6oWSw9g/o.jpg", "price": "$$", "rating": 4.5, "name": "Le Bon Choix", "url": "https://www.yelp.com/biz/le-bon-choix-new-york?adjust_creative=gBcvfFpabk3CnzmXKdYe3w&utm_campaign=yelp_api_v3&utm_medium=api_v3_business_search&utm_source=gBcvfFpabk3CnzmXKdYe3w"}, {"transactions": [], "distance": 9449.551378224, "phone": "+12122890997", "categories": [{"alias": "french", "title": "French"}], "id": "le-paris-bistrot-new-york", "display_phone": "(212) 289-0997", "is_closed": false, "location": {"address2": "", "country": "US", "display_address": ["1312 Madison Ave", "New York, NY 10128"], "address1": "1312 Madison Ave", "city": "New York", "zip_code": "10128", "address3": "", "state": "NY"}, "coordinates": {"longitude": -73.9557899, "latitude": 40.78526}, "review_count": 74, "image_url": "https://s3-media3.fl.yelpcdn.com/bphoto/alIJsEqsoOTYlrWnrtEXUA/o.jpg", "price": "$$$", "rating": 3.5, "name": "Le Paris Bistrot", "url": "https://www.yelp.com/biz/le-paris-bistrot-new-york?adjust_creative=gBcvfFpabk3CnzmXKdYe3w&utm_campaign=yelp_api_v3&utm_medium=api_v3_business_search&utm_source=gBcvfFpabk3CnzmXKdYe3w"}, {"transactions": [], "distance": 7529.020383519999, "phone": "+12189414020", "categories": [{"alias": "coffee", "title": "Coffee & Tea"}, {"alias": "french", "title": "French"}], "id": "cafe-madeline-brooklyn", "display_phone": "(218) 941-4020", "is_closed": false, "location": {"address2": "", "country": "US", "display_address": ["1603 Cortelyou Rd", "Brooklyn, NY 11226"], "address1": "1603 Cortelyou Rd", "city": "Brooklyn", "zip_code": "11226", "address3": "", "state": "NY"}, "coordinates": {"longitude": -73.9633539, "latitude": 40.6419312}, "review_count": 317, "image_url": "https://s3-media1.fl.yelpcdn.com/bphoto/f0HkzLcLZvPJ-w6HdXV9iQ/o.jpg", "price": "$$", "rating": 4.0, "name": "Cafe Madeline", "url": "https://www.yelp.com/biz/cafe-madeline-brooklyn?adjust_creative=gBcvfFpabk3CnzmXKdYe3w&utm_campaign=yelp_api_v3&utm_medium=api_v3_business_search&utm_source=gBcvfFpabk3CnzmXKdYe3w"}, {"transactions": [], "distance": 2466.29826127, "phone": "+12125333000", "categories": [{"alias": "french", "title": "French"}, {"alias": "brasseries", "title": "Brasseries"}, {"alias": "bakeries", "title": "Bakeries"}], "id": "lafayette-new-york-2", "display_phone": "(212) 533-3000", "is_closed": false, "location": {"address2": "", "country": "US", "display_address": ["380 Lafayette St", "New York, NY 10003"], "address1": "380 Lafayette St", "city": "New York", "zip_code": "10003", "address3": "", "state": "NY"}, "coordinates": {"longitude": -73.993464, "latitude": 40.727617}, "review_count": 650, "image_url": "https://s3-media1.fl.yelpcdn.com/bphoto/fvQWORFMMaMhQTUjWNhCNw/o.jpg", "price": "$$$", "rating": 3.5, "name": "Lafayette", "url": "https://www.yelp.com/biz/lafayette-new-york-2?adjust_creative=gBcvfFpabk3CnzmXKdYe3w&utm_campaign=yelp_api_v3&utm_medium=api_v3_business_search&utm_source=gBcvfFpabk3CnzmXKdYe3w"}, {"transactions": ["delivery", "pickup"], "distance": 12133.821706839999, "phone": "+12122895555", "categories": [{"alias": "french", "title": "French"}], "id": "chez-lucienne-new-york", "display_phone": "(212) 289-5555", "is_closed": false, "location": {"address2": "", "country": "US", "display_address": ["308 Lenox Ave", "New York, NY 10027"], "address1": "308 Lenox Ave", "city": "New York", "zip_code": "10027", "address3": "", "state": "NY"}, "coordinates": {"longitude": -73.9448598, "latitude": 40.8079409}, "review_count": 363, "image_url": "https://s3-media4.fl.yelpcdn.com/bphoto/SAvhviPY48urPtfAsNFMEA/o.jpg", "price": "$$", "rating": 3.5, "name": "Chez Lucienne", "url": "https://www.yelp.com/biz/chez-lucienne-new-york?adjust_creative=gBcvfFpabk3CnzmXKdYe3w&utm_campaign=yelp_api_v3&utm_medium=api_v3_business_search&utm_source=gBcvfFpabk3CnzmXKdYe3w"}, {"transactions": ["delivery", "pickup"], "distance": 12672.602506598, "phone": "+17183392800", "categories": [{"alias": "seafood", "title": "Seafood"}, {"alias": "modern_european", "title": "Modern European"}, {"alias": "french", "title": "French"}], "id": "chateau-de-capitaine-brooklyn-2", "display_phone": "(718) 339-2800", "is_closed": false, "location": {"address2": "", "country": "US", "display_address": ["2570 Coney Island Ave", "Brooklyn, NY 11223"], "address1": "2570 Coney Island Ave", "city": "Brooklyn", "zip_code": "11223", "address3": "", "state": "NY"}, "coordinates": {"longitude": -73.960916, "latitude": 40.5943278}, "review_count": 70, "image_url": "https://s3-media1.fl.yelpcdn.com/bphoto/xRXvktTPXXWJPKyn3pmDyQ/o.jpg", "price": "$$$", "rating": 3.5, "name": "Chateau De Capitaine", "url": "https://www.yelp.com/biz/chateau-de-capitaine-brooklyn-2?adjust_creative=gBcvfFpabk3CnzmXKdYe3w&utm_campaign=yelp_api_v3&utm_medium=api_v3_business_search&utm_source=gBcvfFpabk3CnzmXKdYe3w"}, {"transactions": ["pickup"], "distance": 14560.3829495, "phone": "+17183330003", "categories": [{"alias": "french", "title": "French"}, {"alias": "lounges", "title": "Lounges"}, {"alias": "russian", "title": "Russian"}], "id": "vis-\u00e0-vis-restaurant-and-lounge-brooklyn", "display_phone": "(718) 333-0003", "is_closed": false, "location": {"address2": null, "country": "US", "display_address": ["3100 Ocean Pkwy", "Brooklyn, NY 11235"], "address1": "3100 Ocean Pkwy", "city": "Brooklyn", "zip_code": "11235", "address3": "", "state": "NY"}, "coordinates": {"longitude": -73.969356, "latitude": 40.57589}, "review_count": 56, "image_url": "https://s3-media3.fl.yelpcdn.com/bphoto/n2W0jP9R-Lu4-3-RBh6xAQ/o.jpg", "price": "$$$", "rating": 4.5, "name": "Vis \u00e0 Vis Restaurant and Lounge", "url": "https://www.yelp.com/biz/vis-%C3%A0-vis-restaurant-and-lounge-brooklyn?adjust_creative=gBcvfFpabk3CnzmXKdYe3w&utm_campaign=yelp_api_v3&utm_medium=api_v3_business_search&utm_source=gBcvfFpabk3CnzmXKdYe3w"}, {"transactions": ["delivery", "pickup"], "distance": 5810.473789799999, "phone": "+16467080199", "categories": [{"alias": "french", "title": "French"}, {"alias": "chicken_wings", "title": "Chicken Wings"}, {"alias": "sandwiches", "title": "Sandwiches"}], "id": "poulette-midtown-east-new-york", "display_phone": "(646) 708-0199", "is_closed": false, "location": {"address2": "", "country": "US", "display_address": ["304 E 49th St", "New York, NY 10017"], "address1": "304 E 49th St", "city": "New York", "zip_code": "10017", "address3": null, "state": "NY"}, "coordinates": {"longitude": -73.96864, "latitude": 40.75394}, "review_count": 20, "image_url": "https://s3-media4.fl.yelpcdn.com/bphoto/8txJ6IEAOmy1nYYIzK-Z9w/o.jpg", "price": "$$", "rating": 3.5, "name": "Poulette - Midtown East", "url": "https://www.yelp.com/biz/poulette-midtown-east-new-york?adjust_creative=gBcvfFpabk3CnzmXKdYe3w&utm_campaign=yelp_api_v3&utm_medium=api_v3_business_search&utm_source=gBcvfFpabk3CnzmXKdYe3w"}, {"transactions": [], "distance": 5303.18407236, "phone": "+12123542300", "categories": [{"alias": "bakeries", "title": "Bakeries"}, {"alias": "french", "title": "French"}, {"alias": "desserts", "title": "Desserts"}], "id": "maison-kayser-new-york-5", "display_phone": "(212) 354-2300", "is_closed": false, "location": {"address2": "", "country": "US", "display_address": ["8 W 40th St", "New York, NY 10018"], "address1": "8 W 40th St", "city": "New York", "zip_code": "10018", "address3": "", "state": "NY"}, "coordinates": {"longitude": -73.982692, "latitude": 40.752321}, "review_count": 244, "image_url": "https://s3-media2.fl.yelpcdn.com/bphoto/e96_bgp6HeRwCObbQ5g4KQ/o.jpg", "price": "$$", "rating": 4.0, "name": "Maison Kayser", "url": "https://www.yelp.com/biz/maison-kayser-new-york-5?adjust_creative=gBcvfFpabk3CnzmXKdYe3w&utm_campaign=yelp_api_v3&utm_medium=api_v3_business_search&utm_source=gBcvfFpabk3CnzmXKdYe3w"}, {"transactions": [], "distance": 5692.528479879999, "phone": "+12124534233", "categories": [{"alias": "french", "title": "French"}, {"alias": "newamerican", "title": "American (New)"}], "id": "triomphe-new-york-2", "display_phone": "(212) 453-4233", "is_closed": false, "location": {"address2": "", "country": "US", "display_address": ["49 W 44th St", "New York, NY 10036"], "address1": "49 W 44th St", "city": "New York", "zip_code": "10036", "address3": "", "state": "NY"}, "coordinates": {"longitude": -73.9819913142291, "latitude": 40.7557848908345}, "review_count": 115, "image_url": "https://s3-media1.fl.yelpcdn.com/bphoto/Ed6wwB7obXZ7bISNHxeCDw/o.jpg", "price": "$$$", "rating": 3.5, "name": "Triomphe", "url": "https://www.yelp.com/biz/triomphe-new-york-2?adjust_creative=gBcvfFpabk3CnzmXKdYe3w&utm_campaign=yelp_api_v3&utm_medium=api_v3_business_search&utm_source=gBcvfFpabk3CnzmXKdYe3w"}, {"transactions": [], "distance": 7969.990808899999, "phone": "+12125793966", "categories": [{"alias": "french", "title": "French"}], "id": "bistro-cassis-restaurant-new-york", "display_phone": "(212) 579-3966", "is_closed": false, "location": {"address2": "", "country": "US", "display_address": ["225 Columbus Ave", "New York, NY 10023"], "address1": "225 Columbus Ave", "city": "New York", "zip_code": "10023", "address3": "", "state": "NY"}, "coordinates": {"longitude": -73.97927, "latitude": 40.776195}, "review_count": 186, "image_url": "https://s3-media1.fl.yelpcdn.com/bphoto/sEieQRa3t3TbQ3de_nBbxQ/o.jpg", "price": "$$$", "rating": 3.5, "name": "Bistro Cassis Restaurant", "url": "https://www.yelp.com/biz/bistro-cassis-restaurant-new-york?adjust_creative=gBcvfFpabk3CnzmXKdYe3w&utm_campaign=yelp_api_v3&utm_medium=api_v3_business_search&utm_source=gBcvfFpabk3CnzmXKdYe3w"}, {"transactions": [], "distance": 17060.18847424, "phone": "+17184420007", "categories": [{"alias": "french", "title": "French"}], "id": "french-tart-chez-laurent-staten-island-3", "display_phone": "(718) 442-0007", "is_closed": false, "location": {"address2": "", "country": "US", "display_address": ["1141 N Railroad Ave", "Staten Island, NY 10306"], "address1": "1141 N Railroad Ave", "city": "Staten Island", "zip_code": "10306", "address3": "", "state": "NY"}, "coordinates": {"longitude": -74.10973, "latitude": 40.5794799}, "review_count": 53, "image_url": "https://s3-media1.fl.yelpcdn.com/bphoto/oYrXTny-LgGJCduKP0E_Ww/o.jpg", "price": "$$$", "rating": 3.5, "name": "French Tart Chez Laurent", "url": "https://www.yelp.com/biz/french-tart-chez-laurent-staten-island-3?adjust_creative=gBcvfFpabk3CnzmXKdYe3w&utm_campaign=yelp_api_v3&utm_medium=api_v3_business_search&utm_source=gBcvfFpabk3CnzmXKdYe3w"}, {"transactions": ["delivery", "pickup"], "distance": 8527.606841215998, "phone": "+16469985749", "categories": [{"alias": "wine_bars", "title": "Wine Bars"}, {"alias": "french", "title": "French"}, {"alias": "seafood", "title": "Seafood"}], "id": "aoc-east-new-york", "display_phone": "(646) 998-5749", "is_closed": false, "location": {"address2": null, "country": "US", "display_address": ["1590 1st Ave", "New York, NY 10028"], "address1": "1590 1st Ave", "city": "New York", "zip_code": "10028", "address3": "", "state": "NY"}, "coordinates": {"longitude": -73.95064, "latitude": 40.77464}, "review_count": 20, "image_url": "https://s3-media3.fl.yelpcdn.com/bphoto/kjTH7ON1MVVYUbqUyHIaYg/o.jpg", "price": "$$", "rating": 4.0, "name": "AOC East", "url": "https://www.yelp.com/biz/aoc-east-new-york?adjust_creative=gBcvfFpabk3CnzmXKdYe3w&utm_campaign=yelp_api_v3&utm_medium=api_v3_business_search&utm_source=gBcvfFpabk3CnzmXKdYe3w"}, {"transactions": [], "distance": 7816.305276259999, "phone": "+12128742705", "categories": [{"alias": "french", "title": "French"}], "id": "la-boite-en-bois-new-york-2", "display_phone": "(212) 874-2705", "is_closed": false, "location": {"address2": "", "country": "US", "display_address": ["75 W 68th St", "New York, NY 10023"], "address1": "75 W 68th St", "city": "New York", "zip_code": "10023", "address3": "", "state": "NY"}, "coordinates": {"longitude": -73.9802398681641, "latitude": 40.7749214172363}, "review_count": 166, "image_url": "https://s3-media2.fl.yelpcdn.com/bphoto/HfGATHCGQuXnCpo54K4pOQ/o.jpg", "price": "$$$", "rating": 3.5, "name": "La Boite en Bois", "url": "https://www.yelp.com/biz/la-boite-en-bois-new-york-2?adjust_creative=gBcvfFpabk3CnzmXKdYe3w&utm_campaign=yelp_api_v3&utm_medium=api_v3_business_search&utm_source=gBcvfFpabk3CnzmXKdYe3w"}, {"transactions": [], "distance": 1521.2927671989999, "phone": "+17188554200", "categories": [{"alias": "breakfast_brunch", "title": "Breakfast & Brunch"}, {"alias": "french", "title": "French"}, {"alias": "bars", "title": "Bars"}], "id": "la-d\u00e9fense-brooklyn-6", "display_phone": "(718) 855-4200", "is_closed": false, "location": {"address2": "", "country": "US", "display_address": ["2 Metrotech Ctr", "Brooklyn, NY 11201"], "address1": "2 Metrotech Ctr", "city": "Brooklyn", "zip_code": "11201", "address3": "", "state": "NY"}, "coordinates": {"longitude": -73.9854182600494, "latitude": 40.693532173456}, "review_count": 257, "image_url": "https://s3-media4.fl.yelpcdn.com/bphoto/c7QfI3Pa5Z4sl7o16NiVTw/o.jpg", "price": "$$", "rating": 3.0, "name": "La D\u00e9fense", "url": "https://www.yelp.com/biz/la-d%C3%A9fense-brooklyn-6?adjust_creative=gBcvfFpabk3CnzmXKdYe3w&utm_campaign=yelp_api_v3&utm_medium=api_v3_business_search&utm_source=gBcvfFpabk3CnzmXKdYe3w"}, {"transactions": ["delivery", "pickup"], "distance": 3153.4109632239997, "phone": "+12128371616", "categories": [{"alias": "french", "title": "French"}, {"alias": "cocktailbars", "title": "Cocktail Bars"}], "id": "boucherie-new-york-2", "display_phone": "(212) 837-1616", "is_closed": false, "location": {"address2": "", "country": "US", "display_address": ["99 7th Ave S", "New York, NY 10014"], "address1": "99 7th Ave S", "city": "New York", "zip_code": "10014", "address3": null, "state": "NY"}, "coordinates": {"longitude": -74.0030264, "latitude": 40.7329053}, "review_count": 40, "image_url": "https://s3-media3.fl.yelpcdn.com/bphoto/k4mpDZ5GNAuVzLivWMYmUg/o.jpg", "price": "$$$", "rating": 4.0, "name": "Boucherie", "url": "https://www.yelp.com/biz/boucherie-new-york-2?adjust_creative=gBcvfFpabk3CnzmXKdYe3w&utm_campaign=yelp_api_v3&utm_medium=api_v3_business_search&utm_source=gBcvfFpabk3CnzmXKdYe3w"}, {"transactions": [], "distance": 6796.650465821999, "phone": "+12128388133", "categories": [{"alias": "french", "title": "French"}], "id": "le-veau-d-or-new-york-2", "display_phone": "(212) 838-8133", "is_closed": false, "location": {"address2": "", "country": "US", "display_address": ["129 E 60th St", "New York, NY 10022"], "address1": "129 E 60th St", "city": "New York", "zip_code": "10022", "address3": "", "state": "NY"}, "coordinates": {"longitude": -73.9680709838867, "latitude": 40.7632446289062}, "review_count": 73, "image_url": "https://s3-media2.fl.yelpcdn.com/bphoto/GE_DnrYw0R1SniSmrrKgGA/o.jpg", "price": "$$$", "rating": 3.5, "name": "Le Veau D'or", "url": "https://www.yelp.com/biz/le-veau-d-or-new-york-2?adjust_creative=gBcvfFpabk3CnzmXKdYe3w&utm_campaign=yelp_api_v3&utm_medium=api_v3_business_search&utm_source=gBcvfFpabk3CnzmXKdYe3w"}, {"transactions": ["delivery", "pickup"], "distance": 3157.7410534279998, "phone": "+12126759463", "categories": [{"alias": "french", "title": "French"}], "id": "a-o-c-new-york-14", "display_phone": "(212) 675-9463", "is_closed": false, "location": {"address2": "", "country": "US", "display_address": ["314 Bleecker St", "New York, NY 10014"], "address1": "314 Bleecker St", "city": "New York", "zip_code": "10014", "address3": "", "state": "NY"}, "coordinates": {"longitude": -74.004005, "latitude": 40.7328715}, "review_count": 465, "image_url": "https://s3-media1.fl.yelpcdn.com/bphoto/mEDYRqSPo_jgPGCAC8Qrqw/o.jpg", "price": "$$", "rating": 3.0, "name": "A.O.C.", "url": "https://www.yelp.com/biz/a-o-c-new-york-14?adjust_creative=gBcvfFpabk3CnzmXKdYe3w&utm_campaign=yelp_api_v3&utm_medium=api_v3_business_search&utm_source=gBcvfFpabk3CnzmXKdYe3w"}, {"transactions": [], "distance": 7557.0261181999995, "phone": "+12122495100", "categories": [{"alias": "cocktailbars", "title": "Cocktail Bars"}, {"alias": "french", "title": "French"}, {"alias": "brasseries", "title": "Brasseries"}], "id": "brasserie-cognac-east-new-york", "display_phone": "(212) 249-5100", "is_closed": false, "location": {"address2": "", "country": "US", "display_address": ["963 Lexington Ave", "New York, NY 10021"], "address1": "963 Lexington Ave", "city": "New York", "zip_code": "10021", "address3": "", "state": "NY"}, "coordinates": {"longitude": -73.96286, "latitude": 40.769097}, "review_count": 55, "image_url": "https://s3-media2.fl.yelpcdn.com/bphoto/gK1MZHbfIQLOTvDj7TN8HA/o.jpg", "price": "$$$", "rating": 3.5, "name": "Brasserie Cognac East", "url": "https://www.yelp.com/biz/brasserie-cognac-east-new-york?adjust_creative=gBcvfFpabk3CnzmXKdYe3w&utm_campaign=yelp_api_v3&utm_medium=api_v3_business_search&utm_source=gBcvfFpabk3CnzmXKdYe3w"}, {"transactions": [], "distance": 6346.497629203999, "phone": "+12127549006", "categories": [{"alias": "french", "title": "French"}, {"alias": "bars", "title": "Bars"}, {"alias": "brasseries", "title": "Brasseries"}], "id": "papillon-bistro-and-bar-new-york", "display_phone": "(212) 754-9006", "is_closed": false, "location": {"address2": null, "country": "US", "display_address": ["22 E 54th St", "New York, NY 10022"], "address1": "22 E 54th St", "city": "New York", "zip_code": "10022", "address3": "", "state": "NY"}, "coordinates": {"longitude": -73.9742553564245, "latitude": 40.760463700357}, "review_count": 280, "image_url": "https://s3-media2.fl.yelpcdn.com/bphoto/AcIycIr66LfmH0bqoyS6Sg/o.jpg", "price": "$$", "rating": 3.5, "name": "Papillon Bistro & Bar", "url": "https://www.yelp.com/biz/papillon-bistro-and-bar-new-york?adjust_creative=gBcvfFpabk3CnzmXKdYe3w&utm_campaign=yelp_api_v3&utm_medium=api_v3_business_search&utm_source=gBcvfFpabk3CnzmXKdYe3w"}, {"transactions": [], "distance": 6268.346308529999, "phone": "+19179665300", "categories": [{"alias": "french", "title": "French"}, {"alias": "breakfast_brunch", "title": "Breakfast & Brunch"}, {"alias": "wine_bars", "title": "Wine Bars"}], "id": "l-antagoniste-bedford-stuyvesant", "display_phone": "(917) 966-5300", "is_closed": false, "location": {"address2": "", "country": "US", "display_address": ["238 Malcolm X Blvd", "Bedford-Stuyvesant, NY 11221"], "address1": "238 Malcolm X Blvd", "city": "Bedford-Stuyvesant", "zip_code": "11221", "address3": "", "state": "NY"}, "coordinates": {"longitude": -73.9258834146656, "latitude": 40.6833701420851}, "review_count": 166, "image_url": "https://s3-media3.fl.yelpcdn.com/bphoto/xahuwKncjwBh8EFoP0fdiA/o.jpg", "price": "$$$", "rating": 4.5, "name": "L'Antagoniste", "url": "https://www.yelp.com/biz/l-antagoniste-bedford-stuyvesant?adjust_creative=gBcvfFpabk3CnzmXKdYe3w&utm_campaign=yelp_api_v3&utm_medium=api_v3_business_search&utm_source=gBcvfFpabk3CnzmXKdYe3w"}, {"transactions": ["delivery", "pickup"], "distance": 7215.74304044, "phone": "+12127374400", "categories": [{"alias": "french", "title": "French"}, {"alias": "wine_bars", "title": "Wine Bars"}], "id": "match-65-new-york-2", "display_phone": "(212) 737-4400", "is_closed": false, "location": {"address2": "", "country": "US", "display_address": ["29 E 65th St", "New York, NY 10065"], "address1": "29 E 65th St", "city": "New York", "zip_code": "10065", "address3": "", "state": "NY"}, "coordinates": {"longitude": -73.9682993, "latitude": 40.7673434}, "review_count": 118, "image_url": "https://s3-media2.fl.yelpcdn.com/bphoto/qZ4Zx4yugCFxF3HIIbJ4_A/o.jpg", "price": "$$", "rating": 3.5, "name": "Match 65", "url": "https://www.yelp.com/biz/match-65-new-york-2?adjust_creative=gBcvfFpabk3CnzmXKdYe3w&utm_campaign=yelp_api_v3&utm_medium=api_v3_business_search&utm_source=gBcvfFpabk3CnzmXKdYe3w"}, {"transactions": [], "distance": 1823.6989381119997, "phone": "+12123005838", "categories": [{"alias": "french", "title": "French"}, {"alias": "salad", "title": "Salad"}, {"alias": "soup", "title": "Soup"}], "id": "tartinery-nolita-new-york-3", "display_phone": "(212) 300-5838", "is_closed": false, "location": {"address2": "", "country": "US", "display_address": ["209 Mulberry St", "New York, NY 10012"], "address1": "209 Mulberry St", "city": "New York", "zip_code": "10012", "address3": "", "state": "NY"}, "coordinates": {"longitude": -73.9964020997286, "latitude": 40.7217659801245}, "review_count": 320, "image_url": "https://s3-media1.fl.yelpcdn.com/bphoto/30RcVM4ds1TFHne8LzT2tg/o.jpg", "price": "$$", "rating": 3.5, "name": "Tartinery - Nolita", "url": "https://www.yelp.com/biz/tartinery-nolita-new-york-3?adjust_creative=gBcvfFpabk3CnzmXKdYe3w&utm_campaign=yelp_api_v3&utm_medium=api_v3_business_search&utm_source=gBcvfFpabk3CnzmXKdYe3w"}, {"transactions": ["delivery", "pickup"], "distance": 13245.8418507, "phone": "+12122346474", "categories": [{"alias": "french", "title": "French"}, {"alias": "senegalese", "title": "Senegalese"}], "id": "ponty-bistro-new-york-3", "display_phone": "(212) 234-6474", "is_closed": false, "location": {"address2": "", "country": "US", "display_address": ["2375 Adam Clayton Powell Jr Blvd", "New York, NY 10030"], "address1": "2375 Adam Clayton Powell Jr Blvd", "city": "New York", "zip_code": "10030", "address3": "", "state": "NY"}, "coordinates": {"longitude": -73.9412695, "latitude": 40.8175925}, "review_count": 223, "image_url": "https://s3-media1.fl.yelpcdn.com/bphoto/4QUytZe1LW-QFDibTi6W4Q/o.jpg", "price": "$$", "rating": 4.0, "name": "Ponty Bistro", "url": "https://www.yelp.com/biz/ponty-bistro-new-york-3?adjust_creative=gBcvfFpabk3CnzmXKdYe3w&utm_campaign=yelp_api_v3&utm_medium=api_v3_business_search&utm_source=gBcvfFpabk3CnzmXKdYe3w"}, {"transactions": [], "distance": 7790.974264659999, "phone": "+12128796190", "categories": [{"alias": "french", "title": "French"}], "id": "casimir-and-co-new-york", "display_phone": "(212) 879-6190", "is_closed": false, "location": {"address2": "", "country": "US", "display_address": ["1022A Lexington Ave", "New York, NY 10021"], "address1": "1022A Lexington Ave", "city": "New York", "zip_code": "10021", "address3": "", "state": "NY"}, "coordinates": {"longitude": -73.9619606, "latitude": 40.7710889}, "review_count": 87, "image_url": "https://s3-media1.fl.yelpcdn.com/bphoto/NTttxK6pjLdrvo42C_-ZsA/o.jpg", "price": "$$$", "rating": 3.5, "name": "Casimir & Co", "url": "https://www.yelp.com/biz/casimir-and-co-new-york?adjust_creative=gBcvfFpabk3CnzmXKdYe3w&utm_campaign=yelp_api_v3&utm_medium=api_v3_business_search&utm_source=gBcvfFpabk3CnzmXKdYe3w"}, {"transactions": [], "distance": 4938.86570651, "phone": "+16464682861", "categories": [{"alias": "coffee", "title": "Coffee & Tea"}, {"alias": "french", "title": "French"}, {"alias": "foodtrucks", "title": "Food Trucks"}], "id": "frenchys-food-truck-brooklyn", "display_phone": "(646) 468-2861", "is_closed": false, "location": {"address2": "", "country": "US", "display_address": ["341 Eastern Pkwy", "Brooklyn, NY 11238"], "address1": "341 Eastern Pkwy", "city": "Brooklyn", "zip_code": "11238", "address3": null, "state": "NY"}, "coordinates": {"longitude": -73.9577984064817, "latitude": 40.6706988393431}, "review_count": 30, "image_url": "https://s3-media2.fl.yelpcdn.com/bphoto/VQJyi3CPy2sQOx9NcxTl_A/o.jpg", "price": "$", "rating": 5.0, "name": "Frenchy's Food Truck", "url": "https://www.yelp.com/biz/frenchys-food-truck-brooklyn?adjust_creative=gBcvfFpabk3CnzmXKdYe3w&utm_campaign=yelp_api_v3&utm_medium=api_v3_business_search&utm_source=gBcvfFpabk3CnzmXKdYe3w"}, {"transactions": [], "distance": 2619.986368854, "phone": "+12124775560", "categories": [{"alias": "french", "title": "French"}, {"alias": "jazzandblues", "title": "Jazz & Blues"}], "id": "jules-bistro-new-york", "display_phone": "(212) 477-5560", "is_closed": false, "location": {"address2": "", "country": "US", "display_address": ["65 Saint Marks Pl", "New York, NY 10003"], "address1": "65 Saint Marks Pl", "city": "New York", "zip_code": "10003", "address3": "", "state": "NY"}, "coordinates": {"longitude": -73.986068, "latitude": 40.728179}, "review_count": 421, "image_url": "https://s3-media2.fl.yelpcdn.com/bphoto/kVvAQNCk0eKx_PG52uPctg/o.jpg", "price": "$$", "rating": 3.5, "name": "Jules Bistro", "url": "https://www.yelp.com/biz/jules-bistro-new-york?adjust_creative=gBcvfFpabk3CnzmXKdYe3w&utm_campaign=yelp_api_v3&utm_medium=api_v3_business_search&utm_source=gBcvfFpabk3CnzmXKdYe3w"}, {"transactions": ["delivery", "pickup"], "distance": 6205.18534622, "phone": "+12123192002", "categories": [{"alias": "greek", "title": "Greek"}, {"alias": "mediterranean", "title": "Mediterranean"}, {"alias": "french", "title": "French"}], "id": "fig-and-olive-new-york-5", "display_phone": "(212) 319-2002", "is_closed": false, "location": {"address2": "", "country": "US", "display_address": ["10 E 52nd St", "New York, NY 10022"], "address1": "10 E 52nd St", "city": "New York", "zip_code": "10022", "address3": "", "state": "NY"}, "coordinates": {"longitude": -73.9755487419944, "latitude": 40.7594108995958}, "review_count": 866, "image_url": "https://s3-media2.fl.yelpcdn.com/bphoto/E5kkpsE_lQtmxXJnRxszVQ/o.jpg", "price": "$$$", "rating": 3.5, "name": "Fig & Olive", "url": "https://www.yelp.com/biz/fig-and-olive-new-york-5?adjust_creative=gBcvfFpabk3CnzmXKdYe3w&utm_campaign=yelp_api_v3&utm_medium=api_v3_business_search&utm_source=gBcvfFpabk3CnzmXKdYe3w"}, {"transactions": ["delivery", "pickup"], "distance": 3328.6144982019996, "phone": "+12125332233", "categories": [{"alias": "french", "title": "French"}], "id": "french-roast-new-york-5", "display_phone": "(212) 533-2233", "is_closed": false, "location": {"address2": "", "country": "US", "display_address": ["78 W 11th St", "New York, NY 10011"], "address1": "78 W 11th St", "city": "New York", "zip_code": "10011", "address3": "", "state": "NY"}, "coordinates": {"longitude": -73.9981421657651, "latitude": 40.7352353609727}, "review_count": 388, "image_url": "https://s3-media3.fl.yelpcdn.com/bphoto/_vCcjxVp5HJYuHHOY7M23g/o.jpg", "price": "$$", "rating": 3.5, "name": "French Roast", "url": "https://www.yelp.com/biz/french-roast-new-york-5?adjust_creative=gBcvfFpabk3CnzmXKdYe3w&utm_campaign=yelp_api_v3&utm_medium=api_v3_business_search&utm_source=gBcvfFpabk3CnzmXKdYe3w"}, {"transactions": [], "distance": 4050.36840459, "phone": "+16466349467", "categories": [{"alias": "creperies", "title": "Creperies"}, {"alias": "french", "title": "French"}], "id": "crepe-sucre-new-york-2", "display_phone": "(646) 634-9467", "is_closed": false, "location": {"address2": "", "country": "US", "display_address": ["353 W 14th St", "New York, NY 10014"], "address1": "353 W 14th St", "city": "New York", "zip_code": "10014", "address3": "", "state": "NY"}, "coordinates": {"longitude": -74.0047136, "latitude": 40.7408261}, "review_count": 30, "image_url": "https://s3-media3.fl.yelpcdn.com/bphoto/-_-iV-3-Z_BUJsv2r8Xvyw/o.jpg", "price": "$", "rating": 5.0, "name": "Crepe Sucre", "url": "https://www.yelp.com/biz/crepe-sucre-new-york-2?adjust_creative=gBcvfFpabk3CnzmXKdYe3w&utm_campaign=yelp_api_v3&utm_medium=api_v3_business_search&utm_source=gBcvfFpabk3CnzmXKdYe3w"}, {"transactions": ["delivery", "pickup"], "distance": 6674.3658924599995, "phone": "+12123075656", "categories": [{"alias": "french", "title": "French"}, {"alias": "sushi", "title": "Sushi Bars"}, {"alias": "asianfusion", "title": "Asian Fusion"}], "id": "rue-57-new-york", "display_phone": "(212) 307-5656", "is_closed": false, "location": {"address2": "", "country": "US", "display_address": ["60 W 57th St", "New York, NY 10019"], "address1": "60 W 57th St", "city": "New York", "zip_code": "10019", "address3": "", "state": "NY"}, "coordinates": {"longitude": -73.9770378404755, "latitude": 40.7640285260993}, "review_count": 834, "image_url": "https://s3-media4.fl.yelpcdn.com/bphoto/p3bpiBOWy7nkJxRynrdAsg/o.jpg", "price": "$$$", "rating": 3.5, "name": "Rue 57", "url": "https://www.yelp.com/biz/rue-57-new-york?adjust_creative=gBcvfFpabk3CnzmXKdYe3w&utm_campaign=yelp_api_v3&utm_medium=api_v3_business_search&utm_source=gBcvfFpabk3CnzmXKdYe3w"}, {"transactions": [], "distance": 8869.73900676, "phone": "+12122496300", "categories": [{"alias": "french", "title": "French"}], "id": "demarchelier-restaurant-new-york", "display_phone": "(212) 249-6300", "is_closed": false, "location": {"address2": "", "country": "US", "display_address": ["50 E 86th St", "New York, NY 10028"], "address1": "50 E 86th St", "city": "New York", "zip_code": "10028", "address3": "", "state": "NY"}, "coordinates": {"longitude": -73.9587020874023, "latitude": 40.7805023193359}, "review_count": 149, "image_url": "https://s3-media3.fl.yelpcdn.com/bphoto/H7gUYjj4qF3FMO-4JNs6Xg/o.jpg", "price": "$$$", "rating": 2.5, "name": "Demarchelier Restaurant", "url": "https://www.yelp.com/biz/demarchelier-restaurant-new-york?adjust_creative=gBcvfFpabk3CnzmXKdYe3w&utm_campaign=yelp_api_v3&utm_medium=api_v3_business_search&utm_source=gBcvfFpabk3CnzmXKdYe3w"}, {"transactions": [], "distance": 6631.656261936, "phone": "+12126440202", "categories": [{"alias": "french", "title": "French"}, {"alias": "vegetarian", "title": "Vegetarian"}], "id": "le-cirque-new-york", "display_phone": "(212) 644-0202", "is_closed": false, "location": {"address2": "", "country": "US", "display_address": ["151 E 58th St", "New York, NY 10022"], "address1": "151 E 58th St", "city": "New York", "zip_code": "10022", "address3": "", "state": "NY"}, "coordinates": {"longitude": -73.96743630796, "latitude": 40.761503381036}, "review_count": 822, "image_url": "https://s3-media2.fl.yelpcdn.com/bphoto/lpwQb2KgP1iN3mPzb_MwNA/o.jpg", "price": "$$$$", "rating": 3.5, "name": "Le Cirque", "url": "https://www.yelp.com/biz/le-cirque-new-york?adjust_creative=gBcvfFpabk3CnzmXKdYe3w&utm_campaign=yelp_api_v3&utm_medium=api_v3_business_search&utm_source=gBcvfFpabk3CnzmXKdYe3w"}, {"transactions": [], "distance": 2196.898607686, "phone": "+12125333412", "categories": [{"alias": "russian", "title": "Russian"}, {"alias": "french", "title": "French"}], "id": "anyway-cafe-new-york", "display_phone": "(212) 533-3412", "is_closed": false, "location": {"address2": null, "country": "US", "display_address": ["32 E 2nd St", "New York, NY 10003"], "address1": "32 E 2nd St", "city": "New York", "zip_code": "10003", "address3": "", "state": "NY"}, "coordinates": {"longitude": -73.9906009, "latitude": 40.7250017}, "review_count": 168, "image_url": "https://s3-media2.fl.yelpcdn.com/bphoto/IHxNO1SW7OKCkjQLl7E4cA/o.jpg", "price": "$$", "rating": 4.0, "name": "Anyway Cafe", "url": "https://www.yelp.com/biz/anyway-cafe-new-york?adjust_creative=gBcvfFpabk3CnzmXKdYe3w&utm_campaign=yelp_api_v3&utm_medium=api_v3_business_search&utm_source=gBcvfFpabk3CnzmXKdYe3w"}, {"transactions": [], "distance": 6693.289477783999, "phone": "+12128290812", "categories": [{"alias": "newamerican", "title": "American (New)"}, {"alias": "french", "title": "French"}], "id": "brasserie-8-1-2-new-york-2", "display_phone": "(212) 829-0812", "is_closed": false, "location": {"address2": "", "country": "US", "display_address": ["9 W 57th St", "New York, NY 10019"], "address1": "9 W 57th St", "city": "New York", "zip_code": "10019", "address3": "", "state": "NY"}, "coordinates": {"longitude": -73.9749908447266, "latitude": 40.7638893127441}, "review_count": 352, "image_url": "https://s3-media4.fl.yelpcdn.com/bphoto/lnR-w1mVJHH2Tt5FLPHgcg/o.jpg", "price": "$$$", "rating": 3.5, "name": "Brasserie 8 1/2", "url": "https://www.yelp.com/biz/brasserie-8-1-2-new-york-2?adjust_creative=gBcvfFpabk3CnzmXKdYe3w&utm_campaign=yelp_api_v3&utm_medium=api_v3_business_search&utm_source=gBcvfFpabk3CnzmXKdYe3w"}, {"transactions": [], "distance": 7528.6137033019995, "phone": "+12127946419", "categories": [{"alias": "french", "title": "French"}], "id": "le-charlot-new-york", "display_phone": "(212) 794-6419", "is_closed": false, "location": {"address2": null, "country": "US", "display_address": ["20 E 69th St", "New York, NY 10021"], "address1": "20 E 69th St", "city": "New York", "zip_code": "10021", "address3": "", "state": "NY"}, "coordinates": {"longitude": -73.9663076645176, "latitude": 40.7697443505402}, "review_count": 82, "image_url": "https://s3-media3.fl.yelpcdn.com/bphoto/Kt9KvGSZpB0nncaiVTCKCg/o.jpg", "price": "$$$", "rating": 3.0, "name": "Le Charlot", "url": "https://www.yelp.com/biz/le-charlot-new-york?adjust_creative=gBcvfFpabk3CnzmXKdYe3w&utm_campaign=yelp_api_v3&utm_medium=api_v3_business_search&utm_source=gBcvfFpabk3CnzmXKdYe3w"}, {"transactions": [], "distance": 6147.727080199999, "phone": "+12123335300", "categories": [{"alias": "wine_bars", "title": "Wine Bars"}, {"alias": "french", "title": "French"}], "id": "la-carafe-new-york", "display_phone": "(212) 333-5300", "is_closed": false, "location": {"address2": "", "country": "US", "display_address": ["653 9th Ave", "New York, NY 10036"], "address1": "653 9th Ave", "city": "New York", "zip_code": "10036", "address3": "", "state": "NY"}, "coordinates": {"longitude": -73.991249, "latitude": 40.760815}, "review_count": 191, "image_url": "https://s3-media4.fl.yelpcdn.com/bphoto/rU6i1P3fOGHnedrd8tkUbQ/o.jpg", "price": "$$", "rating": 3.5, "name": "La Carafe", "url": "https://www.yelp.com/biz/la-carafe-new-york?adjust_creative=gBcvfFpabk3CnzmXKdYe3w&utm_campaign=yelp_api_v3&utm_medium=api_v3_business_search&utm_source=gBcvfFpabk3CnzmXKdYe3w"}, {"transactions": [], "distance": 3673.6957792959997, "phone": "+12122554406", "categories": [{"alias": "french", "title": "French"}], "id": "la-ripaille-new-york", "display_phone": "(212) 255-4406", "is_closed": false, "location": {"address2": "", "country": "US", "display_address": ["605 Hudson St", "New York, NY 10014"], "address1": "605 Hudson St", "city": "New York", "zip_code": "10014", "address3": "", "state": "NY"}, "coordinates": {"longitude": -74.0058365, "latitude": 40.7373886}, "review_count": 85, "image_url": "https://s3-media3.fl.yelpcdn.com/bphoto/0VpCNS-VRI53onw3iuIawQ/o.jpg", "price": "$$$", "rating": 3.5, "name": "La Ripaille", "url": "https://www.yelp.com/biz/la-ripaille-new-york?adjust_creative=gBcvfFpabk3CnzmXKdYe3w&utm_campaign=yelp_api_v3&utm_medium=api_v3_business_search&utm_source=gBcvfFpabk3CnzmXKdYe3w"}, {"transactions": [], "distance": 5707.887538038, "phone": "+12123912400", "categories": [{"alias": "french", "title": "French"}, {"alias": "newamerican", "title": "American (New)"}, {"alias": "bars", "title": "Bars"}], "id": "db-bistro-moderne-new-york-3", "display_phone": "(212) 391-2400", "is_closed": false, "location": {"address2": "Ste 1", "country": "US", "display_address": ["55 W 44th St", "Ste 1", "New York, NY 10036"], "address1": "55 W 44th St", "city": "New York", "zip_code": "10036", "address3": "", "state": "NY"}, "coordinates": {"longitude": -73.98211, "latitude": 40.75594}, "review_count": 561, "image_url": "https://s3-media3.fl.yelpcdn.com/bphoto/yZDHABKShcqbvbxZSxz2Fg/o.jpg", "price": "$$$", "rating": 3.5, "name": "DB Bistro Moderne", "url": "https://www.yelp.com/biz/db-bistro-moderne-new-york-3?adjust_creative=gBcvfFpabk3CnzmXKdYe3w&utm_campaign=yelp_api_v3&utm_medium=api_v3_business_search&utm_source=gBcvfFpabk3CnzmXKdYe3w"}, {"transactions": [], "distance": 2011.105937376, "phone": "+17189351200", "categories": [{"alias": "french", "title": "French"}], "id": "french-louie-boerum-hill", "display_phone": "(718) 935-1200", "is_closed": false, "location": {"address2": "", "country": "US", "display_address": ["320 Atlantic Ave", "Boerum Hill, NY 11201"], "address1": "320 Atlantic Ave", "city": "Boerum Hill", "zip_code": "11201", "address3": "", "state": "NY"}, "coordinates": {"longitude": -73.988257, "latitude": 40.6879459}, "review_count": 231, "image_url": "https://s3-media3.fl.yelpcdn.com/bphoto/KDTIot8dAI0q4OPqW6WTPg/o.jpg", "price": "$$$", "rating": 4.0, "name": "French Louie", "url": "https://www.yelp.com/biz/french-louie-boerum-hill?adjust_creative=gBcvfFpabk3CnzmXKdYe3w&utm_campaign=yelp_api_v3&utm_medium=api_v3_business_search&utm_source=gBcvfFpabk3CnzmXKdYe3w"}, {"transactions": ["delivery", "pickup"], "distance": 1925.8247577, "phone": "+12129668886", "categories": [{"alias": "gastropubs", "title": "Gastropubs"}, {"alias": "lounges", "title": "Lounges"}, {"alias": "french", "title": "French"}], "id": "jacques-1534-new-york", "display_phone": "(212) 966-8886", "is_closed": false, "location": {"address2": "", "country": "US", "display_address": ["20 Prince St", "New York, NY 10012"], "address1": "20 Prince St", "city": "New York", "zip_code": "10012", "address3": "", "state": "NY"}, "coordinates": {"longitude": -73.9944886, "latitude": 40.7227614}, "review_count": 242, "image_url": "https://s3-media4.fl.yelpcdn.com/bphoto/OxfTEfgZ_a6TYzSFeVCQzg/o.jpg", "price": "$$", "rating": 3.5, "name": "Jacques 1534", "url": "https://www.yelp.com/biz/jacques-1534-new-york?adjust_creative=gBcvfFpabk3CnzmXKdYe3w&utm_campaign=yelp_api_v3&utm_medium=api_v3_business_search&utm_source=gBcvfFpabk3CnzmXKdYe3w"}, {"transactions": [], "distance": 5238.33813107, "phone": "+12018768800", "categories": [{"alias": "french", "title": "French"}, {"alias": "cocktailbars", "title": "Cocktail Bars"}], "id": "madame-claude-bis-jersey-city", "display_phone": "(201) 876-8800", "is_closed": false, "location": {"address2": "", "country": "US", "display_address": ["390 4th St", "Jersey City, NJ 07302"], "address1": "390 4th St", "city": "Jersey City", "zip_code": "07302", "address3": null, "state": "NJ"}, "coordinates": {"longitude": -74.0511198341846, "latitude": 40.7245930284262}, "review_count": 48, "image_url": "https://s3-media4.fl.yelpcdn.com/bphoto/NboRr5ExAWH8yVDw-pkmDQ/o.jpg", "price": "$$", "rating": 4.0, "name": "Madame Claude Bis", "url": "https://www.yelp.com/biz/madame-claude-bis-jersey-city?adjust_creative=gBcvfFpabk3CnzmXKdYe3w&utm_campaign=yelp_api_v3&utm_medium=api_v3_business_search&utm_source=gBcvfFpabk3CnzmXKdYe3w"}, {"transactions": [], "distance": 8428.833437782001, "phone": "+16466412282", "categories": [{"alias": "wine_bars", "title": "Wine Bars"}, {"alias": "french", "title": "French"}, {"alias": "italian", "title": "Italian"}], "id": "balon-wine-bar-and-bistro-new-york", "display_phone": "(646) 641-2282", "is_closed": false, "location": {"address2": "", "country": "US", "display_address": ["245 E 81st St", "New York, NY 10028"], "address1": "245 E 81st St", "city": "New York", "zip_code": "10028", "address3": "", "state": "NY"}, "coordinates": {"longitude": -73.9543685913086, "latitude": 40.7749557495117}, "review_count": 117, "image_url": "https://s3-media3.fl.yelpcdn.com/bphoto/Dmae9Hb4JHpOx8QgEuVMXw/o.jpg", "price": "$$", "rating": 3.5, "name": "Balon Wine Bar & Bistro", "url": "https://www.yelp.com/biz/balon-wine-bar-and-bistro-new-york?adjust_creative=gBcvfFpabk3CnzmXKdYe3w&utm_campaign=yelp_api_v3&utm_medium=api_v3_business_search&utm_source=gBcvfFpabk3CnzmXKdYe3w"}, {"transactions": ["delivery", "pickup"], "distance": 5062.51049404, "phone": "+12124471919", "categories": [{"alias": "french", "title": "French"}], "id": "madison-bistro-new-york", "display_phone": "(212) 447-1919", "is_closed": false, "location": {"address2": "", "country": "US", "display_address": ["238 Madison Ave", "New York, NY 10016"], "address1": "238 Madison Ave", "city": "New York", "zip_code": "10016", "address3": "", "state": "NY"}, "coordinates": {"longitude": -73.981729, "latitude": 40.749964}, "review_count": 107, "image_url": "https://s3-media1.fl.yelpcdn.com/bphoto/wlVwu8HZPmLFy0B6ArqkOw/o.jpg", "price": "$$$", "rating": 3.5, "name": "Madison Bistro", "url": "https://www.yelp.com/biz/madison-bistro-new-york?adjust_creative=gBcvfFpabk3CnzmXKdYe3w&utm_campaign=yelp_api_v3&utm_medium=api_v3_business_search&utm_source=gBcvfFpabk3CnzmXKdYe3w"}, {"transactions": [], "distance": 8578.296223196, "phone": "+12128735900", "categories": [{"alias": "bakeries", "title": "Bakeries"}, {"alias": "french", "title": "French"}, {"alias": "cafes", "title": "Cafes"}], "id": "maison-kayser-new-york-16", "display_phone": "(212) 873-5900", "is_closed": false, "location": {"address2": "", "country": "US", "display_address": ["2161 Broadway", "New York, NY 10024"], "address1": "2161 Broadway", "city": "New York", "zip_code": "10024", "address3": "", "state": "NY"}, "coordinates": {"longitude": -73.9812961672168, "latitude": 40.7819579516292}, "review_count": 117, "image_url": "https://s3-media1.fl.yelpcdn.com/bphoto/W3N-wB1Sot1YggU1jfIQaw/o.jpg", "price": "$$", "rating": 3.5, "name": "Maison Kayser", "url": "https://www.yelp.com/biz/maison-kayser-new-york-16?adjust_creative=gBcvfFpabk3CnzmXKdYe3w&utm_campaign=yelp_api_v3&utm_medium=api_v3_business_search&utm_source=gBcvfFpabk3CnzmXKdYe3w"}, {"transactions": [], "distance": 14071.244977919998, "phone": "+17183324040", "categories": [{"alias": "steak", "title": "Steakhouses"}, {"alias": "french", "title": "French"}, {"alias": "seafood", "title": "Seafood"}], "id": "signature-new-york", "display_phone": "(718) 332-4040", "is_closed": false, "location": {"address2": "", "country": "US", "display_address": ["2007 Emmons Ave", "New York, NY 11235"], "address1": "2007 Emmons Ave", "city": "New York", "zip_code": "11235", "address3": "", "state": "NY"}, "coordinates": {"longitude": -73.9478863030672, "latitude": 40.5838966776457}, "review_count": 36, "image_url": "https://s3-media3.fl.yelpcdn.com/bphoto/XnRJsV4SGjAvduji-Xizcg/o.jpg", "price": "$$$", "rating": 3.5, "name": "Signature", "url": "https://www.yelp.com/biz/signature-new-york?adjust_creative=gBcvfFpabk3CnzmXKdYe3w&utm_campaign=yelp_api_v3&utm_medium=api_v3_business_search&utm_source=gBcvfFpabk3CnzmXKdYe3w"}, {"transactions": [], "distance": 3933.446473976, "phone": "+12124882110", "categories": [{"alias": "french", "title": "French"}, {"alias": "lounges", "title": "Lounges"}, {"alias": "burgers", "title": "Burgers"}], "id": "bagatelle-new-york-4", "display_phone": "(212) 488-2110", "is_closed": false, "location": {"address2": "", "country": "US", "display_address": ["1 Little W 12th St", "New York, NY 10014"], "address1": "1 Little W 12th St", "city": "New York", "zip_code": "10014", "address3": "", "state": "NY"}, "coordinates": {"longitude": -74.0060723967947, "latitude": 40.7396724254305}, "review_count": 383, "image_url": "https://s3-media3.fl.yelpcdn.com/bphoto/9JVAKJ2cD8ZxozVyqlhPgw/o.jpg", "price": "$$$$", "rating": 3.0, "name": "Bagatelle", "url": "https://www.yelp.com/biz/bagatelle-new-york-4?adjust_creative=gBcvfFpabk3CnzmXKdYe3w&utm_campaign=yelp_api_v3&utm_medium=api_v3_business_search&utm_source=gBcvfFpabk3CnzmXKdYe3w"}, {"transactions": [], "distance": 2067.8824869719997, "phone": "+12124310021", "categories": [{"alias": "french", "title": "French"}], "id": "felix-new-york", "display_phone": "(212) 431-0021", "is_closed": false, "location": {"address2": "", "country": "US", "display_address": ["340 W Broadway", "New York, NY 10013"], "address1": "340 W Broadway", "city": "New York", "zip_code": "10013", "address3": "", "state": "NY"}, "coordinates": {"longitude": -74.0037455, "latitude": 40.7226295}, "review_count": 300, "image_url": "https://s3-media4.fl.yelpcdn.com/bphoto/WaTH7kt84iHuAEowu0ZqHw/o.jpg", "price": "$$$", "rating": 3.0, "name": "Felix", "url": "https://www.yelp.com/biz/felix-new-york?adjust_creative=gBcvfFpabk3CnzmXKdYe3w&utm_campaign=yelp_api_v3&utm_medium=api_v3_business_search&utm_source=gBcvfFpabk3CnzmXKdYe3w"}, {"transactions": [], "distance": 4209.24647274, "phone": "+12017636972", "categories": [{"alias": "french", "title": "French"}, {"alias": "coffee", "title": "Coffee & Tea"}, {"alias": "bakeries", "title": "Bakeries"}], "id": "vogue-caf\u00e9-jersey-city-2", "display_phone": "(201) 763-6972", "is_closed": false, "location": {"address2": null, "country": "US", "display_address": ["177 York St", "Jersey City, NJ 07302"], "address1": "177 York St", "city": "Jersey City", "zip_code": "07302", "address3": "", "state": "NJ"}, "coordinates": {"longitude": -74.04197, "latitude": 40.7162999}, "review_count": 87, "image_url": "https://s3-media2.fl.yelpcdn.com/bphoto/f0fIRzQvw3FQQwlK0tGIEw/o.jpg", "price": "$", "rating": 5.0, "name": "Vogue Caf\u00e9", "url": "https://www.yelp.com/biz/vogue-caf%C3%A9-jersey-city-2?adjust_creative=gBcvfFpabk3CnzmXKdYe3w&utm_campaign=yelp_api_v3&utm_medium=api_v3_business_search&utm_source=gBcvfFpabk3CnzmXKdYe3w"}]}