{"region": {"center": {"longitude": -73.99429321289062, "latitude": 40.70544486444615}}, "total": 353, "businesses": [{"transactions": ["delivery", "pickup"], "distance": 1698.51996676, "phone": "+12122409868", "categories": [{"alias": "french", "title": "French"}, {"alias": "gastropubs", "title": "Gastropubs"}, {"alias": "sandwiches", "title": "Sandwiches"}], "id": "st-george-tavern-new-york-3", "display_phone": "(212) 240-9868", "is_closed": false, "location": {"address2": "", "country": "US", "display_address": ["103 Washington St", "New York, NY 10006"], "address1": "103 Washington St", "city": "New York", "zip_code": "10006", "address3": "", "state": "NY"}, "coordinates": {"longitude": -74.01408, "latitude": 40.70838}, "review_count": 76, "image_url": "https://s3-media3.fl.yelpcdn.com/bphoto/L_Cx0ZfVnSObVkMjFbIwFg/o.jpg", "price": "$$", "rating": 3.5, "name": "St George Tavern", "url": "https://www.yelp.com/biz/st-george-tavern-new-york-3?adjust_creative=gBcvfFpabk3CnzmXKdYe3w&utm_campaign=yelp_api_v3&utm_medium=api_v3_business_search&utm_source=gBcvfFpabk3CnzmXKdYe3w"}, {"transactions": [], "distance": 2769.3437424979998, "phone": "+17182187067", "categories": [{"alias": "newamerican", "title": "American (New)"}, {"alias": "french", "title": "French"}], "id": "simple-cafe-and-restaurant-brooklyn", "display_phone": "(718) 218-7067", "is_closed": false, "location": {"address2": "", "country": "US", "display_address": ["346 Bedford Ave", "Brooklyn, NY 11249"], "address1": "346 Bedford Ave", "city": "Brooklyn", "zip_code": "11249", "address3": "", "state": "NY"}, "coordinates": {"longitude": -73.96275, "latitude": 40.71244}, "review_count": 134, "image_url": "https://s3-media3.fl.yelpcdn.com/bphoto/Qg8DcBiy0xcYOZkkJr_49Q/o.jpg", "price": "$$", "rating": 4.0, "name": "Simple Cafe & Restaurant", "url": "https://www.yelp.com/biz/simple-cafe-and-restaurant-brooklyn?adjust_creative=gBcvfFpabk3CnzmXKdYe3w&utm_campaign=yelp_api_v3&utm_medium=api_v3_business_search&utm_source=gBcvfFpabk3CnzmXKdYe3w"}, {"transactions": [], "distance": 7116.607213638, "phone": "+12125175780", "categories": [{"alias": "french", "title": "French"}, {"alias": "mediterranean", "title": "Mediterranean"}, {"alias": "brasseries", "title": "Brasseries"}], "id": "sel-and-poivre-new-york", "display_phone": "(212) 517-5780", "is_closed": false, "location": {"address2": "", "country": "US", "display_address": ["853 Lexington", "New York, NY 10065"], "address1": "853 Lexington", "city": "New York", "zip_code": "10065", "address3": "", "state": "NY"}, "coordinates": {"longitude": -73.965415, "latitude": 40.765586}, "review_count": 90, "image_url": "https://s3-media1.fl.yelpcdn.com/bphoto/16mXQbyHk-4JPg01HsKYbA/o.jpg", "price": "$$$", "rating": 3.5, "name": "Sel et Poivre", "url": "https://www.yelp.com/biz/sel-and-poivre-new-york?adjust_creative=gBcvfFpabk3CnzmXKdYe3w&utm_campaign=yelp_api_v3&utm_medium=api_v3_business_search&utm_source=gBcvfFpabk3CnzmXKdYe3w"}, {"transactions": ["pickup"], "distance": 4305.99999354, "phone": "+17183893029", "categories": [{"alias": "tradamerican", "title": "American (Traditional)"}, {"alias": "french", "title": "French"}, {"alias": "breakfast_brunch", "title": "Breakfast & Brunch"}], "id": "french-epi-brooklyn", "display_phone": "(718) 389-3029", "is_closed": false, "location": {"address2": "", "country": "US", "display_address": ["123 Greenpoint Ave", "Brooklyn, NY 11222"], "address1": "123 Greenpoint Ave", "city": "Brooklyn", "zip_code": "11222", "address3": null, "state": "NY"}, "coordinates": {"longitude": -73.9552, "latitude": 40.73035}, "review_count": 20, "image_url": "https://s3-media4.fl.yelpcdn.com/bphoto/THKUOSl5ODTjLfowKbkYhQ/o.jpg", "price": "$$", "rating": 4.0, "name": "French Epi", "url": "https://www.yelp.com/biz/french-epi-brooklyn?adjust_creative=gBcvfFpabk3CnzmXKdYe3w&utm_campaign=yelp_api_v3&utm_medium=api_v3_business_search&utm_source=gBcvfFpabk3CnzmXKdYe3w"}, {"transactions": [], "distance": 4107.882514708, "phone": "+19177403760", "categories": [{"alias": "french", "title": "French"}], "id": "le-restaurant-d-alex-new-york", "display_phone": "(917) 740-3760", "is_closed": false, "location": {"address2": "", "country": "US", "display_address": ["60 W 23rd St", "New York, NY 10010"], "address1": "60 W 23rd St", "city": "New York", "zip_code": "10010", "address3": "", "state": "NY"}, "coordinates": {"longitude": -73.9923, "latitude": 40.74252}, "review_count": 3, "image_url": "", "price": "$$$$", "rating": 5.0, "name": "Le Restaurant d'Alex", "url": "https://www.yelp.com/biz/le-restaurant-d-alex-new-york?adjust_creative=gBcvfFpabk3CnzmXKdYe3w&utm_campaign=yelp_api_v3&utm_medium=api_v3_business_search&utm_source=gBcvfFpabk3CnzmXKdYe3w"}, {"transactions": [], "distance": 6012.07742094, "phone": "+12127823890", "categories": [{"alias": "bakeries", "title": "Bakeries"}, {"alias": "sandwiches", "title": "Sandwiches"}, {"alias": "french", "title": "French"}], "id": "bouchon-bakery-new-york-2", "display_phone": "(212) 782-3890", "is_closed": false, "location": {"address2": "", "country": "US", "display_address": ["1 Rockefeller Plaza", "New York, NY 10111"], "address1": "1 Rockefeller Plaza", "city": "New York", "zip_code": "10111", "address3": "", "state": "NY"}, "coordinates": {"longitude": -73.9788105906568, "latitude": 40.7582232250109}, "review_count": 600, "image_url": "https://s3-media2.fl.yelpcdn.com/bphoto/U-AqZP2PzPhEvaPaL94F2w/o.jpg", "price": "$$", "rating": 4.0, "name": "Bouchon Bakery", "url": "https://www.yelp.com/biz/bouchon-bakery-new-york-2?adjust_creative=gBcvfFpabk3CnzmXKdYe3w&utm_campaign=yelp_api_v3&utm_medium=api_v3_business_search&utm_source=gBcvfFpabk3CnzmXKdYe3w"}, {"transactions": [], "distance": 2217.575247072, "phone": "+16463927868", "categories": [{"alias": "french", "title": "French"}, {"alias": "tea", "title": "Tea Rooms"}, {"alias": "breakfast_brunch", "title": "Breakfast & Brunch"}], "id": "ladur\u00e9e-soho-new-york-2", "display_phone": "(646) 392-7868", "is_closed": false, "location": {"address2": "", "country": "US", "display_address": ["398 W Broadway", "New York, NY 10012"], "address1": "398 W Broadway", "city": "New York", "zip_code": "10012", "address3": "", "state": "NY"}, "coordinates": {"longitude": -74.0024885117088, "latitude": 40.7243938986329}, "review_count": 980, "image_url": "https://s3-media2.fl.yelpcdn.com/bphoto/TdIgcSpClDqqTu9boHxqIg/o.jpg", "price": "$$$", "rating": 3.5, "name": "Ladur\u00e9e Soho", "url": "https://www.yelp.com/biz/ladur%C3%A9e-soho-new-york-2?adjust_creative=gBcvfFpabk3CnzmXKdYe3w&utm_campaign=yelp_api_v3&utm_medium=api_v3_business_search&utm_source=gBcvfFpabk3CnzmXKdYe3w"}, {"transactions": [], "distance": 4537.436925864, "phone": "+17184990020", "categories": [{"alias": "italian", "title": "Italian"}, {"alias": "pizza", "title": "Pizza"}, {"alias": "french", "title": "French"}], "id": "hugo-and-sons-brooklyn", "display_phone": "(718) 499-0020", "is_closed": false, "location": {"address2": "", "country": "US", "display_address": ["367 7th Ave", "Brooklyn, NY 11215"], "address1": "367 7th Ave", "city": "Brooklyn", "zip_code": "11215", "address3": "", "state": "NY"}, "coordinates": {"longitude": -73.9822845458984, "latitude": 40.6656761169434}, "review_count": 154, "image_url": "https://s3-media1.fl.yelpcdn.com/bphoto/x9fUAu3FpSMmBMZNnMA9aw/o.jpg", "price": "$$", "rating": 3.5, "name": "Hugo & Sons", "url": "https://www.yelp.com/biz/hugo-and-sons-brooklyn?adjust_creative=gBcvfFpabk3CnzmXKdYe3w&utm_campaign=yelp_api_v3&utm_medium=api_v3_business_search&utm_source=gBcvfFpabk3CnzmXKdYe3w"}, {"transactions": ["delivery", "pickup"], "distance": 4983.570918634, "phone": "+12126840215", "categories": [{"alias": "moroccan", "title": "Moroccan"}, {"alias": "french", "title": "French"}], "id": "barbes-restaurant-new-york", "display_phone": "(212) 684-0215", "is_closed": false, "location": {"address2": "", "country": "US", "display_address": ["19-21 E 36th St", "New York, NY 10016"], "address1": "19-21 E 36th St", "city": "New York", "zip_code": "10016", "address3": "", "state": "NY"}, "coordinates": {"longitude": -73.982327, "latitude": 40.749338}, "review_count": 170, "image_url": "https://s3-media4.fl.yelpcdn.com/bphoto/J1gE-O9OFgsLnMLzLS4KaA/o.jpg", "price": "$$", "rating": 3.5, "name": "Barbes Restaurant", "url": "https://www.yelp.com/biz/barbes-restaurant-new-york?adjust_creative=gBcvfFpabk3CnzmXKdYe3w&utm_campaign=yelp_api_v3&utm_medium=api_v3_business_search&utm_source=gBcvfFpabk3CnzmXKdYe3w"}, {"transactions": [], "distance": 1531.758385686, "phone": "+12129660571", "categories": [{"alias": "cafes", "title": "Cafes"}, {"alias": "breakfast_brunch", "title": "Breakfast & Brunch"}, {"alias": "french", "title": "French"}], "id": "caf\u00e9-henrie-new-york", "display_phone": "(212) 966-0571", "is_closed": false, "location": {"address2": "", "country": "US", "display_address": ["116 Forsyth St", "New York, NY 10002"], "address1": "116 Forsyth St", "city": "New York", "zip_code": "10002", "address3": "", "state": "NY"}, "coordinates": {"longitude": -73.9924237132072, "latitude": 40.7191186398268}, "review_count": 95, "image_url": "https://s3-media1.fl.yelpcdn.com/bphoto/DLLC0p9QqubbR12XYVNm6w/o.jpg", "price": "$$", "rating": 3.5, "name": "Caf\u00e9 Henrie", "url": "https://www.yelp.com/biz/caf%C3%A9-henrie-new-york?adjust_creative=gBcvfFpabk3CnzmXKdYe3w&utm_campaign=yelp_api_v3&utm_medium=api_v3_business_search&utm_source=gBcvfFpabk3CnzmXKdYe3w"}, {"transactions": [], "distance": 3304.1380461419994, "phone": "+12124882626", "categories": [{"alias": "newamerican", "title": "American (New)"}, {"alias": "french", "title": "French"}, {"alias": "bars", "title": "Bars"}], "id": "bobo-new-york", "display_phone": "(212) 488-2626", "is_closed": false, "location": {"address2": "", "country": "US", "display_address": ["181 W 10th St", "New York, NY 10014"], "address1": "181 W 10th St", "city": "New York", "zip_code": "10014", "address3": "", "state": "NY"}, "coordinates": {"longitude": -74.0026199, "latitude": 40.73449}, "review_count": 392, "image_url": "https://s3-media1.fl.yelpcdn.com/bphoto/llsAea7N_es6vqmxVA3haQ/o.jpg", "price": "$$$", "rating": 3.5, "name": "BOBO", "url": "https://www.yelp.com/biz/bobo-new-york?adjust_creative=gBcvfFpabk3CnzmXKdYe3w&utm_campaign=yelp_api_v3&utm_medium=api_v3_business_search&utm_source=gBcvfFpabk3CnzmXKdYe3w"}, {"transactions": [], "distance": 2691.011853876, "phone": "+12126738184", "categories": [{"alias": "french", "title": "French"}, {"alias": "newamerican", "title": "American (New)"}, {"alias": "venues", "title": "Venues & Event Spaces"}], "id": "camaje-new-york-4", "display_phone": "(212) 673-8184", "is_closed": false, "location": {"address2": "", "country": "US", "display_address": ["85 MacDougal St", "New York, NY 10012"], "address1": "85 MacDougal St", "city": "New York", "zip_code": "10012", "address3": "", "state": "NY"}, "coordinates": {"longitude": -74.0015413, "latitude": 40.7289635}, "review_count": 185, "image_url": "https://s3-media2.fl.yelpcdn.com/bphoto/CqxaKx-_-BJQLTLqnJtaCw/o.jpg", "price": "$$", "rating": 3.5, "name": "Camaje", "url": "https://www.yelp.com/biz/camaje-new-york-4?adjust_creative=gBcvfFpabk3CnzmXKdYe3w&utm_campaign=yelp_api_v3&utm_medium=api_v3_business_search&utm_source=gBcvfFpabk3CnzmXKdYe3w"}, {"transactions": [], "distance": 4185.558114478, "phone": "+17183833490", "categories": [{"alias": "french", "title": "French"}], "id": "the-gentry-brooklyn", "display_phone": "(718) 383-3490", "is_closed": false, "location": {"address2": null, "country": "US", "display_address": ["592 Manhattan Ave", "Brooklyn, NY 11222"], "address1": "592 Manhattan Ave", "city": "Brooklyn", "zip_code": "11222", "address3": "", "state": "NY"}, "coordinates": {"longitude": -73.95022, "latitude": 40.72301}, "review_count": 10, "image_url": "https://s3-media2.fl.yelpcdn.com/bphoto/tvHvD45NcGw_fpujSfnRhA/o.jpg", "price": "$$", "rating": 4.5, "name": "The Gentry", "url": "https://www.yelp.com/biz/the-gentry-brooklyn?adjust_creative=gBcvfFpabk3CnzmXKdYe3w&utm_campaign=yelp_api_v3&utm_medium=api_v3_business_search&utm_source=gBcvfFpabk3CnzmXKdYe3w"}, {"transactions": [], "distance": 5611.89249918, "phone": "+12128181222", "categories": [{"alias": "french", "title": "French"}, {"alias": "mediterranean", "title": "Mediterranean"}], "id": "caf\u00e9-centro-new-york-2", "display_phone": "(212) 818-1222", "is_closed": false, "location": {"address2": "200 Park Ave", "country": "US", "display_address": ["MetLife Building", "200 Park Ave", "New York, NY 10166"], "address1": "MetLife Building", "city": "New York", "zip_code": "10166", "address3": "", "state": "NY"}, "coordinates": {"longitude": -73.9765333888855, "latitude": 40.7540842395185}, "review_count": 111, "image_url": "https://s3-media2.fl.yelpcdn.com/bphoto/6kyEiWK9PsYFHHuceaXKdQ/o.jpg", "price": "$$$", "rating": 3.5, "name": "Caf\u00e9 Centro", "url": "https://www.yelp.com/biz/caf%C3%A9-centro-new-york-2?adjust_creative=gBcvfFpabk3CnzmXKdYe3w&utm_campaign=yelp_api_v3&utm_medium=api_v3_business_search&utm_source=gBcvfFpabk3CnzmXKdYe3w"}, {"transactions": [], "distance": 5065.933399286, "phone": "+13474047006", "categories": [{"alias": "french", "title": "French"}, {"alias": "wine_bars", "title": "Wine Bars"}, {"alias": "newamerican", "title": "American (New)"}], "id": "the-breukelen-crown-heights", "display_phone": "(347) 404-7006", "is_closed": false, "location": {"address2": "", "country": "US", "display_address": ["710 Nostrand Ave", "Crown Heights, NY 11216"], "address1": "710 Nostrand Ave", "city": "Crown Heights", "zip_code": "11216", "address3": "", "state": "NY"}, "coordinates": {"longitude": -73.9502757794261, "latitude": 40.6744327392541}, "review_count": 59, "image_url": "https://s3-media1.fl.yelpcdn.com/bphoto/WuOyny3wEsKyTDCgF0rhsw/o.jpg", "price": "$$", "rating": 4.0, "name": "The Breukelen", "url": "https://www.yelp.com/biz/the-breukelen-crown-heights?adjust_creative=gBcvfFpabk3CnzmXKdYe3w&utm_campaign=yelp_api_v3&utm_medium=api_v3_business_search&utm_source=gBcvfFpabk3CnzmXKdYe3w"}, {"transactions": ["delivery", "pickup"], "distance": 19343.013124139998, "phone": "+17189455511", "categories": [{"alias": "french", "title": "French"}, {"alias": "cafes", "title": "Cafes"}], "id": "cuisine-by-claudette-rockaway-park", "display_phone": "(718) 945-5511", "is_closed": false, "location": {"address2": "", "country": "US", "display_address": ["143 Beach 116th St", "Rockaway Park, NY 11694"], "address1": "143 Beach 116th St", "city": "Rockaway Park", "zip_code": "11694", "address3": "", "state": "NY"}, "coordinates": {"longitude": -73.83699, "latitude": 40.5788}, "review_count": 62, "image_url": "https://s3-media1.fl.yelpcdn.com/bphoto/mimRQxWo8S2qAH4FR3MZUw/o.jpg", "price": "$$", "rating": 4.5, "name": "Cuisine By Claudette", "url": "https://www.yelp.com/biz/cuisine-by-claudette-rockaway-park?adjust_creative=gBcvfFpabk3CnzmXKdYe3w&utm_campaign=yelp_api_v3&utm_medium=api_v3_business_search&utm_source=gBcvfFpabk3CnzmXKdYe3w"}, {"transactions": [], "distance": 8097.446191682, "phone": "+12127441600", "categories": [{"alias": "french", "title": "French"}], "id": "the-carlyle-restaurant-new-york-3", "display_phone": "(212) 744-1600", "is_closed": false, "location": {"address2": "", "country": "US", "display_address": ["35 E 76th St", "The Carlyle", "New York, NY 10021"], "address1": "35 E 76th St", "city": "New York", "zip_code": "10021", "address3": "The Carlyle", "state": "NY"}, "coordinates": {"longitude": -73.96284, "latitude": 40.77419}, "review_count": 65, "image_url": "https://s3-media2.fl.yelpcdn.com/bphoto/M4CjsvDQz1oCoJ5UyfPyWA/o.jpg", "price": "$$$$", "rating": 4.0, "name": "The Carlyle Restaurant", "url": "https://www.yelp.com/biz/the-carlyle-restaurant-new-york-3?adjust_creative=gBcvfFpabk3CnzmXKdYe3w&utm_campaign=yelp_api_v3&utm_medium=api_v3_business_search&utm_source=gBcvfFpabk3CnzmXKdYe3w"}, {"transactions": [], "distance": 14007.19887861, "phone": "+17183327777", "categories": [{"alias": "french", "title": "French"}, {"alias": "russian", "title": "Russian"}], "id": "royal-bay-restaurant-brooklyn", "display_phone": "(718) 332-7777", "is_closed": false, "location": {"address2": null, "country": "US", "display_address": ["1794 Sheepshead Bay Rd", "Brooklyn, NY 11235"], "address1": "1794 Sheepshead Bay Rd", "city": "Brooklyn", "zip_code": "11235", "address3": null, "state": "NY"}, "coordinates": {"longitude": -73.950912, "latitude": 40.583847}, "review_count": 5, "image_url": "https://s3-media2.fl.yelpcdn.com/bphoto/LQIzI_1Mux5Xeyfbp7OUgA/o.jpg", "price": "$$", "rating": 4.0, "name": "Royal Bay Restaurant", "url": "https://www.yelp.com/biz/royal-bay-restaurant-brooklyn?adjust_creative=gBcvfFpabk3CnzmXKdYe3w&utm_campaign=yelp_api_v3&utm_medium=api_v3_business_search&utm_source=gBcvfFpabk3CnzmXKdYe3w"}, {"transactions": [], "distance": 3911.9878562839995, "phone": "", "categories": [{"alias": "cocktailbars", "title": "Cocktail Bars"}, {"alias": "french", "title": "French"}], "id": "cafe-raquelle-new-york", "display_phone": "", "is_closed": false, "location": {"address2": "", "country": "US", "display_address": ["30 Bayard St", "New York, NY 11211"], "address1": "30 Bayard St", "city": "New York", "zip_code": "11211", "address3": "", "state": "NY"}, "coordinates": {"longitude": -73.9511378109455, "latitude": 40.7188752293587}, "review_count": 1, "image_url": "", "rating": 5.0, "name": "Cafe Raquelle", "url": "https://www.yelp.com/biz/cafe-raquelle-new-york?adjust_creative=gBcvfFpabk3CnzmXKdYe3w&utm_campaign=yelp_api_v3&utm_medium=api_v3_business_search&utm_source=gBcvfFpabk3CnzmXKdYe3w"}, {"transactions": ["delivery", "pickup"], "distance": 2838.192112368, "phone": "+12123587171", "categories": [{"alias": "french", "title": "French"}, {"alias": "tradamerican", "title": "American (Traditional)"}], "id": "tree-bistro-new-york-2", "display_phone": "(212) 358-7171", "is_closed": false, "location": {"address2": "", "country": "US", "display_address": ["190 1st Ave", "New York, NY 10009"], "address1": "190 1st Ave", "city": "New York", "zip_code": "10009", "address3": "", "state": "NY"}, "coordinates": {"longitude": -73.98344, "latitude": 40.7296}, "review_count": 286, "image_url": "https://s3-media1.fl.yelpcdn.com/bphoto/MeQMcCm0c0xOF6ibxrGERg/o.jpg", "price": "$$", "rating": 3.5, "name": "Tree Bistro", "url": "https://www.yelp.com/biz/tree-bistro-new-york-2?adjust_creative=gBcvfFpabk3CnzmXKdYe3w&utm_campaign=yelp_api_v3&utm_medium=api_v3_business_search&utm_source=gBcvfFpabk3CnzmXKdYe3w"}, {"transactions": [], "distance": 1620.5645027639998, "phone": "+12125959605", "categories": [{"alias": "sandwiches", "title": "Sandwiches"}, {"alias": "french", "title": "French"}], "id": "\u00e9picerie-boulud-new-york-8", "display_phone": "(212) 595-9605", "is_closed": false, "location": {"address2": null, "country": "US", "display_address": ["185 Greenwich St", "New York, NY 10007"], "address1": "185 Greenwich St", "city": "New York", "zip_code": "10007", "address3": "", "state": "NY"}, "coordinates": {"longitude": -74.0115486921387, "latitude": 40.7118696201377}, "review_count": 27, "image_url": "https://s3-media4.fl.yelpcdn.com/bphoto/TN5MJ0ZXd6TGyMBHMQ1tmQ/o.jpg", "price": "$$", "rating": 3.0, "name": "\u00c9picerie Boulud", "url": "https://www.yelp.com/biz/%C3%A9picerie-boulud-new-york-8?adjust_creative=gBcvfFpabk3CnzmXKdYe3w&utm_campaign=yelp_api_v3&utm_medium=api_v3_business_search&utm_source=gBcvfFpabk3CnzmXKdYe3w"}, {"transactions": [], "distance": 10713.526048619999, "phone": "+12128605324", "categories": [{"alias": "bakeries", "title": "Bakeries"}, {"alias": "french", "title": "French"}], "id": "la-tropezienne-bakery-new-york", "display_phone": "(212) 860-5324", "is_closed": false, "location": {"address2": "", "country": "US", "display_address": ["2131 1st Ave", "New York, NY 10029"], "address1": "2131 1st Ave", "city": "New York", "zip_code": "10029", "address3": "", "state": "NY"}, "coordinates": {"longitude": -73.938629, "latitude": 40.792079}, "review_count": 77, "image_url": "https://s3-media1.fl.yelpcdn.com/bphoto/PiqHblACAtToXrCNueGK-A/o.jpg", "price": "$", "rating": 4.5, "name": "La Tropezienne Bakery", "url": "https://www.yelp.com/biz/la-tropezienne-bakery-new-york?adjust_creative=gBcvfFpabk3CnzmXKdYe3w&utm_campaign=yelp_api_v3&utm_medium=api_v3_business_search&utm_source=gBcvfFpabk3CnzmXKdYe3w"}, {"transactions": [], "distance": 16452.87988514, "phone": "+12019352995", "categories": [{"alias": "newamerican", "title": "American (New)"}, {"alias": "french", "title": "French"}], "id": "cafe-matisse-rutherford-5", "display_phone": "(201) 935-2995", "is_closed": false, "location": {"address2": "", "country": "US", "display_address": ["167 Park Ave", "Rutherford, NJ 07070"], "address1": "167 Park Ave", "city": "Rutherford", "zip_code": "07070", "address3": "", "state": "NJ"}, "coordinates": {"longitude": -74.1093368530273, "latitude": 40.8250350952148}, "review_count": 212, "image_url": "https://s3-media3.fl.yelpcdn.com/bphoto/glA4SSOr6bcWTg8Q6Potug/o.jpg", "price": "$$$$", "rating": 4.5, "name": "Cafe Matisse", "url": "https://www.yelp.com/biz/cafe-matisse-rutherford-5?adjust_creative=gBcvfFpabk3CnzmXKdYe3w&utm_campaign=yelp_api_v3&utm_medium=api_v3_business_search&utm_source=gBcvfFpabk3CnzmXKdYe3w"}, {"transactions": [], "distance": 6121.033601356, "phone": "+12129742020", "categories": [{"alias": "french", "title": "French"}, {"alias": "brasseries", "title": "Brasseries"}], "id": "brasserie-ruhlmann-new-york", "display_phone": "(212) 974-2020", "is_closed": false, "location": {"address2": null, "country": "US", "display_address": ["45 Rockefeller Plz", "New York, NY 10111"], "address1": "45 Rockefeller Plz", "city": "New York", "zip_code": "10111", "address3": "", "state": "NY"}, "coordinates": {"longitude": -73.978181445687, "latitude": 40.759120073535}, "review_count": 203, "image_url": "https://s3-media1.fl.yelpcdn.com/bphoto/Pvb4Bqha6Oyy_yr2c64dBA/o.jpg", "price": "$$$", "rating": 3.5, "name": "Brasserie Ruhlmann", "url": "https://www.yelp.com/biz/brasserie-ruhlmann-new-york?adjust_creative=gBcvfFpabk3CnzmXKdYe3w&utm_campaign=yelp_api_v3&utm_medium=api_v3_business_search&utm_source=gBcvfFpabk3CnzmXKdYe3w"}, {"transactions": [], "distance": 5553.047947684, "phone": "+12017985898", "categories": [{"alias": "newamerican", "title": "American (New)"}, {"alias": "french", "title": "French"}], "id": "elysian-cafe-hoboken", "display_phone": "(201) 798-5898", "is_closed": false, "location": {"address2": null, "country": "US", "display_address": ["1001 Washington St", "Hoboken, NJ 07030"], "address1": "1001 Washington St", "city": "Hoboken", "zip_code": "07030", "address3": "", "state": "NJ"}, "coordinates": {"longitude": -74.027349, "latitude": 40.7486464}, "review_count": 407, "image_url": "https://s3-media1.fl.yelpcdn.com/bphoto/y3aflFE0JIVE1ywR_Y8HBQ/o.jpg", "price": "$$", "rating": 3.5, "name": "Elysian Cafe", "url": "https://www.yelp.com/biz/elysian-cafe-hoboken?adjust_creative=gBcvfFpabk3CnzmXKdYe3w&utm_campaign=yelp_api_v3&utm_medium=api_v3_business_search&utm_source=gBcvfFpabk3CnzmXKdYe3w"}, {"transactions": [], "distance": 5592.531495244, "phone": "+16462079390", "categories": [{"alias": "catering", "title": "Caterers"}, {"alias": "bakeries", "title": "Bakeries"}, {"alias": "french", "title": "French"}], "id": "pistache-new-york", "display_phone": "(646) 207-9390", "is_closed": false, "location": {"address2": null, "country": "US", "display_address": ["220 36th Street Brooklyn", "New York, NY 11232"], "address1": "220 36th Street Brooklyn", "city": "New York", "zip_code": "11232", "address3": "", "state": "NY"}, "coordinates": {"longitude": -74.00843, "latitude": 40.65663}, "review_count": 2, "image_url": "https://s3-media3.fl.yelpcdn.com/bphoto/vdKeg-RcZNxuTWgGz_knDQ/o.jpg", "rating": 5.0, "name": "Pistache", "url": "https://www.yelp.com/biz/pistache-new-york?adjust_creative=gBcvfFpabk3CnzmXKdYe3w&utm_campaign=yelp_api_v3&utm_medium=api_v3_business_search&utm_source=gBcvfFpabk3CnzmXKdYe3w"}, {"transactions": [], "distance": 2486.082843494, "phone": "+17182540007", "categories": [{"alias": "french", "title": "French"}], "id": "la-petite-provence-brooklyn", "display_phone": "(718) 254-0007", "is_closed": false, "location": {"address2": "", "country": "US", "display_address": ["255 Smith St", "Brooklyn, NY 11231"], "address1": "255 Smith St", "city": "Brooklyn", "zip_code": "11231", "address3": "", "state": "NY"}, "coordinates": {"longitude": -73.99263, "latitude": 40.68307}, "review_count": 6, "image_url": "https://s3-media1.fl.yelpcdn.com/bphoto/wHf7HszKA2f1Ddv-1g4TfA/o.jpg", "price": "$$", "rating": 3.0, "name": "La Petite Provence", "url": "https://www.yelp.com/biz/la-petite-provence-brooklyn?adjust_creative=gBcvfFpabk3CnzmXKdYe3w&utm_campaign=yelp_api_v3&utm_medium=api_v3_business_search&utm_source=gBcvfFpabk3CnzmXKdYe3w"}, {"transactions": [], "distance": 7291.428691299999, "phone": "+16467093232", "categories": [{"alias": "french", "title": "French"}, {"alias": "sandwiches", "title": "Sandwiches"}, {"alias": "foodtrucks", "title": "Food Trucks"}], "id": "the-basket-new-york", "display_phone": "(646) 709-3232", "is_closed": false, "location": {"address2": null, "country": "US", "display_address": ["5TH Ave E 67th St", "New York, NY 10065"], "address1": "5TH Ave E 67th St", "city": "New York", "zip_code": "10065", "address3": "", "state": "NY"}, "coordinates": {"longitude": -73.96272, "latitude": 40.76646}, "review_count": 2, "image_url": "https://s3-media1.fl.yelpcdn.com/bphoto/5W6PApQ4tAmGakU2LWB4LA/o.jpg", "rating": 5.0, "name": "The Basket", "url": "https://www.yelp.com/biz/the-basket-new-york?adjust_creative=gBcvfFpabk3CnzmXKdYe3w&utm_campaign=yelp_api_v3&utm_medium=api_v3_business_search&utm_source=gBcvfFpabk3CnzmXKdYe3w"}, {"transactions": [], "distance": 2652.5767913259997, "phone": "+12125055111", "categories": [{"alias": "vietnamese", "title": "Vietnamese"}, {"alias": "french", "title": "French"}], "id": "indochine-new-york", "display_phone": "(212) 505-5111", "is_closed": false, "location": {"address2": "Ste A", "country": "US", "display_address": ["430 Lafayette St", "Ste A", "New York, NY 10003"], "address1": "430 Lafayette St", "city": "New York", "zip_code": "10003", "address3": "", "state": "NY"}, "coordinates": {"longitude": -73.99246, "latitude": 40.72925}, "review_count": 287, "image_url": "https://s3-media4.fl.yelpcdn.com/bphoto/dml_tWy_8OOC34XtLual7Q/o.jpg", "price": "$$$", "rating": 3.5, "name": "Indochine", "url": "https://www.yelp.com/biz/indochine-new-york?adjust_creative=gBcvfFpabk3CnzmXKdYe3w&utm_campaign=yelp_api_v3&utm_medium=api_v3_business_search&utm_source=gBcvfFpabk3CnzmXKdYe3w"}, {"transactions": [], "distance": 1760.92453927, "phone": "+12123433883", "categories": [{"alias": "french", "title": "French"}, {"alias": "italian", "title": "Italian"}, {"alias": "tradamerican", "title": "American (Traditional)"}], "id": "landmarc-new-york-5", "display_phone": "(212) 343-3883", "is_closed": false, "location": {"address2": "", "country": "US", "display_address": ["179 W Broadway", "New York, NY 10013"], "address1": "179 W Broadway", "city": "New York", "zip_code": "10013", "address3": "", "state": "NY"}, "coordinates": {"longitude": -74.007128, "latitude": 40.71794}, "review_count": 474, "image_url": "https://s3-media1.fl.yelpcdn.com/bphoto/1Re7UYDeZ0pdX-wX4GeRSw/o.jpg", "price": "$$$", "rating": 3.5, "name": "Landmarc", "url": "https://www.yelp.com/biz/landmarc-new-york-5?adjust_creative=gBcvfFpabk3CnzmXKdYe3w&utm_campaign=yelp_api_v3&utm_medium=api_v3_business_search&utm_source=gBcvfFpabk3CnzmXKdYe3w"}, {"transactions": [], "distance": 6020.584231246, "phone": "+12123027500", "categories": [{"alias": "french", "title": "French"}], "id": "pergolades-artistes-new-york", "display_phone": "(212) 302-7500", "is_closed": false, "location": {"address2": "", "country": "US", "display_address": ["252 W 46th St", "New York, NY 10036"], "address1": "252 W 46th St", "city": "New York", "zip_code": "10036", "address3": "", "state": "NY"}, "coordinates": {"longitude": -73.9873123168945, "latitude": 40.75927734375}, "review_count": 1, "image_url": "", "price": "$$", "rating": 4.0, "name": "Pergolades Artistes", "url": "https://www.yelp.com/biz/pergolades-artistes-new-york?adjust_creative=gBcvfFpabk3CnzmXKdYe3w&utm_campaign=yelp_api_v3&utm_medium=api_v3_business_search&utm_source=gBcvfFpabk3CnzmXKdYe3w"}, {"transactions": [], "distance": 4792.7152646839995, "phone": "+12017105175", "categories": [{"alias": "bakeries", "title": "Bakeries"}, {"alias": "coffee", "title": "Coffee & Tea"}, {"alias": "french", "title": "French"}], "id": "choc-o-pain-hoboken-2", "display_phone": "(201) 710-5175", "is_closed": false, "location": {"address2": "", "country": "US", "display_address": ["157 1st St", "Hoboken, NJ 07030"], "address1": "157 1st St", "city": "Hoboken", "zip_code": "07030", "address3": "", "state": "NJ"}, "coordinates": {"longitude": -74.03219, "latitude": 40.7375}, "review_count": 249, "image_url": "https://s3-media1.fl.yelpcdn.com/bphoto/3QivFDRHONY_cZ1fxC0cbA/o.jpg", "price": "$$", "rating": 4.0, "name": "Choc O Pain", "url": "https://www.yelp.com/biz/choc-o-pain-hoboken-2?adjust_creative=gBcvfFpabk3CnzmXKdYe3w&utm_campaign=yelp_api_v3&utm_medium=api_v3_business_search&utm_source=gBcvfFpabk3CnzmXKdYe3w"}, {"transactions": ["pickup"], "distance": 1507.569281283, "phone": "+12122549100", "categories": [{"alias": "french", "title": "French"}, {"alias": "bars", "title": "Bars"}], "id": "hotel-chantelle-new-york", "display_phone": "(212) 254-9100", "is_closed": false, "location": {"address2": "", "country": "US", "display_address": ["92 Ludlow St", "New York, NY 10002"], "address1": "92 Ludlow St", "city": "New York", "zip_code": "10002", "address3": "", "state": "NY"}, "coordinates": {"longitude": -73.98896, "latitude": 40.718387}, "review_count": 787, "image_url": "https://s3-media1.fl.yelpcdn.com/bphoto/VA3Ni-s1fWg1EH_LiuPXNA/o.jpg", "price": "$$", "rating": 3.0, "name": "Hotel Chantelle", "url": "https://www.yelp.com/biz/hotel-chantelle-new-york?adjust_creative=gBcvfFpabk3CnzmXKdYe3w&utm_campaign=yelp_api_v3&utm_medium=api_v3_business_search&utm_source=gBcvfFpabk3CnzmXKdYe3w"}, {"transactions": [], "distance": 7923.870343179999, "phone": "+12125173800", "categories": [{"alias": "french", "title": "French"}, {"alias": "steak", "title": "Steakhouses"}], "id": "bistro-le-steak-new-york", "display_phone": "(212) 517-3800", "is_closed": false, "location": {"address2": "", "country": "US", "display_address": ["1309 3rd Ave", "New York, NY 10021"], "address1": "1309 3rd Ave", "city": "New York", "zip_code": "10021", "address3": "", "state": "NY"}, "coordinates": {"longitude": -73.958999, "latitude": 40.771465}, "review_count": 91, "image_url": "https://s3-media4.fl.yelpcdn.com/bphoto/a7gS-DULzt0Nq-ndE7jH_w/o.jpg", "price": "$$$", "rating": 3.5, "name": "Bistro Le Steak", "url": "https://www.yelp.com/biz/bistro-le-steak-new-york?adjust_creative=gBcvfFpabk3CnzmXKdYe3w&utm_campaign=yelp_api_v3&utm_medium=api_v3_business_search&utm_source=gBcvfFpabk3CnzmXKdYe3w"}, {"transactions": ["delivery", "pickup"], "distance": 6537.94696868, "phone": "+12127520808", "categories": [{"alias": "french", "title": "French"}, {"alias": "vietnamese", "title": "Vietnamese"}, {"alias": "lounges", "title": "Lounges"}], "id": "le-colonial-new-york", "display_phone": "(212) 752-0808", "is_closed": false, "location": {"address2": "", "country": "US", "display_address": ["149 E 57th St", "New York, NY 10022"], "address1": "149 E 57th St", "city": "New York", "zip_code": "10022", "address3": "", "state": "NY"}, "coordinates": {"longitude": -73.9683303833008, "latitude": 40.7608947753906}, "review_count": 201, "image_url": "https://s3-media1.fl.yelpcdn.com/bphoto/CiD9qLZXFPYg-rasCBksiQ/o.jpg", "price": "$$$", "rating": 3.5, "name": "Le Colonial", "url": "https://www.yelp.com/biz/le-colonial-new-york?adjust_creative=gBcvfFpabk3CnzmXKdYe3w&utm_campaign=yelp_api_v3&utm_medium=api_v3_business_search&utm_source=gBcvfFpabk3CnzmXKdYe3w"}, {"transactions": [], "distance": 5687.533732256, "phone": "+12129832370", "categories": [{"alias": "cafes", "title": "Cafes"}, {"alias": "macarons", "title": "Macarons"}, {"alias": "french", "title": "French"}], "id": "macaron-cafe-new-york-4", "display_phone": "(212) 983-2370", "is_closed": false, "location": {"address2": "", "country": "US", "display_address": ["750 3rd Ave", "New York, NY 10017"], "address1": "750 3rd Ave", "city": "New York", "zip_code": "10017", "address3": "", "state": "NY"}, "coordinates": {"longitude": -73.9724687720012, "latitude": 40.7538454404831}, "review_count": 119, "image_url": "https://s3-media4.fl.yelpcdn.com/bphoto/HdjdUWdc-Z1r_Dt7xRXnlw/o.jpg", "price": "$$", "rating": 3.5, "name": "Macaron Cafe", "url": "https://www.yelp.com/biz/macaron-cafe-new-york-4?adjust_creative=gBcvfFpabk3CnzmXKdYe3w&utm_campaign=yelp_api_v3&utm_medium=api_v3_business_search&utm_source=gBcvfFpabk3CnzmXKdYe3w"}, {"transactions": [], "distance": 3958.8045224879993, "phone": "", "categories": [{"alias": "french", "title": "French"}], "id": "florent-new-york-2", "display_phone": "", "is_closed": false, "location": {"address2": "", "country": "US", "display_address": ["Gaansevort St 69", "New York, NY 10014"], "address1": "Gaansevort St 69", "city": "New York", "zip_code": "10014", "address3": "", "state": "NY"}, "coordinates": {"longitude": -74.0101013183594, "latitude": 40.7343673706055}, "review_count": 2, "image_url": "https://s3-media3.fl.yelpcdn.com/bphoto/ixk6zMTcnD0TSgUkhViaag/o.jpg", "rating": 4.5, "name": "Florent", "url": "https://www.yelp.com/biz/florent-new-york-2?adjust_creative=gBcvfFpabk3CnzmXKdYe3w&utm_campaign=yelp_api_v3&utm_medium=api_v3_business_search&utm_source=gBcvfFpabk3CnzmXKdYe3w"}, {"transactions": [], "distance": 15420.900266179999, "phone": "+17183533374", "categories": [{"alias": "french", "title": "French"}], "id": "view-de-point-queens", "display_phone": "(718) 353-3374", "is_closed": false, "location": {"address2": "", "country": "US", "display_address": ["20-07 127th St", "Rooftop", "Queens, NY"], "address1": "20-07 127th St", "city": "Queens", "zip_code": "", "address3": "Rooftop", "state": "NY"}, "coordinates": {"longitude": -73.8410423065461, "latitude": 40.7812851016194}, "review_count": 9, "image_url": "https://s3-media3.fl.yelpcdn.com/bphoto/0suR5hzDFrNqgAwoIs87Ow/o.jpg", "price": "$$$", "rating": 3.0, "name": "View de Point", "url": "https://www.yelp.com/biz/view-de-point-queens?adjust_creative=gBcvfFpabk3CnzmXKdYe3w&utm_campaign=yelp_api_v3&utm_medium=api_v3_business_search&utm_source=gBcvfFpabk3CnzmXKdYe3w"}, {"transactions": ["pickup", "delivery"], "distance": 3766.0154074619995, "phone": "+12012091717", "categories": [{"alias": "french", "title": "French"}, {"alias": "newamerican", "title": "American (New)"}], "id": "bistro-la-source-jersey-city", "display_phone": "(201) 209-1717", "is_closed": false, "location": {"address2": "", "country": "US", "display_address": ["85 Morris St", "Jersey City, NJ 07302"], "address1": "85 Morris St", "city": "Jersey City", "zip_code": "07302", "address3": "", "state": "NJ"}, "coordinates": {"longitude": -74.03773, "latitude": 40.71365}, "review_count": 227, "image_url": "https://s3-media2.fl.yelpcdn.com/bphoto/BmUGKFMf7DUgdVlM4pKa0w/o.jpg", "price": "$$", "rating": 3.0, "name": "Bistro La Source", "url": "https://www.yelp.com/biz/bistro-la-source-jersey-city?adjust_creative=gBcvfFpabk3CnzmXKdYe3w&utm_campaign=yelp_api_v3&utm_medium=api_v3_business_search&utm_source=gBcvfFpabk3CnzmXKdYe3w"}, {"transactions": [], "distance": 1978.677253574, "phone": "+16467558484", "categories": [{"alias": "french", "title": "French"}], "id": "tartinery-hudson-eats-new-york-3", "display_phone": "(646) 755-8484", "is_closed": false, "location": {"address2": "", "country": "US", "display_address": ["225 Liberty St", "New York, NY 10281"], "address1": "225 Liberty St", "city": "New York", "zip_code": "10281", "address3": "", "state": "NY"}, "coordinates": {"longitude": -74.015854919049, "latitude": 40.7124807121613}, "review_count": 50, "image_url": "https://s3-media2.fl.yelpcdn.com/bphoto/PRpqHg1JSSU86uPjv1uAwg/o.jpg", "price": "$$", "rating": 3.0, "name": "Tartinery Hudson Eats", "url": "https://www.yelp.com/biz/tartinery-hudson-eats-new-york-3?adjust_creative=gBcvfFpabk3CnzmXKdYe3w&utm_campaign=yelp_api_v3&utm_medium=api_v3_business_search&utm_source=gBcvfFpabk3CnzmXKdYe3w"}, {"transactions": [], "distance": 11057.83468558, "phone": "+12122220683", "categories": [{"alias": "cafes", "title": "Cafes"}, {"alias": "french", "title": "French"}, {"alias": "newamerican", "title": "American (New)"}], "id": "cafe-amrita-new-york", "display_phone": "(212) 222-0683", "is_closed": false, "location": {"address2": "", "country": "US", "display_address": ["301 W 110th St", "New York, NY 10025"], "address1": "301 W 110th St", "city": "New York", "zip_code": "10025", "address3": "", "state": "NY"}, "coordinates": {"longitude": -73.958503, "latitude": 40.801193}, "review_count": 180, "image_url": "https://s3-media2.fl.yelpcdn.com/bphoto/qEnkILu5nYtnyXch0DuFuA/o.jpg", "price": "$$", "rating": 3.0, "name": "Cafe Amrita", "url": "https://www.yelp.com/biz/cafe-amrita-new-york?adjust_creative=gBcvfFpabk3CnzmXKdYe3w&utm_campaign=yelp_api_v3&utm_medium=api_v3_business_search&utm_source=gBcvfFpabk3CnzmXKdYe3w"}, {"transactions": [], "distance": 6846.915464844, "phone": "+12123908060", "categories": [{"alias": "french", "title": "French"}], "id": "rotisserie-georgette-new-york", "display_phone": "(212) 390-8060", "is_closed": false, "location": {"address2": null, "country": "US", "display_address": ["14 E 60th St", "New York, NY 10022"], "address1": "14 E 60th St", "city": "New York", "zip_code": "10022", "address3": "", "state": "NY"}, "coordinates": {"longitude": -73.9715699647247, "latitude": 40.764563839643}, "review_count": 145, "image_url": "https://s3-media2.fl.yelpcdn.com/bphoto/DK4155UAd5L4ACLics_-ww/o.jpg", "price": "$$$", "rating": 4.0, "name": "Rotisserie Georgette", "url": "https://www.yelp.com/biz/rotisserie-georgette-new-york?adjust_creative=gBcvfFpabk3CnzmXKdYe3w&utm_campaign=yelp_api_v3&utm_medium=api_v3_business_search&utm_source=gBcvfFpabk3CnzmXKdYe3w"}, {"transactions": ["delivery", "pickup"], "distance": 5253.813383576, "phone": "+16467264374", "categories": [{"alias": "french", "title": "French"}, {"alias": "creperies", "title": "Creperies"}, {"alias": "hotdogs", "title": "Fast Food"}], "id": "by-suzette-new-york-3", "display_phone": "(646) 726-4374", "is_closed": false, "location": {"address2": "", "country": "US", "display_address": ["494 8th Ave", "New York, NY 10001"], "address1": "494 8th Ave", "city": "New York", "zip_code": "10001", "address3": "", "state": "NY"}, "coordinates": {"longitude": -73.992926378981, "latitude": 40.7526808354573}, "review_count": 104, "image_url": "https://s3-media3.fl.yelpcdn.com/bphoto/L2Oda-9itMxMbiI5JvvFaA/o.jpg", "price": "$", "rating": 3.5, "name": "By Suzette", "url": "https://www.yelp.com/biz/by-suzette-new-york-3?adjust_creative=gBcvfFpabk3CnzmXKdYe3w&utm_campaign=yelp_api_v3&utm_medium=api_v3_business_search&utm_source=gBcvfFpabk3CnzmXKdYe3w"}, {"transactions": ["delivery", "pickup"], "distance": 4223.246282334, "phone": "+12123664410", "categories": [{"alias": "breakfast_brunch", "title": "Breakfast & Brunch"}, {"alias": "french", "title": "French"}, {"alias": "bars", "title": "Bars"}], "id": "champignon-cafe-new-york", "display_phone": "(212) 366-4410", "is_closed": false, "location": {"address2": "", "country": "US", "display_address": ["200 7th Ave", "New York, NY 10011"], "address1": "200 7th Ave", "city": "New York", "zip_code": "10011", "address3": "", "state": "NY"}, "coordinates": {"longitude": -73.996579177356, "latitude": 40.743384247205}, "review_count": 190, "image_url": "https://s3-media1.fl.yelpcdn.com/bphoto/q-ajAyHb1hXS1Q8LYnCbHw/o.jpg", "price": "$$", "rating": 3.5, "name": "Champignon Cafe", "url": "https://www.yelp.com/biz/champignon-cafe-new-york?adjust_creative=gBcvfFpabk3CnzmXKdYe3w&utm_campaign=yelp_api_v3&utm_medium=api_v3_business_search&utm_source=gBcvfFpabk3CnzmXKdYe3w"}, {"transactions": [], "distance": 3731.6608264819997, "phone": "+19176756454", "categories": [{"alias": "french", "title": "French"}, {"alias": "latin", "title": "Latin American"}, {"alias": "asianfusion", "title": "Asian Fusion"}], "id": "tavo-new-york", "display_phone": "(917) 675-6454", "is_closed": false, "location": {"address2": "", "country": "US", "display_address": ["615 Hudson St", "New York, NY 10014"], "address1": "615 Hudson St", "city": "New York", "zip_code": "10014", "address3": null, "state": "NY"}, "coordinates": {"longitude": -74.00595, "latitude": 40.73783}, "review_count": 27, "image_url": "https://s3-media1.fl.yelpcdn.com/bphoto/09JT0RGq-f5iQ-PjUTUPnw/o.jpg", "price": "$$$", "rating": 4.0, "name": "Tavo", "url": "https://www.yelp.com/biz/tavo-new-york?adjust_creative=gBcvfFpabk3CnzmXKdYe3w&utm_campaign=yelp_api_v3&utm_medium=api_v3_business_search&utm_source=gBcvfFpabk3CnzmXKdYe3w"}, {"transactions": [], "distance": 12911.96173694, "phone": "+17187431299", "categories": [{"alias": "french", "title": "French"}], "id": "art-house-restaurant-new-york", "display_phone": "(718) 743-1299", "is_closed": false, "location": {"address2": "", "country": "US", "display_address": ["2751 Ocean Ave", "New York, NY 11229"], "address1": "2751 Ocean Ave", "city": "New York", "zip_code": "11229", "address3": "", "state": "NY"}, "coordinates": {"longitude": -73.950076, "latitude": 40.594277}, "review_count": 38, "image_url": "https://s3-media3.fl.yelpcdn.com/bphoto/MPVJ1cE_wziApqsbZcrMOg/o.jpg", "price": "$$$", "rating": 3.5, "name": "Art House Restaurant", "url": "https://www.yelp.com/biz/art-house-restaurant-new-york?adjust_creative=gBcvfFpabk3CnzmXKdYe3w&utm_campaign=yelp_api_v3&utm_medium=api_v3_business_search&utm_source=gBcvfFpabk3CnzmXKdYe3w"}, {"transactions": [], "distance": 2011.280228898, "phone": "+12129410772", "categories": [{"alias": "bars", "title": "Bars"}, {"alias": "french", "title": "French"}], "id": "lucky-strike-new-york", "display_phone": "(212) 941-0772", "is_closed": false, "location": {"address2": "", "country": "US", "display_address": ["59 Grand St", "New York, NY 10013"], "address1": "59 Grand St", "city": "New York", "zip_code": "10013", "address3": "", "state": "NY"}, "coordinates": {"longitude": -74.00348, "latitude": 40.72216}, "review_count": 215, "image_url": "https://s3-media2.fl.yelpcdn.com/bphoto/6i0JAoH5slcL7GQMpg62gA/o.jpg", "price": "$$", "rating": 3.5, "name": "Lucky Strike", "url": "https://www.yelp.com/biz/lucky-strike-new-york?adjust_creative=gBcvfFpabk3CnzmXKdYe3w&utm_campaign=yelp_api_v3&utm_medium=api_v3_business_search&utm_source=gBcvfFpabk3CnzmXKdYe3w"}, {"transactions": ["delivery", "pickup"], "distance": 4835.669836755999, "phone": "+12016569100", "categories": [{"alias": "french", "title": "French"}, {"alias": "breakfast_brunch", "title": "Breakfast & Brunch"}, {"alias": "sandwiches", "title": "Sandwiches"}], "id": "la-bouche-cafe-hoboken-2", "display_phone": "(201) 656-9100", "is_closed": false, "location": {"address2": "", "country": "US", "display_address": ["103 Garden St", "Hoboken, NJ 07030"], "address1": "103 Garden St", "city": "Hoboken", "zip_code": "07030", "address3": "", "state": "NJ"}, "coordinates": {"longitude": -74.0326166152954, "latitude": 40.7378114099321}, "review_count": 124, "image_url": "https://s3-media2.fl.yelpcdn.com/bphoto/Zb7srN1aCy53WH_bhS8b5g/o.jpg", "price": "$$", "rating": 3.5, "name": "La Bouche Cafe", "url": "https://www.yelp.com/biz/la-bouche-cafe-hoboken-2?adjust_creative=gBcvfFpabk3CnzmXKdYe3w&utm_campaign=yelp_api_v3&utm_medium=api_v3_business_search&utm_source=gBcvfFpabk3CnzmXKdYe3w"}, {"transactions": [], "distance": 14471.81453194, "phone": "+17185136004", "categories": [{"alias": "lounges", "title": "Lounges"}, {"alias": "french", "title": "French"}, {"alias": "venues", "title": "Venues & Event Spaces"}], "id": "la-vue-brooklyn", "display_phone": "(718) 513-6004", "is_closed": false, "location": {"address2": null, "country": "US", "display_address": ["3202 Emmons Ave", "Brooklyn, NY 11235"], "address1": "3202 Emmons Ave", "city": "Brooklyn", "zip_code": "11235", "address3": "", "state": "NY"}, "coordinates": {"longitude": -73.93272, "latitude": 40.58376}, "review_count": 44, "image_url": "https://s3-media2.fl.yelpcdn.com/bphoto/LFq0GoCFojB0wg88HtUu7g/o.jpg", "price": "$$$$", "rating": 3.0, "name": "La Vue", "url": "https://www.yelp.com/biz/la-vue-brooklyn?adjust_creative=gBcvfFpabk3CnzmXKdYe3w&utm_campaign=yelp_api_v3&utm_medium=api_v3_business_search&utm_source=gBcvfFpabk3CnzmXKdYe3w"}, {"transactions": [], "distance": 8619.99036018, "phone": "+16467191398", "categories": [{"alias": "french", "title": "French"}, {"alias": "bars", "title": "Bars"}], "id": "x-bar-bistro-new-york", "display_phone": "(646) 719-1398", "is_closed": false, "location": {"address2": "", "country": "US", "display_address": ["316 East 84th St", "New York, NY 10028"], "address1": "316 East 84th St", "city": "New York", "zip_code": "10028", "address3": null, "state": "NY"}, "coordinates": {"longitude": -73.95201, "latitude": 40.77602}, "review_count": 5, "image_url": "https://s3-media4.fl.yelpcdn.com/bphoto/Akmki9OQexUYV1EbPjxmQQ/o.jpg", "price": "$$", "rating": 5.0, "name": "X Bar Bistro", "url": "https://www.yelp.com/biz/x-bar-bistro-new-york?adjust_creative=gBcvfFpabk3CnzmXKdYe3w&utm_campaign=yelp_api_v3&utm_medium=api_v3_business_search&utm_source=gBcvfFpabk3CnzmXKdYe3w"}]}