{"region": {"center": {"longitude": -73.99429321289062, "latitude": 40.70544486444615}}, "total": 1496, "businesses": [{"transactions": [], "distance": 10639.405159042, "phone": "+12124239069", "categories": [{"alias": "mexican", "title": "Mexican"}], "id": "the-jaguar-restaurant-manhattan", "display_phone": "(212) 423-9069", "is_closed": false, "location": {"address2": "", "country": "US", "display_address": ["1735 Lexington Ave", "Manhattan, NY 10029"], "address1": "1735 Lexington Ave", "city": "Manhattan", "zip_code": "10029", "address3": "", "state": "NY"}, "coordinates": {"longitude": -73.9450226, "latitude": 40.793541}, "review_count": 3, "image_url": "", "price": "$$", "rating": 4.5, "name": "The Jaguar Restaurant", "url": "https://www.yelp.com/biz/the-jaguar-restaurant-manhattan?adjust_creative=gBcvfFpabk3CnzmXKdYe3w&utm_campaign=yelp_api_v3&utm_medium=api_v3_business_search&utm_source=gBcvfFpabk3CnzmXKdYe3w"}, {"transactions": [], "distance": 803.2639840155999, "phone": "", "categories": [{"alias": "foodstands", "title": "Food Stands"}, {"alias": "mexican", "title": "Mexican"}], "id": "steamy-corn-cart-new-york", "display_phone": "", "is_closed": false, "location": {"address2": "", "country": "US", "display_address": ["South Street Seaport", "South Street between Beekman and Fulton", "New York, NY 10038"], "address1": "South Street Seaport", "city": "New York", "zip_code": "10038", "address3": "South Street between Beekman and Fulton", "state": "NY"}, "coordinates": {"longitude": -74.0029754638672, "latitude": 40.7093811035156}, "review_count": 1, "image_url": "", "price": "$", "rating": 5.0, "name": "Steamy Corn Cart", "url": "https://www.yelp.com/biz/steamy-corn-cart-new-york?adjust_creative=gBcvfFpabk3CnzmXKdYe3w&utm_campaign=yelp_api_v3&utm_medium=api_v3_business_search&utm_source=gBcvfFpabk3CnzmXKdYe3w"}, {"transactions": [], "distance": 1825.392124726, "phone": "+12123879115", "categories": [{"alias": "mexican", "title": "Mexican"}, {"alias": "latin", "title": "Latin American"}, {"alias": "caribbean", "title": "Caribbean"}], "id": "el-nuevo-amanecer-restaurant-new-york", "display_phone": "(212) 387-9115", "is_closed": false, "location": {"address2": "", "country": "US", "display_address": ["117 Stanton St", "New York, NY 10002"], "address1": "117 Stanton St", "city": "New York", "zip_code": "10002", "address3": "", "state": "NY"}, "coordinates": {"longitude": -73.9871397614479, "latitude": 40.7209914922714}, "review_count": 94, "image_url": "https://s3-media1.fl.yelpcdn.com/bphoto/U5QQOViteyD-XBEJhN7BhA/o.jpg", "price": "$$", "rating": 3.0, "name": "El Nuevo Amanecer Restaurant", "url": "https://www.yelp.com/biz/el-nuevo-amanecer-restaurant-new-york?adjust_creative=gBcvfFpabk3CnzmXKdYe3w&utm_campaign=yelp_api_v3&utm_medium=api_v3_business_search&utm_source=gBcvfFpabk3CnzmXKdYe3w"}, {"transactions": [], "distance": 13946.30386702, "phone": "+17186651289", "categories": [{"alias": "mexican", "title": "Mexican"}], "id": "la-colonia-bronx", "display_phone": "(718) 665-1289", "is_closed": false, "location": {"address2": "", "country": "US", "display_address": ["594 Morris Ave", "Bronx, NY 10451"], "address1": "594 Morris Ave", "city": "Bronx", "zip_code": "10451", "address3": null, "state": "NY"}, "coordinates": {"longitude": -73.9222443848848, "latitude": 40.8183719982828}, "review_count": 2, "image_url": "https://s3-media1.fl.yelpcdn.com/bphoto/cc_p1hryTxundtBqYvwQiQ/o.jpg", "rating": 5.0, "name": "La Colonia", "url": "https://www.yelp.com/biz/la-colonia-bronx?adjust_creative=gBcvfFpabk3CnzmXKdYe3w&utm_campaign=yelp_api_v3&utm_medium=api_v3_business_search&utm_source=gBcvfFpabk3CnzmXKdYe3w"}, {"transactions": [], "distance": 1670.272348278, "phone": "+17182378898", "categories": [{"alias": "tex-mex", "title": "Tex-Mex"}, {"alias": "mexican", "title": "Mexican"}], "id": "the-original-fresco-tortillas-brooklyn", "display_phone": "(718) 237-8898", "is_closed": false, "location": {"address2": "", "country": "US", "display_address": ["113 Court St", "Brooklyn, NY 11201"], "address1": "113 Court St", "city": "Brooklyn", "zip_code": "11201", "address3": "", "state": "NY"}, "coordinates": {"longitude": -73.99178, "latitude": 40.6906}, "review_count": 11, "image_url": "https://s3-media2.fl.yelpcdn.com/bphoto/1xXxvLSv3vrdZYHg_L_A6Q/o.jpg", "rating": 3.0, "name": "The Original Fresco Tortillas", "url": "https://www.yelp.com/biz/the-original-fresco-tortillas-brooklyn?adjust_creative=gBcvfFpabk3CnzmXKdYe3w&utm_campaign=yelp_api_v3&utm_medium=api_v3_business_search&utm_source=gBcvfFpabk3CnzmXKdYe3w"}, {"transactions": [], "distance": 6016.262992412, "phone": "+17184439819", "categories": [{"alias": "bars", "title": "Bars"}, {"alias": "spanish", "title": "Spanish"}, {"alias": "mexican", "title": "Mexican"}], "id": "el-castillo-bar-and-restaurant-brooklyn", "display_phone": "(718) 443-9819", "is_closed": false, "location": {"address2": "", "country": "US", "display_address": ["189 Wilson Ave", "Brooklyn, NY 11237"], "address1": "189 Wilson Ave", "city": "Brooklyn", "zip_code": "11237", "address3": "", "state": "NY"}, "coordinates": {"longitude": -73.9233519119229, "latitude": 40.6995036539848}, "review_count": 3, "image_url": "https://s3-media2.fl.yelpcdn.com/bphoto/5354SQMsu7THCtMCByZsWg/o.jpg", "rating": 3.5, "name": "El Castillo Bar & Restaurant", "url": "https://www.yelp.com/biz/el-castillo-bar-and-restaurant-brooklyn?adjust_creative=gBcvfFpabk3CnzmXKdYe3w&utm_campaign=yelp_api_v3&utm_medium=api_v3_business_search&utm_source=gBcvfFpabk3CnzmXKdYe3w"}, {"transactions": ["delivery", "pickup"], "distance": 11200.933496898, "phone": "+12126620444", "categories": [{"alias": "mexican", "title": "Mexican"}], "id": "cinco-de-mayo-restaurant-new-york", "display_phone": "(212) 662-0444", "is_closed": false, "location": {"address2": "", "country": "US", "display_address": ["1028 Amsterdam Ave", "New York, NY 10025"], "address1": "1028 Amsterdam Ave", "city": "New York", "zip_code": "10025", "address3": "", "state": "NY"}, "coordinates": {"longitude": -73.96387, "latitude": 40.80359}, "review_count": 22, "image_url": "https://s3-media3.fl.yelpcdn.com/bphoto/efklFXtk2Ffn06Qc83rV_w/o.jpg", "price": "$$", "rating": 2.5, "name": "Cinco De Mayo Restaurant", "url": "https://www.yelp.com/biz/cinco-de-mayo-restaurant-new-york?adjust_creative=gBcvfFpabk3CnzmXKdYe3w&utm_campaign=yelp_api_v3&utm_medium=api_v3_business_search&utm_source=gBcvfFpabk3CnzmXKdYe3w"}, {"transactions": [], "distance": 12666.812584079998, "phone": "+12122220082", "categories": [{"alias": "mexican", "title": "Mexican"}, {"alias": "tex-mex", "title": "Tex-Mex"}], "id": "taco-hut-new-york-2", "display_phone": "(212) 222-0082", "is_closed": false, "location": {"address2": "", "country": "US", "display_address": ["3210 Broadway", "New York, NY 10027"], "address1": "3210 Broadway", "city": "New York", "zip_code": "10027", "address3": "", "state": "NY"}, "coordinates": {"longitude": -73.957760599224, "latitude": 40.815948103912}, "review_count": 43, "image_url": "https://s3-media1.fl.yelpcdn.com/bphoto/BIEP8tcLj4nGvoKWaxaPVg/o.jpg", "price": "$", "rating": 3.5, "name": "Taco Hut", "url": "https://www.yelp.com/biz/taco-hut-new-york-2?adjust_creative=gBcvfFpabk3CnzmXKdYe3w&utm_campaign=yelp_api_v3&utm_medium=api_v3_business_search&utm_source=gBcvfFpabk3CnzmXKdYe3w"}, {"transactions": [], "distance": 5639.938789227999, "phone": "+12016592800", "categories": [{"alias": "mexican", "title": "Mexican"}], "id": "charritos-hoboken", "display_phone": "(201) 659-2800", "is_closed": false, "location": {"address2": "", "country": "US", "display_address": ["1024 Washington St", "Hoboken, NJ 07030"], "address1": "1024 Washington St", "city": "Hoboken", "zip_code": "07030", "address3": "", "state": "NJ"}, "coordinates": {"longitude": -74.027568, "latitude": 40.749453}, "review_count": 231, "image_url": "https://s3-media3.fl.yelpcdn.com/bphoto/6mWw7GH7C8vEPJtBr02wOA/o.jpg", "price": "$$", "rating": 3.5, "name": "Charrito's", "url": "https://www.yelp.com/biz/charritos-hoboken?adjust_creative=gBcvfFpabk3CnzmXKdYe3w&utm_campaign=yelp_api_v3&utm_medium=api_v3_business_search&utm_source=gBcvfFpabk3CnzmXKdYe3w"}, {"transactions": [], "distance": 14560.1495952, "phone": "+19177378902", "categories": [{"alias": "tradamerican", "title": "American (Traditional)"}, {"alias": "mexican", "title": "Mexican"}], "id": "nalleli-place-woodstock-2", "display_phone": "(917) 737-8902", "is_closed": false, "location": {"address2": "", "country": "US", "display_address": ["961 Leggett Ave", "Woodstock, NY 10455"], "address1": "961 Leggett Ave", "city": "Woodstock", "zip_code": "10455", "address3": "", "state": "NY"}, "coordinates": {"longitude": -73.9000589, "latitude": 40.8153562}, "review_count": 2, "image_url": "https://s3-media2.fl.yelpcdn.com/bphoto/DwuHiYVpgur3kngBcyGX-g/o.jpg", "rating": 5.0, "name": "Nalleli Place", "url": "https://www.yelp.com/biz/nalleli-place-woodstock-2?adjust_creative=gBcvfFpabk3CnzmXKdYe3w&utm_campaign=yelp_api_v3&utm_medium=api_v3_business_search&utm_source=gBcvfFpabk3CnzmXKdYe3w"}, {"transactions": [], "distance": 3876.451376008, "phone": "", "categories": [{"alias": "mexican", "title": "Mexican"}, {"alias": "foodstands", "title": "Food Stands"}], "id": "el-idolo-new-york", "display_phone": "", "is_closed": false, "location": {"address2": "", "country": "US", "display_address": ["W 14th St And 8th Ave", "New York, NY 10011"], "address1": "W 14th St And 8th Ave", "city": "New York", "zip_code": "10011", "address3": "", "state": "NY"}, "coordinates": {"longitude": -74.0025231466688, "latitude": 40.7397477822278}, "review_count": 103, "image_url": "https://s3-media1.fl.yelpcdn.com/bphoto/IpeubTTthrOEusXCPUEosw/o.jpg", "price": "$", "rating": 3.5, "name": "El Idolo", "url": "https://www.yelp.com/biz/el-idolo-new-york?adjust_creative=gBcvfFpabk3CnzmXKdYe3w&utm_campaign=yelp_api_v3&utm_medium=api_v3_business_search&utm_source=gBcvfFpabk3CnzmXKdYe3w"}, {"transactions": ["delivery", "pickup"], "distance": 4721.2161509, "phone": "+17188321880", "categories": [{"alias": "mexican", "title": "Mexican"}], "id": "new-yummy-taco-brooklyn", "display_phone": "(718) 832-1880", "is_closed": false, "location": {"address2": "", "country": "US", "display_address": ["1106 8th Ave", "Brooklyn, NY 11215"], "address1": "1106 8th Ave", "city": "Brooklyn", "zip_code": "11215", "address3": "", "state": "NY"}, "coordinates": {"longitude": -73.9803839474916, "latitude": 40.6644344329834}, "review_count": 22, "image_url": "https://s3-media3.fl.yelpcdn.com/bphoto/C0TK1gFFXpNwHyBwOk4MhQ/o.jpg", "price": "$", "rating": 3.0, "name": "New Yummy Taco", "url": "https://www.yelp.com/biz/new-yummy-taco-brooklyn?adjust_creative=gBcvfFpabk3CnzmXKdYe3w&utm_campaign=yelp_api_v3&utm_medium=api_v3_business_search&utm_source=gBcvfFpabk3CnzmXKdYe3w"}, {"transactions": ["pickup", "delivery"], "distance": 4413.516458392, "phone": "+17183497731", "categories": [{"alias": "mexican", "title": "Mexican"}], "id": "yummy-taco-brooklyn-2", "display_phone": "(718) 349-7731", "is_closed": false, "location": {"address2": "", "country": "US", "display_address": ["941 Manhattan Ave", "Brooklyn, NY 11222"], "address1": "941 Manhattan Ave", "city": "Brooklyn", "zip_code": "11222", "address3": "", "state": "NY"}, "coordinates": {"longitude": -73.954704284668, "latitude": 40.7314071655273}, "review_count": 46, "image_url": "https://s3-media3.fl.yelpcdn.com/bphoto/hzRUTGryt4eZla-z_enDFA/o.jpg", "price": "$", "rating": 2.5, "name": "Yummy Taco", "url": "https://www.yelp.com/biz/yummy-taco-brooklyn-2?adjust_creative=gBcvfFpabk3CnzmXKdYe3w&utm_campaign=yelp_api_v3&utm_medium=api_v3_business_search&utm_source=gBcvfFpabk3CnzmXKdYe3w"}, {"transactions": ["pickup"], "distance": 9507.91795574, "phone": "+12014360976", "categories": [{"alias": "mexican", "title": "Mexican"}], "id": "casa-lupita-bayonne", "display_phone": "(201) 436-0976", "is_closed": false, "location": {"address2": null, "country": "US", "display_address": ["1007 Broadway", "Bayonne, NJ 07002"], "address1": "1007 Broadway", "city": "Bayonne", "zip_code": "07002", "address3": "", "state": "NJ"}, "coordinates": {"longitude": -74.1029093, "latitude": 40.6824438}, "review_count": 34, "image_url": "https://s3-media2.fl.yelpcdn.com/bphoto/c2GYR2_D01pgJAGC-4DtsQ/o.jpg", "price": "$$", "rating": 4.0, "name": "Casa Lupita", "url": "https://www.yelp.com/biz/casa-lupita-bayonne?adjust_creative=gBcvfFpabk3CnzmXKdYe3w&utm_campaign=yelp_api_v3&utm_medium=api_v3_business_search&utm_source=gBcvfFpabk3CnzmXKdYe3w"}, {"transactions": [], "distance": 5689.012393847999, "phone": "+17184564400", "categories": [{"alias": "mexican", "title": "Mexican"}], "id": "la-rosa-del-tepeyac-corporation-brooklyn", "display_phone": "(718) 456-4400", "is_closed": false, "location": {"address2": null, "country": "US", "display_address": ["191 Knickerbocker Ave", "Brooklyn, NY 11237"], "address1": "191 Knickerbocker Ave", "city": "Brooklyn", "zip_code": "11237", "address3": null, "state": "NY"}, "coordinates": {"longitude": -73.926834, "latitude": 40.703907}, "review_count": 1, "image_url": "", "rating": 5.0, "name": "La Rosa Del Tepeyac Corporation", "url": "https://www.yelp.com/biz/la-rosa-del-tepeyac-corporation-brooklyn?adjust_creative=gBcvfFpabk3CnzmXKdYe3w&utm_campaign=yelp_api_v3&utm_medium=api_v3_business_search&utm_source=gBcvfFpabk3CnzmXKdYe3w"}, {"transactions": [], "distance": 7941.814966982, "phone": "+17187293301", "categories": [{"alias": "mexican", "title": "Mexican"}], "id": "tequila-sunrise-long-island-city-2", "display_phone": "(718) 729-3301", "is_closed": false, "location": {"address2": null, "country": "US", "display_address": ["40-01 Northern Blvd", "Long Island City, NY 11101"], "address1": "40-01 Northern Blvd", "city": "Long Island City", "zip_code": "11101", "address3": "", "state": "NY"}, "coordinates": {"longitude": -73.9237234023634, "latitude": 40.7527848676672}, "review_count": 148, "image_url": "https://s3-media1.fl.yelpcdn.com/bphoto/FyN-HSStfenJyzenOVYlyA/o.jpg", "price": "$$", "rating": 2.5, "name": "Tequila Sunrise", "url": "https://www.yelp.com/biz/tequila-sunrise-long-island-city-2?adjust_creative=gBcvfFpabk3CnzmXKdYe3w&utm_campaign=yelp_api_v3&utm_medium=api_v3_business_search&utm_source=gBcvfFpabk3CnzmXKdYe3w"}, {"transactions": [], "distance": 3990.57498623, "phone": "", "categories": [{"alias": "mexican", "title": "Mexican"}], "id": "dos-toros-taqueria-new-york-29", "display_phone": "", "is_closed": false, "location": {"address2": "", "country": "US", "display_address": ["668 6th Ave", "New York, NY 10010"], "address1": "668 6th Ave", "city": "New York", "zip_code": "10010", "address3": null, "state": "NY"}, "coordinates": {"longitude": -73.993606, "latitude": 40.74131}, "review_count": 8, "image_url": "https://s3-media4.fl.yelpcdn.com/bphoto/SXO3Se8eqtXrC_tuHM9rcA/o.jpg", "rating": 3.5, "name": "Dos Toros Taqueria", "url": "https://www.yelp.com/biz/dos-toros-taqueria-new-york-29?adjust_creative=gBcvfFpabk3CnzmXKdYe3w&utm_campaign=yelp_api_v3&utm_medium=api_v3_business_search&utm_source=gBcvfFpabk3CnzmXKdYe3w"}, {"transactions": [], "distance": 16974.5538835, "phone": "+12127402626", "categories": [{"alias": "mexican", "title": "Mexican"}], "id": "mi-rachinto-new-york", "display_phone": "(212) 740-2626", "is_closed": false, "location": {"address2": "", "country": "US", "display_address": ["1468 St Nicholas Ave", "New York, NY 10033"], "address1": "1468 St Nicholas Ave", "city": "New York", "zip_code": "10033", "address3": "", "state": "NY"}, "coordinates": {"longitude": -73.932304, "latitude": 40.850704}, "review_count": 6, "image_url": "https://s3-media2.fl.yelpcdn.com/bphoto/M7LHPw2kd5YNH859spm5qw/o.jpg", "price": "$$", "rating": 4.0, "name": "Mi Rachinto", "url": "https://www.yelp.com/biz/mi-rachinto-new-york?adjust_creative=gBcvfFpabk3CnzmXKdYe3w&utm_campaign=yelp_api_v3&utm_medium=api_v3_business_search&utm_source=gBcvfFpabk3CnzmXKdYe3w"}, {"transactions": ["delivery", "pickup"], "distance": 1411.2264318641999, "phone": "+12124257171", "categories": [{"alias": "mexican", "title": "Mexican"}], "id": "guac-star-new-york-3", "display_phone": "(212) 425-7171", "is_closed": false, "location": {"address2": "", "country": "US", "display_address": ["66 Pearl St", "New York, NY 10004"], "address1": "66 Pearl St", "city": "New York", "zip_code": "10004", "address3": "", "state": "NY"}, "coordinates": {"longitude": -74.01091, "latitude": 40.70355}, "review_count": 60, "image_url": "https://s3-media1.fl.yelpcdn.com/bphoto/VHRs0728YwUoAf9WWj_j0Q/o.jpg", "price": "$$", "rating": 2.5, "name": "Guac Star", "url": "https://www.yelp.com/biz/guac-star-new-york-3?adjust_creative=gBcvfFpabk3CnzmXKdYe3w&utm_campaign=yelp_api_v3&utm_medium=api_v3_business_search&utm_source=gBcvfFpabk3CnzmXKdYe3w"}, {"transactions": ["delivery", "pickup"], "distance": 7712.777399663999, "phone": "+12017669090", "categories": [{"alias": "mexican", "title": "Mexican"}], "id": "cemitas-puebla-union-city", "display_phone": "(201) 766-9090", "is_closed": false, "location": {"address2": "", "country": "US", "display_address": ["520 24th St", "Union City, NJ 07087"], "address1": "520 24th St", "city": "Union City", "zip_code": "07087", "address3": "", "state": "NJ"}, "coordinates": {"longitude": -74.0327988, "latitude": 40.767849}, "review_count": 32, "image_url": "https://s3-media1.fl.yelpcdn.com/bphoto/Mu2Fe_zL_N1o92sgzWpL8A/o.jpg", "price": "$", "rating": 4.0, "name": "Cemitas Puebla", "url": "https://www.yelp.com/biz/cemitas-puebla-union-city?adjust_creative=gBcvfFpabk3CnzmXKdYe3w&utm_campaign=yelp_api_v3&utm_medium=api_v3_business_search&utm_source=gBcvfFpabk3CnzmXKdYe3w"}, {"transactions": ["delivery", "pickup"], "distance": 3147.260870414, "phone": "+12123533728", "categories": [{"alias": "mexican", "title": "Mexican"}], "id": "211-new-taco-grill-new-york", "display_phone": "(212) 353-3728", "is_closed": false, "location": {"address2": "", "country": "US", "display_address": ["211 E 14th St", "New York, NY 10003"], "address1": "211 E 14th St", "city": "New York", "zip_code": "10003", "address3": "", "state": "NY"}, "coordinates": {"longitude": -73.98624, "latitude": 40.73307}, "review_count": 33, "image_url": "https://s3-media2.fl.yelpcdn.com/bphoto/kLj7IyxHMoo7MuHCaYDpNg/o.jpg", "price": "$", "rating": 3.0, "name": "211 New Taco Grill", "url": "https://www.yelp.com/biz/211-new-taco-grill-new-york?adjust_creative=gBcvfFpabk3CnzmXKdYe3w&utm_campaign=yelp_api_v3&utm_medium=api_v3_business_search&utm_source=gBcvfFpabk3CnzmXKdYe3w"}, {"transactions": [], "distance": 7390.593003419999, "phone": "+17184394822", "categories": [{"alias": "mexican", "title": "Mexican"}], "id": "el-arco-brooklyn", "display_phone": "(718) 439-4822", "is_closed": false, "location": {"address2": "", "country": "US", "display_address": ["5717 5th Ave", "Brooklyn, NY 11220"], "address1": "5717 5th Ave", "city": "Brooklyn", "zip_code": "11220", "address3": null, "state": "NY"}, "coordinates": {"longitude": -74.01463, "latitude": 40.64078}, "review_count": 7, "image_url": "https://s3-media2.fl.yelpcdn.com/bphoto/pTtXszbVNEFWhWxLxgGTZQ/o.jpg", "price": "$", "rating": 4.5, "name": "El Arco", "url": "https://www.yelp.com/biz/el-arco-brooklyn?adjust_creative=gBcvfFpabk3CnzmXKdYe3w&utm_campaign=yelp_api_v3&utm_medium=api_v3_business_search&utm_source=gBcvfFpabk3CnzmXKdYe3w"}, {"transactions": ["delivery"], "distance": 5488.81822268, "phone": "+16467264645", "categories": [{"alias": "mexican", "title": "Mexican"}, {"alias": "juicebars", "title": "Juice Bars & Smoothies"}], "id": "maya-blue-new-york-3", "display_phone": "(646) 726-4645", "is_closed": false, "location": {"address2": "", "country": "US", "display_address": ["146 E 44th St", "New York, NY 10174"], "address1": "146 E 44th St", "city": "New York", "zip_code": "10174", "address3": null, "state": "NY"}, "coordinates": {"longitude": -73.9743997152164, "latitude": 40.7524506103315}, "review_count": 23, "image_url": "https://s3-media4.fl.yelpcdn.com/bphoto/gVNigKXI1oD2pGhIaRay3A/o.jpg", "price": "$$", "rating": 3.0, "name": "Maya Blue", "url": "https://www.yelp.com/biz/maya-blue-new-york-3?adjust_creative=gBcvfFpabk3CnzmXKdYe3w&utm_campaign=yelp_api_v3&utm_medium=api_v3_business_search&utm_source=gBcvfFpabk3CnzmXKdYe3w"}, {"transactions": [], "distance": 10531.915570168, "phone": "+17182362793", "categories": [{"alias": "mexican", "title": "Mexican"}], "id": "mezcals-mexican-restaurant-brooklyn-3", "display_phone": "(718) 236-2793", "is_closed": false, "location": {"address2": "", "country": "US", "display_address": ["1474 86th St", "Brooklyn, NY 11228"], "address1": "1474 86th St", "city": "Brooklyn", "zip_code": "11228", "address3": "", "state": "NY"}, "coordinates": {"longitude": -74.010124, "latitude": 40.611465}, "review_count": 21, "image_url": "https://s3-media2.fl.yelpcdn.com/bphoto/22UJEGg12LkGz4Veju2zsg/o.jpg", "price": "$$", "rating": 2.5, "name": "Mezcal's Mexican Restaurant", "url": "https://www.yelp.com/biz/mezcals-mexican-restaurant-brooklyn-3?adjust_creative=gBcvfFpabk3CnzmXKdYe3w&utm_campaign=yelp_api_v3&utm_medium=api_v3_business_search&utm_source=gBcvfFpabk3CnzmXKdYe3w"}, {"transactions": ["delivery"], "distance": 14538.56995514, "phone": "+12019913330", "categories": [{"alias": "mexican", "title": "Mexican"}], "id": "mi-pueblito-kearny", "display_phone": "(201) 991-3330", "is_closed": false, "location": {"address2": "", "country": "US", "display_address": ["412 Kearny Ave", "Kearny, NJ 07032"], "address1": "412 Kearny Ave", "city": "Kearny", "zip_code": "07032", "address3": "", "state": "NJ"}, "coordinates": {"longitude": -74.1477151492868, "latitude": 40.7652839160058}, "review_count": 147, "image_url": "https://s3-media1.fl.yelpcdn.com/bphoto/_tDABFi3POHkIkG7T5e-xw/o.jpg", "price": "$", "rating": 4.0, "name": "Mi Pueblito", "url": "https://www.yelp.com/biz/mi-pueblito-kearny?adjust_creative=gBcvfFpabk3CnzmXKdYe3w&utm_campaign=yelp_api_v3&utm_medium=api_v3_business_search&utm_source=gBcvfFpabk3CnzmXKdYe3w"}, {"transactions": [], "distance": 19364.217787979997, "phone": "", "categories": [{"alias": "mexican", "title": "Mexican"}], "id": "el-pasatiempo-rockaway-park", "display_phone": "", "is_closed": false, "location": {"address2": "", "country": "US", "display_address": ["11267 Rockaway Beach Blvd", "Rockaway Park, NY 11694"], "address1": "11267 Rockaway Beach Blvd", "city": "Rockaway Park", "zip_code": "11694", "address3": "", "state": "NY"}, "coordinates": {"longitude": -73.8342056, "latitude": 40.5805054}, "review_count": 5, "image_url": "", "rating": 3.5, "name": "El Pasatiempo", "url": "https://www.yelp.com/biz/el-pasatiempo-rockaway-park?adjust_creative=gBcvfFpabk3CnzmXKdYe3w&utm_campaign=yelp_api_v3&utm_medium=api_v3_business_search&utm_source=gBcvfFpabk3CnzmXKdYe3w"}, {"transactions": [], "distance": 8272.46304322, "phone": "+17184729066", "categories": [{"alias": "mexican", "title": "Mexican"}], "id": "el-compita-astoria", "display_phone": "(718) 472-9066", "is_closed": false, "location": {"address2": "", "country": "US", "display_address": ["32-20 34th Ave", "Store  6", "Astoria, NY 11106"], "address1": "32-20 34th Ave", "city": "Astoria", "zip_code": "11106", "address3": "Store  6", "state": "NY"}, "coordinates": {"longitude": -73.92601, "latitude": 40.7589}, "review_count": 1, "image_url": "", "price": "$$", "rating": 5.0, "name": "El Compita", "url": "https://www.yelp.com/biz/el-compita-astoria?adjust_creative=gBcvfFpabk3CnzmXKdYe3w&utm_campaign=yelp_api_v3&utm_medium=api_v3_business_search&utm_source=gBcvfFpabk3CnzmXKdYe3w"}, {"transactions": [], "distance": 1578.6206766789999, "phone": "+17182220086", "categories": [{"alias": "mexican", "title": "Mexican"}], "id": "super-taco-plus-brooklyn", "display_phone": "(718) 222-0086", "is_closed": false, "location": {"address2": "", "country": "US", "display_address": ["51B Willoughby St", "Brooklyn, NY 11226"], "address1": "51B Willoughby St", "city": "Brooklyn", "zip_code": "11226", "address3": "", "state": "NY"}, "coordinates": {"longitude": -73.98702, "latitude": 40.69232}, "review_count": 18, "image_url": "https://s3-media1.fl.yelpcdn.com/bphoto/1hwlx63hpVGx5hD2j-Ji3A/o.jpg", "price": "$", "rating": 3.0, "name": "Super Taco Plus", "url": "https://www.yelp.com/biz/super-taco-plus-brooklyn?adjust_creative=gBcvfFpabk3CnzmXKdYe3w&utm_campaign=yelp_api_v3&utm_medium=api_v3_business_search&utm_source=gBcvfFpabk3CnzmXKdYe3w"}, {"transactions": ["delivery", "pickup"], "distance": 6718.1146738219995, "phone": "+12125866032", "categories": [{"alias": "mexican", "title": "Mexican"}], "id": "limon-jungle-new-york", "display_phone": "(212) 586-6032", "is_closed": false, "location": {"address2": "", "country": "US", "display_address": ["803 9th Ave", "New York, NY 10019"], "address1": "803 9th Ave", "city": "New York", "zip_code": "10019", "address3": "", "state": "NY"}, "coordinates": {"longitude": -73.987777, "latitude": 40.765659}, "review_count": 419, "image_url": "https://s3-media1.fl.yelpcdn.com/bphoto/tH1yOK429Wm0sFbxDp5I5g/o.jpg", "price": "$$", "rating": 3.0, "name": "Limon Jungle", "url": "https://www.yelp.com/biz/limon-jungle-new-york?adjust_creative=gBcvfFpabk3CnzmXKdYe3w&utm_campaign=yelp_api_v3&utm_medium=api_v3_business_search&utm_source=gBcvfFpabk3CnzmXKdYe3w"}, {"transactions": [], "distance": 6073.042116952, "phone": "+12125758424", "categories": [{"alias": "mexican", "title": "Mexican"}, {"alias": "hotdogs", "title": "Fast Food"}], "id": "chipotle-mexican-grill-new-york-38", "display_phone": "(212) 575-8424", "is_closed": false, "location": {"address2": null, "country": "US", "display_address": ["129 W 48th St", "New York, NY 10020"], "address1": "129 W 48th St", "city": "New York", "zip_code": "10020", "address3": "", "state": "NY"}, "coordinates": {"longitude": -73.9827643275546, "latitude": 40.7593566036932}, "review_count": 99, "image_url": "https://s3-media2.fl.yelpcdn.com/bphoto/ZJBthrzzdARaunaILS6KzA/o.jpg", "price": "$", "rating": 3.0, "name": "Chipotle Mexican Grill", "url": "https://www.yelp.com/biz/chipotle-mexican-grill-new-york-38?adjust_creative=gBcvfFpabk3CnzmXKdYe3w&utm_campaign=yelp_api_v3&utm_medium=api_v3_business_search&utm_source=gBcvfFpabk3CnzmXKdYe3w"}, {"transactions": [], "distance": 7243.27080114, "phone": "+17184392896", "categories": [{"alias": "mexican", "title": "Mexican"}], "id": "tulcingo-deli-vl-brooklyn", "display_phone": "(718) 439-2896", "is_closed": false, "location": {"address2": "", "country": "US", "display_address": ["5520 5th Ave", "Brooklyn, NY 11220"], "address1": "5520 5th Ave", "city": "Brooklyn", "zip_code": "11220", "address3": "", "state": "NY"}, "coordinates": {"longitude": -74.0138778686523, "latitude": 40.6420669555664}, "review_count": 37, "image_url": "https://s3-media1.fl.yelpcdn.com/bphoto/JXchKOoQ1Y2m_fQOnTDxgg/o.jpg", "price": "$", "rating": 3.5, "name": "Tulcingo Deli Vl", "url": "https://www.yelp.com/biz/tulcingo-deli-vl-brooklyn?adjust_creative=gBcvfFpabk3CnzmXKdYe3w&utm_campaign=yelp_api_v3&utm_medium=api_v3_business_search&utm_source=gBcvfFpabk3CnzmXKdYe3w"}, {"transactions": ["delivery", "pickup"], "distance": 5815.91657768, "phone": "+17188541911", "categories": [{"alias": "diners", "title": "Diners"}, {"alias": "coffee", "title": "Coffee & Tea"}, {"alias": "mexican", "title": "Mexican"}], "id": "terrace-coffee-shop-brooklyn", "display_phone": "(718) 854-1911", "is_closed": false, "location": {"address2": "", "country": "US", "display_address": ["598 19th St", "Brooklyn, NY 11218"], "address1": "598 19th St", "city": "Brooklyn", "zip_code": "11218", "address3": "", "state": "NY"}, "coordinates": {"longitude": -73.979355, "latitude": 40.654392}, "review_count": 103, "image_url": "https://s3-media4.fl.yelpcdn.com/bphoto/0inKazCTRoZ8amp5ZY34LA/o.jpg", "price": "$", "rating": 3.0, "name": "Terrace Coffee Shop", "url": "https://www.yelp.com/biz/terrace-coffee-shop-brooklyn?adjust_creative=gBcvfFpabk3CnzmXKdYe3w&utm_campaign=yelp_api_v3&utm_medium=api_v3_business_search&utm_source=gBcvfFpabk3CnzmXKdYe3w"}, {"transactions": [], "distance": 7810.886306612, "phone": "+12013323786", "categories": [{"alias": "mexican", "title": "Mexican"}], "id": "el-gallo-de-oro-jersey-city", "display_phone": "(201) 332-3786", "is_closed": false, "location": {"address2": "", "country": "US", "display_address": ["360 Ocean Ave", "Jersey City, NJ 07305"], "address1": "360 Ocean Ave", "city": "Jersey City", "zip_code": "07305", "address3": "", "state": "NJ"}, "coordinates": {"longitude": -74.0864791870117, "latitude": 40.6983642578125}, "review_count": 15, "image_url": "https://s3-media1.fl.yelpcdn.com/bphoto/Cxn4NYgP3BVjbyD0NLVgew/o.jpg", "price": "$", "rating": 4.5, "name": "El Gallo De Oro", "url": "https://www.yelp.com/biz/el-gallo-de-oro-jersey-city?adjust_creative=gBcvfFpabk3CnzmXKdYe3w&utm_campaign=yelp_api_v3&utm_medium=api_v3_business_search&utm_source=gBcvfFpabk3CnzmXKdYe3w"}, {"transactions": [], "distance": 10217.460994878, "phone": "+12128313930", "categories": [{"alias": "mexican", "title": "Mexican"}], "id": "cocinando-en-casa-new-york", "display_phone": "(212) 831-3930", "is_closed": false, "location": {"address2": "", "country": "US", "display_address": ["2006 2nd Ave", "New York, NY 10029"], "address1": "2006 2nd Ave", "city": "New York", "zip_code": "10029", "address3": "", "state": "NY"}, "coordinates": {"longitude": -73.943367, "latitude": 40.788853}, "review_count": 4, "image_url": "https://s3-media1.fl.yelpcdn.com/bphoto/04CyIr5d8qSMEG1xATfH7Q/o.jpg", "price": "$", "rating": 3.5, "name": "Cocinando en Casa", "url": "https://www.yelp.com/biz/cocinando-en-casa-new-york?adjust_creative=gBcvfFpabk3CnzmXKdYe3w&utm_campaign=yelp_api_v3&utm_medium=api_v3_business_search&utm_source=gBcvfFpabk3CnzmXKdYe3w"}, {"transactions": ["delivery", "pickup"], "distance": 13512.92711243, "phone": "+12018408778", "categories": [{"alias": "mexican", "title": "Mexican"}], "id": "the-great-burrito-edgewater", "display_phone": "(201) 840-8778", "is_closed": false, "location": {"address2": "", "country": "US", "display_address": ["10 Hilliard Ave", "Edgewater, NJ 07020"], "address1": "10 Hilliard Ave", "city": "Edgewater", "zip_code": "07020", "address3": "", "state": "NJ"}, "coordinates": {"longitude": -73.974592, "latitude": 40.82605}, "review_count": 143, "image_url": "https://s3-media3.fl.yelpcdn.com/bphoto/raEHHkIYCo6jhtMbyiYlXg/o.jpg", "price": "$$", "rating": 4.0, "name": "The Great Burrito", "url": "https://www.yelp.com/biz/the-great-burrito-edgewater?adjust_creative=gBcvfFpabk3CnzmXKdYe3w&utm_campaign=yelp_api_v3&utm_medium=api_v3_business_search&utm_source=gBcvfFpabk3CnzmXKdYe3w"}, {"transactions": [], "distance": 9387.02916296, "phone": "+17183378226", "categories": [{"alias": "tex-mex", "title": "Tex-Mex"}, {"alias": "mexican", "title": "Mexican"}, {"alias": "kosher", "title": "Kosher"}], "id": "carlos-and-gabbys-brooklyn", "display_phone": "(718) 337-8226", "is_closed": false, "location": {"address2": "", "country": "US", "display_address": ["1376 Coney Island Ave", "Brooklyn, NY 11230"], "address1": "1376 Coney Island Ave", "city": "Brooklyn", "zip_code": "11230", "address3": "", "state": "NY"}, "coordinates": {"longitude": -73.96538, "latitude": 40.62394}, "review_count": 44, "image_url": "https://s3-media4.fl.yelpcdn.com/bphoto/zXSDHUzt5cW76Ts7akb-7g/o.jpg", "price": "$$", "rating": 2.5, "name": "Carlos & Gabby's", "url": "https://www.yelp.com/biz/carlos-and-gabbys-brooklyn?adjust_creative=gBcvfFpabk3CnzmXKdYe3w&utm_campaign=yelp_api_v3&utm_medium=api_v3_business_search&utm_source=gBcvfFpabk3CnzmXKdYe3w"}, {"transactions": ["delivery", "pickup"], "distance": 6239.3983052799995, "phone": "+12125864853", "categories": [{"alias": "mexican", "title": "Mexican"}], "id": "sombrero-new-york", "display_phone": "(212) 586-4853", "is_closed": false, "location": {"address2": "", "country": "US", "display_address": ["303 W 48th St", "New York, NY 10036"], "address1": "303 W 48th St", "city": "New York", "zip_code": "10036", "address3": "", "state": "NY"}, "coordinates": {"longitude": -73.9870921522379, "latitude": 40.7611200213432}, "review_count": 208, "image_url": "https://s3-media4.fl.yelpcdn.com/bphoto/jIevwZ4wgRDcCUqcPjKd2A/o.jpg", "price": "$$", "rating": 2.0, "name": "Sombrero", "url": "https://www.yelp.com/biz/sombrero-new-york?adjust_creative=gBcvfFpabk3CnzmXKdYe3w&utm_campaign=yelp_api_v3&utm_medium=api_v3_business_search&utm_source=gBcvfFpabk3CnzmXKdYe3w"}, {"transactions": [], "distance": 11740.38635704, "phone": "+12019418102", "categories": [{"alias": "mexican", "title": "Mexican"}], "id": "el-trancazo-fairview", "display_phone": "(201) 941-8102", "is_closed": false, "location": {"address2": null, "country": "US", "display_address": ["365 Fairview Ave", "Fairview, NJ 07022"], "address1": "365 Fairview Ave", "city": "Fairview", "zip_code": "07022", "address3": null, "state": "NJ"}, "coordinates": {"longitude": -74.0010681, "latitude": 40.8107376}, "review_count": 7, "image_url": "https://s3-media1.fl.yelpcdn.com/bphoto/mGpCTNaWiF1VEeum1Yez8g/o.jpg", "rating": 5.0, "name": "El Trancazo", "url": "https://www.yelp.com/biz/el-trancazo-fairview?adjust_creative=gBcvfFpabk3CnzmXKdYe3w&utm_campaign=yelp_api_v3&utm_medium=api_v3_business_search&utm_source=gBcvfFpabk3CnzmXKdYe3w"}, {"transactions": [], "distance": 14742.8901522, "phone": "+19737324168", "categories": [{"alias": "mexican", "title": "Mexican"}], "id": "aguilas-de-mexico-restaurant-newark-5", "display_phone": "(973) 732-4168", "is_closed": false, "location": {"address2": "", "country": "US", "display_address": ["118 Pacific St", "Newark, NJ 07105"], "address1": "118 Pacific St", "city": "Newark", "zip_code": "07105", "address3": "", "state": "NJ"}, "coordinates": {"longitude": -74.16735, "latitude": 40.723789}, "review_count": 132, "image_url": "https://s3-media1.fl.yelpcdn.com/bphoto/6PW5q-fciVVMKo0fUsEwQg/o.jpg", "price": "$", "rating": 4.0, "name": "Aguilas de Mexico Restaurant", "url": "https://www.yelp.com/biz/aguilas-de-mexico-restaurant-newark-5?adjust_creative=gBcvfFpabk3CnzmXKdYe3w&utm_campaign=yelp_api_v3&utm_medium=api_v3_business_search&utm_source=gBcvfFpabk3CnzmXKdYe3w"}, {"transactions": [], "distance": 1251.921518466, "phone": "+17182439109", "categories": [{"alias": "hotdogs", "title": "Fast Food"}, {"alias": "mexican", "title": "Mexican"}], "id": "chipotle-mexican-grill-brooklyn-5", "display_phone": "(718) 243-9109", "is_closed": false, "location": {"address2": null, "country": "US", "display_address": ["185 Montague St", "Brooklyn, NY 11201"], "address1": "185 Montague St", "city": "Brooklyn", "zip_code": "11201", "address3": "", "state": "NY"}, "coordinates": {"longitude": -73.991813, "latitude": 40.694339}, "review_count": 177, "image_url": "https://s3-media2.fl.yelpcdn.com/bphoto/y2K_9-WJInHDykD1rnrzlQ/o.jpg", "price": "$", "rating": 3.5, "name": "Chipotle Mexican Grill", "url": "https://www.yelp.com/biz/chipotle-mexican-grill-brooklyn-5?adjust_creative=gBcvfFpabk3CnzmXKdYe3w&utm_campaign=yelp_api_v3&utm_medium=api_v3_business_search&utm_source=gBcvfFpabk3CnzmXKdYe3w"}, {"transactions": [], "distance": 3028.745210398, "phone": "+12126913663", "categories": [{"alias": "mexican", "title": "Mexican"}], "id": "flying-burritos-new-york", "display_phone": "(212) 691-3663", "is_closed": false, "location": {"address2": null, "country": "US", "display_address": ["165 W 4th St", "New York, NY 10011"], "address1": "165 W 4th St", "city": "New York", "zip_code": "10011", "address3": "", "state": "NY"}, "coordinates": {"longitude": -74.00142, "latitude": 40.73218}, "review_count": 1, "image_url": "", "rating": 4.0, "name": "Flying Burritos", "url": "https://www.yelp.com/biz/flying-burritos-new-york?adjust_creative=gBcvfFpabk3CnzmXKdYe3w&utm_campaign=yelp_api_v3&utm_medium=api_v3_business_search&utm_source=gBcvfFpabk3CnzmXKdYe3w"}, {"transactions": ["delivery", "pickup"], "distance": 8931.820423798, "phone": "+17182052605", "categories": [{"alias": "italian", "title": "Italian"}, {"alias": "mexican", "title": "Mexican"}], "id": "el-tequilero-deli-woodside", "display_phone": "(718) 205-2605", "is_closed": false, "location": {"address2": null, "country": "US", "display_address": ["39-22 61st St", "Woodside, NY 11377"], "address1": "39-22 61st St", "city": "Woodside", "zip_code": "11377", "address3": null, "state": "NY"}, "coordinates": {"longitude": -73.9032593, "latitude": 40.7465897}, "review_count": 10, "image_url": "https://s3-media4.fl.yelpcdn.com/bphoto/jx6_XAvBw0S3D2Fz5jec1A/o.jpg", "rating": 3.0, "name": "El Tequilero Deli", "url": "https://www.yelp.com/biz/el-tequilero-deli-woodside?adjust_creative=gBcvfFpabk3CnzmXKdYe3w&utm_campaign=yelp_api_v3&utm_medium=api_v3_business_search&utm_source=gBcvfFpabk3CnzmXKdYe3w"}, {"transactions": ["delivery", "pickup"], "distance": 18110.5950362, "phone": "+17185181016", "categories": [{"alias": "mexican", "title": "Mexican"}], "id": "panchos-bronx", "display_phone": "(718) 518-1016", "is_closed": false, "location": {"address2": "", "country": "US", "display_address": ["1160 Pugsley Ave", "Bronx, NY 10472"], "address1": "1160 Pugsley Ave", "city": "Bronx", "zip_code": "10472", "address3": "", "state": "NY"}, "coordinates": {"longitude": -73.8567352294922, "latitude": 40.8306274414062}, "review_count": 17, "image_url": "https://s3-media4.fl.yelpcdn.com/bphoto/LbyS3p3z_8J7W-p3Uh5baQ/o.jpg", "price": "$", "rating": 3.0, "name": "Panchos", "url": "https://www.yelp.com/biz/panchos-bronx?adjust_creative=gBcvfFpabk3CnzmXKdYe3w&utm_campaign=yelp_api_v3&utm_medium=api_v3_business_search&utm_source=gBcvfFpabk3CnzmXKdYe3w"}, {"transactions": [], "distance": 12400.446536396, "phone": "", "categories": [{"alias": "mexican", "title": "Mexican"}], "id": "tu-cocina-restaurant-bar-new-york", "display_phone": "", "is_closed": false, "location": {"address2": "", "country": "US", "display_address": ["107-02 Corona Ave", "New York, NY 11368"], "address1": "107-02 Corona Ave", "city": "New York", "zip_code": "11368", "address3": "", "state": "NY"}, "coordinates": {"longitude": -73.8560119, "latitude": 40.7435759}, "review_count": 1, "image_url": "https://s3-media3.fl.yelpcdn.com/bphoto/v3sQBOL0e0w50DDwZSikaQ/o.jpg", "rating": 5.0, "name": "Tu Cocina Restaurant Bar", "url": "https://www.yelp.com/biz/tu-cocina-restaurant-bar-new-york?adjust_creative=gBcvfFpabk3CnzmXKdYe3w&utm_campaign=yelp_api_v3&utm_medium=api_v3_business_search&utm_source=gBcvfFpabk3CnzmXKdYe3w"}, {"transactions": [], "distance": 16757.15779894, "phone": "+12016415329", "categories": [{"alias": "tradamerican", "title": "American (Traditional)"}, {"alias": "mexican", "title": "Mexican"}], "id": "victorias-mexican-american-grill-little-ferry-2", "display_phone": "(201) 641-5329", "is_closed": false, "location": {"address2": null, "country": "US", "display_address": ["201 Main St", "Little Ferry, NJ 07643"], "address1": "201 Main St", "city": "Little Ferry", "zip_code": "07643", "address3": "", "state": "NJ"}, "coordinates": {"longitude": -74.0412875711639, "latitude": 40.8518846527181}, "review_count": 43, "image_url": "https://s3-media3.fl.yelpcdn.com/bphoto/X0msN7_sCUuEjiloHta0bQ/o.jpg", "price": "$$", "rating": 4.5, "name": "Victoria's Mexican - American Grill", "url": "https://www.yelp.com/biz/victorias-mexican-american-grill-little-ferry-2?adjust_creative=gBcvfFpabk3CnzmXKdYe3w&utm_campaign=yelp_api_v3&utm_medium=api_v3_business_search&utm_source=gBcvfFpabk3CnzmXKdYe3w"}, {"transactions": [], "distance": 3847.0154208699996, "phone": "+12124630535", "categories": [{"alias": "mexican", "title": "Mexican"}], "id": "tequilas-mexican-grill-new-york", "display_phone": "(212) 463-0535", "is_closed": false, "location": {"address2": "", "country": "US", "display_address": ["245 W 14th St", "New York, NY 10011"], "address1": "245 W 14th St", "city": "New York", "zip_code": "10011", "address3": "", "state": "NY"}, "coordinates": {"longitude": -74.00143, "latitude": 40.73961}, "review_count": 7, "image_url": "", "rating": 3.5, "name": "Tequilas Mexican Grill", "url": "https://www.yelp.com/biz/tequilas-mexican-grill-new-york?adjust_creative=gBcvfFpabk3CnzmXKdYe3w&utm_campaign=yelp_api_v3&utm_medium=api_v3_business_search&utm_source=gBcvfFpabk3CnzmXKdYe3w"}, {"transactions": ["delivery", "pickup"], "distance": 13937.9385177, "phone": "+17184424028", "categories": [{"alias": "mexican", "title": "Mexican"}], "id": "cafe-con-pan-bakery-ii-staten-island", "display_phone": "(718) 442-4028", "is_closed": false, "location": {"address2": null, "country": "US", "display_address": ["137 Port Richmond Ave", "Staten Island, NY 10302"], "address1": "137 Port Richmond Ave", "city": "Staten Island", "zip_code": "10302", "address3": null, "state": "NY"}, "coordinates": {"longitude": -74.133278, "latitude": 40.637619}, "review_count": 9, "image_url": "https://s3-media4.fl.yelpcdn.com/bphoto/vVJ3X5fmgn5iDGohAtSTsA/o.jpg", "price": "$", "rating": 4.0, "name": "Cafe Con Pan Bakery II", "url": "https://www.yelp.com/biz/cafe-con-pan-bakery-ii-staten-island?adjust_creative=gBcvfFpabk3CnzmXKdYe3w&utm_campaign=yelp_api_v3&utm_medium=api_v3_business_search&utm_source=gBcvfFpabk3CnzmXKdYe3w"}, {"transactions": ["delivery", "pickup"], "distance": 6334.611365832, "phone": "+12125827944", "categories": [{"alias": "tacos", "title": "Tacos"}], "id": "choza-taqueria-new-york-5", "display_phone": "(212) 582-7944", "is_closed": false, "location": {"address2": "", "country": "US", "display_address": ["600 11th Ave", "New York, NY 10036"], "address1": "600 11th Ave", "city": "New York", "zip_code": "10036", "address3": "", "state": "NY"}, "coordinates": {"longitude": -73.9967513, "latitude": 40.762384}, "review_count": 95, "image_url": "https://s3-media1.fl.yelpcdn.com/bphoto/VniQNi8Apom6TkKWWrlGkQ/o.jpg", "price": "$", "rating": 3.0, "name": "Choza Taqueria", "url": "https://www.yelp.com/biz/choza-taqueria-new-york-5?adjust_creative=gBcvfFpabk3CnzmXKdYe3w&utm_campaign=yelp_api_v3&utm_medium=api_v3_business_search&utm_source=gBcvfFpabk3CnzmXKdYe3w"}, {"transactions": [], "distance": 6610.3902822420005, "phone": "+16469982329", "categories": [{"alias": "mexican", "title": "Mexican"}, {"alias": "hotdogs", "title": "Fast Food"}], "id": "chipotle-mexican-grill-new-york-14", "display_phone": "(646) 998-2329", "is_closed": false, "location": {"address2": "", "country": "US", "display_address": ["1379 Sixth Ave", "New York, NY 10019"], "address1": "1379 Sixth Ave", "city": "New York", "zip_code": "10019", "address3": "", "state": "NY"}, "coordinates": {"longitude": -73.9779210090637, "latitude": 40.7635843626354}, "review_count": 48, "image_url": "https://s3-media4.fl.yelpcdn.com/bphoto/-lxOT_g_sRZtacKH2OmAZg/o.jpg", "price": "$$", "rating": 3.0, "name": "Chipotle Mexican Grill", "url": "https://www.yelp.com/biz/chipotle-mexican-grill-new-york-14?adjust_creative=gBcvfFpabk3CnzmXKdYe3w&utm_campaign=yelp_api_v3&utm_medium=api_v3_business_search&utm_source=gBcvfFpabk3CnzmXKdYe3w"}, {"transactions": [], "distance": 12141.26249033, "phone": "+17184763476", "categories": [{"alias": "mexican", "title": "Mexican"}], "id": "la-america-restaurant-corona", "display_phone": "(718) 476-3476", "is_closed": false, "location": {"address2": "", "country": "US", "display_address": ["10310 Roosevelt Ave", "Corona, NY 11368"], "address1": "10310 Roosevelt Ave", "city": "Corona", "zip_code": "11368", "address3": "", "state": "NY"}, "coordinates": {"longitude": -73.8623962402344, "latitude": 40.7494087219238}, "review_count": 5, "image_url": "https://s3-media4.fl.yelpcdn.com/bphoto/8q6geC70r4h-WRVPjziaMw/o.jpg", "price": "$$", "rating": 4.0, "name": "La America Restaurant", "url": "https://www.yelp.com/biz/la-america-restaurant-corona?adjust_creative=gBcvfFpabk3CnzmXKdYe3w&utm_campaign=yelp_api_v3&utm_medium=api_v3_business_search&utm_source=gBcvfFpabk3CnzmXKdYe3w"}]}