{"region": {"center": {"longitude": -73.99429321289062, "latitude": 40.70544486444615}}, "total": 1496, "businesses": [{"transactions": ["delivery", "pickup"], "distance": 14879.616459919998, "phone": "+12122837752", "categories": [{"alias": "mexican", "title": "Mexican"}], "id": "la-oaxaquena-restaurant-new-york", "display_phone": "(212) 283-7752", "is_closed": false, "location": {"address2": "", "country": "US", "display_address": ["1969 Amsterdam Ave", "New York, NY 10032"], "address1": "1969 Amsterdam Ave", "city": "New York", "zip_code": "10032", "address3": "", "state": "NY"}, "coordinates": {"longitude": -73.941452, "latitude": 40.833106}, "review_count": 51, "image_url": "https://s3-media2.fl.yelpcdn.com/bphoto/t1jVfk2x3Ye6-e25Zc9rQA/o.jpg", "price": "$", "rating": 4.0, "name": "La Oaxaquena Restaurant", "url": "https://www.yelp.com/biz/la-oaxaquena-restaurant-new-york?adjust_creative=gBcvfFpabk3CnzmXKdYe3w&utm_campaign=yelp_api_v3&utm_medium=api_v3_business_search&utm_source=gBcvfFpabk3CnzmXKdYe3w"}, {"transactions": ["delivery", "pickup"], "distance": 3233.2686671, "phone": "+17183888833", "categories": [{"alias": "seafood", "title": "Seafood"}, {"alias": "mexican", "title": "Mexican"}, {"alias": "latin", "title": "Latin American"}], "id": "rosarito-fish-shack-brooklyn", "display_phone": "(718) 388-8833", "is_closed": false, "location": {"address2": "", "country": "US", "display_address": ["168 Wythe Ave", "Brooklyn, NY 11211"], "address1": "168 Wythe Ave", "city": "Brooklyn", "zip_code": "11211", "address3": "", "state": "NY"}, "coordinates": {"longitude": -73.9607528, "latitude": 40.7195575}, "review_count": 439, "image_url": "https://s3-media4.fl.yelpcdn.com/bphoto/jtOJU69LF4L8KHoRYCGoUQ/o.jpg", "price": "$$", "rating": 3.0, "name": "Rosarito Fish Shack", "url": "https://www.yelp.com/biz/rosarito-fish-shack-brooklyn?adjust_creative=gBcvfFpabk3CnzmXKdYe3w&utm_campaign=yelp_api_v3&utm_medium=api_v3_business_search&utm_source=gBcvfFpabk3CnzmXKdYe3w"}, {"transactions": [], "distance": 4154.89906094, "phone": "+12122292336", "categories": [{"alias": "mexican", "title": "Mexican"}], "id": "bodega-negra-new-york", "display_phone": "(212) 229-2336", "is_closed": false, "location": {"address2": "", "country": "US", "display_address": ["355 W 16th St", "Dream Downtown", "New York, NY 10011"], "address1": "355 W 16th St", "city": "New York", "zip_code": "10011", "address3": "Dream Downtown", "state": "NY"}, "coordinates": {"longitude": -74.0035781860352, "latitude": 40.7421414364183}, "review_count": 349, "image_url": "https://s3-media4.fl.yelpcdn.com/bphoto/TfjJbpAHOnjhDwG1ZIZ58g/o.jpg", "price": "$$$", "rating": 3.5, "name": "Bodega Negra", "url": "https://www.yelp.com/biz/bodega-negra-new-york?adjust_creative=gBcvfFpabk3CnzmXKdYe3w&utm_campaign=yelp_api_v3&utm_medium=api_v3_business_search&utm_source=gBcvfFpabk3CnzmXKdYe3w"}, {"transactions": ["delivery", "pickup"], "distance": 12472.889206222, "phone": "+12126657338", "categories": [{"alias": "mexican", "title": "Mexican"}, {"alias": "bars", "title": "Bars"}], "id": "el-porton-mexican-restaurant-bar-new-york", "display_phone": "(212) 665-7338", "is_closed": false, "location": {"address2": "", "country": "US", "display_address": ["3151 Broadway", "New York, NY 10027"], "address1": "3151 Broadway", "city": "New York", "zip_code": "10027", "address3": "", "state": "NY"}, "coordinates": {"longitude": -73.959655, "latitude": 40.814514}, "review_count": 116, "image_url": "https://s3-media4.fl.yelpcdn.com/bphoto/Otf9AEQOmkgCz5-JdCPFhQ/o.jpg", "price": "$$", "rating": 3.5, "name": "El Porton Mexican Restaurant Bar", "url": "https://www.yelp.com/biz/el-porton-mexican-restaurant-bar-new-york?adjust_creative=gBcvfFpabk3CnzmXKdYe3w&utm_campaign=yelp_api_v3&utm_medium=api_v3_business_search&utm_source=gBcvfFpabk3CnzmXKdYe3w"}, {"transactions": ["delivery", "pickup"], "distance": 8198.821254159999, "phone": "+19179661555", "categories": [{"alias": "tex-mex", "title": "Tex-Mex"}, {"alias": "mexican", "title": "Mexican"}], "id": "el-paso-mexican-grill-brooklyn", "display_phone": "(917) 966-1555", "is_closed": false, "location": {"address2": "", "country": "US", "display_address": ["1610 Newkirk Ave", "Brooklyn, NY 11226"], "address1": "1610 Newkirk Ave", "city": "Brooklyn", "zip_code": "11226", "address3": "", "state": "NY"}, "coordinates": {"longitude": -73.962081, "latitude": 40.635877}, "review_count": 125, "image_url": "https://s3-media3.fl.yelpcdn.com/bphoto/fzRrB-goO6yj7K2CFBM-EQ/o.jpg", "price": "$", "rating": 3.0, "name": "El Paso Mexican Grill", "url": "https://www.yelp.com/biz/el-paso-mexican-grill-brooklyn?adjust_creative=gBcvfFpabk3CnzmXKdYe3w&utm_campaign=yelp_api_v3&utm_medium=api_v3_business_search&utm_source=gBcvfFpabk3CnzmXKdYe3w"}, {"transactions": [], "distance": 9114.205155724, "phone": "+12122898226", "categories": [{"alias": "mexican", "title": "Mexican"}], "id": "mole-new-york-6", "display_phone": "(212) 289-8226", "is_closed": false, "location": {"address2": "", "country": "US", "display_address": ["1735 2nd Ave", "New York, NY 10128"], "address1": "1735 2nd Ave", "city": "New York", "zip_code": "10128", "address3": "", "state": "NY"}, "coordinates": {"longitude": -73.950302, "latitude": 40.780331}, "review_count": 266, "image_url": "https://s3-media2.fl.yelpcdn.com/bphoto/B3F0YzkNIXBIZvmDnW-GDA/o.jpg", "price": "$$", "rating": 3.0, "name": "Mole", "url": "https://www.yelp.com/biz/mole-new-york-6?adjust_creative=gBcvfFpabk3CnzmXKdYe3w&utm_campaign=yelp_api_v3&utm_medium=api_v3_business_search&utm_source=gBcvfFpabk3CnzmXKdYe3w"}, {"transactions": ["delivery", "pickup"], "distance": 1724.0197981259998, "phone": "+16466783468", "categories": [{"alias": "mexican", "title": "Mexican"}], "id": "el-luchador-taqueria-new-york", "display_phone": "(646) 678-3468", "is_closed": false, "location": {"address2": "", "country": "US", "display_address": ["132 Ludlow St", "New York, NY 10002"], "address1": "132 Ludlow St", "city": "New York", "zip_code": "10002", "address3": "", "state": "NY"}, "coordinates": {"longitude": -73.98819, "latitude": 40.7202}, "review_count": 27, "image_url": "https://s3-media2.fl.yelpcdn.com/bphoto/5PHp1b8S6csiX7tukNmewQ/o.jpg", "price": "$", "rating": 3.0, "name": "El Luchador Taqueria", "url": "https://www.yelp.com/biz/el-luchador-taqueria-new-york?adjust_creative=gBcvfFpabk3CnzmXKdYe3w&utm_campaign=yelp_api_v3&utm_medium=api_v3_business_search&utm_source=gBcvfFpabk3CnzmXKdYe3w"}, {"transactions": [], "distance": 4614.62634402, "phone": "+12122422425", "categories": [{"alias": "bars", "title": "Bars"}, {"alias": "tradamerican", "title": "American (Traditional)"}, {"alias": "tacos", "title": "Tacos"}], "id": "the-chelsea-bell-new-york", "display_phone": "(212) 242-2425", "is_closed": false, "location": {"address2": null, "country": "US", "display_address": ["316 8th Ave", "New York, NY 10001"], "address1": "316 8th Ave", "city": "New York", "zip_code": "10001", "address3": "", "state": "NY"}, "coordinates": {"longitude": -73.9970784187517, "latitude": 40.7468909665128}, "review_count": 19, "image_url": "https://s3-media2.fl.yelpcdn.com/bphoto/n9sYIVXrlZqDljGE_zYrjQ/o.jpg", "price": "$$", "rating": 4.0, "name": "The Chelsea Bell", "url": "https://www.yelp.com/biz/the-chelsea-bell-new-york?adjust_creative=gBcvfFpabk3CnzmXKdYe3w&utm_campaign=yelp_api_v3&utm_medium=api_v3_business_search&utm_source=gBcvfFpabk3CnzmXKdYe3w"}, {"transactions": ["delivery", "pickup"], "distance": 16440.52980998, "phone": "+17182976426", "categories": [{"alias": "mexican", "title": "Mexican"}], "id": "don-nicos-jamaica", "display_phone": "(718) 297-6426", "is_closed": false, "location": {"address2": "", "country": "US", "display_address": ["90-08 161st St", "Jamaica, NY 11432"], "address1": "90-08 161st St", "city": "Jamaica", "zip_code": "11432", "address3": "", "state": "NY"}, "coordinates": {"longitude": -73.7993180751801, "latitude": 40.7051738351583}, "review_count": 71, "image_url": "https://s3-media3.fl.yelpcdn.com/bphoto/dOzblUtlb9lYowgLdDlpqA/o.jpg", "price": "$$", "rating": 4.0, "name": "Don Nico's", "url": "https://www.yelp.com/biz/don-nicos-jamaica?adjust_creative=gBcvfFpabk3CnzmXKdYe3w&utm_campaign=yelp_api_v3&utm_medium=api_v3_business_search&utm_source=gBcvfFpabk3CnzmXKdYe3w"}, {"transactions": ["delivery", "pickup"], "distance": 7107.143811636, "phone": "+13475333532", "categories": [{"alias": "foodtrucks", "title": "Food Trucks"}, {"alias": "steak", "title": "Steakhouses"}, {"alias": "mexican", "title": "Mexican"}], "id": "tacos-el-chicken-brooklyn", "display_phone": "(347) 533-3532", "is_closed": false, "location": {"address2": "", "country": "US", "display_address": ["120 Beverley Rd", "Brooklyn, NY 11218"], "address1": "120 Beverley Rd", "city": "Brooklyn", "zip_code": "11218", "address3": "", "state": "NY"}, "coordinates": {"longitude": -73.978576, "latitude": 40.642616}, "review_count": 13, "image_url": "https://s3-media1.fl.yelpcdn.com/bphoto/Js1wGwayGP2ZKaYeNMDa4Q/o.jpg", "price": "$$", "rating": 4.5, "name": "Tacos el Chicken", "url": "https://www.yelp.com/biz/tacos-el-chicken-brooklyn?adjust_creative=gBcvfFpabk3CnzmXKdYe3w&utm_campaign=yelp_api_v3&utm_medium=api_v3_business_search&utm_source=gBcvfFpabk3CnzmXKdYe3w"}, {"transactions": ["delivery", "pickup"], "distance": 18744.11333654, "phone": "+17185187425", "categories": [{"alias": "mexican", "title": "Mexican"}], "id": "estrellita-poblana-bronx", "display_phone": "(718) 518-7425", "is_closed": false, "location": {"address2": "", "country": "US", "display_address": ["2231 Westchester Ave", "Bronx, NY 10462"], "address1": "2231 Westchester Ave", "city": "Bronx", "zip_code": "10462", "address3": "", "state": "NY"}, "coordinates": {"longitude": -73.8508902490139, "latitude": 40.8343282341957}, "review_count": 173, "image_url": "https://s3-media1.fl.yelpcdn.com/bphoto/Vvuz2oIEeHAQGJYgnz0fOw/o.jpg", "price": "$$", "rating": 4.0, "name": "Estrellita Poblana", "url": "https://www.yelp.com/biz/estrellita-poblana-bronx?adjust_creative=gBcvfFpabk3CnzmXKdYe3w&utm_campaign=yelp_api_v3&utm_medium=api_v3_business_search&utm_source=gBcvfFpabk3CnzmXKdYe3w"}, {"transactions": ["delivery", "pickup"], "distance": 6107.24815585, "phone": "+12125813844", "categories": [{"alias": "mexican", "title": "Mexican"}, {"alias": "tex-mex", "title": "Tex-Mex"}, {"alias": "vegetarian", "title": "Vegetarian"}], "id": "el-rancho-burritos-new-york", "display_phone": "(212) 581-3844", "is_closed": false, "location": {"address2": "", "country": "US", "display_address": ["359 W 45th St", "New York, NY 10036"], "address1": "359 W 45th St", "city": "New York", "zip_code": "10036", "address3": "", "state": "NY"}, "coordinates": {"longitude": -73.99087, "latitude": 40.7603099}, "review_count": 93, "image_url": "https://s3-media2.fl.yelpcdn.com/bphoto/2UmqrvbngyHx3_jVP6XqMA/o.jpg", "price": "$", "rating": 3.5, "name": "El Rancho Burritos", "url": "https://www.yelp.com/biz/el-rancho-burritos-new-york?adjust_creative=gBcvfFpabk3CnzmXKdYe3w&utm_campaign=yelp_api_v3&utm_medium=api_v3_business_search&utm_source=gBcvfFpabk3CnzmXKdYe3w"}, {"transactions": [], "distance": 10271.452420669999, "phone": "+13478852946", "categories": [{"alias": "seafood", "title": "Seafood"}, {"alias": "mexican", "title": "Mexican"}], "id": "la-esquina-del-camaron-mexicano-jackson-heights", "display_phone": "(347) 885-2946", "is_closed": false, "location": {"address2": "", "country": "US", "display_address": ["80-02 Roosevelt Ave", "Jackson Heights, NY 11372"], "address1": "80-02 Roosevelt Ave", "city": "Jackson Heights", "zip_code": "11372", "address3": "", "state": "NY"}, "coordinates": {"longitude": -73.8855906575918, "latitude": 40.7474139332771}, "review_count": 9, "image_url": "https://s3-media2.fl.yelpcdn.com/bphoto/yJqQWvMSaKX1tJXV_dDRdA/o.jpg", "rating": 4.5, "name": "La Esquina Del Camaron Mexicano", "url": "https://www.yelp.com/biz/la-esquina-del-camaron-mexicano-jackson-heights?adjust_creative=gBcvfFpabk3CnzmXKdYe3w&utm_campaign=yelp_api_v3&utm_medium=api_v3_business_search&utm_source=gBcvfFpabk3CnzmXKdYe3w"}, {"transactions": ["delivery", "pickup"], "distance": 2900.923541832, "phone": "+19173883534", "categories": [{"alias": "mexican", "title": "Mexican"}, {"alias": "vegan", "title": "Vegan"}, {"alias": "vegetarian", "title": "Vegetarian"}], "id": "blockheads-new-york-13", "display_phone": "(917) 388-3534", "is_closed": false, "location": {"address2": "", "country": "US", "display_address": ["60 3rd Ave", "New York, NY 10003"], "address1": "60 3rd Ave", "city": "New York", "zip_code": "10003", "address3": "", "state": "NY"}, "coordinates": {"longitude": -73.98905, "latitude": 40.7312299}, "review_count": 109, "image_url": "https://s3-media2.fl.yelpcdn.com/bphoto/-7AmVd7Llakzu3eWPNF0Tg/o.jpg", "price": "$$", "rating": 3.5, "name": "Blockheads", "url": "https://www.yelp.com/biz/blockheads-new-york-13?adjust_creative=gBcvfFpabk3CnzmXKdYe3w&utm_campaign=yelp_api_v3&utm_medium=api_v3_business_search&utm_source=gBcvfFpabk3CnzmXKdYe3w"}, {"transactions": ["delivery", "pickup"], "distance": 4751.431831268, "phone": "+17184844485", "categories": [{"alias": "mexican", "title": "Mexican"}, {"alias": "asianfusion", "title": "Asian Fusion"}], "id": "domo-taco-brooklyn-5", "display_phone": "(718) 484-4485", "is_closed": false, "location": {"address2": "", "country": "US", "display_address": ["733 Franklin Ave", "Brooklyn, NY 11238"], "address1": "733 Franklin Ave", "city": "Brooklyn", "zip_code": "11238", "address3": "", "state": "NY"}, "coordinates": {"longitude": -73.95666, "latitude": 40.67356}, "review_count": 113, "image_url": "https://s3-media1.fl.yelpcdn.com/bphoto/dFSyXCHUaqyO71rBK86VEg/o.jpg", "price": "$", "rating": 3.5, "name": "Domo Taco", "url": "https://www.yelp.com/biz/domo-taco-brooklyn-5?adjust_creative=gBcvfFpabk3CnzmXKdYe3w&utm_campaign=yelp_api_v3&utm_medium=api_v3_business_search&utm_source=gBcvfFpabk3CnzmXKdYe3w"}, {"transactions": [], "distance": 12564.759989462, "phone": "+17182680777", "categories": [{"alias": "mexican", "title": "Mexican"}, {"alias": "bars", "title": "Bars"}], "id": "el-coyote-restaurant-forest-hills-2", "display_phone": "(718) 268-0777", "is_closed": false, "location": {"address2": "", "country": "US", "display_address": ["70-09 Austin St", "Forest Hills, NY 11375"], "address1": "70-09 Austin St", "city": "Forest Hills", "zip_code": "11375", "address3": "", "state": "NY"}, "coordinates": {"longitude": -73.84654, "latitude": 40.72108}, "review_count": 167, "image_url": "https://s3-media1.fl.yelpcdn.com/bphoto/GoYOIitro5K_oz3mmjgb_Q/o.jpg", "price": "$$", "rating": 3.0, "name": "El Coyote Restaurant", "url": "https://www.yelp.com/biz/el-coyote-restaurant-forest-hills-2?adjust_creative=gBcvfFpabk3CnzmXKdYe3w&utm_campaign=yelp_api_v3&utm_medium=api_v3_business_search&utm_source=gBcvfFpabk3CnzmXKdYe3w"}, {"transactions": ["delivery", "pickup"], "distance": 13205.025769619999, "phone": "+12126906077", "categories": [{"alias": "mexican", "title": "Mexican"}, {"alias": "grocery", "title": "Grocery"}, {"alias": "delis", "title": "Delis"}], "id": "chinelos-ii-manhattan", "display_phone": "(212) 690-6077", "is_closed": false, "location": {"address2": "", "country": "US", "display_address": ["530 W 136th St", "Manhattan, NY 10031"], "address1": "530 W 136th St", "city": "Manhattan", "zip_code": "10031", "address3": "", "state": "NY"}, "coordinates": {"longitude": -73.95378, "latitude": 40.82033}, "review_count": 39, "image_url": "https://s3-media1.fl.yelpcdn.com/bphoto/QxVxsNBsFBkrEWfqWXW94g/o.jpg", "price": "$", "rating": 4.0, "name": "Chinelos II", "url": "https://www.yelp.com/biz/chinelos-ii-manhattan?adjust_creative=gBcvfFpabk3CnzmXKdYe3w&utm_campaign=yelp_api_v3&utm_medium=api_v3_business_search&utm_source=gBcvfFpabk3CnzmXKdYe3w"}, {"transactions": ["delivery", "pickup"], "distance": 4584.23234878, "phone": "+17183490033", "categories": [{"alias": "mexican", "title": "Mexican"}, {"alias": "newamerican", "title": "American (New)"}, {"alias": "hotdogs", "title": "Fast Food"}], "id": "greenpoint-diner-brooklyn", "display_phone": "(718) 349-0033", "is_closed": false, "location": {"address2": "", "country": "US", "display_address": ["1035 Manhattan Ave", "Brooklyn, NY 11222"], "address1": "1035 Manhattan Ave", "city": "Brooklyn", "zip_code": "11222", "address3": "", "state": "NY"}, "coordinates": {"longitude": -73.955215, "latitude": 40.734125}, "review_count": 60, "image_url": "https://s3-media4.fl.yelpcdn.com/bphoto/Zx_LNi4aTjpNECSo6yowXA/o.jpg", "price": "$", "rating": 3.5, "name": "Greenpoint Diner", "url": "https://www.yelp.com/biz/greenpoint-diner-brooklyn?adjust_creative=gBcvfFpabk3CnzmXKdYe3w&utm_campaign=yelp_api_v3&utm_medium=api_v3_business_search&utm_source=gBcvfFpabk3CnzmXKdYe3w"}, {"transactions": [], "distance": 5262.447331742, "phone": "+17183660500", "categories": [{"alias": "mexican", "title": "Mexican"}, {"alias": "salad", "title": "Salad"}, {"alias": "cocktailbars", "title": "Cocktail Bars"}], "id": "guadalupe-inn-brooklyn-2", "display_phone": "(718) 366-0500", "is_closed": false, "location": {"address2": "", "country": "US", "display_address": ["1 Knickerbocker Ave", "Brooklyn, NY 11237"], "address1": "1 Knickerbocker Ave", "city": "Brooklyn", "zip_code": "11237", "address3": null, "state": "NY"}, "coordinates": {"longitude": -73.93167, "latitude": 40.70773}, "review_count": 45, "image_url": "https://s3-media2.fl.yelpcdn.com/bphoto/q0EphbAhttc4tHUOy5rG1A/o.jpg", "price": "$$", "rating": 4.5, "name": "Guadalupe Inn", "url": "https://www.yelp.com/biz/guadalupe-inn-brooklyn-2?adjust_creative=gBcvfFpabk3CnzmXKdYe3w&utm_campaign=yelp_api_v3&utm_medium=api_v3_business_search&utm_source=gBcvfFpabk3CnzmXKdYe3w"}, {"transactions": [], "distance": 13166.562543619999, "phone": "+17188491108", "categories": [{"alias": "delis", "title": "Delis"}, {"alias": "mexican", "title": "Mexican"}], "id": "las-palmitas-deli-richmond-hill", "display_phone": "(718) 849-1108", "is_closed": false, "location": {"address2": "", "country": "US", "display_address": ["10915 Jamaica Ave", "Richmond Hill, NY 11418"], "address1": "10915 Jamaica Ave", "city": "Richmond Hill", "zip_code": "11418", "address3": "", "state": "NY"}, "coordinates": {"longitude": -73.8386195560695, "latitude": 40.6958155504715}, "review_count": 31, "image_url": "https://s3-media2.fl.yelpcdn.com/bphoto/WdEBRb_lr9EWripK47rUcQ/o.jpg", "price": "$", "rating": 4.0, "name": "Las Palmitas Deli", "url": "https://www.yelp.com/biz/las-palmitas-deli-richmond-hill?adjust_creative=gBcvfFpabk3CnzmXKdYe3w&utm_campaign=yelp_api_v3&utm_medium=api_v3_business_search&utm_source=gBcvfFpabk3CnzmXKdYe3w"}, {"transactions": ["delivery", "pickup"], "distance": 1512.6279357984, "phone": "+12123633900", "categories": [{"alias": "mexican", "title": "Mexican"}], "id": "el-toro-mexican-grill-new-york", "display_phone": "(212) 363-3900", "is_closed": false, "location": {"address2": "", "country": "US", "display_address": ["69 New St", "New York, NY 10004"], "address1": "69 New St", "city": "New York", "zip_code": "10004", "address3": "", "state": "NY"}, "coordinates": {"longitude": -74.0122291, "latitude": 40.7058516}, "review_count": 69, "image_url": "https://s3-media2.fl.yelpcdn.com/bphoto/hsYCkq_zxedM9ajqKPd-ZQ/o.jpg", "price": "$", "rating": 3.0, "name": "El Toro Mexican Grill", "url": "https://www.yelp.com/biz/el-toro-mexican-grill-new-york?adjust_creative=gBcvfFpabk3CnzmXKdYe3w&utm_campaign=yelp_api_v3&utm_medium=api_v3_business_search&utm_source=gBcvfFpabk3CnzmXKdYe3w"}, {"transactions": ["delivery"], "distance": 1350.60962688, "phone": "+16466929259", "categories": [{"alias": "mexican", "title": "Mexican"}, {"alias": "breakfast_brunch", "title": "Breakfast & Brunch"}], "id": "la-flaca-new-york", "display_phone": "(646) 692-9259", "is_closed": false, "location": {"address2": "", "country": "US", "display_address": ["384 Grand St", "New York, NY 10002"], "address1": "384 Grand St", "city": "New York", "zip_code": "10002", "address3": "", "state": "NY"}, "coordinates": {"longitude": -73.9876328, "latitude": 40.7164993}, "review_count": 240, "image_url": "https://s3-media4.fl.yelpcdn.com/bphoto/aR1ZLBOVgthPc0xZJQzClg/o.jpg", "price": "$$", "rating": 3.5, "name": "La Flaca", "url": "https://www.yelp.com/biz/la-flaca-new-york?adjust_creative=gBcvfFpabk3CnzmXKdYe3w&utm_campaign=yelp_api_v3&utm_medium=api_v3_business_search&utm_source=gBcvfFpabk3CnzmXKdYe3w"}, {"transactions": [], "distance": 5104.076205692, "phone": "", "categories": [{"alias": "streetvendors", "title": "Street Vendors"}, {"alias": "mexican", "title": "Mexican"}], "id": "la-pasadita-taco-truck-new-york", "display_phone": "", "is_closed": false, "location": {"address2": "", "country": "US", "display_address": ["957 Broadway", "New York, NY 11206"], "address1": "957 Broadway", "city": "New York", "zip_code": "11206", "address3": "", "state": "NY"}, "coordinates": {"longitude": -73.934752, "latitude": 40.697104}, "review_count": 8, "image_url": "https://s3-media2.fl.yelpcdn.com/bphoto/CVF6jB39U1sv-0r3iqnVLg/o.jpg", "price": "$", "rating": 4.5, "name": "La Pasadita Taco Truck", "url": "https://www.yelp.com/biz/la-pasadita-taco-truck-new-york?adjust_creative=gBcvfFpabk3CnzmXKdYe3w&utm_campaign=yelp_api_v3&utm_medium=api_v3_business_search&utm_source=gBcvfFpabk3CnzmXKdYe3w"}, {"transactions": ["delivery", "pickup"], "distance": 3532.6693150959995, "phone": "+12126754700", "categories": [{"alias": "sportsbars", "title": "Sports Bars"}, {"alias": "mexican", "title": "Mexican"}], "id": "campeon-new-york", "display_phone": "(212) 675-4700", "is_closed": false, "location": {"address2": "", "country": "US", "display_address": ["9 E 16th St", "New York, NY 10003"], "address1": "9 E 16th St", "city": "New York", "zip_code": "10003", "address3": "", "state": "NY"}, "coordinates": {"longitude": -73.991669, "latitude": 40.737153}, "review_count": 254, "image_url": "https://s3-media2.fl.yelpcdn.com/bphoto/RHm1gdyNBWONJGB3KR5dZg/o.jpg", "price": "$$", "rating": 3.0, "name": "Campeon", "url": "https://www.yelp.com/biz/campeon-new-york?adjust_creative=gBcvfFpabk3CnzmXKdYe3w&utm_campaign=yelp_api_v3&utm_medium=api_v3_business_search&utm_source=gBcvfFpabk3CnzmXKdYe3w"}, {"transactions": ["delivery", "pickup"], "distance": 2313.5812294419998, "phone": "+12124738787", "categories": [{"alias": "mexican", "title": "Mexican"}, {"alias": "danceclubs", "title": "Dance Clubs"}], "id": "gonzalez-y-gonzalez-new-york-2", "display_phone": "(212) 473-8787", "is_closed": false, "location": {"address2": null, "country": "US", "display_address": ["192 Mercer St", "New York, NY 10012"], "address1": "192 Mercer St", "city": "New York", "zip_code": "10012", "address3": "", "state": "NY"}, "coordinates": {"longitude": -73.9972339217213, "latitude": 40.7261303289736}, "review_count": 292, "image_url": "https://s3-media3.fl.yelpcdn.com/bphoto/8npFvqEhaaWoNI-F6fOgpg/o.jpg", "price": "$$", "rating": 3.5, "name": "Gonzalez y Gonzalez", "url": "https://www.yelp.com/biz/gonzalez-y-gonzalez-new-york-2?adjust_creative=gBcvfFpabk3CnzmXKdYe3w&utm_campaign=yelp_api_v3&utm_medium=api_v3_business_search&utm_source=gBcvfFpabk3CnzmXKdYe3w"}, {"transactions": ["delivery", "pickup"], "distance": 8018.537515603999, "phone": "+12127341600", "categories": [{"alias": "mexican", "title": "Mexican"}, {"alias": "tex-mex", "title": "Tex-Mex"}], "id": "canyon-road-new-york", "display_phone": "(212) 734-1600", "is_closed": false, "location": {"address2": "", "country": "US", "display_address": ["1470 1st Ave", "New York, NY 10021"], "address1": "1470 1st Ave", "city": "New York", "zip_code": "10021", "address3": "", "state": "NY"}, "coordinates": {"longitude": -73.953774, "latitude": 40.770694}, "review_count": 183, "image_url": "https://s3-media3.fl.yelpcdn.com/bphoto/wnZk6l_Hk-iHFgscYf8OKw/o.jpg", "price": "$$", "rating": 3.5, "name": "Canyon Road", "url": "https://www.yelp.com/biz/canyon-road-new-york?adjust_creative=gBcvfFpabk3CnzmXKdYe3w&utm_campaign=yelp_api_v3&utm_medium=api_v3_business_search&utm_source=gBcvfFpabk3CnzmXKdYe3w"}, {"transactions": [], "distance": 7601.83497182, "phone": "+17184393502", "categories": [{"alias": "mexican", "title": "Mexican"}], "id": "casa-vieja-brooklyn", "display_phone": "(718) 439-3502", "is_closed": false, "location": {"address2": "", "country": "US", "display_address": ["6007 5th Ave", "Brooklyn, NY 11220"], "address1": "6007 5th Ave", "city": "Brooklyn", "zip_code": "11220", "address3": "", "state": "NY"}, "coordinates": {"longitude": -74.01618, "latitude": 40.63913}, "review_count": 13, "image_url": "https://s3-media3.fl.yelpcdn.com/bphoto/m06KqG6foTqXBlZSAgEmew/o.jpg", "price": "$", "rating": 4.0, "name": "Casa Vieja", "url": "https://www.yelp.com/biz/casa-vieja-brooklyn?adjust_creative=gBcvfFpabk3CnzmXKdYe3w&utm_campaign=yelp_api_v3&utm_medium=api_v3_business_search&utm_source=gBcvfFpabk3CnzmXKdYe3w"}, {"transactions": [], "distance": 11584.83962269, "phone": "+17184240404", "categories": [{"alias": "mexican", "title": "Mexican"}], "id": "tulcingo-restaurant-jackson-heights", "display_phone": "(718) 424-0404", "is_closed": false, "location": {"address2": "", "country": "US", "display_address": ["9558 Roosevelt Ave", "Jackson Heights, NY 11372"], "address1": "9558 Roosevelt Ave", "city": "Jackson Heights", "zip_code": "11372", "address3": "", "state": "NY"}, "coordinates": {"longitude": -73.869453089545, "latitude": 40.7490812325978}, "review_count": 14, "image_url": "https://s3-media4.fl.yelpcdn.com/bphoto/h0f6KLq4SPTnjfeIBqMy7Q/o.jpg", "price": "$", "rating": 4.5, "name": "Tulcingo Restaurant", "url": "https://www.yelp.com/biz/tulcingo-restaurant-jackson-heights?adjust_creative=gBcvfFpabk3CnzmXKdYe3w&utm_campaign=yelp_api_v3&utm_medium=api_v3_business_search&utm_source=gBcvfFpabk3CnzmXKdYe3w"}, {"transactions": [], "distance": 3315.189222988, "phone": "+17187823797", "categories": [{"alias": "convenience", "title": "Convenience Stores"}, {"alias": "mexican", "title": "Mexican"}], "id": "mexico-2000-grocery-brooklyn", "display_phone": "(718) 782-3797", "is_closed": false, "location": {"address2": "", "country": "US", "display_address": ["367 Broadway", "Brooklyn, NY 11211"], "address1": "367 Broadway", "city": "Brooklyn", "zip_code": "11211", "address3": "", "state": "NY"}, "coordinates": {"longitude": -73.955017, "latitude": 40.707683}, "review_count": 62, "image_url": "https://s3-media3.fl.yelpcdn.com/bphoto/hZpRM_miG0I2oYPawQrLqw/o.jpg", "price": "$", "rating": 4.0, "name": "Mexico 2000 Grocery", "url": "https://www.yelp.com/biz/mexico-2000-grocery-brooklyn?adjust_creative=gBcvfFpabk3CnzmXKdYe3w&utm_campaign=yelp_api_v3&utm_medium=api_v3_business_search&utm_source=gBcvfFpabk3CnzmXKdYe3w"}, {"transactions": ["delivery", "pickup"], "distance": 11072.851115252, "phone": "+16467558864", "categories": [{"alias": "mexican", "title": "Mexican"}, {"alias": "latin", "title": "Latin American"}, {"alias": "cocktailbars", "title": "Cocktail Bars"}], "id": "cantina-taqueria-and-tequila-bar-new-york", "display_phone": "(646) 755-8864", "is_closed": false, "location": {"address2": null, "country": "US", "display_address": ["1838 7th Ave", "New York, NY 10026"], "address1": "1838 7th Ave", "city": "New York", "zip_code": "10026", "address3": "", "state": "NY"}, "coordinates": {"longitude": -73.9547097, "latitude": 40.8004031}, "review_count": 220, "image_url": "https://s3-media4.fl.yelpcdn.com/bphoto/wxiVtvtKgTKz16pQYEf8qg/o.jpg", "price": "$$", "rating": 4.0, "name": "Cantina Taqueria & Tequila Bar", "url": "https://www.yelp.com/biz/cantina-taqueria-and-tequila-bar-new-york?adjust_creative=gBcvfFpabk3CnzmXKdYe3w&utm_campaign=yelp_api_v3&utm_medium=api_v3_business_search&utm_source=gBcvfFpabk3CnzmXKdYe3w"}, {"transactions": ["delivery", "pickup"], "distance": 11138.971171019999, "phone": "+12122226969", "categories": [{"alias": "mexican", "title": "Mexican"}], "id": "l-encanto-d-lola-new-york", "display_phone": "(212) 222-6969", "is_closed": false, "location": {"address2": "", "country": "US", "display_address": ["57 Lenox Ave", "New York, NY 10026"], "address1": "57 Lenox Ave", "city": "New York", "zip_code": "10026", "address3": "", "state": "NY"}, "coordinates": {"longitude": -73.9511863565111, "latitude": 40.8001464434346}, "review_count": 207, "image_url": "https://s3-media3.fl.yelpcdn.com/bphoto/kt3GirjLkNHpY02fJRB1gA/o.jpg", "price": "$$", "rating": 3.5, "name": "L Encanto D Lola", "url": "https://www.yelp.com/biz/l-encanto-d-lola-new-york?adjust_creative=gBcvfFpabk3CnzmXKdYe3w&utm_campaign=yelp_api_v3&utm_medium=api_v3_business_search&utm_source=gBcvfFpabk3CnzmXKdYe3w"}, {"transactions": ["delivery", "pickup"], "distance": 11324.5312917, "phone": "+16469129971", "categories": [{"alias": "mexican", "title": "Mexican"}], "id": "guajillo-mexican-kitchen-new-york", "display_phone": "(646) 912-9971", "is_closed": false, "location": {"address2": "", "country": "US", "display_address": ["2277 1st Ave", "New York, NY 10035"], "address1": "2277 1st Ave", "city": "New York", "zip_code": "10035", "address3": "", "state": "NY"}, "coordinates": {"longitude": -73.934840150695, "latitude": 40.7967861606349}, "review_count": 11, "image_url": "https://s3-media1.fl.yelpcdn.com/bphoto/WzY6XHf0TlCD_i-Pr2Gf1Q/o.jpg", "price": "$$", "rating": 4.5, "name": "Guajillo Mexican Kitchen", "url": "https://www.yelp.com/biz/guajillo-mexican-kitchen-new-york?adjust_creative=gBcvfFpabk3CnzmXKdYe3w&utm_campaign=yelp_api_v3&utm_medium=api_v3_business_search&utm_source=gBcvfFpabk3CnzmXKdYe3w"}, {"transactions": [], "distance": 11210.632667209999, "phone": "", "categories": [{"alias": "foodtrucks", "title": "Food Trucks"}, {"alias": "mexican", "title": "Mexican"}], "id": "antojitos-mexicano-el-taco-taco-new-york", "display_phone": "", "is_closed": false, "location": {"address2": "", "country": "US", "display_address": ["2831 Broadway", "New York, NY 10025"], "address1": "2831 Broadway", "city": "New York", "zip_code": "10025", "address3": "", "state": "NY"}, "coordinates": {"longitude": -73.9670319963918, "latitude": 40.8041252611665}, "review_count": 6, "image_url": "https://s3-media3.fl.yelpcdn.com/bphoto/FwSQd8_NBBdHn5ukfhR4UQ/o.jpg", "price": "$", "rating": 4.5, "name": "Antojitos Mexicano El Taco Taco", "url": "https://www.yelp.com/biz/antojitos-mexicano-el-taco-taco-new-york?adjust_creative=gBcvfFpabk3CnzmXKdYe3w&utm_campaign=yelp_api_v3&utm_medium=api_v3_business_search&utm_source=gBcvfFpabk3CnzmXKdYe3w"}, {"transactions": ["delivery", "pickup"], "distance": 6878.728415162, "phone": "+13479150350", "categories": [{"alias": "mexican", "title": "Mexican"}], "id": "tacos-el-catrin-brooklyn", "display_phone": "(347) 915-0350", "is_closed": false, "location": {"address2": null, "country": "US", "display_address": ["265 E 7th St", "Brooklyn, NY 11218"], "address1": "265 E 7th St", "city": "Brooklyn", "zip_code": "11218", "address3": "", "state": "NY"}, "coordinates": {"longitude": -73.9729462, "latitude": 40.6455994}, "review_count": 78, "image_url": "https://s3-media3.fl.yelpcdn.com/bphoto/H4Iq-jSVffYXOLtVkaIxhw/o.jpg", "price": "$$", "rating": 3.5, "name": "Tacos El Catrin", "url": "https://www.yelp.com/biz/tacos-el-catrin-brooklyn?adjust_creative=gBcvfFpabk3CnzmXKdYe3w&utm_campaign=yelp_api_v3&utm_medium=api_v3_business_search&utm_source=gBcvfFpabk3CnzmXKdYe3w"}, {"transactions": ["delivery", "pickup"], "distance": 8223.616355539998, "phone": "+17184219529", "categories": [{"alias": "mexican", "title": "Mexican"}], "id": "don-burrito-brooklyn", "display_phone": "(718) 421-9529", "is_closed": false, "location": {"address2": "", "country": "US", "display_address": ["5 Newkirk Plz", "Brooklyn, NY 11226"], "address1": "5 Newkirk Plz", "city": "Brooklyn", "zip_code": "11226", "address3": "", "state": "NY"}, "coordinates": {"longitude": -73.96271, "latitude": 40.63548}, "review_count": 85, "image_url": "https://s3-media1.fl.yelpcdn.com/bphoto/T-76iPsFTNIT8smIW__CmQ/o.jpg", "price": "$", "rating": 3.5, "name": "Don Burrito", "url": "https://www.yelp.com/biz/don-burrito-brooklyn?adjust_creative=gBcvfFpabk3CnzmXKdYe3w&utm_campaign=yelp_api_v3&utm_medium=api_v3_business_search&utm_source=gBcvfFpabk3CnzmXKdYe3w"}, {"transactions": ["delivery", "pickup"], "distance": 11193.954915855998, "phone": "+12128283659", "categories": [{"alias": "mexican", "title": "Mexican"}], "id": "las-delicias-mexicanas-new-york", "display_phone": "(212) 828-3659", "is_closed": false, "location": {"address2": "", "country": "US", "display_address": ["2109 3rd Ave", "New York, NY 10029"], "address1": "2109 3rd Ave", "city": "New York", "zip_code": "10029", "address3": "", "state": "NY"}, "coordinates": {"longitude": -73.94009, "latitude": 40.79735}, "review_count": 34, "image_url": "https://s3-media2.fl.yelpcdn.com/bphoto/Rt8Y6gykwlUlX8NcuA1D7g/o.jpg", "price": "$$", "rating": 4.0, "name": "Las Delicias Mexicanas", "url": "https://www.yelp.com/biz/las-delicias-mexicanas-new-york?adjust_creative=gBcvfFpabk3CnzmXKdYe3w&utm_campaign=yelp_api_v3&utm_medium=api_v3_business_search&utm_source=gBcvfFpabk3CnzmXKdYe3w"}, {"transactions": ["delivery", "pickup"], "distance": 6600.40545408, "phone": "+12127655454", "categories": [{"alias": "danceclubs", "title": "Dance Clubs"}, {"alias": "mexican", "title": "Mexican"}, {"alias": "tex-mex", "title": "Tex-Mex"}], "id": "iguana-new-york-5", "display_phone": "(212) 765-5454", "is_closed": false, "location": {"address2": "", "country": "US", "display_address": ["240 W 54th St", "New York, NY 10019"], "address1": "240 W 54th St", "city": "New York", "zip_code": "10019", "address3": "", "state": "NY"}, "coordinates": {"longitude": -73.9832105, "latitude": 40.7642063}, "review_count": 578, "image_url": "https://s3-media2.fl.yelpcdn.com/bphoto/7FEFGHOlgQ8X6uTT6rb3Pg/o.jpg", "price": "$$", "rating": 3.0, "name": "Iguana", "url": "https://www.yelp.com/biz/iguana-new-york-5?adjust_creative=gBcvfFpabk3CnzmXKdYe3w&utm_campaign=yelp_api_v3&utm_medium=api_v3_business_search&utm_source=gBcvfFpabk3CnzmXKdYe3w"}, {"transactions": ["delivery", "pickup"], "distance": 4027.7917783999997, "phone": "+17183884261", "categories": [{"alias": "mexican", "title": "Mexican"}], "id": "haab-brooklyn", "display_phone": "(718) 388-4261", "is_closed": false, "location": {"address2": "", "country": "US", "display_address": ["202 Leonard St", "Brooklyn, NY 11206"], "address1": "202 Leonard St", "city": "Brooklyn", "zip_code": "11206", "address3": "", "state": "NY"}, "coordinates": {"longitude": -73.9470062, "latitude": 40.7109833}, "review_count": 155, "image_url": "https://s3-media1.fl.yelpcdn.com/bphoto/Bmv-141VB27vCT5k1oaQOA/o.jpg", "price": "$$", "rating": 3.5, "name": "Haab", "url": "https://www.yelp.com/biz/haab-brooklyn?adjust_creative=gBcvfFpabk3CnzmXKdYe3w&utm_campaign=yelp_api_v3&utm_medium=api_v3_business_search&utm_source=gBcvfFpabk3CnzmXKdYe3w"}, {"transactions": [], "distance": 10247.886533182, "phone": "+12124262221", "categories": [{"alias": "mexican", "title": "Mexican"}, {"alias": "salad", "title": "Salad"}], "id": "el-aguila-new-york-2", "display_phone": "(212) 426-2221", "is_closed": false, "location": {"address2": "", "country": "US", "display_address": ["1634 Lexington Ave", "New York, NY 10029"], "address1": "1634 Lexington Ave", "city": "New York", "zip_code": "10029", "address3": "", "state": "NY"}, "coordinates": {"longitude": -73.947715, "latitude": 40.790573}, "review_count": 140, "image_url": "https://s3-media4.fl.yelpcdn.com/bphoto/kMkVnwAgkDASm6BXfTF0qw/o.jpg", "price": "$", "rating": 3.5, "name": "El Aguila", "url": "https://www.yelp.com/biz/el-aguila-new-york-2?adjust_creative=gBcvfFpabk3CnzmXKdYe3w&utm_campaign=yelp_api_v3&utm_medium=api_v3_business_search&utm_source=gBcvfFpabk3CnzmXKdYe3w"}, {"transactions": [], "distance": 718.839954917, "phone": "+13472020306", "categories": [{"alias": "latin", "title": "Latin American"}, {"alias": "tacos", "title": "Tacos"}, {"alias": "salad", "title": "Salad"}], "id": "taco-dumbo-brooklyn", "display_phone": "(347) 202-0306", "is_closed": false, "location": {"address2": "", "country": "US", "display_address": ["56 Prospect St", "Brooklyn, NY 11201"], "address1": "56 Prospect St", "city": "Brooklyn", "zip_code": "11201", "address3": null, "state": "NY"}, "coordinates": {"longitude": -73.9885398, "latitude": 40.7006726}, "review_count": 32, "image_url": "https://s3-media3.fl.yelpcdn.com/bphoto/LFywnggzNPcqJo5I070X7Q/o.jpg", "price": "$$", "rating": 3.5, "name": "Taco Dumbo", "url": "https://www.yelp.com/biz/taco-dumbo-brooklyn?adjust_creative=gBcvfFpabk3CnzmXKdYe3w&utm_campaign=yelp_api_v3&utm_medium=api_v3_business_search&utm_source=gBcvfFpabk3CnzmXKdYe3w"}, {"transactions": [], "distance": 11536.858438062, "phone": "+17184240299", "categories": [{"alias": "mexican", "title": "Mexican"}], "id": "the-king-of-tacos-east-elmhurst-2", "display_phone": "(718) 424-0299", "is_closed": false, "location": {"address2": "", "country": "US", "display_address": ["9017 31st Ave", "East Elmhurst, NY 11369"], "address1": "9017 31st Ave", "city": "East Elmhurst", "zip_code": "11369", "address3": "", "state": "NY"}, "coordinates": {"longitude": -73.8779181, "latitude": 40.7601063}, "review_count": 45, "image_url": "https://s3-media3.fl.yelpcdn.com/bphoto/SQtpnwCo-jueytTSfi1Qfg/o.jpg", "price": "$", "rating": 4.0, "name": "The King of Tacos", "url": "https://www.yelp.com/biz/the-king-of-tacos-east-elmhurst-2?adjust_creative=gBcvfFpabk3CnzmXKdYe3w&utm_campaign=yelp_api_v3&utm_medium=api_v3_business_search&utm_source=gBcvfFpabk3CnzmXKdYe3w"}, {"transactions": [], "distance": 3147.866947858, "phone": "+12122551980", "categories": [{"alias": "cocktailbars", "title": "Cocktail Bars"}, {"alias": "mexican", "title": "Mexican"}, {"alias": "breakfast_brunch", "title": "Breakfast & Brunch"}], "id": "taqueria-meza-new-york", "display_phone": "(212) 255-1980", "is_closed": false, "location": {"address2": "", "country": "US", "display_address": ["95 7th Ave S", "New York, NY 10014"], "address1": "95 7th Ave S", "city": "New York", "zip_code": "10014", "address3": null, "state": "NY"}, "coordinates": {"longitude": -74.0030814, "latitude": 40.7328153}, "review_count": 62, "image_url": "https://s3-media1.fl.yelpcdn.com/bphoto/N_fEkeyAGzk97CAYCs2_XA/o.jpg", "price": "$$", "rating": 3.5, "name": "Taqueria Meza", "url": "https://www.yelp.com/biz/taqueria-meza-new-york?adjust_creative=gBcvfFpabk3CnzmXKdYe3w&utm_campaign=yelp_api_v3&utm_medium=api_v3_business_search&utm_source=gBcvfFpabk3CnzmXKdYe3w"}, {"transactions": ["delivery", "pickup"], "distance": 9149.88325792, "phone": "+19177223465", "categories": [{"alias": "mexican", "title": "Mexican"}], "id": "sabor-a-mexico-new-york-2", "display_phone": "(917) 722-3465", "is_closed": false, "location": {"address2": "", "country": "US", "display_address": ["1744 1st Ave", "New York, NY 10128"], "address1": "1744 1st Ave", "city": "New York", "zip_code": "10128", "address3": "", "state": "NY"}, "coordinates": {"longitude": -73.947036, "latitude": 40.779533}, "review_count": 116, "image_url": "https://s3-media1.fl.yelpcdn.com/bphoto/ysRyXIusLk2vABw6vf-Lzg/o.jpg", "price": "$$", "rating": 3.5, "name": "Sabor A Mexico", "url": "https://www.yelp.com/biz/sabor-a-mexico-new-york-2?adjust_creative=gBcvfFpabk3CnzmXKdYe3w&utm_campaign=yelp_api_v3&utm_medium=api_v3_business_search&utm_source=gBcvfFpabk3CnzmXKdYe3w"}, {"transactions": ["delivery", "pickup"], "distance": 3350.93475653, "phone": "+17183848833", "categories": [{"alias": "mexican", "title": "Mexican"}], "id": "dos-toros-taqueria-brooklyn-2", "display_phone": "(718) 384-8833", "is_closed": false, "location": {"address2": "", "country": "US", "display_address": ["189 Bedford Ave", "Brooklyn, NY 11211"], "address1": "189 Bedford Ave", "city": "Brooklyn", "zip_code": "11211", "address3": "", "state": "NY"}, "coordinates": {"longitude": -73.9579096, "latitude": 40.7175893}, "review_count": 109, "image_url": "https://s3-media1.fl.yelpcdn.com/bphoto/Vj6WHKIyNOnX-25lykDh2w/o.jpg", "price": "$", "rating": 3.5, "name": "Dos Toros Taqueria", "url": "https://www.yelp.com/biz/dos-toros-taqueria-brooklyn-2?adjust_creative=gBcvfFpabk3CnzmXKdYe3w&utm_campaign=yelp_api_v3&utm_medium=api_v3_business_search&utm_source=gBcvfFpabk3CnzmXKdYe3w"}, {"transactions": ["delivery", "pickup"], "distance": 6757.208761101999, "phone": "+17184562095", "categories": [{"alias": "mexican", "title": "Mexican"}], "id": "taqueria-acatlan-brooklyn-2", "display_phone": "(718) 456-2095", "is_closed": false, "location": {"address2": "", "country": "US", "display_address": ["298 Irving Ave", "Brooklyn, NY 11237"], "address1": "298 Irving Ave", "city": "Brooklyn", "zip_code": "11237", "address3": "", "state": "NY"}, "coordinates": {"longitude": -73.9145874, "latitude": 40.6989841}, "review_count": 27, "image_url": "https://s3-media3.fl.yelpcdn.com/bphoto/SZIsGw3cflj3L3slDNskXw/o.jpg", "price": "$", "rating": 3.5, "name": "Taqueria Acatlan", "url": "https://www.yelp.com/biz/taqueria-acatlan-brooklyn-2?adjust_creative=gBcvfFpabk3CnzmXKdYe3w&utm_campaign=yelp_api_v3&utm_medium=api_v3_business_search&utm_source=gBcvfFpabk3CnzmXKdYe3w"}, {"transactions": ["delivery", "pickup"], "distance": 5336.462487682, "phone": "+17184847006", "categories": [{"alias": "mexican", "title": "Mexican"}], "id": "chika-mexicana-brooklyn", "display_phone": "(718) 484-7006", "is_closed": false, "location": {"address2": null, "country": "US", "display_address": ["814 Nostrand Ave", "Brooklyn, NY 11216"], "address1": "814 Nostrand Ave", "city": "Brooklyn", "zip_code": "11216", "address3": "", "state": "NY"}, "coordinates": {"longitude": -73.9504464715719, "latitude": 40.6709307432175}, "review_count": 57, "image_url": "https://s3-media3.fl.yelpcdn.com/bphoto/thEsiiRrT_Bi3EmF5uYCXA/o.jpg", "price": "$", "rating": 3.5, "name": "Chika Mexicana", "url": "https://www.yelp.com/biz/chika-mexicana-brooklyn?adjust_creative=gBcvfFpabk3CnzmXKdYe3w&utm_campaign=yelp_api_v3&utm_medium=api_v3_business_search&utm_source=gBcvfFpabk3CnzmXKdYe3w"}, {"transactions": ["delivery", "pickup"], "distance": 4350.355335148, "phone": "+17183498300", "categories": [{"alias": "mexican", "title": "Mexican"}], "id": "toro-ironworks-kitchen-and-bar-brooklyn", "display_phone": "(718) 349-8300", "is_closed": false, "location": {"address2": null, "country": "US", "display_address": ["254 Driggs Ave", "Brooklyn, NY 11222"], "address1": "254 Driggs Ave", "city": "Brooklyn", "zip_code": "11222", "address3": null, "state": "NY"}, "coordinates": {"longitude": -73.94794, "latitude": 40.72278}, "review_count": 51, "image_url": "https://s3-media2.fl.yelpcdn.com/bphoto/xfWNRKYc2zTLLJcyoZI4fg/o.jpg", "price": "$$", "rating": 3.5, "name": "Toro Ironworks Kitchen & Bar", "url": "https://www.yelp.com/biz/toro-ironworks-kitchen-and-bar-brooklyn?adjust_creative=gBcvfFpabk3CnzmXKdYe3w&utm_campaign=yelp_api_v3&utm_medium=api_v3_business_search&utm_source=gBcvfFpabk3CnzmXKdYe3w"}, {"transactions": [], "distance": 7552.509505489999, "phone": "+13478284727", "categories": [{"alias": "mexican", "title": "Mexican"}, {"alias": "streetvendors", "title": "Street Vendors"}, {"alias": "foodtrucks", "title": "Food Trucks"}], "id": "tri-mexican-tacos-sunnyside", "display_phone": "(347) 828-4727", "is_closed": false, "location": {"address2": "", "country": "US", "display_address": ["46th St & Greenpoint Ave", "Sunnyside, NY 11104"], "address1": "46th St & Greenpoint Ave", "city": "Sunnyside", "zip_code": "11104", "address3": "", "state": "NY"}, "coordinates": {"longitude": -73.9188919, "latitude": 40.7421913}, "review_count": 21, "image_url": "https://s3-media2.fl.yelpcdn.com/bphoto/-XcdiDK-ZRZCAxNz6_9tRw/o.jpg", "price": "$", "rating": 4.0, "name": "Tri Mexican Tacos", "url": "https://www.yelp.com/biz/tri-mexican-tacos-sunnyside?adjust_creative=gBcvfFpabk3CnzmXKdYe3w&utm_campaign=yelp_api_v3&utm_medium=api_v3_business_search&utm_source=gBcvfFpabk3CnzmXKdYe3w"}, {"transactions": ["delivery", "pickup"], "distance": 4203.086080154, "phone": "+12122431212", "categories": [{"alias": "empanadas", "title": "Empanadas"}, {"alias": "breakfast_brunch", "title": "Breakfast & Brunch"}, {"alias": "mexican", "title": "Mexican"}], "id": "lime-jungle-new-york-6", "display_phone": "(212) 243-1212", "is_closed": false, "location": {"address2": "", "country": "US", "display_address": ["197 7th Ave", "New York, NY 10012"], "address1": "197 7th Ave", "city": "New York", "zip_code": "10012", "address3": null, "state": "NY"}, "coordinates": {"longitude": -73.9966291921214, "latitude": 40.743201852814}, "review_count": 15, "image_url": "https://s3-media2.fl.yelpcdn.com/bphoto/3lSzLphgSyGybIb0uqnf8Q/o.jpg", "price": "$$", "rating": 4.0, "name": "Lime Jungle", "url": "https://www.yelp.com/biz/lime-jungle-new-york-6?adjust_creative=gBcvfFpabk3CnzmXKdYe3w&utm_campaign=yelp_api_v3&utm_medium=api_v3_business_search&utm_source=gBcvfFpabk3CnzmXKdYe3w"}, {"transactions": ["delivery", "pickup"], "distance": 6644.58827444, "phone": "+12123070616", "categories": [{"alias": "mexican", "title": "Mexican"}, {"alias": "diners", "title": "Diners"}, {"alias": "breakfast_brunch", "title": "Breakfast & Brunch"}], "id": "el-azteca-new-york", "display_phone": "(212) 307-0616", "is_closed": false, "location": {"address2": "", "country": "US", "display_address": ["783 9th Ave", "New York, NY 10019"], "address1": "783 9th Ave", "city": "New York", "zip_code": "10019", "address3": "", "state": "NY"}, "coordinates": {"longitude": -73.98822, "latitude": 40.76503}, "review_count": 144, "image_url": "https://s3-media4.fl.yelpcdn.com/bphoto/FQm5Twa49TD4Ftqi2_ya7A/o.jpg", "price": "$$", "rating": 3.5, "name": "El Azteca", "url": "https://www.yelp.com/biz/el-azteca-new-york?adjust_creative=gBcvfFpabk3CnzmXKdYe3w&utm_campaign=yelp_api_v3&utm_medium=api_v3_business_search&utm_source=gBcvfFpabk3CnzmXKdYe3w"}]}