{"region": {"center": {"longitude": -73.99429321289062, "latitude": 40.70544486444615}}, "total": 1496, "businesses": [{"transactions": [], "distance": 14142.24905872, "phone": "+19174718320", "categories": [{"alias": "mexican", "title": "Mexican"}], "id": "los-hermanos-salazar-bronx", "display_phone": "(917) 471-8320", "is_closed": false, "location": {"address2": null, "country": "US", "display_address": ["645 Courtlandt Ave", "Bronx, NY 10451"], "address1": "645 Courtlandt Ave", "city": "Bronx", "zip_code": "10451", "address3": "", "state": "NY"}, "coordinates": {"longitude": -73.9185100793839, "latitude": 40.8189417421818}, "review_count": 1, "image_url": "https://s3-media3.fl.yelpcdn.com/bphoto/6EJGHG2rslsy-kY92D78mA/o.jpg", "rating": 5.0, "name": "Los Hermanos Salazar", "url": "https://www.yelp.com/biz/los-hermanos-salazar-bronx?adjust_creative=gBcvfFpabk3CnzmXKdYe3w&utm_campaign=yelp_api_v3&utm_medium=api_v3_business_search&utm_source=gBcvfFpabk3CnzmXKdYe3w"}, {"transactions": [], "distance": 11056.79102859, "phone": "+13473963452", "categories": [{"alias": "hotdogs", "title": "Fast Food"}, {"alias": "mexican", "title": "Mexican"}], "id": "chipotle-mexican-grill-elmhurst-3", "display_phone": "(347) 396-3452", "is_closed": false, "location": {"address2": "", "country": "US", "display_address": ["90-15 Queens Blvd", "Elmhurst, NY 11373"], "address1": "90-15 Queens Blvd", "city": "Elmhurst", "zip_code": "11373", "address3": "", "state": "NY"}, "coordinates": {"longitude": -73.8688924654695, "latitude": 40.7346679379159}, "review_count": 40, "image_url": "https://s3-media4.fl.yelpcdn.com/bphoto/o-OdJRNO7z3ea9hP5SXH6Q/o.jpg", "price": "$$", "rating": 2.0, "name": "Chipotle Mexican Grill", "url": "https://www.yelp.com/biz/chipotle-mexican-grill-elmhurst-3?adjust_creative=gBcvfFpabk3CnzmXKdYe3w&utm_campaign=yelp_api_v3&utm_medium=api_v3_business_search&utm_source=gBcvfFpabk3CnzmXKdYe3w"}, {"transactions": ["pickup"], "distance": 10453.655297176, "phone": "+17186390808", "categories": [{"alias": "mexican", "title": "Mexican"}], "id": "pico-de-gallo-jackson-heights", "display_phone": "(718) 639-0808", "is_closed": false, "location": {"address2": "", "country": "US", "display_address": ["8212 Roosevelt Ave", "Jackson Heights, NY 11372"], "address1": "8212 Roosevelt Ave", "city": "Jackson Heights", "zip_code": "11372", "address3": "", "state": "NY"}, "coordinates": {"longitude": -73.883667, "latitude": 40.7475128}, "review_count": 16, "image_url": "https://s3-media3.fl.yelpcdn.com/bphoto/_RVwvNYdxb1Is679fWy1Zg/o.jpg", "price": "$$", "rating": 3.5, "name": "Pico de Gallo", "url": "https://www.yelp.com/biz/pico-de-gallo-jackson-heights?adjust_creative=gBcvfFpabk3CnzmXKdYe3w&utm_campaign=yelp_api_v3&utm_medium=api_v3_business_search&utm_source=gBcvfFpabk3CnzmXKdYe3w"}, {"transactions": [], "distance": 6395.339488864, "phone": "+19293957273", "categories": [{"alias": "mexican", "title": "Mexican"}], "id": "tacos-el-bronquito-brooklyn", "display_phone": "(929) 395-7273", "is_closed": false, "location": {"address2": "", "country": "US", "display_address": ["405 45th St", "Brooklyn, NY 11220"], "address1": "405 45th St", "city": "Brooklyn", "zip_code": "11220", "address3": null, "state": "NY"}, "coordinates": {"longitude": -74.0093524754047, "latitude": 40.6491331011057}, "review_count": 1, "image_url": "https://s3-media4.fl.yelpcdn.com/bphoto/4xjXcQtKWIxKYciTekEHYQ/o.jpg", "rating": 4.0, "name": "Tacos El Bronquito", "url": "https://www.yelp.com/biz/tacos-el-bronquito-brooklyn?adjust_creative=gBcvfFpabk3CnzmXKdYe3w&utm_campaign=yelp_api_v3&utm_medium=api_v3_business_search&utm_source=gBcvfFpabk3CnzmXKdYe3w"}, {"transactions": ["delivery", "pickup"], "distance": 2799.3469899859997, "phone": "+12129643280", "categories": [{"alias": "mexican", "title": "Mexican"}, {"alias": "salad", "title": "Salad"}], "id": "choza-taqueria-new-york-10", "display_phone": "(212) 964-3280", "is_closed": false, "location": {"address2": "Ste LL2450", "country": "US", "display_address": ["128 Greenwich St", "Ste LL2450", "New York, NY 10013"], "address1": "128 Greenwich St", "city": "New York", "zip_code": "10013", "address3": null, "state": "NY"}, "coordinates": {"longitude": -74.0130935, "latitude": 40.7095483}, "review_count": 10, "image_url": "https://s3-media4.fl.yelpcdn.com/bphoto/oRgQfp7_7nYNRTNR6sTUhw/o.jpg", "price": "$", "rating": 3.0, "name": "Choza Taqueria", "url": "https://www.yelp.com/biz/choza-taqueria-new-york-10?adjust_creative=gBcvfFpabk3CnzmXKdYe3w&utm_campaign=yelp_api_v3&utm_medium=api_v3_business_search&utm_source=gBcvfFpabk3CnzmXKdYe3w"}, {"transactions": [], "distance": 1414.5372787659999, "phone": "", "categories": [{"alias": "desserts", "title": "Desserts"}, {"alias": "mexican", "title": "Mexican"}], "id": "the-churro-man-new-york", "display_phone": "", "is_closed": false, "location": {"address2": "", "country": "US", "display_address": ["L Train 6th Ave Station", "New York, NY 10079"], "address1": "L Train 6th Ave Station", "city": "New York", "zip_code": "10079", "address3": "", "state": "NY"}, "coordinates": {"longitude": -73.97715, "latitude": 40.76435}, "review_count": 2, "image_url": "", "price": "$", "rating": 4.5, "name": "The Churro Man", "url": "https://www.yelp.com/biz/the-churro-man-new-york?adjust_creative=gBcvfFpabk3CnzmXKdYe3w&utm_campaign=yelp_api_v3&utm_medium=api_v3_business_search&utm_source=gBcvfFpabk3CnzmXKdYe3w"}, {"transactions": [], "distance": 9741.588169182, "phone": "+16463623400", "categories": [{"alias": "hotdogs", "title": "Fast Food"}, {"alias": "tex-mex", "title": "Tex-Mex"}, {"alias": "mexican", "title": "Mexican"}], "id": "taco-bell-manhattan-6", "display_phone": "(646) 362-3400", "is_closed": false, "location": {"address2": "", "country": "US", "display_address": ["1503 Lexington Ave", "Manhattan, NY 10029"], "address1": "1503 Lexington Ave", "city": "Manhattan", "zip_code": "10029", "address3": "", "state": "NY"}, "coordinates": {"longitude": -73.95029, "latitude": 40.78646}, "review_count": 25, "image_url": "https://s3-media1.fl.yelpcdn.com/bphoto/qR5puX5pv5UTq5klsI1TOA/o.jpg", "price": "$", "rating": 3.0, "name": "Taco Bell", "url": "https://www.yelp.com/biz/taco-bell-manhattan-6?adjust_creative=gBcvfFpabk3CnzmXKdYe3w&utm_campaign=yelp_api_v3&utm_medium=api_v3_business_search&utm_source=gBcvfFpabk3CnzmXKdYe3w"}, {"transactions": ["delivery", "pickup"], "distance": 6306.388692119999, "phone": "+12019840212", "categories": [{"alias": "mexican", "title": "Mexican"}], "id": "3-coffee-beans-restaurant-jersey-city", "display_phone": "(201) 984-0212", "is_closed": false, "location": {"address2": null, "country": "US", "display_address": ["658 Montgomery St", "Jersey City, NJ 07306"], "address1": "658 Montgomery St", "city": "Jersey City", "zip_code": "07306", "address3": "", "state": "NJ"}, "coordinates": {"longitude": -74.0648453682661, "latitude": 40.7240767031908}, "review_count": 45, "image_url": "https://s3-media3.fl.yelpcdn.com/bphoto/y8IZkxl1WYfdWcMUefkeug/o.jpg", "price": "$", "rating": 4.0, "name": "3 Coffee Beans Restaurant", "url": "https://www.yelp.com/biz/3-coffee-beans-restaurant-jersey-city?adjust_creative=gBcvfFpabk3CnzmXKdYe3w&utm_campaign=yelp_api_v3&utm_medium=api_v3_business_search&utm_source=gBcvfFpabk3CnzmXKdYe3w"}, {"transactions": [], "distance": 3584.9223318199997, "phone": "+17186228889", "categories": [{"alias": "mexican", "title": "Mexican"}], "id": "new-happy-taco-brooklyn", "display_phone": "(718) 622-8889", "is_closed": false, "location": {"address2": "", "country": "US", "display_address": ["160 Park Pl", "Brooklyn, NY 11217"], "address1": "160 Park Pl", "city": "Brooklyn", "zip_code": "11217", "address3": "", "state": "NY"}, "coordinates": {"longitude": -73.97304, "latitude": 40.67753}, "review_count": 15, "image_url": "https://s3-media2.fl.yelpcdn.com/bphoto/EVJjPkMAO2-AWzSMv2_o_g/o.jpg", "price": "$", "rating": 2.5, "name": "New Happy Taco", "url": "https://www.yelp.com/biz/new-happy-taco-brooklyn?adjust_creative=gBcvfFpabk3CnzmXKdYe3w&utm_campaign=yelp_api_v3&utm_medium=api_v3_business_search&utm_source=gBcvfFpabk3CnzmXKdYe3w"}, {"transactions": [], "distance": 6806.578967084, "phone": "", "categories": [{"alias": "mexican", "title": "Mexican"}, {"alias": "convenience", "title": "Convenience Stores"}], "id": "variedad-dos-productos-mexicanos-brooklyn", "display_phone": "", "is_closed": false, "location": {"address2": "", "country": "US", "display_address": ["1105 Church Ave", "Brooklyn, NY 11218"], "address1": "1105 Church Ave", "city": "Brooklyn", "zip_code": "11218", "address3": "", "state": "NY"}, "coordinates": {"longitude": -73.969073, "latitude": 40.647295}, "review_count": 1, "image_url": "", "rating": 4.0, "name": "Variedad dos Productos Mexicanos", "url": "https://www.yelp.com/biz/variedad-dos-productos-mexicanos-brooklyn?adjust_creative=gBcvfFpabk3CnzmXKdYe3w&utm_campaign=yelp_api_v3&utm_medium=api_v3_business_search&utm_source=gBcvfFpabk3CnzmXKdYe3w"}, {"transactions": ["delivery", "pickup"], "distance": 7131.2805320219995, "phone": "+12124451009", "categories": [{"alias": "mexican", "title": "Mexican"}], "id": "cozumel-tortilla-new-york", "display_phone": "(212) 445-1009", "is_closed": false, "location": {"address2": null, "country": "US", "display_address": ["877 10th Ave", "New York, NY 10019"], "address1": "877 10th Ave", "city": "New York", "zip_code": "10019", "address3": "", "state": "NY"}, "coordinates": {"longitude": -73.98867, "latitude": 40.769439}, "review_count": 12, "image_url": "https://s3-media1.fl.yelpcdn.com/bphoto/SQEaO05_R0Ji_XmG6JIoqA/o.jpg", "price": "$", "rating": 3.0, "name": "Cozumel Tortilla", "url": "https://www.yelp.com/biz/cozumel-tortilla-new-york?adjust_creative=gBcvfFpabk3CnzmXKdYe3w&utm_campaign=yelp_api_v3&utm_medium=api_v3_business_search&utm_source=gBcvfFpabk3CnzmXKdYe3w"}, {"transactions": [], "distance": 6344.71351488, "phone": "+17184844485", "categories": [{"alias": "japanese", "title": "Japanese"}, {"alias": "mexican", "title": "Mexican"}, {"alias": "foodtrucks", "title": "Food Trucks"}], "id": "domo-taco-new-york-3", "display_phone": "(718) 484-4485", "is_closed": false, "location": {"address2": null, "country": "US", "display_address": ["New York, NY 10022"], "address1": null, "city": "New York", "zip_code": "10022", "address3": "", "state": "NY"}, "coordinates": {"longitude": -73.97095, "latitude": 40.75994}, "review_count": 151, "image_url": "https://s3-media4.fl.yelpcdn.com/bphoto/IlupBwsfd_0_K-TRvXbqjg/o.jpg", "price": "$", "rating": 3.0, "name": "Domo Taco", "url": "https://www.yelp.com/biz/domo-taco-new-york-3?adjust_creative=gBcvfFpabk3CnzmXKdYe3w&utm_campaign=yelp_api_v3&utm_medium=api_v3_business_search&utm_source=gBcvfFpabk3CnzmXKdYe3w"}, {"transactions": ["delivery"], "distance": 5989.92726985, "phone": "+12016530610", "categories": [{"alias": "mexican", "title": "Mexican"}], "id": "baja-mexican-cuisine-hoboken-2", "display_phone": "(201) 653-0610", "is_closed": false, "location": {"address2": null, "country": "US", "display_address": ["104 14th St", "Hoboken, NJ 07030"], "address1": "104 14th St", "city": "Hoboken", "zip_code": "07030", "address3": "", "state": "NJ"}, "coordinates": {"longitude": -74.0263596, "latitude": 40.753521}, "review_count": 150, "image_url": "https://s3-media2.fl.yelpcdn.com/bphoto/G0U5GW0Xh4dZDSPLeph-0g/o.jpg", "price": "$$", "rating": 3.0, "name": "Baja Mexican Cuisine", "url": "https://www.yelp.com/biz/baja-mexican-cuisine-hoboken-2?adjust_creative=gBcvfFpabk3CnzmXKdYe3w&utm_campaign=yelp_api_v3&utm_medium=api_v3_business_search&utm_source=gBcvfFpabk3CnzmXKdYe3w"}, {"transactions": ["delivery"], "distance": 4644.7810304019995, "phone": "+12018501400", "categories": [{"alias": "mexican", "title": "Mexican"}, {"alias": "foodtrucks", "title": "Food Trucks"}], "id": "the-taco-truck-hoboken", "display_phone": "(201) 850-1400", "is_closed": false, "location": {"address2": "", "country": "US", "display_address": ["62 Newark St", "Hoboken, NJ 07030"], "address1": "62 Newark St", "city": "Hoboken", "zip_code": "07030", "address3": "", "state": "NJ"}, "coordinates": {"longitude": -74.0306528, "latitude": 40.7368351}, "review_count": 670, "image_url": "https://s3-media2.fl.yelpcdn.com/bphoto/BLcGvkca-my5E8mEVBByQw/o.jpg", "price": "$", "rating": 3.5, "name": "The Taco Truck", "url": "https://www.yelp.com/biz/the-taco-truck-hoboken?adjust_creative=gBcvfFpabk3CnzmXKdYe3w&utm_campaign=yelp_api_v3&utm_medium=api_v3_business_search&utm_source=gBcvfFpabk3CnzmXKdYe3w"}, {"transactions": [], "distance": 12259.20055822, "phone": "+17188303500", "categories": [{"alias": "mexican", "title": "Mexican"}], "id": "express-soft-taco-forest-hills", "display_phone": "(718) 830-3500", "is_closed": false, "location": {"address2": "", "country": "US", "display_address": ["10123 Queens Blvd", "Forest Hills, NY 11375"], "address1": "10123 Queens Blvd", "city": "Forest Hills", "zip_code": "11375", "address3": "", "state": "NY"}, "coordinates": {"longitude": -73.851482, "latitude": 40.726366}, "review_count": 30, "image_url": "https://s3-media4.fl.yelpcdn.com/bphoto/i07pYkJ9jQrS98I_0RSMVQ/o.jpg", "price": "$", "rating": 2.5, "name": "Express Soft Taco", "url": "https://www.yelp.com/biz/express-soft-taco-forest-hills?adjust_creative=gBcvfFpabk3CnzmXKdYe3w&utm_campaign=yelp_api_v3&utm_medium=api_v3_business_search&utm_source=gBcvfFpabk3CnzmXKdYe3w"}, {"transactions": [], "distance": 12248.50649392, "phone": "+17184241956", "categories": [{"alias": "mexican", "title": "Mexican"}], "id": "king-tacos-mexico-flushing", "display_phone": "(718) 424-1956", "is_closed": false, "location": {"address2": "", "country": "US", "display_address": ["102-03 Northern Blvd", "Flushing, NY 11368"], "address1": "102-03 Northern Blvd", "city": "Flushing", "zip_code": "11368", "address3": "", "state": "NY"}, "coordinates": {"longitude": -73.866412, "latitude": 40.757818}, "review_count": 15, "image_url": "https://s3-media4.fl.yelpcdn.com/bphoto/9dMYLyvXhLHuWqbcdPotGA/o.jpg", "price": "$$", "rating": 3.5, "name": "King Tacos Mexico", "url": "https://www.yelp.com/biz/king-tacos-mexico-flushing?adjust_creative=gBcvfFpabk3CnzmXKdYe3w&utm_campaign=yelp_api_v3&utm_medium=api_v3_business_search&utm_source=gBcvfFpabk3CnzmXKdYe3w"}, {"transactions": ["delivery", "pickup"], "distance": 18657.99272512, "phone": "+17184840277", "categories": [{"alias": "mexican", "title": "Mexican"}], "id": "mexican-specialty-corp-bronx", "display_phone": "(718) 484-0277", "is_closed": false, "location": {"address2": null, "country": "US", "display_address": ["106 E 183rd St", "Bronx, NY 10453"], "address1": "106 E 183rd St", "city": "Bronx", "zip_code": "10453", "address3": null, "state": "NY"}, "coordinates": {"longitude": -73.9016906172037, "latitude": 40.8579631894827}, "review_count": 2, "image_url": "https://s3-media2.fl.yelpcdn.com/bphoto/ucJ17aXhHoIYmHrneOLI-A/o.jpg", "price": "$$", "rating": 4.5, "name": "Mexican Specialty Corp", "url": "https://www.yelp.com/biz/mexican-specialty-corp-bronx?adjust_creative=gBcvfFpabk3CnzmXKdYe3w&utm_campaign=yelp_api_v3&utm_medium=api_v3_business_search&utm_source=gBcvfFpabk3CnzmXKdYe3w"}, {"transactions": ["delivery", "pickup"], "distance": 8337.46267648, "phone": "+12017585410", "categories": [{"alias": "mexican", "title": "Mexican"}, {"alias": "tex-mex", "title": "Tex-Mex"}, {"alias": "vegetarian", "title": "Vegetarian"}], "id": "flaming-burritos-union-city", "display_phone": "(201) 758-5410", "is_closed": false, "location": {"address2": "", "country": "US", "display_address": ["4625 Park Ave", "Union City, NJ 07087"], "address1": "4625 Park Ave", "city": "Union City", "zip_code": "07087", "address3": "", "state": "NJ"}, "coordinates": {"longitude": -74.017, "latitude": 40.77843}, "review_count": 121, "image_url": "https://s3-media3.fl.yelpcdn.com/bphoto/ec1K123LX89IAPsUNafF_Q/o.jpg", "price": "$", "rating": 3.5, "name": "Flaming Burritos", "url": "https://www.yelp.com/biz/flaming-burritos-union-city?adjust_creative=gBcvfFpabk3CnzmXKdYe3w&utm_campaign=yelp_api_v3&utm_medium=api_v3_business_search&utm_source=gBcvfFpabk3CnzmXKdYe3w"}, {"transactions": [], "distance": 10328.504972076, "phone": "+17182351590", "categories": [{"alias": "mexican", "title": "Mexican"}, {"alias": "grocery", "title": "Grocery"}], "id": "don-moy-deli-grocery-brooklyn", "display_phone": "(718) 235-1590", "is_closed": false, "location": {"address2": "", "country": "US", "display_address": ["3240 Fulton St", "Brooklyn, NY 11208"], "address1": "3240 Fulton St", "city": "Brooklyn", "zip_code": "11208", "address3": "", "state": "NY"}, "coordinates": {"longitude": -73.8755874633789, "latitude": 40.6824684143066}, "review_count": 2, "image_url": "https://s3-media2.fl.yelpcdn.com/bphoto/vY5aXdLqa7l-OW2h3hMBbQ/o.jpg", "rating": 3.5, "name": "Don Moy Deli Grocery", "url": "https://www.yelp.com/biz/don-moy-deli-grocery-brooklyn?adjust_creative=gBcvfFpabk3CnzmXKdYe3w&utm_campaign=yelp_api_v3&utm_medium=api_v3_business_search&utm_source=gBcvfFpabk3CnzmXKdYe3w"}, {"transactions": [], "distance": 17608.1751816, "phone": "+17189798226", "categories": [{"alias": "tex-mex", "title": "Tex-Mex"}, {"alias": "mexican", "title": "Mexican"}], "id": "moes-southwest-grill-staten-island", "display_phone": "(718) 979-8226", "is_closed": false, "location": {"address2": "", "country": "US", "display_address": ["2397 Hylan Blvd", "Staten Island, NY 10306"], "address1": "2397 Hylan Blvd", "city": "Staten Island", "zip_code": "10306", "address3": "", "state": "NY"}, "coordinates": {"longitude": -74.1081085205078, "latitude": 40.572566986084}, "review_count": 48, "image_url": "https://s3-media2.fl.yelpcdn.com/bphoto/SI3S79USee-CD9XAX7B2ZA/o.jpg", "price": "$", "rating": 2.5, "name": "Moe's Southwest Grill", "url": "https://www.yelp.com/biz/moes-southwest-grill-staten-island?adjust_creative=gBcvfFpabk3CnzmXKdYe3w&utm_campaign=yelp_api_v3&utm_medium=api_v3_business_search&utm_source=gBcvfFpabk3CnzmXKdYe3w"}, {"transactions": [], "distance": 3586.9452721999996, "phone": "+17186228776", "categories": [{"alias": "mexican", "title": "Mexican"}], "id": "bklyn-burro-clinton-hill-2", "display_phone": "(718) 622-8776", "is_closed": false, "location": {"address2": null, "country": "US", "display_address": ["922 Fulton St", "Clinton Hill, NY 11238"], "address1": "922 Fulton St", "city": "Clinton Hill", "zip_code": "11238", "address3": "", "state": "NY"}, "coordinates": {"longitude": -73.9640973, "latitude": 40.6827188}, "review_count": 43, "image_url": "https://s3-media2.fl.yelpcdn.com/bphoto/DqUJNcLqHolBMmAqESRQdA/o.jpg", "price": "$$", "rating": 3.5, "name": "B'klyn Burro", "url": "https://www.yelp.com/biz/bklyn-burro-clinton-hill-2?adjust_creative=gBcvfFpabk3CnzmXKdYe3w&utm_campaign=yelp_api_v3&utm_medium=api_v3_business_search&utm_source=gBcvfFpabk3CnzmXKdYe3w"}, {"transactions": [], "distance": 10976.53887548, "phone": "+12018611965", "categories": [{"alias": "mexican", "title": "Mexican"}, {"alias": "bars", "title": "Bars"}, {"alias": "spanish", "title": "Spanish"}], "id": "puerto-vallarta-restaurant-north-bergen", "display_phone": "(201) 861-1965", "is_closed": false, "location": {"address2": "", "country": "US", "display_address": ["7721 John F Kennedy Blvd W", "North Bergen, NJ 07047"], "address1": "7721 John F Kennedy Blvd W", "city": "North Bergen", "zip_code": "07047", "address3": "", "state": "NJ"}, "coordinates": {"longitude": -74.0123075991869, "latitude": 40.8032128178057}, "review_count": 37, "image_url": "https://s3-media1.fl.yelpcdn.com/bphoto/WEEbsOyUZZZtyLlvq-67tg/o.jpg", "price": "$$", "rating": 4.0, "name": "Puerto Vallarta Restaurant", "url": "https://www.yelp.com/biz/puerto-vallarta-restaurant-north-bergen?adjust_creative=gBcvfFpabk3CnzmXKdYe3w&utm_campaign=yelp_api_v3&utm_medium=api_v3_business_search&utm_source=gBcvfFpabk3CnzmXKdYe3w"}, {"transactions": [], "distance": 17806.05479998, "phone": "+19178916910", "categories": [{"alias": "mexican", "title": "Mexican"}, {"alias": "hotdogs", "title": "Fast Food"}], "id": "alexs-tacos-bronx", "display_phone": "(917) 891-6910", "is_closed": false, "location": {"address2": "", "country": "US", "display_address": ["744 E Tremont Ave", "Bronx, NY 10457"], "address1": "744 E Tremont Ave", "city": "Bronx", "zip_code": "10457", "address3": "", "state": "NY"}, "coordinates": {"longitude": -73.8895697146654, "latitude": 40.8445633970481}, "review_count": 2, "image_url": "https://s3-media3.fl.yelpcdn.com/bphoto/NB9p8uWP6Niw7uFD1jABMA/o.jpg", "price": "$", "rating": 4.5, "name": "Alex's Tacos", "url": "https://www.yelp.com/biz/alexs-tacos-bronx?adjust_creative=gBcvfFpabk3CnzmXKdYe3w&utm_campaign=yelp_api_v3&utm_medium=api_v3_business_search&utm_source=gBcvfFpabk3CnzmXKdYe3w"}, {"transactions": ["delivery", "pickup"], "distance": 15186.95694774, "phone": "+17183804900", "categories": [{"alias": "chinese", "title": "Chinese"}, {"alias": "mexican", "title": "Mexican"}], "id": "panda-garden-flushing", "display_phone": "(718) 380-4900", "is_closed": false, "location": {"address2": null, "country": "US", "display_address": ["14701 Union Tpke", "Flushing, NY 11367"], "address1": "14701 Union Tpke", "city": "Flushing", "zip_code": "11367", "address3": null, "state": "NY"}, "coordinates": {"longitude": -73.8149337768555, "latitude": 40.718563079834}, "review_count": 26, "image_url": "https://s3-media1.fl.yelpcdn.com/bphoto/C4U9z1SzwiXuhQ86CdWEgA/o.jpg", "price": "$", "rating": 3.5, "name": "Panda Garden", "url": "https://www.yelp.com/biz/panda-garden-flushing?adjust_creative=gBcvfFpabk3CnzmXKdYe3w&utm_campaign=yelp_api_v3&utm_medium=api_v3_business_search&utm_source=gBcvfFpabk3CnzmXKdYe3w"}, {"transactions": [], "distance": 11236.415581482, "phone": "", "categories": [{"alias": "mexican", "title": "Mexican"}, {"alias": "streetvendors", "title": "Street Vendors"}], "id": "quesadilla-stand-new-york", "display_phone": "", "is_closed": false, "location": {"address2": "", "country": "US", "display_address": ["E 116th St", "2nd Ave", "New York, NY 10029"], "address1": "E 116th St", "city": "New York", "zip_code": "10029", "address3": "2nd Ave", "state": "NY"}, "coordinates": {"longitude": -73.938363611084, "latitude": 40.7971822943219}, "review_count": 3, "image_url": "https://s3-media2.fl.yelpcdn.com/bphoto/2Um8XxA2STR5Om1VWA9jyw/o.jpg", "rating": 4.5, "name": "Quesadilla Stand", "url": "https://www.yelp.com/biz/quesadilla-stand-new-york?adjust_creative=gBcvfFpabk3CnzmXKdYe3w&utm_campaign=yelp_api_v3&utm_medium=api_v3_business_search&utm_source=gBcvfFpabk3CnzmXKdYe3w"}, {"transactions": [], "distance": 14413.92335346, "phone": "+19733447600", "categories": [{"alias": "mexican", "title": "Mexican"}], "id": "mi-peque\u00f1o-mexico-newark-3", "display_phone": "(973) 344-7600", "is_closed": false, "location": {"address2": "", "country": "US", "display_address": ["81 Ferry St", "Newark, NJ 07105"], "address1": "81 Ferry St", "city": "Newark", "zip_code": "07105", "address3": "", "state": "NJ"}, "coordinates": {"longitude": -74.1619567871094, "latitude": 40.7311973571777}, "review_count": 111, "image_url": "https://s3-media4.fl.yelpcdn.com/bphoto/r_QyneWFLUEls9GMICCKNw/o.jpg", "price": "$$", "rating": 3.5, "name": "Mi Peque\u00f1o Mexico", "url": "https://www.yelp.com/biz/mi-peque%C3%B1o-mexico-newark-3?adjust_creative=gBcvfFpabk3CnzmXKdYe3w&utm_campaign=yelp_api_v3&utm_medium=api_v3_business_search&utm_source=gBcvfFpabk3CnzmXKdYe3w"}, {"transactions": [], "distance": 7649.669384639999, "phone": "", "categories": [{"alias": "foodstands", "title": "Food Stands"}, {"alias": "mexican", "title": "Mexican"}], "id": "taco-cart-brooklyn", "display_phone": "", "is_closed": false, "location": {"address2": "", "country": "US", "display_address": ["Luis Muoz Marin Elementary School Playground", "corner of 4th Ave and 60th", "Brooklyn, NY 11220"], "address1": "Luis Muoz Marin Elementary School Playground", "city": "Brooklyn", "zip_code": "11220", "address3": "corner of 4th Ave and 60th", "state": "NY"}, "coordinates": {"longitude": -74.016731262207, "latitude": 40.6411628723145}, "review_count": 10, "image_url": "https://s3-media3.fl.yelpcdn.com/bphoto/4FTsPpIi012BMOuoE-ynbw/o.jpg", "price": "$", "rating": 3.5, "name": "Taco Cart", "url": "https://www.yelp.com/biz/taco-cart-brooklyn?adjust_creative=gBcvfFpabk3CnzmXKdYe3w&utm_campaign=yelp_api_v3&utm_medium=api_v3_business_search&utm_source=gBcvfFpabk3CnzmXKdYe3w"}, {"transactions": [], "distance": 10253.13008477, "phone": "+17182053134", "categories": [{"alias": "mexican", "title": "Mexican"}, {"alias": "bakeries", "title": "Bakeries"}], "id": "tulcingo-restaurant-and-panaderia-new-york", "display_phone": "(718) 205-3134", "is_closed": false, "location": {"address2": "", "country": "US", "display_address": ["40-11 82nd St", "New York, NY 11373"], "address1": "40-11 82nd St", "city": "New York", "zip_code": "11373", "address3": "", "state": "NY"}, "coordinates": {"longitude": -73.8780416931152, "latitude": 40.7326383324154}, "review_count": 9, "image_url": "https://s3-media2.fl.yelpcdn.com/bphoto/Bbyv-tKBUUl0F_9KaBieXA/o.jpg", "price": "$", "rating": 3.5, "name": "Tulcingo Restaurant & Panaderia", "url": "https://www.yelp.com/biz/tulcingo-restaurant-and-panaderia-new-york?adjust_creative=gBcvfFpabk3CnzmXKdYe3w&utm_campaign=yelp_api_v3&utm_medium=api_v3_business_search&utm_source=gBcvfFpabk3CnzmXKdYe3w"}, {"transactions": [], "distance": 11396.05197064, "phone": "+17186451480", "categories": [{"alias": "mexican", "title": "Mexican"}, {"alias": "delis", "title": "Delis"}], "id": "adams-deli-on-the-corner-brooklyn", "display_phone": "(718) 645-1480", "is_closed": false, "location": {"address2": "", "country": "US", "display_address": ["525 Kings Hwy", "Brooklyn, NY 11223"], "address1": "525 Kings Hwy", "city": "Brooklyn", "zip_code": "11223", "address3": null, "state": "NY"}, "coordinates": {"longitude": -73.9699348229621, "latitude": 40.6046379340115}, "review_count": 1, "image_url": "https://s3-media2.fl.yelpcdn.com/bphoto/Msr4KjNYz-i9dnquwEkyIQ/o.jpg", "rating": 4.0, "name": "Adam's Deli on the Corner", "url": "https://www.yelp.com/biz/adams-deli-on-the-corner-brooklyn?adjust_creative=gBcvfFpabk3CnzmXKdYe3w&utm_campaign=yelp_api_v3&utm_medium=api_v3_business_search&utm_source=gBcvfFpabk3CnzmXKdYe3w"}, {"transactions": [], "distance": 14175.575271439999, "phone": "+13478617245", "categories": [{"alias": "mexican", "title": "Mexican"}], "id": "joey-armadillos-elm-park", "display_phone": "(347) 861-7245", "is_closed": false, "location": {"address2": "", "country": "US", "display_address": ["1569 Castleton Ave", "Elm Park, NY 10302"], "address1": "1569 Castleton Ave", "city": "Elm Park", "zip_code": "10302", "address3": "", "state": "NY"}, "coordinates": {"longitude": -74.1353181019328, "latitude": 40.6360796412176}, "review_count": 1, "image_url": "https://s3-media1.fl.yelpcdn.com/bphoto/PcAjY3EYfvzpV-M2oJ9KtA/o.jpg", "rating": 4.0, "name": "Joey Armadillo's", "url": "https://www.yelp.com/biz/joey-armadillos-elm-park?adjust_creative=gBcvfFpabk3CnzmXKdYe3w&utm_campaign=yelp_api_v3&utm_medium=api_v3_business_search&utm_source=gBcvfFpabk3CnzmXKdYe3w"}, {"transactions": ["delivery", "pickup"], "distance": 6677.161316039999, "phone": "+12017927730", "categories": [{"alias": "mexican", "title": "Mexican"}], "id": "taqueria-restaurant-oaxaca-jersey-city", "display_phone": "(201) 792-7730", "is_closed": false, "location": {"address2": null, "country": "US", "display_address": ["467 Central Ave", "Jersey City, NJ 07307"], "address1": "467 Central Ave", "city": "Jersey City", "zip_code": "07307", "address3": null, "state": "NJ"}, "coordinates": {"longitude": -74.04642, "latitude": 40.75073}, "review_count": 28, "image_url": "https://s3-media2.fl.yelpcdn.com/bphoto/A-2-EBbXsLkDi35sNB9cuA/o.jpg", "price": "$$", "rating": 3.5, "name": "Taqueria Restaurant Oaxaca", "url": "https://www.yelp.com/biz/taqueria-restaurant-oaxaca-jersey-city?adjust_creative=gBcvfFpabk3CnzmXKdYe3w&utm_campaign=yelp_api_v3&utm_medium=api_v3_business_search&utm_source=gBcvfFpabk3CnzmXKdYe3w"}, {"transactions": [], "distance": 7385.177896187999, "phone": "+17184395647", "categories": [{"alias": "mexican", "title": "Mexican"}], "id": "jalape\u00f1os-sunset-park-2", "display_phone": "(718) 439-5647", "is_closed": false, "location": {"address2": "", "country": "US", "display_address": ["5714 5th Ave", "Sunset Park, NY 11220"], "address1": "5714 5th Ave", "city": "Sunset Park", "zip_code": "11220", "address3": "", "state": "NY"}, "coordinates": {"longitude": -74.0147714348883, "latitude": 40.6408689715014}, "review_count": 17, "image_url": "https://s3-media2.fl.yelpcdn.com/bphoto/EWeG6R5Ivw-4IKhEVjncTA/o.jpg", "price": "$", "rating": 4.0, "name": "Jalape\u00f1os", "url": "https://www.yelp.com/biz/jalape%C3%B1os-sunset-park-2?adjust_creative=gBcvfFpabk3CnzmXKdYe3w&utm_campaign=yelp_api_v3&utm_medium=api_v3_business_search&utm_source=gBcvfFpabk3CnzmXKdYe3w"}, {"transactions": ["delivery", "pickup"], "distance": 5254.217810718, "phone": "+17187680909", "categories": [{"alias": "mexican", "title": "Mexican"}, {"alias": "desserts", "title": "Desserts"}, {"alias": "tradamerican", "title": "American (Traditional)"}], "id": "taco-and-burrito-grill-brooklyn", "display_phone": "(718) 768-0909", "is_closed": false, "location": {"address2": "", "country": "US", "display_address": ["252 Prospect Park W", "Brooklyn, NY 11215"], "address1": "252 Prospect Park W", "city": "Brooklyn", "zip_code": "11215", "address3": "", "state": "NY"}, "coordinates": {"longitude": -73.9817810058594, "latitude": 40.6591606140137}, "review_count": 20, "image_url": "", "price": "$$", "rating": 2.5, "name": "Taco & Burrito Grill", "url": "https://www.yelp.com/biz/taco-and-burrito-grill-brooklyn?adjust_creative=gBcvfFpabk3CnzmXKdYe3w&utm_campaign=yelp_api_v3&utm_medium=api_v3_business_search&utm_source=gBcvfFpabk3CnzmXKdYe3w"}, {"transactions": [], "distance": 7687.7640717799995, "phone": "+17184177308", "categories": [{"alias": "hotdogs", "title": "Fast Food"}, {"alias": "mexican", "title": "Mexican"}, {"alias": "tex-mex", "title": "Tex-Mex"}], "id": "taco-bell-ridgewood", "display_phone": "(718) 417-7308", "is_closed": false, "location": {"address2": "", "country": "US", "display_address": ["57-29 Myrtle Ave", "Ridgewood, NY 11385"], "address1": "57-29 Myrtle Ave", "city": "Ridgewood", "zip_code": "11385", "address3": "", "state": "NY"}, "coordinates": {"longitude": -73.90333, "latitude": 40.7005}, "review_count": 15, "image_url": "https://s3-media2.fl.yelpcdn.com/bphoto/-icJpv0jjR04ZWhTdv3Nag/o.jpg", "price": "$", "rating": 3.0, "name": "Taco Bell", "url": "https://www.yelp.com/biz/taco-bell-ridgewood?adjust_creative=gBcvfFpabk3CnzmXKdYe3w&utm_campaign=yelp_api_v3&utm_medium=api_v3_business_search&utm_source=gBcvfFpabk3CnzmXKdYe3w"}, {"transactions": ["delivery", "pickup"], "distance": 13631.29809278, "phone": "+17189933555", "categories": [{"alias": "cocktailbars", "title": "Cocktail Bars"}, {"alias": "tradamerican", "title": "American (Traditional)"}, {"alias": "mexican", "title": "Mexican"}], "id": "madison-cafe-bronx", "display_phone": "(718) 993-3555", "is_closed": false, "location": {"address2": "", "country": "US", "display_address": ["463 Willis Ave", "Bronx, NY 10455"], "address1": "463 Willis Ave", "city": "Bronx", "zip_code": "10455", "address3": "", "state": "NY"}, "coordinates": {"longitude": -73.919679, "latitude": 40.8142274}, "review_count": 26, "image_url": "https://s3-media1.fl.yelpcdn.com/bphoto/lPhkuf_39SeGVGrk3-yFCg/o.jpg", "price": "$", "rating": 3.0, "name": "Madison Cafe", "url": "https://www.yelp.com/biz/madison-cafe-bronx?adjust_creative=gBcvfFpabk3CnzmXKdYe3w&utm_campaign=yelp_api_v3&utm_medium=api_v3_business_search&utm_source=gBcvfFpabk3CnzmXKdYe3w"}, {"transactions": [], "distance": 13384.330385719999, "phone": "+17188460974", "categories": [{"alias": "mexican", "title": "Mexican"}], "id": "mexico-and-el-salvador-restaurant-jamaica", "display_phone": "(718) 846-0974", "is_closed": false, "location": {"address2": "", "country": "US", "display_address": ["86-20 114th St", "Jamaica, NY 11418"], "address1": "86-20 114th St", "city": "Jamaica", "zip_code": "11418", "address3": "", "state": "NY"}, "coordinates": {"longitude": -73.8357625332555, "latitude": 40.6987894083388}, "review_count": 3, "image_url": "", "rating": 3.5, "name": "Mexico & El Salvador Restaurant", "url": "https://www.yelp.com/biz/mexico-and-el-salvador-restaurant-jamaica?adjust_creative=gBcvfFpabk3CnzmXKdYe3w&utm_campaign=yelp_api_v3&utm_medium=api_v3_business_search&utm_source=gBcvfFpabk3CnzmXKdYe3w"}, {"transactions": [], "distance": 16405.06961242, "phone": "+12019332999", "categories": [{"alias": "mexican", "title": "Mexican"}, {"alias": "spanish", "title": "Spanish"}], "id": "paellas-cafe-lyndhurst", "display_phone": "(201) 933-2999", "is_closed": false, "location": {"address2": null, "country": "US", "display_address": ["746 Riverside Ave", "Lyndhurst, NJ 07071"], "address1": "746 Riverside Ave", "city": "Lyndhurst", "zip_code": "07071", "address3": "", "state": "NJ"}, "coordinates": {"longitude": -74.135612, "latitude": 40.807014}, "review_count": 62, "image_url": "https://s3-media3.fl.yelpcdn.com/bphoto/SD7ZvDO4sOOxUGmpwQQ4FA/o.jpg", "price": "$$", "rating": 4.5, "name": "Paellas Cafe", "url": "https://www.yelp.com/biz/paellas-cafe-lyndhurst?adjust_creative=gBcvfFpabk3CnzmXKdYe3w&utm_campaign=yelp_api_v3&utm_medium=api_v3_business_search&utm_source=gBcvfFpabk3CnzmXKdYe3w"}, {"transactions": ["delivery", "pickup"], "distance": 7100.5220212720005, "phone": "+17184351899", "categories": [{"alias": "chinese", "title": "Chinese"}, {"alias": "mexican", "title": "Mexican"}], "id": "taco-king-brooklyn-3", "display_phone": "(718) 435-1899", "is_closed": false, "location": {"address2": "", "country": "US", "display_address": ["61 A Church Ave", "Brooklyn, NY 11218"], "address1": "61 A Church Ave", "city": "Brooklyn", "zip_code": "11218", "address3": "", "state": "NY"}, "coordinates": {"longitude": -73.98101, "latitude": 40.642387}, "review_count": 15, "image_url": "https://s3-media3.fl.yelpcdn.com/bphoto/WJHkavPiWLDdtlRIOkSb7w/o.jpg", "price": "$", "rating": 2.5, "name": "Taco King", "url": "https://www.yelp.com/biz/taco-king-brooklyn-3?adjust_creative=gBcvfFpabk3CnzmXKdYe3w&utm_campaign=yelp_api_v3&utm_medium=api_v3_business_search&utm_source=gBcvfFpabk3CnzmXKdYe3w"}, {"transactions": [], "distance": 6085.14467562, "phone": "+12127559754", "categories": [{"alias": "hotdogs", "title": "Fast Food"}, {"alias": "mexican", "title": "Mexican"}], "id": "chipotle-mexican-grill-new-york-68", "display_phone": "(212) 755-9754", "is_closed": false, "location": {"address2": "", "country": "US", "display_address": ["150 E 52nd St", "New York, NY 10022"], "address1": "150 E 52nd St", "city": "New York", "zip_code": "10022", "address3": "", "state": "NY"}, "coordinates": {"longitude": -73.97069, "latitude": 40.75732}, "review_count": 159, "image_url": "https://s3-media3.fl.yelpcdn.com/bphoto/kwQC_-724MhUX4bUoI7EGA/o.jpg", "price": "$", "rating": 3.5, "name": "Chipotle Mexican Grill", "url": "https://www.yelp.com/biz/chipotle-mexican-grill-new-york-68?adjust_creative=gBcvfFpabk3CnzmXKdYe3w&utm_campaign=yelp_api_v3&utm_medium=api_v3_business_search&utm_source=gBcvfFpabk3CnzmXKdYe3w"}, {"transactions": [], "distance": 5934.676535508, "phone": "", "categories": [{"alias": "tacos", "title": "Tacos"}], "id": "gabrielas-tacqueria-new-york", "display_phone": "", "is_closed": false, "location": {"address2": "", "country": "US", "display_address": ["700 8th Ave", "New York, NY 10036"], "address1": "700 8th Ave", "city": "New York", "zip_code": "10036", "address3": null, "state": "NY"}, "coordinates": {"longitude": -73.9884533435756, "latitude": 40.7586328147499}, "review_count": 2, "image_url": "https://s3-media3.fl.yelpcdn.com/bphoto/1zkAwxkSm9BnskawKdk-8A/o.jpg", "rating": 2.5, "name": "Gabriela's Tacqueria", "url": "https://www.yelp.com/biz/gabrielas-tacqueria-new-york?adjust_creative=gBcvfFpabk3CnzmXKdYe3w&utm_campaign=yelp_api_v3&utm_medium=api_v3_business_search&utm_source=gBcvfFpabk3CnzmXKdYe3w"}, {"transactions": [], "distance": 6840.925179496, "phone": "+17187868297", "categories": [{"alias": "mexican", "title": "Mexican"}, {"alias": "coffee", "title": "Coffee & Tea"}], "id": "marys-coffee-shop-long-island-city", "display_phone": "(718) 786-8297", "is_closed": false, "location": {"address2": "", "country": "US", "display_address": ["25-15 Queens Plz N", "Long Island City, NY 11101"], "address1": "25-15 Queens Plz N", "city": "Long Island City", "zip_code": "11101", "address3": "", "state": "NY"}, "coordinates": {"longitude": -73.9399515, "latitude": 40.7509906}, "review_count": 2, "image_url": "https://s3-media1.fl.yelpcdn.com/bphoto/x_BM2h5PxeMFn7PKTO0wFA/o.jpg", "price": "$", "rating": 3.0, "name": "Mary's Coffee Shop", "url": "https://www.yelp.com/biz/marys-coffee-shop-long-island-city?adjust_creative=gBcvfFpabk3CnzmXKdYe3w&utm_campaign=yelp_api_v3&utm_medium=api_v3_business_search&utm_source=gBcvfFpabk3CnzmXKdYe3w"}, {"transactions": [], "distance": 7024.416654539999, "phone": "", "categories": [{"alias": "mexican", "title": "Mexican"}], "id": "ladino-restaurant-new-york", "display_phone": "", "is_closed": false, "location": {"address2": "", "country": "US", "display_address": ["Columbus Cir", "New York, NY"], "address1": "Columbus Cir", "city": "New York", "zip_code": "", "address3": "", "state": "NY"}, "coordinates": {"longitude": -73.9833927154541, "latitude": 40.7680738977369}, "review_count": 1, "image_url": "", "price": "$$$$", "rating": 2.0, "name": "Ladino Restaurant", "url": "https://www.yelp.com/biz/ladino-restaurant-new-york?adjust_creative=gBcvfFpabk3CnzmXKdYe3w&utm_campaign=yelp_api_v3&utm_medium=api_v3_business_search&utm_source=gBcvfFpabk3CnzmXKdYe3w"}, {"transactions": [], "distance": 7737.914324859999, "phone": "+17184390914", "categories": [{"alias": "mexican", "title": "Mexican"}, {"alias": "convenience", "title": "Convenience Stores"}], "id": "guerrero-food-brooklyn", "display_phone": "(718) 439-0914", "is_closed": false, "location": {"address2": "", "country": "US", "display_address": ["6214 5th Ave", "Brooklyn, NY 11220"], "address1": "6214 5th Ave", "city": "Brooklyn", "zip_code": "11220", "address3": "", "state": "NY"}, "coordinates": {"longitude": -74.017921, "latitude": 40.638199}, "review_count": 1, "image_url": "https://s3-media1.fl.yelpcdn.com/bphoto/q0uQ5yHDjpbMkMk9aLr1og/o.jpg", "rating": 4.0, "name": "Guerrero Food", "url": "https://www.yelp.com/biz/guerrero-food-brooklyn?adjust_creative=gBcvfFpabk3CnzmXKdYe3w&utm_campaign=yelp_api_v3&utm_medium=api_v3_business_search&utm_source=gBcvfFpabk3CnzmXKdYe3w"}, {"transactions": [], "distance": 14159.69913234, "phone": "+17182734648", "categories": [{"alias": "mexican", "title": "Mexican"}], "id": "tacos-la-abuelita-staten-island", "display_phone": "(718) 273-4648", "is_closed": false, "location": {"address2": null, "country": "US", "display_address": ["229 Port Richmond Ave", "Staten Island, NY 10302"], "address1": "229 Port Richmond Ave", "city": "Staten Island", "zip_code": "10302", "address3": null, "state": "NY"}, "coordinates": {"longitude": -74.134666, "latitude": 40.635586}, "review_count": 1, "image_url": "", "price": "$", "rating": 5.0, "name": "Tacos La Abuelita", "url": "https://www.yelp.com/biz/tacos-la-abuelita-staten-island?adjust_creative=gBcvfFpabk3CnzmXKdYe3w&utm_campaign=yelp_api_v3&utm_medium=api_v3_business_search&utm_source=gBcvfFpabk3CnzmXKdYe3w"}, {"transactions": [], "distance": 15402.8885329, "phone": "+19734240289", "categories": [{"alias": "mexican", "title": "Mexican"}], "id": "taqueria-los-g\u00fceros-newark-2", "display_phone": "(973) 424-0289", "is_closed": false, "location": {"address2": "", "country": "US", "display_address": ["833 Broad St", "Newark, NJ 07102"], "address1": "833 Broad St", "city": "Newark", "zip_code": "07102", "address3": "", "state": "NJ"}, "coordinates": {"longitude": -74.1730198636651, "latitude": 40.7344183650954}, "review_count": 16, "image_url": "https://s3-media3.fl.yelpcdn.com/bphoto/mYSZNACk4M5_rgY-Mixs7g/o.jpg", "price": "$", "rating": 4.0, "name": "Taqueria Los G\u00fceros", "url": "https://www.yelp.com/biz/taqueria-los-g%C3%BCeros-newark-2?adjust_creative=gBcvfFpabk3CnzmXKdYe3w&utm_campaign=yelp_api_v3&utm_medium=api_v3_business_search&utm_source=gBcvfFpabk3CnzmXKdYe3w"}, {"transactions": [], "distance": 6412.91010205, "phone": "+17187842706", "categories": [{"alias": "mexican", "title": "Mexican"}, {"alias": "hotdogs", "title": "Fast Food"}], "id": "chipotle-mexican-grill-queens-2", "display_phone": "(718) 784-2706", "is_closed": false, "location": {"address2": "", "country": "US", "display_address": ["26-14 Jackson Ave", "Queens, NY 11101"], "address1": "26-14 Jackson Ave", "city": "Queens", "zip_code": "11101", "address3": null, "state": "NY"}, "coordinates": {"longitude": -73.94162, "latitude": 40.74707}, "review_count": 15, "image_url": "https://s3-media1.fl.yelpcdn.com/bphoto/9y11RjEgQYhxtRFSuzzeRw/o.jpg", "price": "$$", "rating": 2.5, "name": "Chipotle Mexican Grill", "url": "https://www.yelp.com/biz/chipotle-mexican-grill-queens-2?adjust_creative=gBcvfFpabk3CnzmXKdYe3w&utm_campaign=yelp_api_v3&utm_medium=api_v3_business_search&utm_source=gBcvfFpabk3CnzmXKdYe3w"}, {"transactions": [], "distance": 1481.3842090383998, "phone": "+19172464060", "categories": [{"alias": "mexican", "title": "Mexican"}, {"alias": "hotdogs", "title": "Fast Food"}], "id": "chipotle-mexican-grill-brooklyn-12", "display_phone": "(917) 246-4060", "is_closed": false, "location": {"address2": "", "country": "US", "display_address": ["One Metrotech Ctr", "Brooklyn, NY 11201"], "address1": "One Metrotech Ctr", "city": "Brooklyn", "zip_code": "11201", "address3": "", "state": "NY"}, "coordinates": {"longitude": -73.9864610787331, "latitude": 40.6935204981126}, "review_count": 84, "image_url": "https://s3-media2.fl.yelpcdn.com/bphoto/8wyxVa1BwVJiuD0YACzlXA/o.jpg", "price": "$$", "rating": 2.5, "name": "Chipotle Mexican Grill", "url": "https://www.yelp.com/biz/chipotle-mexican-grill-brooklyn-12?adjust_creative=gBcvfFpabk3CnzmXKdYe3w&utm_campaign=yelp_api_v3&utm_medium=api_v3_business_search&utm_source=gBcvfFpabk3CnzmXKdYe3w"}, {"transactions": [], "distance": 10006.700701939999, "phone": "+17184294160", "categories": [{"alias": "bakeries", "title": "Bakeries"}, {"alias": "mexican", "title": "Mexican"}], "id": "panaderia-coatzingo-jackson-heights", "display_phone": "(718) 429-4160", "is_closed": false, "location": {"address2": "", "country": "US", "display_address": ["76-11 Roosevelt Ave", "Jackson Heights, NY 11372"], "address1": "76-11 Roosevelt Ave", "city": "Jackson Heights", "zip_code": "11372", "address3": "", "state": "NY"}, "coordinates": {"longitude": -73.88897, "latitude": 40.74731}, "review_count": 5, "image_url": "https://s3-media2.fl.yelpcdn.com/bphoto/yZQWKjhVZa7zrdP0XC0OxQ/o.jpg", "price": "$", "rating": 3.0, "name": "Panaderia Coatzingo", "url": "https://www.yelp.com/biz/panaderia-coatzingo-jackson-heights?adjust_creative=gBcvfFpabk3CnzmXKdYe3w&utm_campaign=yelp_api_v3&utm_medium=api_v3_business_search&utm_source=gBcvfFpabk3CnzmXKdYe3w"}, {"transactions": [], "distance": 18440.17016546, "phone": "+17189950838", "categories": [{"alias": "mexican", "title": "Mexican"}, {"alias": "hotdogs", "title": "Fast Food"}, {"alias": "catering", "title": "Caterers"}], "id": "qdoba-mexican-eats-jamaica", "display_phone": "(718) 995-0838", "is_closed": false, "location": {"address2": "Bldg 125, Unit 3", "country": "US", "display_address": ["Jfk Travel Plz", "Bldg 125, Unit 3", "Jamaica, NY 11430"], "address1": "Jfk Travel Plz", "city": "Jamaica", "zip_code": "11430", "address3": "", "state": "NY"}, "coordinates": {"longitude": -73.7896835803986, "latitude": 40.6469535274057}, "review_count": 8, "image_url": "https://s3-media2.fl.yelpcdn.com/bphoto/sONNCkW3U5hVf25T_Uqgeg/o.jpg", "price": "$", "rating": 3.0, "name": "QDOBA Mexican Eats", "url": "https://www.yelp.com/biz/qdoba-mexican-eats-jamaica?adjust_creative=gBcvfFpabk3CnzmXKdYe3w&utm_campaign=yelp_api_v3&utm_medium=api_v3_business_search&utm_source=gBcvfFpabk3CnzmXKdYe3w"}, {"transactions": [], "distance": 17490.191247519997, "phone": "+17188481388", "categories": [{"alias": "mexican", "title": "Mexican"}, {"alias": "latin", "title": "Latin American"}], "id": "yummy-taco-jamaica-4", "display_phone": "(718) 848-1388", "is_closed": false, "location": {"address2": "", "country": "US", "display_address": ["14615 Rockaway Blvd", "Jamaica, NY 11436"], "address1": "14615 Rockaway Blvd", "city": "Jamaica", "zip_code": "11436", "address3": null, "state": "NY"}, "coordinates": {"longitude": -73.7911795824766, "latitude": 40.6734969466925}, "review_count": 2, "image_url": "https://s3-media3.fl.yelpcdn.com/bphoto/G7N6ddONEyKCHwGFId4AxQ/o.jpg", "price": "$$", "rating": 4.0, "name": "Yummy Taco", "url": "https://www.yelp.com/biz/yummy-taco-jamaica-4?adjust_creative=gBcvfFpabk3CnzmXKdYe3w&utm_campaign=yelp_api_v3&utm_medium=api_v3_business_search&utm_source=gBcvfFpabk3CnzmXKdYe3w"}]}