{"region": {"center": {"longitude": -73.99429321289062, "latitude": 40.70544486444615}}, "total": 1496, "businesses": [{"transactions": [], "distance": 1602.1457673979999, "phone": "+12124324180", "categories": [{"alias": "mexican", "title": "Mexican"}, {"alias": "bars", "title": "Bars"}, {"alias": "breakfast_brunch", "title": "Breakfast & Brunch"}], "id": "la-contenta-new-york", "display_phone": "(212) 432-4180", "is_closed": false, "location": {"address2": "", "country": "US", "display_address": ["102 Norfolk St", "New York, NY 10002"], "address1": "102 Norfolk St", "city": "New York", "zip_code": "10002", "address3": "", "state": "NY"}, "coordinates": {"longitude": -73.98691, "latitude": 40.71873}, "review_count": 407, "image_url": "https://s3-media1.fl.yelpcdn.com/bphoto/zE1yO2JWAb-ZjWIBxq48pA/o.jpg", "price": "$$", "rating": 4.5, "name": "La Contenta", "url": "https://www.yelp.com/biz/la-contenta-new-york?adjust_creative=gBcvfFpabk3CnzmXKdYe3w&utm_campaign=yelp_api_v3&utm_medium=api_v3_business_search&utm_source=gBcvfFpabk3CnzmXKdYe3w"}, {"transactions": [], "distance": 6108.73840469, "phone": "+17185766001", "categories": [{"alias": "mexican", "title": "Mexican"}], "id": "amaranto-mexican-restaurant-brooklyn", "display_phone": "(718) 576-6001", "is_closed": false, "location": {"address2": "", "country": "US", "display_address": ["887 Hart St", "Brooklyn, NY 11237"], "address1": "887 Hart St", "city": "Brooklyn", "zip_code": "11237", "address3": "", "state": "NY"}, "coordinates": {"longitude": -73.921892, "latitude": 40.703111}, "review_count": 197, "image_url": "https://s3-media4.fl.yelpcdn.com/bphoto/VvXWECqDDvZEcrMtDfC29A/o.jpg", "price": "$$", "rating": 4.5, "name": "Amaranto Mexican Restaurant", "url": "https://www.yelp.com/biz/amaranto-mexican-restaurant-brooklyn?adjust_creative=gBcvfFpabk3CnzmXKdYe3w&utm_campaign=yelp_api_v3&utm_medium=api_v3_business_search&utm_source=gBcvfFpabk3CnzmXKdYe3w"}, {"transactions": ["delivery", "pickup"], "distance": 1338.1788594124, "phone": "+12122272802", "categories": [{"alias": "burgers", "title": "Burgers"}, {"alias": "mexican", "title": "Mexican"}], "id": "breakroom-new-york", "display_phone": "(212) 227-2802", "is_closed": false, "location": {"address2": "", "country": "US", "display_address": ["83 Baxter St", "New York, NY 10013"], "address1": "83 Baxter St", "city": "New York", "zip_code": "10013", "address3": "", "state": "NY"}, "coordinates": {"longitude": -73.9999440120647, "latitude": 40.7166907225542}, "review_count": 1132, "image_url": "https://s3-media1.fl.yelpcdn.com/bphoto/erA6rW1fUVn3VTTXo7PJRA/o.jpg", "price": "$", "rating": 4.5, "name": "Breakroom", "url": "https://www.yelp.com/biz/breakroom-new-york?adjust_creative=gBcvfFpabk3CnzmXKdYe3w&utm_campaign=yelp_api_v3&utm_medium=api_v3_business_search&utm_source=gBcvfFpabk3CnzmXKdYe3w"}, {"transactions": ["delivery", "pickup"], "distance": 3153.167470082, "phone": "+17185763521", "categories": [{"alias": "mexican", "title": "Mexican"}, {"alias": "cocktailbars", "title": "Cocktail Bars"}, {"alias": "tex-mex", "title": "Tex-Mex"}], "id": "don-chingon-brooklyn", "display_phone": "(718) 576-3521", "is_closed": false, "location": {"address2": "", "country": "US", "display_address": ["216 Flatbush Ave", "Brooklyn, NY 11217"], "address1": "216 Flatbush Ave", "city": "Brooklyn", "zip_code": "11217", "address3": "", "state": "NY"}, "coordinates": {"longitude": -73.9752403260395, "latitude": 40.6810431221494}, "review_count": 179, "image_url": "https://s3-media2.fl.yelpcdn.com/bphoto/GyEcUNcMKHyQPsAWhuSTQA/o.jpg", "price": "$$", "rating": 4.5, "name": "Don Chingon", "url": "https://www.yelp.com/biz/don-chingon-brooklyn?adjust_creative=gBcvfFpabk3CnzmXKdYe3w&utm_campaign=yelp_api_v3&utm_medium=api_v3_business_search&utm_source=gBcvfFpabk3CnzmXKdYe3w"}, {"transactions": [], "distance": 4231.123196963999, "phone": "+12122560343", "categories": [{"alias": "mexican", "title": "Mexican"}], "id": "los-tacos-no-1-new-york", "display_phone": "(212) 256-0343", "is_closed": false, "location": {"address2": "", "country": "US", "display_address": ["75 9th Ave", "New York, NY 10011"], "address1": "75 9th Ave", "city": "New York", "zip_code": "10011", "address3": "", "state": "NY"}, "coordinates": {"longitude": -74.005956, "latitude": 40.742455}, "review_count": 1578, "image_url": "https://s3-media2.fl.yelpcdn.com/bphoto/FU44TYl3PzXsE06G4W5aog/o.jpg", "price": "$", "rating": 4.5, "name": "Los Tacos No.1", "url": "https://www.yelp.com/biz/los-tacos-no-1-new-york?adjust_creative=gBcvfFpabk3CnzmXKdYe3w&utm_campaign=yelp_api_v3&utm_medium=api_v3_business_search&utm_source=gBcvfFpabk3CnzmXKdYe3w"}, {"transactions": [], "distance": 2937.335824936, "phone": "+12128589096", "categories": [{"alias": "mexican", "title": "Mexican"}], "id": "la-loteria-new-york", "display_phone": "(212) 858-9096", "is_closed": false, "location": {"address2": "", "country": "US", "display_address": ["29 7th Ave S", "New York, NY 10014"], "address1": "29 7th Ave S", "city": "New York", "zip_code": "10014", "address3": "", "state": "NY"}, "coordinates": {"longitude": -74.004135953373, "latitude": 40.7307865530978}, "review_count": 191, "image_url": "https://s3-media3.fl.yelpcdn.com/bphoto/QBEtDTRDXyg-SXBl3sbxtg/o.jpg", "price": "$$", "rating": 4.0, "name": "La Loteria", "url": "https://www.yelp.com/biz/la-loteria-new-york?adjust_creative=gBcvfFpabk3CnzmXKdYe3w&utm_campaign=yelp_api_v3&utm_medium=api_v3_business_search&utm_source=gBcvfFpabk3CnzmXKdYe3w"}, {"transactions": [], "distance": 1443.962129458, "phone": "+12122286710", "categories": [{"alias": "mexican", "title": "Mexican"}, {"alias": "bars", "title": "Bars"}], "id": "barrio-chino-new-york", "display_phone": "(212) 228-6710", "is_closed": false, "location": {"address2": null, "country": "US", "display_address": ["253 Broome St", "New York, NY 10002"], "address1": "253 Broome St", "city": "New York", "zip_code": "10002", "address3": "", "state": "NY"}, "coordinates": {"longitude": -73.990026, "latitude": 40.718022}, "review_count": 954, "image_url": "https://s3-media2.fl.yelpcdn.com/bphoto/pwjTU0DCgPe7jJLQtaJ76w/o.jpg", "price": "$$", "rating": 4.0, "name": "Barrio Chino", "url": "https://www.yelp.com/biz/barrio-chino-new-york?adjust_creative=gBcvfFpabk3CnzmXKdYe3w&utm_campaign=yelp_api_v3&utm_medium=api_v3_business_search&utm_source=gBcvfFpabk3CnzmXKdYe3w"}, {"transactions": ["delivery", "pickup"], "distance": 2625.463274742, "phone": "+12124200600", "categories": [{"alias": "mexican", "title": "Mexican"}], "id": "toloache-new-york-4", "display_phone": "(212) 420-0600", "is_closed": false, "location": {"address2": null, "country": "US", "display_address": ["205 Thompson St", "New York, NY 10012"], "address1": "205 Thompson St", "city": "New York", "zip_code": "10012", "address3": "", "state": "NY"}, "coordinates": {"longitude": -73.9996414, "latitude": 40.7286606}, "review_count": 306, "image_url": "https://s3-media1.fl.yelpcdn.com/bphoto/Vx8x129I_50JTDlsHyV-Hw/o.jpg", "price": "$$", "rating": 4.0, "name": "Toloache", "url": "https://www.yelp.com/biz/toloache-new-york-4?adjust_creative=gBcvfFpabk3CnzmXKdYe3w&utm_campaign=yelp_api_v3&utm_medium=api_v3_business_search&utm_source=gBcvfFpabk3CnzmXKdYe3w"}, {"transactions": [], "distance": 4183.77222988, "phone": "+12129204986", "categories": [{"alias": "seafood", "title": "Seafood"}, {"alias": "tacos", "title": "Tacos"}], "id": "los-mariscos-new-york", "display_phone": "(212) 920-4986", "is_closed": false, "location": {"address2": "", "country": "US", "display_address": ["409 W 15th St", "New York, NY 10011"], "address1": "409 W 15th St", "city": "New York", "zip_code": "10011", "address3": null, "state": "NY"}, "coordinates": {"longitude": -74.00565, "latitude": 40.74207}, "review_count": 115, "image_url": "https://s3-media4.fl.yelpcdn.com/bphoto/hrKDiuBTL3C2gELlrq4_Sw/o.jpg", "price": "$", "rating": 5.0, "name": "Los Mariscos", "url": "https://www.yelp.com/biz/los-mariscos-new-york?adjust_creative=gBcvfFpabk3CnzmXKdYe3w&utm_campaign=yelp_api_v3&utm_medium=api_v3_business_search&utm_source=gBcvfFpabk3CnzmXKdYe3w"}, {"transactions": ["delivery", "pickup"], "distance": 2855.7978091659998, "phone": "+12125335436", "categories": [{"alias": "mexican", "title": "Mexican"}], "id": "el-camion-new-york", "display_phone": "(212) 533-5436", "is_closed": false, "location": {"address2": "", "country": "US", "display_address": ["194 Ave A", "New York, NY 10009"], "address1": "194 Ave A", "city": "New York", "zip_code": "10009", "address3": "", "state": "NY"}, "coordinates": {"longitude": -73.981048, "latitude": 40.729099}, "review_count": 505, "image_url": "https://s3-media1.fl.yelpcdn.com/bphoto/oLWT29z-lHOyZ3Qa6RAN0A/o.jpg", "price": "$$", "rating": 4.0, "name": "El Camion", "url": "https://www.yelp.com/biz/el-camion-new-york?adjust_creative=gBcvfFpabk3CnzmXKdYe3w&utm_campaign=yelp_api_v3&utm_medium=api_v3_business_search&utm_source=gBcvfFpabk3CnzmXKdYe3w"}, {"transactions": ["delivery", "pickup"], "distance": 3238.15140466, "phone": "+12129242305", "categories": [{"alias": "mexican", "title": "Mexican"}, {"alias": "breakfast_brunch", "title": "Breakfast & Brunch"}], "id": "ofrenda-new-york", "display_phone": "(212) 924-2305", "is_closed": false, "location": {"address2": "", "country": "US", "display_address": ["113 7th Ave S", "New York, NY 10014"], "address1": "113 7th Ave S", "city": "New York", "zip_code": "10014", "address3": "", "state": "NY"}, "coordinates": {"longitude": -74.00226, "latitude": 40.73387}, "review_count": 769, "image_url": "https://s3-media4.fl.yelpcdn.com/bphoto/7WFQb58kWRHv4Pi2EIF8pQ/o.jpg", "price": "$$", "rating": 4.0, "name": "Ofrenda", "url": "https://www.yelp.com/biz/ofrenda-new-york?adjust_creative=gBcvfFpabk3CnzmXKdYe3w&utm_campaign=yelp_api_v3&utm_medium=api_v3_business_search&utm_source=gBcvfFpabk3CnzmXKdYe3w"}, {"transactions": [], "distance": 6352.779526959999, "phone": "+12125811818", "categories": [{"alias": "mexican", "title": "Mexican"}], "id": "toloache-new-york-2", "display_phone": "(212) 581-1818", "is_closed": false, "location": {"address2": "", "country": "US", "display_address": ["251 W 50th St", "New York, NY 10019"], "address1": "251 W 50th St", "city": "New York", "zip_code": "10019", "address3": "", "state": "NY"}, "coordinates": {"longitude": -73.985606, "latitude": 40.762195}, "review_count": 1386, "image_url": "https://s3-media1.fl.yelpcdn.com/bphoto/UJsJqg8qlopy6bgJLPre6A/o.jpg", "price": "$$$", "rating": 4.0, "name": "Toloache", "url": "https://www.yelp.com/biz/toloache-new-york-2?adjust_creative=gBcvfFpabk3CnzmXKdYe3w&utm_campaign=yelp_api_v3&utm_medium=api_v3_business_search&utm_source=gBcvfFpabk3CnzmXKdYe3w"}, {"transactions": [], "distance": 7928.822282359999, "phone": "+19178326876", "categories": [{"alias": "mexican", "title": "Mexican"}, {"alias": "wine_bars", "title": "Wine Bars"}, {"alias": "breakfast_brunch", "title": "Breakfast & Brunch"}], "id": "chela-and-garnacha-astoria", "display_phone": "(917) 832-6876", "is_closed": false, "location": {"address2": "", "country": "US", "display_address": ["33-09 36th Ave", "Astoria, NY 11106"], "address1": "33-09 36th Ave", "city": "Astoria", "zip_code": "11106", "address3": "", "state": "NY"}, "coordinates": {"longitude": -73.927811292412, "latitude": 40.7557171543477}, "review_count": 225, "image_url": "https://s3-media1.fl.yelpcdn.com/bphoto/ChVbA1_xqLHFXL4Iyh84NA/o.jpg", "price": "$$", "rating": 4.5, "name": "Chela & Garnacha", "url": "https://www.yelp.com/biz/chela-and-garnacha-astoria?adjust_creative=gBcvfFpabk3CnzmXKdYe3w&utm_campaign=yelp_api_v3&utm_medium=api_v3_business_search&utm_source=gBcvfFpabk3CnzmXKdYe3w"}, {"transactions": [], "distance": 4088.1307630199994, "phone": "+17183998226", "categories": [{"alias": "mexican", "title": "Mexican"}], "id": "el-atoradero-brooklyn-brooklyn", "display_phone": "(718) 399-8226", "is_closed": false, "location": {"address2": "", "country": "US", "display_address": ["708 Washington Ave", "Brooklyn, NY 11238"], "address1": "708 Washington Ave", "city": "Brooklyn", "zip_code": "11238", "address3": "", "state": "NY"}, "coordinates": {"longitude": -73.96375, "latitude": 40.67688}, "review_count": 83, "image_url": "https://s3-media3.fl.yelpcdn.com/bphoto/bhkSww07DwffA7E_fnqEjw/o.jpg", "price": "$$", "rating": 4.0, "name": "El Atoradero Brooklyn", "url": "https://www.yelp.com/biz/el-atoradero-brooklyn-brooklyn?adjust_creative=gBcvfFpabk3CnzmXKdYe3w&utm_campaign=yelp_api_v3&utm_medium=api_v3_business_search&utm_source=gBcvfFpabk3CnzmXKdYe3w"}, {"transactions": [], "distance": 2188.1149908999996, "phone": "+12123350114", "categories": [{"alias": "mexican", "title": "Mexican"}], "id": "rosies-new-york-2", "display_phone": "(212) 335-0114", "is_closed": false, "location": {"address2": null, "country": "US", "display_address": ["29 E Second St", "New York, NY 10003"], "address1": "29 E Second St", "city": "New York", "zip_code": "10003", "address3": "", "state": "NY"}, "coordinates": {"longitude": -73.9907913208008, "latitude": 40.7249298095703}, "review_count": 323, "image_url": "https://s3-media2.fl.yelpcdn.com/bphoto/omDyaLZ4k8QXYooKW_aOQg/o.jpg", "price": "$$", "rating": 4.0, "name": "Rosie's", "url": "https://www.yelp.com/biz/rosies-new-york-2?adjust_creative=gBcvfFpabk3CnzmXKdYe3w&utm_campaign=yelp_api_v3&utm_medium=api_v3_business_search&utm_source=gBcvfFpabk3CnzmXKdYe3w"}, {"transactions": ["delivery", "pickup"], "distance": 2162.2413098519996, "phone": "+12126774096", "categories": [{"alias": "mexican", "title": "Mexican"}], "id": "fonda-new-york-2", "display_phone": "(212) 677-4096", "is_closed": false, "location": {"address2": "", "country": "US", "display_address": ["40 Avenue B", "New York, NY 10009"], "address1": "40 Avenue B", "city": "New York", "zip_code": "10009", "address3": "", "state": "NY"}, "coordinates": {"longitude": -73.98286, "latitude": 40.722852}, "review_count": 543, "image_url": "https://s3-media4.fl.yelpcdn.com/bphoto/nNMZrbGGIr-ht3dQEo96fg/o.jpg", "price": "$$", "rating": 4.0, "name": "Fonda", "url": "https://www.yelp.com/biz/fonda-new-york-2?adjust_creative=gBcvfFpabk3CnzmXKdYe3w&utm_campaign=yelp_api_v3&utm_medium=api_v3_business_search&utm_source=gBcvfFpabk3CnzmXKdYe3w"}, {"transactions": [], "distance": 8136.689947581999, "phone": "+13479675955", "categories": [{"alias": "mexican", "title": "Mexican"}, {"alias": "salad", "title": "Salad"}, {"alias": "breakfast_brunch", "title": "Breakfast & Brunch"}], "id": "calexico-new-york-5", "display_phone": "(347) 967-5955", "is_closed": false, "location": {"address2": "", "country": "US", "display_address": ["1491 2nd Ave", "New York, NY 10075"], "address1": "1491 2nd Ave", "city": "New York", "zip_code": "10075", "address3": "", "state": "NY"}, "coordinates": {"longitude": -73.9558799, "latitude": 40.77259}, "review_count": 217, "image_url": "https://s3-media1.fl.yelpcdn.com/bphoto/VmutZz_tB9yDOOicVIeCNQ/o.jpg", "price": "$$", "rating": 4.0, "name": "Calexico", "url": "https://www.yelp.com/biz/calexico-new-york-5?adjust_creative=gBcvfFpabk3CnzmXKdYe3w&utm_campaign=yelp_api_v3&utm_medium=api_v3_business_search&utm_source=gBcvfFpabk3CnzmXKdYe3w"}, {"transactions": [], "distance": 4361.91168382, "phone": "+17187828171", "categories": [{"alias": "mexican", "title": "Mexican"}], "id": "mesa-coyoacan-brooklyn", "display_phone": "(718) 782-8171", "is_closed": false, "location": {"address2": "", "country": "US", "display_address": ["372 Graham Ave", "Brooklyn, NY 11211"], "address1": "372 Graham Ave", "city": "Brooklyn", "zip_code": "11211", "address3": "", "state": "NY"}, "coordinates": {"longitude": -73.9442749023438, "latitude": 40.7155265808105}, "review_count": 622, "image_url": "https://s3-media2.fl.yelpcdn.com/bphoto/WIbvPoqyI6QI6_jmKAp26A/o.jpg", "price": "$$", "rating": 4.0, "name": "Mesa Coyoacan", "url": "https://www.yelp.com/biz/mesa-coyoacan-brooklyn?adjust_creative=gBcvfFpabk3CnzmXKdYe3w&utm_campaign=yelp_api_v3&utm_medium=api_v3_business_search&utm_source=gBcvfFpabk3CnzmXKdYe3w"}, {"transactions": ["delivery", "pickup"], "distance": 6312.15898069, "phone": "+12122652229", "categories": [{"alias": "bars", "title": "Bars"}, {"alias": "mexican", "title": "Mexican"}], "id": "casa-agave-new-york-2", "display_phone": "(212) 265-2229", "is_closed": false, "location": {"address2": null, "country": "US", "display_address": ["693 9th Ave", "New York, NY 10036"], "address1": "693 9th Ave", "city": "New York", "zip_code": "10036", "address3": null, "state": "NY"}, "coordinates": {"longitude": -73.990313728836, "latitude": 40.7621289160565}, "review_count": 310, "image_url": "https://s3-media3.fl.yelpcdn.com/bphoto/vVgRrUBs39ij8mqqnJcdwA/o.jpg", "price": "$$", "rating": 4.0, "name": "Casa Agave", "url": "https://www.yelp.com/biz/casa-agave-new-york-2?adjust_creative=gBcvfFpabk3CnzmXKdYe3w&utm_campaign=yelp_api_v3&utm_medium=api_v3_business_search&utm_source=gBcvfFpabk3CnzmXKdYe3w"}, {"transactions": [], "distance": 2463.6137212159997, "phone": "+12122535888", "categories": [{"alias": "mexican", "title": "Mexican"}, {"alias": "cocktailbars", "title": "Cocktail Bars"}], "id": "mayahuel-new-york", "display_phone": "(212) 253-5888", "is_closed": false, "location": {"address2": "", "country": "US", "display_address": ["304 E 6th St", "New York, NY 10003"], "address1": "304 E 6th St", "city": "New York", "zip_code": "10003", "address3": "", "state": "NY"}, "coordinates": {"longitude": -73.9881820678711, "latitude": 40.727123260498}, "review_count": 539, "image_url": "https://s3-media2.fl.yelpcdn.com/bphoto/s1rHb1uHwTHJL448YJtbbg/o.jpg", "price": "$$", "rating": 4.0, "name": "Mayahuel", "url": "https://www.yelp.com/biz/mayahuel-new-york?adjust_creative=gBcvfFpabk3CnzmXKdYe3w&utm_campaign=yelp_api_v3&utm_medium=api_v3_business_search&utm_source=gBcvfFpabk3CnzmXKdYe3w"}, {"transactions": ["delivery", "pickup"], "distance": 9419.87418302, "phone": "+17182551722", "categories": [{"alias": "mexican", "title": "Mexican"}, {"alias": "peruvian", "title": "Peruvian"}, {"alias": "latin", "title": "Latin American"}], "id": "mezquite-restaurant-astoria", "display_phone": "(718) 255-1722", "is_closed": false, "location": {"address2": "", "country": "US", "display_address": ["45-06 30th Ave", "Astoria, NY 11103"], "address1": "45-06 30th Ave", "city": "Astoria", "zip_code": "11103", "address3": "", "state": "NY"}, "coordinates": {"longitude": -73.9108362793922, "latitude": 40.761885792017}, "review_count": 165, "image_url": "https://s3-media4.fl.yelpcdn.com/bphoto/ZTwFfFW_fusjA0CP_9ug7w/o.jpg", "price": "$$", "rating": 4.5, "name": "Mezquite Restaurant", "url": "https://www.yelp.com/biz/mezquite-restaurant-astoria?adjust_creative=gBcvfFpabk3CnzmXKdYe3w&utm_campaign=yelp_api_v3&utm_medium=api_v3_business_search&utm_source=gBcvfFpabk3CnzmXKdYe3w"}, {"transactions": [], "distance": 6696.20865961, "phone": "+12122454500", "categories": [{"alias": "mexican", "title": "Mexican"}, {"alias": "latin", "title": "Latin American"}, {"alias": "tapas", "title": "Tapas Bars"}], "id": "tacuba-hells-kitchen-cantina-mexicana-new-york", "display_phone": "(212) 245-4500", "is_closed": false, "location": {"address2": "", "country": "US", "display_address": ["802 9th Ave", "New York, NY 10019"], "address1": "802 9th Ave", "city": "New York", "zip_code": "10019", "address3": "", "state": "NY"}, "coordinates": {"longitude": -73.98719, "latitude": 40.765422}, "review_count": 225, "image_url": "https://s3-media3.fl.yelpcdn.com/bphoto/7IwehQxJ9nHSvdwyhoAm4A/o.jpg", "price": "$$", "rating": 4.0, "name": "Tacuba Hell's Kitchen Cantina Mexicana", "url": "https://www.yelp.com/biz/tacuba-hells-kitchen-cantina-mexicana-new-york?adjust_creative=gBcvfFpabk3CnzmXKdYe3w&utm_campaign=yelp_api_v3&utm_medium=api_v3_business_search&utm_source=gBcvfFpabk3CnzmXKdYe3w"}, {"transactions": [], "distance": 3073.5408674299997, "phone": "+17183888860", "categories": [{"alias": "mexican", "title": "Mexican"}, {"alias": "tapasmallplates", "title": "Tapas/Small Plates"}], "id": "xixa-brooklyn", "display_phone": "(718) 388-8860", "is_closed": false, "location": {"address2": "", "country": "US", "display_address": ["241 S 4th St", "Brooklyn, NY 11211"], "address1": "241 S 4th St", "city": "Brooklyn", "zip_code": "11211", "address3": "", "state": "NY"}, "coordinates": {"longitude": -73.958466, "latitude": 40.710505}, "review_count": 423, "image_url": "https://s3-media1.fl.yelpcdn.com/bphoto/hd0vYDgBjujxbdNToXaeEQ/o.jpg", "price": "$$$", "rating": 4.5, "name": "Xixa", "url": "https://www.yelp.com/biz/xixa-brooklyn?adjust_creative=gBcvfFpabk3CnzmXKdYe3w&utm_campaign=yelp_api_v3&utm_medium=api_v3_business_search&utm_source=gBcvfFpabk3CnzmXKdYe3w"}, {"transactions": ["delivery", "pickup"], "distance": 5828.875948964, "phone": "+19179665124", "categories": [{"alias": "mexican", "title": "Mexican"}], "id": "el-kucho-mexican-restaurant-brooklyn", "display_phone": "(917) 966-5124", "is_closed": false, "location": {"address2": null, "country": "US", "display_address": ["141 Wilson Ave", "Brooklyn, NY 11237"], "address1": "141 Wilson Ave", "city": "Brooklyn", "zip_code": "11237", "address3": "", "state": "NY"}, "coordinates": {"longitude": -73.925422, "latitude": 40.700817}, "review_count": 130, "image_url": "https://s3-media1.fl.yelpcdn.com/bphoto/P8hNVZYxOgfIUfYxvo6NhA/o.jpg", "price": "$", "rating": 4.5, "name": "El Kucho Mexican Restaurant", "url": "https://www.yelp.com/biz/el-kucho-mexican-restaurant-brooklyn?adjust_creative=gBcvfFpabk3CnzmXKdYe3w&utm_campaign=yelp_api_v3&utm_medium=api_v3_business_search&utm_source=gBcvfFpabk3CnzmXKdYe3w"}, {"transactions": [], "distance": 4075.55618493, "phone": "+17184840310", "categories": [{"alias": "mexican", "title": "Mexican"}], "id": "taqueria-de-los-muertos-brooklyn", "display_phone": "(718) 484-0310", "is_closed": false, "location": {"address2": "", "country": "US", "display_address": ["663 Washington Ave", "Brooklyn, NY 11238"], "address1": "663 Washington Ave", "city": "Brooklyn", "zip_code": "11238", "address3": "", "state": "NY"}, "coordinates": {"longitude": -73.963395, "latitude": 40.677257}, "review_count": 304, "image_url": "https://s3-media3.fl.yelpcdn.com/bphoto/zvTCTyaLETmDcaLWUkWxdA/o.jpg", "price": "$", "rating": 4.0, "name": "Taqueria De Los Muertos", "url": "https://www.yelp.com/biz/taqueria-de-los-muertos-brooklyn?adjust_creative=gBcvfFpabk3CnzmXKdYe3w&utm_campaign=yelp_api_v3&utm_medium=api_v3_business_search&utm_source=gBcvfFpabk3CnzmXKdYe3w"}, {"transactions": ["delivery", "pickup"], "distance": 3236.694630092, "phone": "+17182303760", "categories": [{"alias": "latin", "title": "Latin American"}, {"alias": "mexican", "title": "Mexican"}, {"alias": "breakfast_brunch", "title": "Breakfast & Brunch"}], "id": "miti-miti-brooklyn-2", "display_phone": "(718) 230-3760", "is_closed": false, "location": {"address2": "", "country": "US", "display_address": ["138 5th Ave", "Brooklyn, NY 11217"], "address1": "138 5th Ave", "city": "Brooklyn", "zip_code": "11217", "address3": "", "state": "NY"}, "coordinates": {"longitude": -73.9791861, "latitude": 40.6786853}, "review_count": 291, "image_url": "https://s3-media2.fl.yelpcdn.com/bphoto/nPl6-kvNCXzXPvs5ma-4QA/o.jpg", "price": "$$", "rating": 4.0, "name": "Miti Miti", "url": "https://www.yelp.com/biz/miti-miti-brooklyn-2?adjust_creative=gBcvfFpabk3CnzmXKdYe3w&utm_campaign=yelp_api_v3&utm_medium=api_v3_business_search&utm_source=gBcvfFpabk3CnzmXKdYe3w"}, {"transactions": ["delivery"], "distance": 5398.572550972, "phone": "+13474486040", "categories": [{"alias": "mexican", "title": "Mexican"}], "id": "casa-enrique-long-island-city", "display_phone": "(347) 448-6040", "is_closed": false, "location": {"address2": "", "country": "US", "display_address": ["5-48 49th Ave", "Long Island City, NY 11101"], "address1": "5-48 49th Ave", "city": "Long Island City", "zip_code": "11101", "address3": "", "state": "NY"}, "coordinates": {"longitude": -73.954350367693, "latitude": 40.743404338358}, "review_count": 680, "image_url": "https://s3-media2.fl.yelpcdn.com/bphoto/WPufGdlG-b6l-yuyt4u-9A/o.jpg", "price": "$$", "rating": 4.0, "name": "Casa Enrique", "url": "https://www.yelp.com/biz/casa-enrique-long-island-city?adjust_creative=gBcvfFpabk3CnzmXKdYe3w&utm_campaign=yelp_api_v3&utm_medium=api_v3_business_search&utm_source=gBcvfFpabk3CnzmXKdYe3w"}, {"transactions": ["delivery", "pickup"], "distance": 3089.73485118, "phone": "+17186228282", "categories": [{"alias": "mexican", "title": "Mexican"}], "id": "nacho-macho-taco-brooklyn", "display_phone": "(718) 622-8282", "is_closed": false, "location": {"address2": "", "country": "US", "display_address": ["82 5th Ave", "Brooklyn, NY 11217"], "address1": "82 5th Ave", "city": "Brooklyn", "zip_code": "11217", "address3": null, "state": "NY"}, "coordinates": {"longitude": -73.97788, "latitude": 40.68058}, "review_count": 37, "image_url": "https://s3-media2.fl.yelpcdn.com/bphoto/2ryUEz3YFgQQfpSmiqos7g/o.jpg", "price": "$", "rating": 4.5, "name": "Nacho Macho Taco", "url": "https://www.yelp.com/biz/nacho-macho-taco-brooklyn?adjust_creative=gBcvfFpabk3CnzmXKdYe3w&utm_campaign=yelp_api_v3&utm_medium=api_v3_business_search&utm_source=gBcvfFpabk3CnzmXKdYe3w"}, {"transactions": ["delivery", "pickup"], "distance": 1952.0782429879998, "phone": "+12126252001", "categories": [{"alias": "cuban", "title": "Cuban"}, {"alias": "mexican", "title": "Mexican"}], "id": "cafe-habana-new-york-4", "display_phone": "(212) 625-2001", "is_closed": false, "location": {"address2": "", "country": "US", "display_address": ["17 Prince St", "New York, NY 10012"], "address1": "17 Prince St", "city": "New York", "zip_code": "10012", "address3": "", "state": "NY"}, "coordinates": {"longitude": -73.994171, "latitude": 40.722998}, "review_count": 2845, "image_url": "https://s3-media3.fl.yelpcdn.com/bphoto/WmGrPmAnVMN3CJ56Q7mL5A/o.jpg", "price": "$$", "rating": 4.0, "name": "Cafe Habana", "url": "https://www.yelp.com/biz/cafe-habana-new-york-4?adjust_creative=gBcvfFpabk3CnzmXKdYe3w&utm_campaign=yelp_api_v3&utm_medium=api_v3_business_search&utm_source=gBcvfFpabk3CnzmXKdYe3w"}, {"transactions": [], "distance": 2083.814952972, "phone": "", "categories": [{"alias": "mexican", "title": "Mexican"}], "id": "el-vez-burrito-new-york-2", "display_phone": "", "is_closed": false, "location": {"address2": "", "country": "US", "display_address": ["259 Vesey St", "New York, NY 10282"], "address1": "259 Vesey St", "city": "New York", "zip_code": "10282", "address3": "", "state": "NY"}, "coordinates": {"longitude": -74.0157609415621, "latitude": 40.7147356376792}, "review_count": 60, "image_url": "https://s3-media1.fl.yelpcdn.com/bphoto/FTlCnhX4mMt-sI8tfCbV0A/o.jpg", "price": "$$", "rating": 4.5, "name": "El Vez Burrito", "url": "https://www.yelp.com/biz/el-vez-burrito-new-york-2?adjust_creative=gBcvfFpabk3CnzmXKdYe3w&utm_campaign=yelp_api_v3&utm_medium=api_v3_business_search&utm_source=gBcvfFpabk3CnzmXKdYe3w"}, {"transactions": [], "distance": 2711.496659934, "phone": "+17188589500", "categories": [{"alias": "cuban", "title": "Cuban"}, {"alias": "mexican", "title": "Mexican"}], "id": "habana-outpost-brooklyn", "display_phone": "(718) 858-9500", "is_closed": false, "location": {"address2": null, "country": "US", "display_address": ["757 Fulton St", "Brooklyn, NY 11217"], "address1": "757 Fulton St", "city": "Brooklyn", "zip_code": "11217", "address3": "", "state": "NY"}, "coordinates": {"longitude": -73.97422, "latitude": 40.6863699}, "review_count": 818, "image_url": "https://s3-media4.fl.yelpcdn.com/bphoto/0Tgh1JRGq7Om1K8Yi_gbkQ/o.jpg", "price": "$$", "rating": 4.0, "name": "Habana Outpost", "url": "https://www.yelp.com/biz/habana-outpost-brooklyn?adjust_creative=gBcvfFpabk3CnzmXKdYe3w&utm_campaign=yelp_api_v3&utm_medium=api_v3_business_search&utm_source=gBcvfFpabk3CnzmXKdYe3w"}, {"transactions": [], "distance": 4737.169055517999, "phone": "+17186223100", "categories": [{"alias": "mexican", "title": "Mexican"}, {"alias": "bars", "title": "Bars"}, {"alias": "sandwiches", "title": "Sandwiches"}], "id": "chavelas-brooklyn-2", "display_phone": "(718) 622-3100", "is_closed": false, "location": {"address2": null, "country": "US", "display_address": ["736 Franklin Ave", "Brooklyn, NY 11238"], "address1": "736 Franklin Ave", "city": "Brooklyn", "zip_code": "11238", "address3": "", "state": "NY"}, "coordinates": {"longitude": -73.957267, "latitude": 40.673484}, "review_count": 744, "image_url": "https://s3-media2.fl.yelpcdn.com/bphoto/71ihuUpaW6S44GvT9u1PMA/o.jpg", "price": "$$", "rating": 4.0, "name": "Chavela's", "url": "https://www.yelp.com/biz/chavelas-brooklyn-2?adjust_creative=gBcvfFpabk3CnzmXKdYe3w&utm_campaign=yelp_api_v3&utm_medium=api_v3_business_search&utm_source=gBcvfFpabk3CnzmXKdYe3w"}, {"transactions": [], "distance": 4675.0844197999995, "phone": "+12127792656", "categories": [{"alias": "mexican", "title": "Mexican"}], "id": "baby-bos-cantina-new-york", "display_phone": "(212) 779-2656", "is_closed": false, "location": {"address2": "", "country": "US", "display_address": ["627 2nd Ave", "New York, NY 10016"], "address1": "627 2nd Ave", "city": "New York", "zip_code": "10016", "address3": "", "state": "NY"}, "coordinates": {"longitude": -73.9759750366211, "latitude": 40.7451362609863}, "review_count": 476, "image_url": "https://s3-media3.fl.yelpcdn.com/bphoto/MujfNqbm5FviUXQCUt-jEw/o.jpg", "price": "$$", "rating": 4.0, "name": "Baby Bo's Cantina", "url": "https://www.yelp.com/biz/baby-bos-cantina-new-york?adjust_creative=gBcvfFpabk3CnzmXKdYe3w&utm_campaign=yelp_api_v3&utm_medium=api_v3_business_search&utm_source=gBcvfFpabk3CnzmXKdYe3w"}, {"transactions": [], "distance": 2365.4621667579995, "phone": "+13479873260", "categories": [{"alias": "latin", "title": "Latin American"}, {"alias": "mexican", "title": "Mexican"}, {"alias": "cocktailbars", "title": "Cocktail Bars"}], "id": "leyenda-brooklyn", "display_phone": "(347) 987-3260", "is_closed": false, "location": {"address2": "", "country": "US", "display_address": ["221 Smith St", "Brooklyn, NY 11201"], "address1": "221 Smith St", "city": "Brooklyn", "zip_code": "11201", "address3": "", "state": "NY"}, "coordinates": {"longitude": -73.991874, "latitude": 40.684257}, "review_count": 106, "image_url": "https://s3-media2.fl.yelpcdn.com/bphoto/H59cvb6b3ahKyiV8rv9qmQ/o.jpg", "price": "$$", "rating": 4.0, "name": "Leyenda", "url": "https://www.yelp.com/biz/leyenda-brooklyn?adjust_creative=gBcvfFpabk3CnzmXKdYe3w&utm_campaign=yelp_api_v3&utm_medium=api_v3_business_search&utm_source=gBcvfFpabk3CnzmXKdYe3w"}, {"transactions": ["delivery", "pickup"], "distance": 4710.357612051999, "phone": "+17185412732", "categories": [{"alias": "mexican", "title": "Mexican"}], "id": "el-nopal-restaurant-and-juice-bar-brooklyn", "display_phone": "(718) 541-2732", "is_closed": false, "location": {"address2": "", "country": "US", "display_address": ["631 5th Ave", "Brooklyn, NY 11215"], "address1": "631 5th Ave", "city": "Brooklyn", "zip_code": "11215", "address3": "", "state": "NY"}, "coordinates": {"longitude": -73.9913399, "latitude": 40.66317}, "review_count": 49, "image_url": "https://s3-media4.fl.yelpcdn.com/bphoto/Rdk5wLo0lYcz1jkrmZQwsQ/o.jpg", "price": "$$", "rating": 4.5, "name": "El Nopal Restaurant & Juice Bar", "url": "https://www.yelp.com/biz/el-nopal-restaurant-and-juice-bar-brooklyn?adjust_creative=gBcvfFpabk3CnzmXKdYe3w&utm_campaign=yelp_api_v3&utm_medium=api_v3_business_search&utm_source=gBcvfFpabk3CnzmXKdYe3w"}, {"transactions": ["delivery", "pickup"], "distance": 2611.2182017319997, "phone": "+16464227871", "categories": [{"alias": "mexican", "title": "Mexican"}], "id": "taqueria-diana-new-york", "display_phone": "(646) 422-7871", "is_closed": false, "location": {"address2": null, "country": "US", "display_address": ["129 2nd Ave", "New York, NY 10003"], "address1": "129 2nd Ave", "city": "New York", "zip_code": "10003", "address3": "", "state": "NY"}, "coordinates": {"longitude": -73.9879844318771, "latitude": 40.7284337609976}, "review_count": 528, "image_url": "https://s3-media3.fl.yelpcdn.com/bphoto/Z71HK73wllfvuDdnGIdZag/o.jpg", "price": "$", "rating": 4.0, "name": "Taqueria Diana", "url": "https://www.yelp.com/biz/taqueria-diana-new-york?adjust_creative=gBcvfFpabk3CnzmXKdYe3w&utm_campaign=yelp_api_v3&utm_medium=api_v3_business_search&utm_source=gBcvfFpabk3CnzmXKdYe3w"}, {"transactions": ["delivery"], "distance": 6417.1074217039995, "phone": "+12125811235", "categories": [{"alias": "mexican", "title": "Mexican"}], "id": "ponche-taqueria-and-cantina-new-york", "display_phone": "(212) 581-1235", "is_closed": false, "location": {"address2": "", "country": "US", "display_address": ["420 W 49th St", "New York, NY 10019"], "address1": "420 W 49th St", "city": "New York", "zip_code": "10019", "address3": "", "state": "NY"}, "coordinates": {"longitude": -73.990532, "latitude": 40.763084}, "review_count": 415, "image_url": "https://s3-media3.fl.yelpcdn.com/bphoto/C2JEpfhZ9MZBOdKkBblXDw/o.jpg", "price": "$$", "rating": 4.0, "name": "Ponche Taqueria & Cantina", "url": "https://www.yelp.com/biz/ponche-taqueria-and-cantina-new-york?adjust_creative=gBcvfFpabk3CnzmXKdYe3w&utm_campaign=yelp_api_v3&utm_medium=api_v3_business_search&utm_source=gBcvfFpabk3CnzmXKdYe3w"}, {"transactions": [], "distance": 3069.82087802, "phone": "+13476353864", "categories": [{"alias": "mexican", "title": "Mexican"}, {"alias": "foodtrucks", "title": "Food Trucks"}], "id": "don-panchito-new-york-2", "display_phone": "(347) 635-3864", "is_closed": false, "location": {"address2": "", "country": "US", "display_address": ["N 3rd St", "New York, NY 11211"], "address1": "N 3rd St", "city": "New York", "zip_code": "11211", "address3": "", "state": "NY"}, "coordinates": {"longitude": -73.9603268362965, "latitude": 40.7154074225537}, "review_count": 26, "image_url": "https://s3-media3.fl.yelpcdn.com/bphoto/Q6taPmOSA7qWKk4k__A5Yw/o.jpg", "price": "$", "rating": 4.5, "name": "Don Panchito", "url": "https://www.yelp.com/biz/don-panchito-new-york-2?adjust_creative=gBcvfFpabk3CnzmXKdYe3w&utm_campaign=yelp_api_v3&utm_medium=api_v3_business_search&utm_source=gBcvfFpabk3CnzmXKdYe3w"}, {"transactions": [], "distance": 8127.577864501999, "phone": "+13474639263", "categories": [{"alias": "mexican", "title": "Mexican"}], "id": "taqueria-kermes-ridgewood", "display_phone": "(347) 463-9263", "is_closed": false, "location": {"address2": null, "country": "US", "display_address": ["66-36 Fresh Pond Rd", "Ridgewood, NY 11385"], "address1": "66-36 Fresh Pond Rd", "city": "Ridgewood", "zip_code": "11385", "address3": "", "state": "NY"}, "coordinates": {"longitude": -73.89798, "latitude": 40.70785}, "review_count": 287, "image_url": "https://s3-media3.fl.yelpcdn.com/bphoto/EChfejVMzs6onV0MCCx00w/o.jpg", "price": "$$", "rating": 4.5, "name": "Taqueria Kermes", "url": "https://www.yelp.com/biz/taqueria-kermes-ridgewood?adjust_creative=gBcvfFpabk3CnzmXKdYe3w&utm_campaign=yelp_api_v3&utm_medium=api_v3_business_search&utm_source=gBcvfFpabk3CnzmXKdYe3w"}, {"transactions": ["delivery", "pickup"], "distance": 3076.379421322, "phone": "+12122281884", "categories": [{"alias": "mexican", "title": "Mexican"}, {"alias": "vegetarian", "title": "Vegetarian"}, {"alias": "vegan", "title": "Vegan"}], "id": "hotel-tortuga-new-york", "display_phone": "(212) 228-1884", "is_closed": false, "location": {"address2": "", "country": "US", "display_address": ["246 E 14th St", "New York, NY 10003"], "address1": "246 E 14th St", "city": "New York", "zip_code": "10003", "address3": "", "state": "NY"}, "coordinates": {"longitude": -73.98545, "latitude": 40.73239}, "review_count": 383, "image_url": "https://s3-media4.fl.yelpcdn.com/bphoto/HBNcFMEq4oEZjELDQBQLAg/o.jpg", "price": "$$", "rating": 4.0, "name": "Hotel Tortuga", "url": "https://www.yelp.com/biz/hotel-tortuga-new-york?adjust_creative=gBcvfFpabk3CnzmXKdYe3w&utm_campaign=yelp_api_v3&utm_medium=api_v3_business_search&utm_source=gBcvfFpabk3CnzmXKdYe3w"}, {"transactions": ["delivery", "pickup"], "distance": 6931.919838039999, "phone": "+17185522811", "categories": [{"alias": "mexican", "title": "Mexican"}], "id": "palomas-brooklyn", "display_phone": "(718) 552-2811", "is_closed": false, "location": {"address2": null, "country": "US", "display_address": ["435 Menahan St", "Brooklyn, NY 11237"], "address1": "435 Menahan St", "city": "Brooklyn", "zip_code": "11237", "address3": "", "state": "NY"}, "coordinates": {"longitude": -73.9121246337891, "latitude": 40.7034683227539}, "review_count": 34, "image_url": "https://s3-media1.fl.yelpcdn.com/bphoto/cj7yD9tlcBRQPFTib03Kng/o.jpg", "price": "$$", "rating": 4.5, "name": "Palomas", "url": "https://www.yelp.com/biz/palomas-brooklyn?adjust_creative=gBcvfFpabk3CnzmXKdYe3w&utm_campaign=yelp_api_v3&utm_medium=api_v3_business_search&utm_source=gBcvfFpabk3CnzmXKdYe3w"}, {"transactions": [], "distance": 3680.33044438, "phone": "+17186765245", "categories": [{"alias": "bars", "title": "Bars"}, {"alias": "mexican", "title": "Mexican"}, {"alias": "foodtrucks", "title": "Food Trucks"}], "id": "chilos-bedford-stuyvesant", "display_phone": "(718) 676-5245", "is_closed": false, "location": {"address2": "", "country": "US", "display_address": ["323 Franklin Ave", "Bedford-Stuyvesant, NY 11238"], "address1": "323 Franklin Ave", "city": "Bedford-Stuyvesant", "zip_code": "11238", "address3": "", "state": "NY"}, "coordinates": {"longitude": -73.95684, "latitude": 40.68837}, "review_count": 116, "image_url": "https://s3-media2.fl.yelpcdn.com/bphoto/9mCpT_4G8RiLxR8A0uK2rQ/o.jpg", "price": "$", "rating": 4.0, "name": "Chilo's", "url": "https://www.yelp.com/biz/chilos-bedford-stuyvesant?adjust_creative=gBcvfFpabk3CnzmXKdYe3w&utm_campaign=yelp_api_v3&utm_medium=api_v3_business_search&utm_source=gBcvfFpabk3CnzmXKdYe3w"}, {"transactions": ["delivery"], "distance": 4188.622297838, "phone": "+12124639511", "categories": [{"alias": "mexican", "title": "Mexican"}], "id": "rocking-horse-cafe-new-york", "display_phone": "(212) 463-9511", "is_closed": false, "location": {"address2": "St 19", "country": "US", "display_address": ["182 8th Ave", "St 19", "New York, NY 10011"], "address1": "182 8th Ave", "city": "New York", "zip_code": "10011", "address3": "", "state": "NY"}, "coordinates": {"longitude": -74.000275, "latitude": 40.742839}, "review_count": 503, "image_url": "https://s3-media1.fl.yelpcdn.com/bphoto/-sbUq6Ps6Y337ZOaGe7kZA/o.jpg", "price": "$$", "rating": 4.0, "name": "Rocking Horse Cafe", "url": "https://www.yelp.com/biz/rocking-horse-cafe-new-york?adjust_creative=gBcvfFpabk3CnzmXKdYe3w&utm_campaign=yelp_api_v3&utm_medium=api_v3_business_search&utm_source=gBcvfFpabk3CnzmXKdYe3w"}, {"transactions": [], "distance": 3408.0841902039997, "phone": "+17188582222", "categories": [{"alias": "mexican", "title": "Mexican"}], "id": "la-slowteria-brooklyn", "display_phone": "(718) 858-2222", "is_closed": false, "location": {"address2": null, "country": "US", "display_address": ["548 Court St", "Brooklyn, NY 11231"], "address1": "548 Court St", "city": "Brooklyn", "zip_code": "11231", "address3": "", "state": "NY"}, "coordinates": {"longitude": -73.9995680865082, "latitude": 40.675054752231}, "review_count": 159, "image_url": "https://s3-media1.fl.yelpcdn.com/bphoto/ogApVHdsfAzKlWI-8IYOJA/o.jpg", "price": "$$", "rating": 4.0, "name": "La Slowteria", "url": "https://www.yelp.com/biz/la-slowteria-brooklyn?adjust_creative=gBcvfFpabk3CnzmXKdYe3w&utm_campaign=yelp_api_v3&utm_medium=api_v3_business_search&utm_source=gBcvfFpabk3CnzmXKdYe3w"}, {"transactions": [], "distance": 2442.32392329, "phone": "+17184880777", "categories": [{"alias": "mexican", "title": "Mexican"}, {"alias": "french", "title": "French"}], "id": "jolie-cantina-brooklyn", "display_phone": "(718) 488-0777", "is_closed": false, "location": {"address2": "", "country": "US", "display_address": ["241 Smith St", "Brooklyn, NY 11231"], "address1": "241 Smith St", "city": "Brooklyn", "zip_code": "11231", "address3": "", "state": "NY"}, "coordinates": {"longitude": -73.992288, "latitude": 40.683532}, "review_count": 291, "image_url": "https://s3-media2.fl.yelpcdn.com/bphoto/t5jh1pgy_8oFx4Hk-unIGg/o.jpg", "price": "$$", "rating": 4.0, "name": "Jolie Cantina", "url": "https://www.yelp.com/biz/jolie-cantina-brooklyn?adjust_creative=gBcvfFpabk3CnzmXKdYe3w&utm_campaign=yelp_api_v3&utm_medium=api_v3_business_search&utm_source=gBcvfFpabk3CnzmXKdYe3w"}, {"transactions": ["delivery", "pickup"], "distance": 3704.96702577, "phone": "+17184866979", "categories": [{"alias": "mexican", "title": "Mexican"}, {"alias": "french", "title": "French"}, {"alias": "salad", "title": "Salad"}], "id": "santos-anne-brooklyn-2", "display_phone": "(718) 486-6979", "is_closed": false, "location": {"address2": "", "country": "US", "display_address": ["366 Union Ave", "Brooklyn, NY 11211"], "address1": "366 Union Ave", "city": "Brooklyn", "zip_code": "11211", "address3": "", "state": "NY"}, "coordinates": {"longitude": -73.9510455988026, "latitude": 40.7113837497199}, "review_count": 237, "image_url": "https://s3-media3.fl.yelpcdn.com/bphoto/d_JzapIcQtNCrLI3cgK14A/o.jpg", "price": "$$", "rating": 4.0, "name": "Santos Anne", "url": "https://www.yelp.com/biz/santos-anne-brooklyn-2?adjust_creative=gBcvfFpabk3CnzmXKdYe3w&utm_campaign=yelp_api_v3&utm_medium=api_v3_business_search&utm_source=gBcvfFpabk3CnzmXKdYe3w"}, {"transactions": ["delivery", "pickup"], "distance": 4721.338943542, "phone": "+17183693144", "categories": [{"alias": "mexican", "title": "Mexican"}, {"alias": "salad", "title": "Salad"}, {"alias": "breakfast_brunch", "title": "Breakfast & Brunch"}], "id": "fonda-brooklyn", "display_phone": "(718) 369-3144", "is_closed": false, "location": {"address2": "", "country": "US", "display_address": ["434 7th Ave", "Brooklyn, NY 11215"], "address1": "434 7th Ave", "city": "Brooklyn", "zip_code": "11215", "address3": "", "state": "NY"}, "coordinates": {"longitude": -73.9846343994141, "latitude": 40.663631439209}, "review_count": 607, "image_url": "https://s3-media1.fl.yelpcdn.com/bphoto/uMOvpFji8lO-qxtvRhi8eA/o.jpg", "price": "$$", "rating": 4.0, "name": "Fonda", "url": "https://www.yelp.com/biz/fonda-brooklyn?adjust_creative=gBcvfFpabk3CnzmXKdYe3w&utm_campaign=yelp_api_v3&utm_medium=api_v3_business_search&utm_source=gBcvfFpabk3CnzmXKdYe3w"}, {"transactions": [], "distance": 6101.876983599999, "phone": "+17184563422", "categories": [{"alias": "mexican", "title": "Mexican"}], "id": "tortilleria-mexicana-los-hermanos-brooklyn-2", "display_phone": "(718) 456-3422", "is_closed": false, "location": {"address2": "", "country": "US", "display_address": ["271 Starr St", "Brooklyn, NY 11237"], "address1": "271 Starr St", "city": "Brooklyn", "zip_code": "11237", "address3": "", "state": "NY"}, "coordinates": {"longitude": -73.92198, "latitude": 40.7066299}, "review_count": 588, "image_url": "https://s3-media1.fl.yelpcdn.com/bphoto/bhi9G2fD7lKYHbelbx_UXw/o.jpg", "price": "$", "rating": 4.0, "name": "Tortilleria Mexicana Los Hermanos", "url": "https://www.yelp.com/biz/tortilleria-mexicana-los-hermanos-brooklyn-2?adjust_creative=gBcvfFpabk3CnzmXKdYe3w&utm_campaign=yelp_api_v3&utm_medium=api_v3_business_search&utm_source=gBcvfFpabk3CnzmXKdYe3w"}, {"transactions": [], "distance": 7644.71422678, "phone": "+13475310954", "categories": [{"alias": "mexican", "title": "Mexican"}], "id": "chihuahua-sunnyside", "display_phone": "(347) 531-0954", "is_closed": false, "location": {"address2": "", "country": "US", "display_address": ["47-02 Greenpoint Ave", "Sunnyside, NY 11104"], "address1": "47-02 Greenpoint Ave", "city": "Sunnyside", "zip_code": "11104", "address3": "", "state": "NY"}, "coordinates": {"longitude": -73.91777, "latitude": 40.74232}, "review_count": 69, "image_url": "https://s3-media1.fl.yelpcdn.com/bphoto/TbS3YMnc-JslicUQOgKtfA/o.jpg", "price": "$$", "rating": 4.5, "name": "Chihuahua", "url": "https://www.yelp.com/biz/chihuahua-sunnyside?adjust_creative=gBcvfFpabk3CnzmXKdYe3w&utm_campaign=yelp_api_v3&utm_medium=api_v3_business_search&utm_source=gBcvfFpabk3CnzmXKdYe3w"}, {"transactions": [], "distance": 3032.912113526, "phone": "+17186368878", "categories": [{"alias": "mexican", "title": "Mexican"}], "id": "taqueria-tepango-brooklyn", "display_phone": "(718) 636-8878", "is_closed": false, "location": {"address2": "", "country": "US", "display_address": ["568 Myrtle Ave", "Brooklyn, NY 11205"], "address1": "568 Myrtle Ave", "city": "Brooklyn", "zip_code": "11205", "address3": "", "state": "NY"}, "coordinates": {"longitude": -73.9616331, "latitude": 40.6937857}, "review_count": 177, "image_url": "https://s3-media3.fl.yelpcdn.com/bphoto/HRYqXzIQhqHkmdWusR1NLg/o.jpg", "price": "$", "rating": 4.0, "name": "Taqueria Tepango", "url": "https://www.yelp.com/biz/taqueria-tepango-brooklyn?adjust_creative=gBcvfFpabk3CnzmXKdYe3w&utm_campaign=yelp_api_v3&utm_medium=api_v3_business_search&utm_source=gBcvfFpabk3CnzmXKdYe3w"}]}