{"region": {"center": {"longitude": -73.99429321289062, "latitude": 40.70544486444615}}, "total": 1496, "businesses": [{"transactions": ["delivery", "pickup"], "distance": 5037.926538068, "phone": "+17184994735", "categories": [{"alias": "mexican", "title": "Mexican"}], "id": "pablitos-taqueria-brooklyn", "display_phone": "(718) 499-4735", "is_closed": false, "location": {"address2": "", "country": "US", "display_address": ["723 5th Ave", "Brooklyn, NY 11215"], "address1": "723 5th Ave", "city": "Brooklyn", "zip_code": "11215", "address3": "", "state": "NY"}, "coordinates": {"longitude": -73.9941788, "latitude": 40.6601486}, "review_count": 28, "image_url": "https://s3-media3.fl.yelpcdn.com/bphoto/xpAypAWXQw_Fri_nhiOkgA/o.jpg", "price": "$", "rating": 4.0, "name": "Pablito's Taqueria", "url": "https://www.yelp.com/biz/pablitos-taqueria-brooklyn?adjust_creative=gBcvfFpabk3CnzmXKdYe3w&utm_campaign=yelp_api_v3&utm_medium=api_v3_business_search&utm_source=gBcvfFpabk3CnzmXKdYe3w"}, {"transactions": ["pickup"], "distance": 6298.77812326, "phone": "+17183666069", "categories": [{"alias": "mexican", "title": "Mexican"}], "id": "lucha-lucha-brooklyn-3", "display_phone": "(718) 366-6069", "is_closed": false, "location": {"address2": "", "country": "US", "display_address": ["173 Irving Ave", "Brooklyn, NY 11237"], "address1": "173 Irving Ave", "city": "Brooklyn", "zip_code": "11237", "address3": null, "state": "NY"}, "coordinates": {"longitude": -73.9196827, "latitude": 40.702308}, "review_count": 24, "image_url": "https://s3-media3.fl.yelpcdn.com/bphoto/9Na72sMSuZzSzMeiG6103Q/o.jpg", "price": "$", "rating": 3.5, "name": "Lucha Lucha", "url": "https://www.yelp.com/biz/lucha-lucha-brooklyn-3?adjust_creative=gBcvfFpabk3CnzmXKdYe3w&utm_campaign=yelp_api_v3&utm_medium=api_v3_business_search&utm_source=gBcvfFpabk3CnzmXKdYe3w"}, {"transactions": ["pickup"], "distance": 8065.60652632, "phone": "+17184180967", "categories": [{"alias": "mexican", "title": "Mexican"}], "id": "fajitas-sunrise-ridgewood-2", "display_phone": "(718) 418-0967", "is_closed": false, "location": {"address2": "", "country": "US", "display_address": ["5924 Myrtle Ave", "Ridgewood, NY 11385"], "address1": "5924 Myrtle Ave", "city": "Ridgewood", "zip_code": "11385", "address3": "", "state": "NY"}, "coordinates": {"longitude": -73.8988723754883, "latitude": 40.7002830505371}, "review_count": 121, "image_url": "https://s3-media3.fl.yelpcdn.com/bphoto/nYRoJV3667C28zbxSHNpTQ/o.jpg", "price": "$$", "rating": 3.5, "name": "Fajitas Sunrise", "url": "https://www.yelp.com/biz/fajitas-sunrise-ridgewood-2?adjust_creative=gBcvfFpabk3CnzmXKdYe3w&utm_campaign=yelp_api_v3&utm_medium=api_v3_business_search&utm_source=gBcvfFpabk3CnzmXKdYe3w"}, {"transactions": [], "distance": 4604.88018098, "phone": "+12126844404", "categories": [{"alias": "mexican", "title": "Mexican"}], "id": "oaxaca-taqueria-new-york-6", "display_phone": "(212) 684-4404", "is_closed": false, "location": {"address2": "", "country": "US", "display_address": ["152 E 33rd St", "New York, NY 10016"], "address1": "152 E 33rd St", "city": "New York", "zip_code": "10016", "address3": "", "state": "NY"}, "coordinates": {"longitude": -73.9795227050781, "latitude": 40.7453117370605}, "review_count": 68, "image_url": "https://s3-media2.fl.yelpcdn.com/bphoto/28aiv3CrWnZU7LZDEHTLPg/o.jpg", "price": "$", "rating": 3.5, "name": "Oaxaca Taqueria", "url": "https://www.yelp.com/biz/oaxaca-taqueria-new-york-6?adjust_creative=gBcvfFpabk3CnzmXKdYe3w&utm_campaign=yelp_api_v3&utm_medium=api_v3_business_search&utm_source=gBcvfFpabk3CnzmXKdYe3w"}, {"transactions": ["delivery", "pickup"], "distance": 10277.07143128, "phone": "+12128319831", "categories": [{"alias": "mexican", "title": "Mexican"}], "id": "el-paso-restaurante-mexicano-new-york-5", "display_phone": "(212) 831-9831", "is_closed": false, "location": {"address2": "", "country": "US", "display_address": ["1643 Lexington Ave", "New York, NY 10029"], "address1": "1643 Lexington Ave", "city": "New York", "zip_code": "10029", "address3": "", "state": "NY"}, "coordinates": {"longitude": -73.947082, "latitude": 40.790668}, "review_count": 372, "image_url": "https://s3-media2.fl.yelpcdn.com/bphoto/upuzc4C6inSCjIMgsDSIqw/o.jpg", "price": "$$", "rating": 3.5, "name": "El Paso Restaurante Mexicano", "url": "https://www.yelp.com/biz/el-paso-restaurante-mexicano-new-york-5?adjust_creative=gBcvfFpabk3CnzmXKdYe3w&utm_campaign=yelp_api_v3&utm_medium=api_v3_business_search&utm_source=gBcvfFpabk3CnzmXKdYe3w"}, {"transactions": [], "distance": 5909.36129544, "phone": "+19173403901", "categories": [{"alias": "mexican", "title": "Mexican"}], "id": "el-sol-de-cholula-brooklyn", "display_phone": "(917) 340-3901", "is_closed": false, "location": {"address2": "", "country": "US", "display_address": ["161 Wilson Ave", "Brooklyn, NY 11237"], "address1": "161 Wilson Ave", "city": "Brooklyn", "zip_code": "11237", "address3": "", "state": "NY"}, "coordinates": {"longitude": -73.92452, "latitude": 40.7003}, "review_count": 25, "image_url": "https://s3-media1.fl.yelpcdn.com/bphoto/O4l-OTwVBVkDgeujHcIEIQ/o.jpg", "price": "$", "rating": 4.0, "name": "El Sol de Cholula", "url": "https://www.yelp.com/biz/el-sol-de-cholula-brooklyn?adjust_creative=gBcvfFpabk3CnzmXKdYe3w&utm_campaign=yelp_api_v3&utm_medium=api_v3_business_search&utm_source=gBcvfFpabk3CnzmXKdYe3w"}, {"transactions": [], "distance": 9506.85579134, "phone": "+13477304632", "categories": [{"alias": "pizza", "title": "Pizza"}, {"alias": "mexican", "title": "Mexican"}], "id": "emilias-pizza-and-authentic-mexican-food-astoria", "display_phone": "(347) 730-4632", "is_closed": false, "location": {"address2": "", "country": "US", "display_address": ["3705 28th Ave", "Astoria, NY 11103"], "address1": "3705 28th Ave", "city": "Astoria", "zip_code": "11103", "address3": "", "state": "NY"}, "coordinates": {"longitude": -73.9150543, "latitude": 40.7662621}, "review_count": 29, "image_url": "https://s3-media3.fl.yelpcdn.com/bphoto/ulF6vaFdaJf-8K17n0TWYw/o.jpg", "price": "$", "rating": 4.5, "name": "Emilia's Pizza & Authentic Mexican Food", "url": "https://www.yelp.com/biz/emilias-pizza-and-authentic-mexican-food-astoria?adjust_creative=gBcvfFpabk3CnzmXKdYe3w&utm_campaign=yelp_api_v3&utm_medium=api_v3_business_search&utm_source=gBcvfFpabk3CnzmXKdYe3w"}, {"transactions": [], "distance": 7793.4848350600005, "phone": "+13479874778", "categories": [{"alias": "mexican", "title": "Mexican"}, {"alias": "bbq", "title": "Barbeque"}, {"alias": "coffee", "title": "Coffee & Tea"}], "id": "mexican-apple-b-b-q-ridgewood", "display_phone": "(347) 987-4778", "is_closed": false, "location": {"address2": "", "country": "US", "display_address": ["66-89 Forest Ave", "Ridgewood, NY 11385"], "address1": "66-89 Forest Ave", "city": "Ridgewood", "zip_code": "11385", "address3": "", "state": "NY"}, "coordinates": {"longitude": -73.90172, "latitude": 40.70489}, "review_count": 32, "image_url": "https://s3-media4.fl.yelpcdn.com/bphoto/LJhRsbDuEdcdTmRoruYLyw/o.jpg", "price": "$$", "rating": 4.0, "name": "Mexican Apple B.B.Q.", "url": "https://www.yelp.com/biz/mexican-apple-b-b-q-ridgewood?adjust_creative=gBcvfFpabk3CnzmXKdYe3w&utm_campaign=yelp_api_v3&utm_medium=api_v3_business_search&utm_source=gBcvfFpabk3CnzmXKdYe3w"}, {"transactions": [], "distance": 7150.800699683999, "phone": "+13474258390", "categories": [{"alias": "mexican", "title": "Mexican"}], "id": "el-burrito-nacho-brooklyn", "display_phone": "(347) 425-8390", "is_closed": false, "location": {"address2": "", "country": "US", "display_address": ["1636 Broadway", "Brooklyn, NY 11207"], "address1": "1636 Broadway", "city": "Brooklyn", "zip_code": "11207", "address3": null, "state": "NY"}, "coordinates": {"longitude": -73.91406, "latitude": 40.68465}, "review_count": 17, "image_url": "https://s3-media2.fl.yelpcdn.com/bphoto/btKFdH6Dch8tHo2ZHlyGQQ/o.jpg", "price": "$$", "rating": 4.5, "name": "El Burrito Nacho", "url": "https://www.yelp.com/biz/el-burrito-nacho-brooklyn?adjust_creative=gBcvfFpabk3CnzmXKdYe3w&utm_campaign=yelp_api_v3&utm_medium=api_v3_business_search&utm_source=gBcvfFpabk3CnzmXKdYe3w"}, {"transactions": [], "distance": 9816.760440581998, "phone": "+17188163000", "categories": [{"alias": "mexican", "title": "Mexican"}], "id": "the-burrito-shoppe-staten-island", "display_phone": "(718) 816-3000", "is_closed": false, "location": {"address2": null, "country": "US", "display_address": ["100 Stuyvesant Pl", "Staten Island, NY 10301"], "address1": "100 Stuyvesant Pl", "city": "Staten Island", "zip_code": "10301", "address3": "", "state": "NY"}, "coordinates": {"longitude": -74.07796, "latitude": 40.64367}, "review_count": 16, "image_url": "https://s3-media1.fl.yelpcdn.com/bphoto/1VksTFHopz-MAIsO6RIOiA/o.jpg", "price": "$", "rating": 4.5, "name": "The Burrito Shoppe", "url": "https://www.yelp.com/biz/the-burrito-shoppe-staten-island?adjust_creative=gBcvfFpabk3CnzmXKdYe3w&utm_campaign=yelp_api_v3&utm_medium=api_v3_business_search&utm_source=gBcvfFpabk3CnzmXKdYe3w"}, {"transactions": ["delivery", "pickup"], "distance": 5347.111490462, "phone": "+13472407111", "categories": [{"alias": "mexican", "title": "Mexican"}], "id": "regalo-de-juquila-brooklyn", "display_phone": "(347) 240-7111", "is_closed": false, "location": {"address2": "", "country": "US", "display_address": ["1209 Myrtle Ave", "Brooklyn, NY 11221"], "address1": "1209 Myrtle Ave", "city": "Brooklyn", "zip_code": "11221", "address3": "", "state": "NY"}, "coordinates": {"longitude": -73.931732, "latitude": 40.697566}, "review_count": 54, "image_url": "https://s3-media3.fl.yelpcdn.com/bphoto/NyBZazGUDaP8uNRj3tFQ0g/o.jpg", "price": "$", "rating": 3.0, "name": "Regalo De Juquila", "url": "https://www.yelp.com/biz/regalo-de-juquila-brooklyn?adjust_creative=gBcvfFpabk3CnzmXKdYe3w&utm_campaign=yelp_api_v3&utm_medium=api_v3_business_search&utm_source=gBcvfFpabk3CnzmXKdYe3w"}, {"transactions": ["delivery", "pickup"], "distance": 13816.237008219998, "phone": "+13474981055", "categories": [{"alias": "mexican", "title": "Mexican"}], "id": "mexicocina-bronx-3", "display_phone": "(347) 498-1055", "is_closed": false, "location": {"address2": "", "country": "US", "display_address": ["503 Jackson Ave", "Bronx, NY 10455"], "address1": "503 Jackson Ave", "city": "Bronx", "zip_code": "10455", "address3": "", "state": "NY"}, "coordinates": {"longitude": -73.90966713749, "latitude": 40.811884525549}, "review_count": 109, "image_url": "https://s3-media2.fl.yelpcdn.com/bphoto/LmQ6FUKMndyI3ZXaRB-BZw/o.jpg", "price": "$$", "rating": 4.0, "name": "Mexicocina", "url": "https://www.yelp.com/biz/mexicocina-bronx-3?adjust_creative=gBcvfFpabk3CnzmXKdYe3w&utm_campaign=yelp_api_v3&utm_medium=api_v3_business_search&utm_source=gBcvfFpabk3CnzmXKdYe3w"}, {"transactions": ["delivery", "pickup"], "distance": 14442.49235714, "phone": "+12124912644", "categories": [{"alias": "mexican", "title": "Mexican"}], "id": "taqueria-san-pedro-new-york", "display_phone": "(212) 491-2644", "is_closed": false, "location": {"address2": null, "country": "US", "display_address": ["3662 Broadway", "New York, NY 10031"], "address1": "3662 Broadway", "city": "New York", "zip_code": "10031", "address3": null, "state": "NY"}, "coordinates": {"longitude": -73.94728, "latitude": 40.8303299}, "review_count": 76, "image_url": "https://s3-media4.fl.yelpcdn.com/bphoto/7BBbZuGlO5rATlepuU4ifw/o.jpg", "price": "$", "rating": 4.0, "name": "Taqueria San Pedro", "url": "https://www.yelp.com/biz/taqueria-san-pedro-new-york?adjust_creative=gBcvfFpabk3CnzmXKdYe3w&utm_campaign=yelp_api_v3&utm_medium=api_v3_business_search&utm_source=gBcvfFpabk3CnzmXKdYe3w"}, {"transactions": [], "distance": 14831.150381149999, "phone": "+17182062115", "categories": [{"alias": "mexican", "title": "Mexican"}], "id": "mexico-jophsua-19-grocery-and-restaurant-richmond-hill", "display_phone": "(718) 206-2115", "is_closed": false, "location": {"address2": "", "country": "US", "display_address": ["134-06 Jamaica Ave", "Richmond Hill, NY 11418"], "address1": "134-06 Jamaica Ave", "city": "Richmond Hill", "zip_code": "11418", "address3": "", "state": "NY"}, "coordinates": {"longitude": -73.8185475021601, "latitude": 40.7023394107819}, "review_count": 35, "image_url": "https://s3-media2.fl.yelpcdn.com/bphoto/Kg2BHlcKxm5E_T4wjf-IEw/o.jpg", "price": "$", "rating": 4.5, "name": "Mexico Jophsua 19 Grocery & Restaurant", "url": "https://www.yelp.com/biz/mexico-jophsua-19-grocery-and-restaurant-richmond-hill?adjust_creative=gBcvfFpabk3CnzmXKdYe3w&utm_campaign=yelp_api_v3&utm_medium=api_v3_business_search&utm_source=gBcvfFpabk3CnzmXKdYe3w"}, {"transactions": ["delivery", "pickup"], "distance": 9748.26644738, "phone": "+12129961739", "categories": [{"alias": "mexican", "title": "Mexican"}], "id": "el-paso-taqueria-new-york-3", "display_phone": "(212) 996-1739", "is_closed": false, "location": {"address2": "", "country": "US", "display_address": ["64 E 97th St", "New York, NY 10029"], "address1": "64 E 97th St", "city": "New York", "zip_code": "10029", "address3": "", "state": "NY"}, "coordinates": {"longitude": -73.9528121948242, "latitude": 40.787296295166}, "review_count": 165, "image_url": "https://s3-media4.fl.yelpcdn.com/bphoto/6sjrwyKjY6_lPmXw_qgmQw/o.jpg", "price": "$$", "rating": 3.5, "name": "El Paso Taqueria", "url": "https://www.yelp.com/biz/el-paso-taqueria-new-york-3?adjust_creative=gBcvfFpabk3CnzmXKdYe3w&utm_campaign=yelp_api_v3&utm_medium=api_v3_business_search&utm_source=gBcvfFpabk3CnzmXKdYe3w"}, {"transactions": [], "distance": 7063.2258886399995, "phone": "+12122495800", "categories": [{"alias": "mexican", "title": "Mexican"}], "id": "oaxaca-taqueria-new-york-8", "display_phone": "(212) 249-5800", "is_closed": false, "location": {"address2": "", "country": "US", "display_address": ["1198 1st Ave", "New York, NY 10065"], "address1": "1198 1st Ave", "city": "New York", "zip_code": "10065", "address3": "", "state": "NY"}, "coordinates": {"longitude": -73.9591559395194, "latitude": 40.7631132993777}, "review_count": 46, "image_url": "https://s3-media2.fl.yelpcdn.com/bphoto/jvZgVdSo_u23f40-1cm7Gg/o.jpg", "price": "$$", "rating": 3.0, "name": "Oaxaca Taqueria", "url": "https://www.yelp.com/biz/oaxaca-taqueria-new-york-8?adjust_creative=gBcvfFpabk3CnzmXKdYe3w&utm_campaign=yelp_api_v3&utm_medium=api_v3_business_search&utm_source=gBcvfFpabk3CnzmXKdYe3w"}, {"transactions": [], "distance": 3008.476377768, "phone": "+13473842300", "categories": [{"alias": "mexican", "title": "Mexican"}], "id": "m\u00f3le-brooklyn-2", "display_phone": "(347) 384-2300", "is_closed": false, "location": {"address2": null, "country": "US", "display_address": ["178 Kent Ave", "Brooklyn, NY 11211"], "address1": "178 Kent Ave", "city": "Brooklyn", "zip_code": "11211", "address3": "", "state": "NY"}, "coordinates": {"longitude": -73.963327488456, "latitude": 40.7188988628472}, "review_count": 192, "image_url": "https://s3-media3.fl.yelpcdn.com/bphoto/Z2s1zJvtubZe4yzamtfQWg/o.jpg", "price": "$$", "rating": 3.0, "name": "M\u00f3le", "url": "https://www.yelp.com/biz/m%C3%B3le-brooklyn-2?adjust_creative=gBcvfFpabk3CnzmXKdYe3w&utm_campaign=yelp_api_v3&utm_medium=api_v3_business_search&utm_source=gBcvfFpabk3CnzmXKdYe3w"}, {"transactions": ["delivery", "pickup"], "distance": 4325.4327740399995, "phone": "+17182189441", "categories": [{"alias": "bakeries", "title": "Bakeries"}, {"alias": "mexican", "title": "Mexican"}, {"alias": "diners", "title": "Diners"}], "id": "grand-morelos-brooklyn-2", "display_phone": "(718) 218-9441", "is_closed": false, "location": {"address2": "", "country": "US", "display_address": ["727 Grand St", "Brooklyn, NY 11211"], "address1": "727 Grand St", "city": "Brooklyn", "zip_code": "11211", "address3": "", "state": "NY"}, "coordinates": {"longitude": -73.94367, "latitude": 40.71188}, "review_count": 169, "image_url": "https://s3-media4.fl.yelpcdn.com/bphoto/rxXZ1uC9q2Mkg0qlrg-aKQ/o.jpg", "price": "$", "rating": 3.5, "name": "Grand Morelos", "url": "https://www.yelp.com/biz/grand-morelos-brooklyn-2?adjust_creative=gBcvfFpabk3CnzmXKdYe3w&utm_campaign=yelp_api_v3&utm_medium=api_v3_business_search&utm_source=gBcvfFpabk3CnzmXKdYe3w"}, {"transactions": [], "distance": 11414.296414483999, "phone": "+12128282382", "categories": [{"alias": "mexican", "title": "Mexican"}], "id": "pipos-mexican-restaurant-new-york", "display_phone": "(212) 828-2382", "is_closed": false, "location": {"address2": "", "country": "US", "display_address": ["166 E 118th St", "New York, NY 10035"], "address1": "166 E 118th St", "city": "New York", "zip_code": "10035", "address3": "", "state": "NY"}, "coordinates": {"longitude": -73.9398034173906, "latitude": 40.7994318892483}, "review_count": 34, "image_url": "https://s3-media2.fl.yelpcdn.com/bphoto/5moHbkl4IyJ_WDKI6t22cw/o.jpg", "price": "$", "rating": 4.0, "name": "Pipo's Mexican Restaurant", "url": "https://www.yelp.com/biz/pipos-mexican-restaurant-new-york?adjust_creative=gBcvfFpabk3CnzmXKdYe3w&utm_campaign=yelp_api_v3&utm_medium=api_v3_business_search&utm_source=gBcvfFpabk3CnzmXKdYe3w"}, {"transactions": ["delivery", "pickup"], "distance": 6855.158665258, "phone": "+12125273700", "categories": [{"alias": "cocktailbars", "title": "Cocktail Bars"}, {"alias": "mexican", "title": "Mexican"}, {"alias": "beerbar", "title": "Beer Bar"}], "id": "gina-mexicana-new-york-2", "display_phone": "(212) 527-3700", "is_closed": false, "location": {"address2": "", "country": "US", "display_address": ["145 E 61st St", "New York, NY 10021"], "address1": "145 E 61st St", "city": "New York", "zip_code": "10021", "address3": "", "state": "NY"}, "coordinates": {"longitude": -73.966753, "latitude": 40.763456}, "review_count": 69, "image_url": "https://s3-media1.fl.yelpcdn.com/bphoto/oLWcFtIUhNiMNuuK4O55UA/o.jpg", "price": "$$", "rating": 3.0, "name": "Gina Mexicana", "url": "https://www.yelp.com/biz/gina-mexicana-new-york-2?adjust_creative=gBcvfFpabk3CnzmXKdYe3w&utm_campaign=yelp_api_v3&utm_medium=api_v3_business_search&utm_source=gBcvfFpabk3CnzmXKdYe3w"}, {"transactions": ["delivery", "pickup"], "distance": 3008.946144114, "phone": "+12126751955", "categories": [{"alias": "mexican", "title": "Mexican"}], "id": "the-taco-shop-new-york", "display_phone": "(212) 675-1955", "is_closed": false, "location": {"address2": "", "country": "US", "display_address": ["166 W 4th St", "New York, NY 10014"], "address1": "166 W 4th St", "city": "New York", "zip_code": "10014", "address3": "", "state": "NY"}, "coordinates": {"longitude": -74.0015411376953, "latitude": 40.7319488525391}, "review_count": 225, "image_url": "https://s3-media2.fl.yelpcdn.com/bphoto/iRgH5oZOvBbWIPX89t84UQ/o.jpg", "price": "$", "rating": 3.5, "name": "The Taco Shop", "url": "https://www.yelp.com/biz/the-taco-shop-new-york?adjust_creative=gBcvfFpabk3CnzmXKdYe3w&utm_campaign=yelp_api_v3&utm_medium=api_v3_business_search&utm_source=gBcvfFpabk3CnzmXKdYe3w"}, {"transactions": [], "distance": 4615.683036664, "phone": "+17183812550", "categories": [{"alias": "mexican", "title": "Mexican"}], "id": "cafe-los-arcos-brooklyn", "display_phone": "(718) 381-2550", "is_closed": false, "location": {"address2": "", "country": "US", "display_address": ["255 A Bushwick Ave", "Brooklyn, NY 11206"], "address1": "255 A Bushwick Ave", "city": "Brooklyn", "zip_code": "11206", "address3": "", "state": "NY"}, "coordinates": {"longitude": -73.9395899, "latitude": 40.7072619}, "review_count": 75, "image_url": "https://s3-media2.fl.yelpcdn.com/bphoto/OA43A0GdO2X5omBs04aoEA/o.jpg", "price": "$", "rating": 3.5, "name": "Cafe Los Arcos", "url": "https://www.yelp.com/biz/cafe-los-arcos-brooklyn?adjust_creative=gBcvfFpabk3CnzmXKdYe3w&utm_campaign=yelp_api_v3&utm_medium=api_v3_business_search&utm_source=gBcvfFpabk3CnzmXKdYe3w"}, {"transactions": ["delivery", "pickup"], "distance": 14763.46395476, "phone": "+17186769444", "categories": [{"alias": "mexican", "title": "Mexican"}], "id": "cinco-de-mayo-bronx", "display_phone": "(718) 676-9444", "is_closed": false, "location": {"address2": null, "country": "US", "display_address": ["837 Washington Ave", "Bronx, NY 10451"], "address1": "837 Washington Ave", "city": "Bronx", "zip_code": "10451", "address3": "", "state": "NY"}, "coordinates": {"longitude": -73.9115964114002, "latitude": 40.8225131696248}, "review_count": 75, "image_url": "https://s3-media3.fl.yelpcdn.com/bphoto/fSn7gkBVothxVDStiizXNg/o.jpg", "price": "$", "rating": 4.0, "name": "Cinco De Mayo", "url": "https://www.yelp.com/biz/cinco-de-mayo-bronx?adjust_creative=gBcvfFpabk3CnzmXKdYe3w&utm_campaign=yelp_api_v3&utm_medium=api_v3_business_search&utm_source=gBcvfFpabk3CnzmXKdYe3w"}, {"transactions": [], "distance": 7442.093975561999, "phone": "+17183615556", "categories": [{"alias": "breakfast_brunch", "title": "Breakfast & Brunch"}, {"alias": "diners", "title": "Diners"}, {"alias": "mexican", "title": "Mexican"}], "id": "the-brothers-cafe-sunnyside", "display_phone": "(718) 361-5556", "is_closed": false, "location": {"address2": "", "country": "US", "display_address": ["3949 43rd Ave", "Sunnyside, NY 11104"], "address1": "3949 43rd Ave", "city": "Sunnyside", "zip_code": "11104", "address3": "", "state": "NY"}, "coordinates": {"longitude": -73.924109, "latitude": 40.74607}, "review_count": 57, "image_url": "https://s3-media2.fl.yelpcdn.com/bphoto/iIO57MlGfxpepvWzs6Ygcw/o.jpg", "price": "$", "rating": 4.5, "name": "The Brothers Cafe", "url": "https://www.yelp.com/biz/the-brothers-cafe-sunnyside?adjust_creative=gBcvfFpabk3CnzmXKdYe3w&utm_campaign=yelp_api_v3&utm_medium=api_v3_business_search&utm_source=gBcvfFpabk3CnzmXKdYe3w"}, {"transactions": ["delivery", "pickup"], "distance": 1970.504703186, "phone": "+12124733919", "categories": [{"alias": "mexican", "title": "Mexican"}, {"alias": "bars", "title": "Bars"}], "id": "el-maguey-y-la-tuna-new-york-2", "display_phone": "(212) 473-3919", "is_closed": false, "location": {"address2": null, "country": "US", "display_address": ["321 E Houston St", "New York, NY 10002"], "address1": "321 E Houston St", "city": "New York", "zip_code": "10002", "address3": "", "state": "NY"}, "coordinates": {"longitude": -73.9829, "latitude": 40.72095}, "review_count": 138, "image_url": "https://s3-media2.fl.yelpcdn.com/bphoto/yPCUmfTqXiP2k06r9W06jA/o.jpg", "price": "$$", "rating": 3.5, "name": "El Maguey Y La Tuna", "url": "https://www.yelp.com/biz/el-maguey-y-la-tuna-new-york-2?adjust_creative=gBcvfFpabk3CnzmXKdYe3w&utm_campaign=yelp_api_v3&utm_medium=api_v3_business_search&utm_source=gBcvfFpabk3CnzmXKdYe3w"}, {"transactions": [], "distance": 11707.933372204, "phone": "+13475613946", "categories": [{"alias": "mexican", "title": "Mexican"}, {"alias": "bakeries", "title": "Bakeries"}], "id": "las-comadres-woodhaven", "display_phone": "(347) 561-3946", "is_closed": false, "location": {"address2": null, "country": "US", "display_address": ["7510A Jamaica Ave", "Woodhaven, NY 11421"], "address1": "7510A Jamaica Ave", "city": "Woodhaven", "zip_code": "11421", "address3": null, "state": "NY"}, "coordinates": {"longitude": -73.866089, "latitude": 40.691242}, "review_count": 10, "image_url": "https://s3-media1.fl.yelpcdn.com/bphoto/kZIpF1cfk184vQ9fq9nH3Q/o.jpg", "price": "$", "rating": 4.5, "name": "Las Comadres", "url": "https://www.yelp.com/biz/las-comadres-woodhaven?adjust_creative=gBcvfFpabk3CnzmXKdYe3w&utm_campaign=yelp_api_v3&utm_medium=api_v3_business_search&utm_source=gBcvfFpabk3CnzmXKdYe3w"}, {"transactions": [], "distance": 5451.156448, "phone": "+19179937201", "categories": [{"alias": "tacos", "title": "Tacos"}], "id": "dos-toros-taqueria-new-york-27", "display_phone": "(917) 993-7201", "is_closed": false, "location": {"address2": "", "country": "US", "display_address": ["119 W 40th St", "New York, NY 10018"], "address1": "119 W 40th St", "city": "New York", "zip_code": "10018", "address3": null, "state": "NY"}, "coordinates": {"longitude": -73.9859579131007, "latitude": 40.7540578242766}, "review_count": 33, "image_url": "https://s3-media3.fl.yelpcdn.com/bphoto/gMMdmfoDJa84H0DjiYLssQ/o.jpg", "price": "$", "rating": 3.5, "name": "Dos Toros Taqueria", "url": "https://www.yelp.com/biz/dos-toros-taqueria-new-york-27?adjust_creative=gBcvfFpabk3CnzmXKdYe3w&utm_campaign=yelp_api_v3&utm_medium=api_v3_business_search&utm_source=gBcvfFpabk3CnzmXKdYe3w"}, {"transactions": [], "distance": 10442.95576112, "phone": "+17187201221", "categories": [{"alias": "mexican", "title": "Mexican"}, {"alias": "delis", "title": "Delis"}], "id": "panaderia-la-mixteca-poblana-staten-island", "display_phone": "(718) 720-1221", "is_closed": false, "location": {"address2": "", "country": "US", "display_address": ["104 Victory Blvd", "Staten Island, NY 10301"], "address1": "104 Victory Blvd", "city": "Staten Island", "zip_code": "10301", "address3": "", "state": "NY"}, "coordinates": {"longitude": -74.0799138202344, "latitude": 40.637596973899}, "review_count": 9, "image_url": "https://s3-media3.fl.yelpcdn.com/bphoto/Zh1a3XSy-6SbVRVWZU12gA/o.jpg", "price": "$", "rating": 4.5, "name": "Panaderia La Mixteca Poblana", "url": "https://www.yelp.com/biz/panaderia-la-mixteca-poblana-staten-island?adjust_creative=gBcvfFpabk3CnzmXKdYe3w&utm_campaign=yelp_api_v3&utm_medium=api_v3_business_search&utm_source=gBcvfFpabk3CnzmXKdYe3w"}, {"transactions": [], "distance": 4092.1138795199995, "phone": "+17183990706", "categories": [{"alias": "bars", "title": "Bars"}, {"alias": "mexican", "title": "Mexican"}], "id": "madre-mezcaleria-brooklyn", "display_phone": "(718) 399-0706", "is_closed": false, "location": {"address2": "", "country": "US", "display_address": ["706 Washington Ave", "Brooklyn, NY 11238"], "address1": "706 Washington Ave", "city": "Brooklyn", "zip_code": "11238", "address3": null, "state": "NY"}, "coordinates": {"longitude": -73.9638442993164, "latitude": 40.6769104003906}, "review_count": 6, "image_url": "https://s3-media3.fl.yelpcdn.com/bphoto/75FeCVEqvSc5nAHB1OkzKQ/o.jpg", "price": "$$", "rating": 5.0, "name": "Madre Mezcaleria", "url": "https://www.yelp.com/biz/madre-mezcaleria-brooklyn?adjust_creative=gBcvfFpabk3CnzmXKdYe3w&utm_campaign=yelp_api_v3&utm_medium=api_v3_business_search&utm_source=gBcvfFpabk3CnzmXKdYe3w"}, {"transactions": [], "distance": 11561.015758, "phone": "+12122804700", "categories": [{"alias": "cocktailbars", "title": "Cocktail Bars"}, {"alias": "newamerican", "title": "American (New)"}, {"alias": "mexican", "title": "Mexican"}], "id": "sexy-taco-dirty-cash-new-york", "display_phone": "(212) 280-4700", "is_closed": false, "location": {"address2": null, "country": "US", "display_address": ["161 Malcolm X Blvd", "New York, NY 10026"], "address1": "161 Malcolm X Blvd", "city": "New York", "zip_code": "10026", "address3": "", "state": "NY"}, "coordinates": {"longitude": -73.949035, "latitude": 40.803604}, "review_count": 139, "image_url": "https://s3-media2.fl.yelpcdn.com/bphoto/n_9UhMIEC-rcGlAcw4YVTg/o.jpg", "price": "$$", "rating": 3.5, "name": "Sexy Taco/Dirty Cash", "url": "https://www.yelp.com/biz/sexy-taco-dirty-cash-new-york?adjust_creative=gBcvfFpabk3CnzmXKdYe3w&utm_campaign=yelp_api_v3&utm_medium=api_v3_business_search&utm_source=gBcvfFpabk3CnzmXKdYe3w"}, {"transactions": [], "distance": 8130.8829660599995, "phone": "", "categories": [{"alias": "mexican", "title": "Mexican"}, {"alias": "foodtrucks", "title": "Food Trucks"}, {"alias": "streetvendors", "title": "Street Vendors"}], "id": "taco-rey-de-oro-woodside", "display_phone": "", "is_closed": false, "location": {"address2": "", "country": "US", "display_address": ["52ND St And Roosevelt Ave", "Woodside, NY 11377"], "address1": "52ND St And Roosevelt Ave", "city": "Woodside", "zip_code": "11377", "address3": "", "state": "NY"}, "coordinates": {"longitude": -73.91249, "latitude": 40.74416}, "review_count": 66, "image_url": "https://s3-media4.fl.yelpcdn.com/bphoto/ry3yL67t-_UW_aNkZOQWaA/o.jpg", "price": "$", "rating": 4.5, "name": "Taco Rey de Oro", "url": "https://www.yelp.com/biz/taco-rey-de-oro-woodside?adjust_creative=gBcvfFpabk3CnzmXKdYe3w&utm_campaign=yelp_api_v3&utm_medium=api_v3_business_search&utm_source=gBcvfFpabk3CnzmXKdYe3w"}, {"transactions": ["delivery", "pickup"], "distance": 4113.23002966, "phone": "+17183690849", "categories": [{"alias": "mexican", "title": "Mexican"}], "id": "haab-brooklyn-5", "display_phone": "(718) 369-0849", "is_closed": false, "location": {"address2": "", "country": "US", "display_address": ["396 6th Ave", "Brooklyn, NY 11215"], "address1": "396 6th Ave", "city": "Brooklyn", "zip_code": "11215", "address3": "", "state": "NY"}, "coordinates": {"longitude": -73.983094, "latitude": 40.6694419}, "review_count": 95, "image_url": "https://s3-media2.fl.yelpcdn.com/bphoto/mHOJwputXovExZQHNxlPVw/o.jpg", "price": "$$", "rating": 3.5, "name": "Haab", "url": "https://www.yelp.com/biz/haab-brooklyn-5?adjust_creative=gBcvfFpabk3CnzmXKdYe3w&utm_campaign=yelp_api_v3&utm_medium=api_v3_business_search&utm_source=gBcvfFpabk3CnzmXKdYe3w"}, {"transactions": [], "distance": 6287.988142296, "phone": "+13473057765", "categories": [{"alias": "mexican", "title": "Mexican"}], "id": "dos-toros-taqueria-new-york-21", "display_phone": "(347) 305-7765", "is_closed": false, "location": {"address2": "", "country": "US", "display_address": ["52 W 52nd St", "New York, NY 10019"], "address1": "52 W 52nd St", "city": "New York", "zip_code": "10019", "address3": null, "state": "NY"}, "coordinates": {"longitude": -73.9784675091505, "latitude": 40.7607084122727}, "review_count": 23, "image_url": "https://s3-media4.fl.yelpcdn.com/bphoto/50XUTdUhjhcB-xp3Bzq5XA/o.jpg", "price": "$", "rating": 3.5, "name": "Dos Toros Taqueria", "url": "https://www.yelp.com/biz/dos-toros-taqueria-new-york-21?adjust_creative=gBcvfFpabk3CnzmXKdYe3w&utm_campaign=yelp_api_v3&utm_medium=api_v3_business_search&utm_source=gBcvfFpabk3CnzmXKdYe3w"}, {"transactions": [], "distance": 13623.975595779999, "phone": "+17187201447", "categories": [{"alias": "mexican", "title": "Mexican"}], "id": "taqueria-puebla-staten-island", "display_phone": "(718) 720-1447", "is_closed": false, "location": {"address2": null, "country": "US", "display_address": ["1285 Castleton Ave", "Staten Island, NY 10310"], "address1": "1285 Castleton Ave", "city": "Staten Island", "zip_code": "10310", "address3": null, "state": "NY"}, "coordinates": {"longitude": -74.1256356239319, "latitude": 40.6339289993048}, "review_count": 14, "image_url": "https://s3-media3.fl.yelpcdn.com/bphoto/bY6uo9lSce9AjzUn8aYJ9w/o.jpg", "price": "$", "rating": 4.0, "name": "Taqueria Puebla", "url": "https://www.yelp.com/biz/taqueria-puebla-staten-island?adjust_creative=gBcvfFpabk3CnzmXKdYe3w&utm_campaign=yelp_api_v3&utm_medium=api_v3_business_search&utm_source=gBcvfFpabk3CnzmXKdYe3w"}, {"transactions": ["delivery", "pickup"], "distance": 3321.30036977, "phone": "+17184863333", "categories": [{"alias": "mexican", "title": "Mexican"}, {"alias": "bars", "title": "Bars"}], "id": "vera-cruz-brooklyn-8", "display_phone": "(718) 486-3333", "is_closed": false, "location": {"address2": "", "country": "US", "display_address": ["195 Bedford Ave", "Brooklyn, NY 11211"], "address1": "195 Bedford Ave", "city": "Brooklyn", "zip_code": "11211", "address3": "", "state": "NY"}, "coordinates": {"longitude": -73.957939, "latitude": 40.717292}, "review_count": 171, "image_url": "https://s3-media1.fl.yelpcdn.com/bphoto/qCE-yx2TMDDyvjZyBMhqgw/o.jpg", "price": "$$", "rating": 3.0, "name": "Vera Cruz", "url": "https://www.yelp.com/biz/vera-cruz-brooklyn-8?adjust_creative=gBcvfFpabk3CnzmXKdYe3w&utm_campaign=yelp_api_v3&utm_medium=api_v3_business_search&utm_source=gBcvfFpabk3CnzmXKdYe3w"}, {"transactions": ["delivery", "pickup"], "distance": 6392.81185946, "phone": "+12123077029", "categories": [{"alias": "mexican", "title": "Mexican"}, {"alias": "vegan", "title": "Vegan"}, {"alias": "vegetarian", "title": "Vegetarian"}], "id": "blockheads-new-york-11", "display_phone": "(212) 307-7029", "is_closed": false, "location": {"address2": "322 W 50th St", "country": "US", "display_address": ["Worldwide Plz", "322 W 50th St", "New York, NY 10019"], "address1": "Worldwide Plz", "city": "New York", "zip_code": "10019", "address3": "", "state": "NY"}, "coordinates": {"longitude": -73.9876316100625, "latitude": 40.7627155294445}, "review_count": 638, "image_url": "https://s3-media2.fl.yelpcdn.com/bphoto/q_RojaSXNjIQu7_d9KqV4w/o.jpg", "price": "$$", "rating": 3.5, "name": "Blockheads", "url": "https://www.yelp.com/biz/blockheads-new-york-11?adjust_creative=gBcvfFpabk3CnzmXKdYe3w&utm_campaign=yelp_api_v3&utm_medium=api_v3_business_search&utm_source=gBcvfFpabk3CnzmXKdYe3w"}, {"transactions": [], "distance": 1943.5855948739998, "phone": "+12126252002", "categories": [{"alias": "mexican", "title": "Mexican"}, {"alias": "cuban", "title": "Cuban"}], "id": "habana-to-go-new-york", "display_phone": "(212) 625-2002", "is_closed": false, "location": {"address2": "", "country": "US", "display_address": ["229 Elizabeth St", "New York, NY 10012"], "address1": "229 Elizabeth St", "city": "New York", "zip_code": "10012", "address3": "", "state": "NY"}, "coordinates": {"longitude": -73.99418, "latitude": 40.72292}, "review_count": 243, "image_url": "https://s3-media4.fl.yelpcdn.com/bphoto/RjkBM77zup0BI7D0IDJrWA/o.jpg", "price": "$", "rating": 4.0, "name": "Habana To-Go", "url": "https://www.yelp.com/biz/habana-to-go-new-york?adjust_creative=gBcvfFpabk3CnzmXKdYe3w&utm_campaign=yelp_api_v3&utm_medium=api_v3_business_search&utm_source=gBcvfFpabk3CnzmXKdYe3w"}, {"transactions": ["delivery", "pickup"], "distance": 2510.27347677, "phone": "+17188583400", "categories": [{"alias": "mexican", "title": "Mexican"}, {"alias": "tex-mex", "title": "Tex-Mex"}], "id": "el-toro-taqueria-brooklyn-2", "display_phone": "(718) 858-3400", "is_closed": false, "location": {"address2": "", "country": "US", "display_address": ["89 Fort Greene Pl", "Brooklyn, NY 11217"], "address1": "89 Fort Greene Pl", "city": "Brooklyn", "zip_code": "11217", "address3": "", "state": "NY"}, "coordinates": {"longitude": -73.976476, "latitude": 40.6873547}, "review_count": 77, "image_url": "https://s3-media2.fl.yelpcdn.com/bphoto/itBRmjoPg7aDmcl1KHlwag/o.jpg", "price": "$", "rating": 3.0, "name": "El Toro Taqueria", "url": "https://www.yelp.com/biz/el-toro-taqueria-brooklyn-2?adjust_creative=gBcvfFpabk3CnzmXKdYe3w&utm_campaign=yelp_api_v3&utm_medium=api_v3_business_search&utm_source=gBcvfFpabk3CnzmXKdYe3w"}, {"transactions": ["delivery", "pickup"], "distance": 4301.876542591999, "phone": "+12122130708", "categories": [{"alias": "mexican", "title": "Mexican"}], "id": "choza-taqueria-new-york-4", "display_phone": "(212) 213-0708", "is_closed": false, "location": {"address2": "", "country": "US", "display_address": ["66 Madison Ave", "New York, NY 10016"], "address1": "66 Madison Ave", "city": "New York", "zip_code": "10016", "address3": "", "state": "NY"}, "coordinates": {"longitude": -73.986121, "latitude": 40.743633}, "review_count": 217, "image_url": "https://s3-media4.fl.yelpcdn.com/bphoto/daxRJ6a9FLgvGUs94Yo5mA/o.jpg", "price": "$", "rating": 3.5, "name": "Choza Taqueria", "url": "https://www.yelp.com/biz/choza-taqueria-new-york-4?adjust_creative=gBcvfFpabk3CnzmXKdYe3w&utm_campaign=yelp_api_v3&utm_medium=api_v3_business_search&utm_source=gBcvfFpabk3CnzmXKdYe3w"}, {"transactions": ["delivery", "pickup"], "distance": 5949.098796852, "phone": "+12127502020", "categories": [{"alias": "mexican", "title": "Mexican"}, {"alias": "vegan", "title": "Vegan"}, {"alias": "vegetarian", "title": "Vegetarian"}], "id": "blockheads-new-york-12", "display_phone": "(212) 750-2020", "is_closed": false, "location": {"address2": "", "country": "US", "display_address": ["954 2nd Ave", "New York, NY 10022"], "address1": "954 2nd Ave", "city": "New York", "zip_code": "10022", "address3": "", "state": "NY"}, "coordinates": {"longitude": -73.968017, "latitude": 40.755104}, "review_count": 324, "image_url": "https://s3-media1.fl.yelpcdn.com/bphoto/_DMr_VITdHMzKrveDoel0Q/o.jpg", "price": "$$", "rating": 3.0, "name": "Blockheads", "url": "https://www.yelp.com/biz/blockheads-new-york-12?adjust_creative=gBcvfFpabk3CnzmXKdYe3w&utm_campaign=yelp_api_v3&utm_medium=api_v3_business_search&utm_source=gBcvfFpabk3CnzmXKdYe3w"}, {"transactions": ["delivery", "pickup"], "distance": 8163.110482361999, "phone": "+12125354658", "categories": [{"alias": "mexican", "title": "Mexican"}], "id": "dos-toros-taqueria-new-york-3", "display_phone": "(212) 535-4658", "is_closed": false, "location": {"address2": "", "country": "US", "display_address": ["1111 Lexington Ave", "New York, NY 10075"], "address1": "1111 Lexington Ave", "city": "New York", "zip_code": "10075", "address3": "", "state": "NY"}, "coordinates": {"longitude": -73.9594762, "latitude": 40.7739509}, "review_count": 298, "image_url": "https://s3-media3.fl.yelpcdn.com/bphoto/4AGqj_xemCW7wzFZuSLoeQ/o.jpg", "price": "$", "rating": 3.5, "name": "Dos Toros Taqueria", "url": "https://www.yelp.com/biz/dos-toros-taqueria-new-york-3?adjust_creative=gBcvfFpabk3CnzmXKdYe3w&utm_campaign=yelp_api_v3&utm_medium=api_v3_business_search&utm_source=gBcvfFpabk3CnzmXKdYe3w"}, {"transactions": ["delivery", "pickup"], "distance": 1415.5346833243998, "phone": "+12124253127", "categories": [{"alias": "mexican", "title": "Mexican"}, {"alias": "latin", "title": "Latin American"}, {"alias": "burgers", "title": "Burgers"}], "id": "la-dama-new-york", "display_phone": "(212) 425-3127", "is_closed": false, "location": {"address2": "", "country": "US", "display_address": ["66 Pearl St", "New York, NY 10004"], "address1": "66 Pearl St", "city": "New York", "zip_code": "10004", "address3": "", "state": "NY"}, "coordinates": {"longitude": -74.01091, "latitude": 40.70355}, "review_count": 41, "image_url": "https://s3-media1.fl.yelpcdn.com/bphoto/j86lkmv_s5e8NCBlJ2HdZQ/o.jpg", "price": "$$", "rating": 3.5, "name": "La Dama", "url": "https://www.yelp.com/biz/la-dama-new-york?adjust_creative=gBcvfFpabk3CnzmXKdYe3w&utm_campaign=yelp_api_v3&utm_medium=api_v3_business_search&utm_source=gBcvfFpabk3CnzmXKdYe3w"}, {"transactions": [], "distance": 10861.445798841998, "phone": "+19293049396", "categories": [{"alias": "foodtrucks", "title": "Food Trucks"}, {"alias": "tacos", "title": "Tacos"}], "id": "tacos-lopez-brooklyn", "display_phone": "(929) 304-9396", "is_closed": false, "location": {"address2": "", "country": "US", "display_address": ["85TH St", "Brooklyn, NY 11209"], "address1": "85TH St", "city": "Brooklyn", "zip_code": "11209", "address3": null, "state": "NY"}, "coordinates": {"longitude": -74.0020159847364, "latitude": 40.6079394998921}, "review_count": 11, "image_url": "https://s3-media2.fl.yelpcdn.com/bphoto/a7zLYWL0rX7qA2RlVB-1OA/o.jpg", "price": "$", "rating": 4.5, "name": "Tacos Lopez", "url": "https://www.yelp.com/biz/tacos-lopez-brooklyn?adjust_creative=gBcvfFpabk3CnzmXKdYe3w&utm_campaign=yelp_api_v3&utm_medium=api_v3_business_search&utm_source=gBcvfFpabk3CnzmXKdYe3w"}, {"transactions": ["delivery", "pickup"], "distance": 7854.860234639999, "phone": "+17188263388", "categories": [{"alias": "mexican", "title": "Mexican"}], "id": "los-mariachis-mexican-restaurant-brooklyn", "display_phone": "(718) 826-3388", "is_closed": false, "location": {"address2": "", "country": "US", "display_address": ["805 Coney Island Ave", "Brooklyn, NY 11218"], "address1": "805 Coney Island Ave", "city": "Brooklyn", "zip_code": "11218", "address3": "", "state": "NY"}, "coordinates": {"longitude": -73.96805, "latitude": 40.63773}, "review_count": 75, "image_url": "https://s3-media2.fl.yelpcdn.com/bphoto/ln8D-fj1r2RSEI2ss4s_VA/o.jpg", "price": "$$", "rating": 3.5, "name": "Los  Mariachis  Mexican  Restaurant", "url": "https://www.yelp.com/biz/los-mariachis-mexican-restaurant-brooklyn?adjust_creative=gBcvfFpabk3CnzmXKdYe3w&utm_campaign=yelp_api_v3&utm_medium=api_v3_business_search&utm_source=gBcvfFpabk3CnzmXKdYe3w"}, {"transactions": [], "distance": 6301.307683872, "phone": "", "categories": [{"alias": "mexican", "title": "Mexican"}], "id": "dos-toros-taqueria-new-york-24", "display_phone": "", "is_closed": false, "location": {"address2": "", "country": "US", "display_address": ["636 Lexington Ave", "New York, NY 10022"], "address1": "636 Lexington Ave", "city": "New York", "zip_code": "10022", "address3": "", "state": "NY"}, "coordinates": {"longitude": -73.9706706, "latitude": 40.7592114}, "review_count": 57, "image_url": "https://s3-media3.fl.yelpcdn.com/bphoto/W0JPJiyCWy4mygVB8674UA/o.jpg", "price": "$$", "rating": 3.0, "name": "Dos Toros Taqueria", "url": "https://www.yelp.com/biz/dos-toros-taqueria-new-york-24?adjust_creative=gBcvfFpabk3CnzmXKdYe3w&utm_campaign=yelp_api_v3&utm_medium=api_v3_business_search&utm_source=gBcvfFpabk3CnzmXKdYe3w"}, {"transactions": ["delivery", "pickup"], "distance": 4643.363684663999, "phone": "+12122133332", "categories": [{"alias": "mexican", "title": "Mexican"}, {"alias": "vegan", "title": "Vegan"}, {"alias": "vegetarian", "title": "Vegetarian"}], "id": "blockheads-new-york", "display_phone": "(212) 213-3332", "is_closed": false, "location": {"address2": "", "country": "US", "display_address": ["499 3rd Ave", "New York, NY 10016"], "address1": "499 3rd Ave", "city": "New York", "zip_code": "10016", "address3": "", "state": "NY"}, "coordinates": {"longitude": -73.978027, "latitude": 40.745357}, "review_count": 584, "image_url": "https://s3-media4.fl.yelpcdn.com/bphoto/FjJYRa5d1b5GBv0r-qi-sw/o.jpg", "price": "$$", "rating": 3.5, "name": "Blockheads", "url": "https://www.yelp.com/biz/blockheads-new-york?adjust_creative=gBcvfFpabk3CnzmXKdYe3w&utm_campaign=yelp_api_v3&utm_medium=api_v3_business_search&utm_source=gBcvfFpabk3CnzmXKdYe3w"}, {"transactions": [], "distance": 13023.4793429, "phone": "+17182929399", "categories": [{"alias": "mexican", "title": "Mexican"}], "id": "santa-clarita-bronx", "display_phone": "(718) 292-9399", "is_closed": false, "location": {"address2": "", "country": "US", "display_address": ["237 Willis Ave", "Bronx, NY 10454"], "address1": "237 Willis Ave", "city": "Bronx", "zip_code": "10454", "address3": "", "state": "NY"}, "coordinates": {"longitude": -73.922889, "latitude": 40.80941}, "review_count": 13, "image_url": "https://s3-media1.fl.yelpcdn.com/bphoto/x4c_AG4ETXA2FgbYbExO-Q/o.jpg", "price": "$", "rating": 4.5, "name": "Santa Clarita", "url": "https://www.yelp.com/biz/santa-clarita-bronx?adjust_creative=gBcvfFpabk3CnzmXKdYe3w&utm_campaign=yelp_api_v3&utm_medium=api_v3_business_search&utm_source=gBcvfFpabk3CnzmXKdYe3w"}, {"transactions": ["delivery", "pickup"], "distance": 4866.417725861999, "phone": "+13474350813", "categories": [{"alias": "mexican", "title": "Mexican"}], "id": "cholulita-bella-deli-brooklyn", "display_phone": "(347) 435-0813", "is_closed": false, "location": {"address2": "", "country": "US", "display_address": ["888 Broadway", "Brooklyn, NY 11206"], "address1": "888 Broadway", "city": "Brooklyn", "zip_code": "11206", "address3": "", "state": "NY"}, "coordinates": {"longitude": -73.9373204112053, "latitude": 40.6980840861797}, "review_count": 46, "image_url": "https://s3-media3.fl.yelpcdn.com/bphoto/sfENRgFJexEBtA8dnZEMGw/o.jpg", "price": "$", "rating": 3.5, "name": "Cholulita Bella Deli", "url": "https://www.yelp.com/biz/cholulita-bella-deli-brooklyn?adjust_creative=gBcvfFpabk3CnzmXKdYe3w&utm_campaign=yelp_api_v3&utm_medium=api_v3_business_search&utm_source=gBcvfFpabk3CnzmXKdYe3w"}, {"transactions": [], "distance": 18684.334402239998, "phone": "+17189453474", "categories": [{"alias": "mexican", "title": "Mexican"}, {"alias": "bars", "title": "Bars"}, {"alias": "salad", "title": "Salad"}], "id": "pico-rockaway", "display_phone": "(718) 945-3474", "is_closed": false, "location": {"address2": null, "country": "US", "display_address": ["419 Beach 129th St", "Rockaway, NY 11694"], "address1": "419 Beach 129th St", "city": "Rockaway", "zip_code": "11694", "address3": "", "state": "NY"}, "coordinates": {"longitude": -73.8493879, "latitude": 40.578381}, "review_count": 191, "image_url": "https://s3-media2.fl.yelpcdn.com/bphoto/1sB2Di2d8jwthhTOXeQxEA/o.jpg", "price": "$$", "rating": 4.5, "name": "Pico", "url": "https://www.yelp.com/biz/pico-rockaway?adjust_creative=gBcvfFpabk3CnzmXKdYe3w&utm_campaign=yelp_api_v3&utm_medium=api_v3_business_search&utm_source=gBcvfFpabk3CnzmXKdYe3w"}, {"transactions": ["delivery", "pickup"], "distance": 8110.429864, "phone": "+12124398301", "categories": [{"alias": "mexican", "title": "Mexican"}, {"alias": "salad", "title": "Salad"}, {"alias": "soup", "title": "Soup"}], "id": "sabor-a-mexico-new-york", "display_phone": "(212) 439-8301", "is_closed": false, "location": {"address2": null, "country": "US", "display_address": ["233 E 77th St", "New York, NY 10021"], "address1": "233 E 77th St", "city": "New York", "zip_code": "10021", "address3": "", "state": "NY"}, "coordinates": {"longitude": -73.956954, "latitude": 40.772663}, "review_count": 119, "image_url": "https://s3-media1.fl.yelpcdn.com/bphoto/Uvw7N33XTa_bmpUEyrlRUQ/o.jpg", "price": "$$", "rating": 3.5, "name": "Sabor A Mexico", "url": "https://www.yelp.com/biz/sabor-a-mexico-new-york?adjust_creative=gBcvfFpabk3CnzmXKdYe3w&utm_campaign=yelp_api_v3&utm_medium=api_v3_business_search&utm_source=gBcvfFpabk3CnzmXKdYe3w"}]}