{"region": {"center": {"longitude": -73.99429321289062, "latitude": 40.70544486444615}}, "total": 1496, "businesses": [{"transactions": [], "distance": 8954.593067599999, "phone": "+12125806200", "categories": [{"alias": "mexican", "title": "Mexican"}, {"alias": "kosher", "title": "Kosher"}], "id": "mexikosher-new-york", "display_phone": "(212) 580-6200", "is_closed": false, "location": {"address2": "", "country": "US", "display_address": ["100 W 83rd St", "New York, NY 10024"], "address1": "100 W 83rd St", "city": "New York", "zip_code": "10024", "address3": null, "state": "NY"}, "coordinates": {"longitude": -73.97393, "latitude": 40.78458}, "review_count": 39, "image_url": "https://s3-media2.fl.yelpcdn.com/bphoto/jq2W3CIIJ249FuF72pkYMQ/o.jpg", "price": "$$", "rating": 3.5, "name": "Mexikosher", "url": "https://www.yelp.com/biz/mexikosher-new-york?adjust_creative=gBcvfFpabk3CnzmXKdYe3w&utm_campaign=yelp_api_v3&utm_medium=api_v3_business_search&utm_source=gBcvfFpabk3CnzmXKdYe3w"}, {"transactions": [], "distance": 3289.040666668, "phone": "+17182372230", "categories": [{"alias": "tex-mex", "title": "Tex-Mex"}, {"alias": "mexican", "title": "Mexican"}], "id": "mezcals-mexican-restaurant-brooklyn", "display_phone": "(718) 237-2230", "is_closed": false, "location": {"address2": "", "country": "US", "display_address": ["522 Court St", "Brooklyn, NY 11231"], "address1": "522 Court St", "city": "Brooklyn", "zip_code": "11231", "address3": "", "state": "NY"}, "coordinates": {"longitude": -73.999229, "latitude": 40.676055}, "review_count": 44, "image_url": "https://s3-media4.fl.yelpcdn.com/bphoto/vTrhH0gGxy5TvlEEJOwbAA/o.jpg", "price": "$$", "rating": 3.0, "name": "Mezcal's Mexican Restaurant", "url": "https://www.yelp.com/biz/mezcals-mexican-restaurant-brooklyn?adjust_creative=gBcvfFpabk3CnzmXKdYe3w&utm_campaign=yelp_api_v3&utm_medium=api_v3_business_search&utm_source=gBcvfFpabk3CnzmXKdYe3w"}, {"transactions": ["delivery", "pickup"], "distance": 13499.1036865, "phone": "+12122346479", "categories": [{"alias": "mexican", "title": "Mexican"}], "id": "picante-new-york", "display_phone": "(212) 234-6479", "is_closed": false, "location": {"address2": null, "country": "US", "display_address": ["3424 Broadway", "New York, NY 10031"], "address1": "3424 Broadway", "city": "New York", "zip_code": "10031", "address3": "", "state": "NY"}, "coordinates": {"longitude": -73.9528448, "latitude": 40.8226935}, "review_count": 243, "image_url": "https://s3-media4.fl.yelpcdn.com/bphoto/7vPauYAwYVr-2kPakml3hA/o.jpg", "price": "$$", "rating": 3.0, "name": "Picante", "url": "https://www.yelp.com/biz/picante-new-york?adjust_creative=gBcvfFpabk3CnzmXKdYe3w&utm_campaign=yelp_api_v3&utm_medium=api_v3_business_search&utm_source=gBcvfFpabk3CnzmXKdYe3w"}, {"transactions": ["delivery", "pickup"], "distance": 2880.221635808, "phone": "+12126272051", "categories": [{"alias": "mexican", "title": "Mexican"}], "id": "dos-toros-taqueria-new-york-23", "display_phone": "(212) 627-2051", "is_closed": false, "location": {"address2": "", "country": "US", "display_address": ["11 Carmine St", "New York, NY 10014"], "address1": "11 Carmine St", "city": "New York", "zip_code": "10014", "address3": "", "state": "NY"}, "coordinates": {"longitude": -74.0023040771484, "latitude": 40.7306213378906}, "review_count": 246, "image_url": "https://s3-media1.fl.yelpcdn.com/bphoto/JfG-5NHkz67fKIsgHbkkng/o.jpg", "price": "$", "rating": 3.5, "name": "Dos Toros Taqueria", "url": "https://www.yelp.com/biz/dos-toros-taqueria-new-york-23?adjust_creative=gBcvfFpabk3CnzmXKdYe3w&utm_campaign=yelp_api_v3&utm_medium=api_v3_business_search&utm_source=gBcvfFpabk3CnzmXKdYe3w"}, {"transactions": [], "distance": 4515.508380892, "phone": "+17187889063", "categories": [{"alias": "mexican", "title": "Mexican"}, {"alias": "latin", "title": "Latin American"}, {"alias": "beerbar", "title": "Beer Bar"}], "id": "el-sabor-latino-restaurant-brooklyn-2", "display_phone": "(718) 788-9063", "is_closed": false, "location": {"address2": "", "country": "US", "display_address": ["620 4th Ave", "Brooklyn, NY 11215"], "address1": "620 4th Ave", "city": "Brooklyn", "zip_code": "11215", "address3": "", "state": "NY"}, "coordinates": {"longitude": -73.9938216, "latitude": 40.6647638}, "review_count": 9, "image_url": "https://s3-media3.fl.yelpcdn.com/bphoto/Q4Q1QdzMvjbIuHGJYlez7g/o.jpg", "price": "$", "rating": 3.5, "name": "El Sabor Latino Restaurant", "url": "https://www.yelp.com/biz/el-sabor-latino-restaurant-brooklyn-2?adjust_creative=gBcvfFpabk3CnzmXKdYe3w&utm_campaign=yelp_api_v3&utm_medium=api_v3_business_search&utm_source=gBcvfFpabk3CnzmXKdYe3w"}, {"transactions": [], "distance": 12134.0614985, "phone": "+17184572000", "categories": [{"alias": "mexican", "title": "Mexican"}], "id": "tacos-al-suadero-corona", "display_phone": "(718) 457-2000", "is_closed": false, "location": {"address2": "", "country": "US", "display_address": ["39-04 103rd St", "Corona, NY 11368"], "address1": "39-04 103rd St", "city": "Corona", "zip_code": "11368", "address3": "", "state": "NY"}, "coordinates": {"longitude": -73.8631192539666, "latitude": 40.7504654470745}, "review_count": 11, "image_url": "https://s3-media3.fl.yelpcdn.com/bphoto/QF_BYFwUWQgtebaOsFuUTA/o.jpg", "price": "$$", "rating": 4.0, "name": "Tacos Al Suadero", "url": "https://www.yelp.com/biz/tacos-al-suadero-corona?adjust_creative=gBcvfFpabk3CnzmXKdYe3w&utm_campaign=yelp_api_v3&utm_medium=api_v3_business_search&utm_source=gBcvfFpabk3CnzmXKdYe3w"}, {"transactions": ["delivery", "pickup"], "distance": 3052.018841742, "phone": "+17183842138", "categories": [{"alias": "bars", "title": "Bars"}, {"alias": "mexican", "title": "Mexican"}, {"alias": "latin", "title": "Latin American"}], "id": "viva-toro-brooklyn", "display_phone": "(718) 384-2138", "is_closed": false, "location": {"address2": "", "country": "US", "display_address": ["188 Berry St", "Williamsburg", "Brooklyn, NY 11249"], "address1": "188 Berry St", "city": "Brooklyn", "zip_code": "11249", "address3": "Williamsburg", "state": "NY"}, "coordinates": {"longitude": -73.96136, "latitude": 40.7166}, "review_count": 328, "image_url": "https://s3-media3.fl.yelpcdn.com/bphoto/_iVJtTdLoGK1DJzTH48idw/o.jpg", "price": "$$", "rating": 3.0, "name": "Viva Toro", "url": "https://www.yelp.com/biz/viva-toro-brooklyn?adjust_creative=gBcvfFpabk3CnzmXKdYe3w&utm_campaign=yelp_api_v3&utm_medium=api_v3_business_search&utm_source=gBcvfFpabk3CnzmXKdYe3w"}, {"transactions": [], "distance": 2602.6437991459998, "phone": "+19173960638", "categories": [{"alias": "foodtrucks", "title": "Food Trucks"}, {"alias": "mexican", "title": "Mexican"}], "id": "la-mexicana-new-york", "display_phone": "(917) 396-0638", "is_closed": false, "location": {"address2": "", "country": "US", "display_address": ["61 Charlton St", "New York, NY 10014"], "address1": "61 Charlton St", "city": "New York", "zip_code": "10014", "address3": "", "state": "NY"}, "coordinates": {"longitude": -74.0058897435665, "latitude": 40.7272383570671}, "review_count": 2, "image_url": "https://s3-media3.fl.yelpcdn.com/bphoto/AhnN4KzG3xnmMaxVcwmKqg/o.jpg", "rating": 4.0, "name": "La Mexicana", "url": "https://www.yelp.com/biz/la-mexicana-new-york?adjust_creative=gBcvfFpabk3CnzmXKdYe3w&utm_campaign=yelp_api_v3&utm_medium=api_v3_business_search&utm_source=gBcvfFpabk3CnzmXKdYe3w"}, {"transactions": [], "distance": 8892.2311426, "phone": "+19292300976", "categories": [{"alias": "coffee", "title": "Coffee & Tea"}, {"alias": "mexican", "title": "Mexican"}, {"alias": "foodtrucks", "title": "Food Trucks"}], "id": "the-boss-of-the-tacos-astoria", "display_phone": "(929) 230-0976", "is_closed": false, "location": {"address2": "", "country": "US", "display_address": ["4707 Broadway", "Astoria, NY 11103"], "address1": "4707 Broadway", "city": "Astoria", "zip_code": "11103", "address3": "", "state": "NY"}, "coordinates": {"longitude": -73.912865, "latitude": 40.7563152}, "review_count": 10, "image_url": "https://s3-media1.fl.yelpcdn.com/bphoto/0xUgFAQUbOIjMfgf_bUh3w/o.jpg", "price": "$", "rating": 4.0, "name": "The Boss of the Tacos", "url": "https://www.yelp.com/biz/the-boss-of-the-tacos-astoria?adjust_creative=gBcvfFpabk3CnzmXKdYe3w&utm_campaign=yelp_api_v3&utm_medium=api_v3_business_search&utm_source=gBcvfFpabk3CnzmXKdYe3w"}, {"transactions": [], "distance": 11276.995250516, "phone": "+12129965223", "categories": [{"alias": "bakeries", "title": "Bakeries"}, {"alias": "mexican", "title": "Mexican"}], "id": "mi-querido-mexico-lindo-new-york", "display_phone": "(212) 996-5223", "is_closed": false, "location": {"address2": "", "country": "US", "display_address": ["2267 2nd Ave", "New York, NY 10035"], "address1": "2267 2nd Ave", "city": "New York", "zip_code": "10035", "address3": "", "state": "NY"}, "coordinates": {"longitude": -73.937828, "latitude": 40.797405}, "review_count": 9, "image_url": "https://s3-media1.fl.yelpcdn.com/bphoto/csOT_svLB5JKbabel0XdbA/o.jpg", "price": "$", "rating": 4.0, "name": "Mi Querido Mexico Lindo", "url": "https://www.yelp.com/biz/mi-querido-mexico-lindo-new-york?adjust_creative=gBcvfFpabk3CnzmXKdYe3w&utm_campaign=yelp_api_v3&utm_medium=api_v3_business_search&utm_source=gBcvfFpabk3CnzmXKdYe3w"}, {"transactions": [], "distance": 16744.38124868, "phone": "+19176881433", "categories": [{"alias": "mexican", "title": "Mexican"}], "id": "el-molcajete-new-york", "display_phone": "(917) 688-1433", "is_closed": false, "location": {"address2": "", "country": "US", "display_address": ["1506-08 Westchester Ave", "New York, NY 10461"], "address1": "1506-08 Westchester Ave", "city": "New York", "zip_code": "10461", "address3": "", "state": "NY"}, "coordinates": {"longitude": -73.879659759707, "latitude": 40.8284850603338}, "review_count": 8, "image_url": "https://s3-media1.fl.yelpcdn.com/bphoto/QQP7HEXoMcumLHzB74Tp_g/o.jpg", "price": "$$", "rating": 4.0, "name": "El Molcajete", "url": "https://www.yelp.com/biz/el-molcajete-new-york?adjust_creative=gBcvfFpabk3CnzmXKdYe3w&utm_campaign=yelp_api_v3&utm_medium=api_v3_business_search&utm_source=gBcvfFpabk3CnzmXKdYe3w"}, {"transactions": [], "distance": 1414.5372787659999, "phone": "+19175439004", "categories": [{"alias": "mexican", "title": "Mexican"}, {"alias": "foodstands", "title": "Food Stands"}], "id": "jicama-nyc-new-york", "display_phone": "(917) 543-9004", "is_closed": false, "location": {"address2": "", "country": "US", "display_address": ["New York, NY 10001"], "address1": "", "city": "New York", "zip_code": "10001", "address3": "", "state": "NY"}, "coordinates": {"longitude": -74.00642, "latitude": 40.71424}, "review_count": 6, "image_url": "https://s3-media2.fl.yelpcdn.com/bphoto/OUaEqnqujFZMm3TLg4jZRw/o.jpg", "price": "$$", "rating": 3.5, "name": "Jicama NYC", "url": "https://www.yelp.com/biz/jicama-nyc-new-york?adjust_creative=gBcvfFpabk3CnzmXKdYe3w&utm_campaign=yelp_api_v3&utm_medium=api_v3_business_search&utm_source=gBcvfFpabk3CnzmXKdYe3w"}, {"transactions": [], "distance": 6594.251981655999, "phone": "+17184974982", "categories": [{"alias": "mexican", "title": "Mexican"}], "id": "cholula-deli-grocery-brooklyn", "display_phone": "(718) 497-4982", "is_closed": false, "location": {"address2": "", "country": "US", "display_address": ["1481 Myrtle Ave", "Brooklyn, NY 11237"], "address1": "1481 Myrtle Ave", "city": "Brooklyn", "zip_code": "11237", "address3": "", "state": "NY"}, "coordinates": {"longitude": -73.916503, "latitude": 40.699207}, "review_count": 10, "image_url": "https://s3-media3.fl.yelpcdn.com/bphoto/9bUCX_O7EfV9GP7ZDrKB3g/o.jpg", "price": "$$", "rating": 4.0, "name": "Cholula Deli Grocery", "url": "https://www.yelp.com/biz/cholula-deli-grocery-brooklyn?adjust_creative=gBcvfFpabk3CnzmXKdYe3w&utm_campaign=yelp_api_v3&utm_medium=api_v3_business_search&utm_source=gBcvfFpabk3CnzmXKdYe3w"}, {"transactions": ["delivery", "pickup"], "distance": 13593.75219058, "phone": "+13476441034", "categories": [{"alias": "mexican", "title": "Mexican"}, {"alias": "salvadoran", "title": "Salvadoran"}], "id": "mexico-and-el-salvador-restaurant-richmond-hill", "display_phone": "(347) 644-1034", "is_closed": false, "location": {"address2": "", "country": "US", "display_address": ["116-19 Myrtle Ave", "Richmond Hill, NY 11418"], "address1": "116-19 Myrtle Ave", "city": "Richmond Hill", "zip_code": "11418", "address3": null, "state": "NY"}, "coordinates": {"longitude": -73.8334800302982, "latitude": 40.7002472877502}, "review_count": 3, "image_url": "https://s3-media2.fl.yelpcdn.com/bphoto/LP8Jdu5K_xg5u_x2P-rXKA/o.jpg", "rating": 5.0, "name": "Mexico & El Salvador Restaurant", "url": "https://www.yelp.com/biz/mexico-and-el-salvador-restaurant-richmond-hill?adjust_creative=gBcvfFpabk3CnzmXKdYe3w&utm_campaign=yelp_api_v3&utm_medium=api_v3_business_search&utm_source=gBcvfFpabk3CnzmXKdYe3w"}, {"transactions": ["delivery", "pickup"], "distance": 17339.05088609, "phone": "+16462923265", "categories": [{"alias": "mexican", "title": "Mexican"}], "id": "grito-mexican-grill-new-york", "display_phone": "(646) 292-3265", "is_closed": false, "location": {"address2": "", "country": "US", "display_address": ["1555 St Nicholas Ave", "New York, NY 10040"], "address1": "1555 St Nicholas Ave", "city": "New York", "zip_code": "10040", "address3": "", "state": "NY"}, "coordinates": {"longitude": -73.9305393, "latitude": 40.8537194}, "review_count": 80, "image_url": "https://s3-media1.fl.yelpcdn.com/bphoto/MWUii4VC_MBV3cFvn940XQ/o.jpg", "price": "$$", "rating": 3.5, "name": "Grito Mexican Grill", "url": "https://www.yelp.com/biz/grito-mexican-grill-new-york?adjust_creative=gBcvfFpabk3CnzmXKdYe3w&utm_campaign=yelp_api_v3&utm_medium=api_v3_business_search&utm_source=gBcvfFpabk3CnzmXKdYe3w"}, {"transactions": ["pickup"], "distance": 3285.2640284900003, "phone": "+13475839961", "categories": [{"alias": "cocktailbars", "title": "Cocktail Bars"}, {"alias": "italian", "title": "Italian"}, {"alias": "mexican", "title": "Mexican"}], "id": "naive-brooklyn", "display_phone": "(347) 583-9961", "is_closed": false, "location": {"address2": null, "country": "US", "display_address": ["299 S 4th St", "Brooklyn, NY 11211"], "address1": "299 S 4th St", "city": "Brooklyn", "zip_code": "11211", "address3": "", "state": "NY"}, "coordinates": {"longitude": -73.95571, "latitude": 40.70937}, "review_count": 34, "image_url": "https://s3-media2.fl.yelpcdn.com/bphoto/_bGbZxq9gst0NE-JeISRqw/o.jpg", "price": "$$", "rating": 4.5, "name": "Naive", "url": "https://www.yelp.com/biz/naive-brooklyn?adjust_creative=gBcvfFpabk3CnzmXKdYe3w&utm_campaign=yelp_api_v3&utm_medium=api_v3_business_search&utm_source=gBcvfFpabk3CnzmXKdYe3w"}, {"transactions": [], "distance": 2752.3853222479997, "phone": "+13472765103", "categories": [{"alias": "tacos", "title": "Tacos"}, {"alias": "hotdogs", "title": "Fast Food"}, {"alias": "sandwiches", "title": "Sandwiches"}], "id": "goa-taco-new-york-4", "display_phone": "(347) 276-5103", "is_closed": false, "location": {"address2": "", "country": "US", "display_address": ["101 Macdougal St", "New York, NY 10012"], "address1": "101 Macdougal St", "city": "New York", "zip_code": "10012", "address3": null, "state": "NY"}, "coordinates": {"longitude": -74.0009146795216, "latitude": 40.7296813255743}, "review_count": 23, "image_url": "https://s3-media2.fl.yelpcdn.com/bphoto/cp6Av1ljw1hAT0KVROU6Nw/o.jpg", "price": "$", "rating": 4.0, "name": "goa taco", "url": "https://www.yelp.com/biz/goa-taco-new-york-4?adjust_creative=gBcvfFpabk3CnzmXKdYe3w&utm_campaign=yelp_api_v3&utm_medium=api_v3_business_search&utm_source=gBcvfFpabk3CnzmXKdYe3w"}, {"transactions": ["delivery", "pickup"], "distance": 3009.954717492, "phone": "+12126751977", "categories": [{"alias": "mexican", "title": "Mexican"}], "id": "burrito-loco-mexican-restaurant-new-york", "display_phone": "(212) 675-1977", "is_closed": false, "location": {"address2": "", "country": "US", "display_address": ["166 W 4th St", "New York, NY 10014"], "address1": "166 W 4th St", "city": "New York", "zip_code": "10014", "address3": "", "state": "NY"}, "coordinates": {"longitude": -74.00154, "latitude": 40.73195}, "review_count": 222, "image_url": "https://s3-media1.fl.yelpcdn.com/bphoto/Xl59xWwI2w3j_jEdReehhw/o.jpg", "price": "$$", "rating": 3.0, "name": "Burrito Loco Mexican Restaurant", "url": "https://www.yelp.com/biz/burrito-loco-mexican-restaurant-new-york?adjust_creative=gBcvfFpabk3CnzmXKdYe3w&utm_campaign=yelp_api_v3&utm_medium=api_v3_business_search&utm_source=gBcvfFpabk3CnzmXKdYe3w"}, {"transactions": [], "distance": 10097.77808056, "phone": "+19178370866", "categories": [{"alias": "mexican", "title": "Mexican"}, {"alias": "foodstands", "title": "Food Stands"}], "id": "super-tacos-new-york", "display_phone": "(917) 837-0866", "is_closed": false, "location": {"address2": null, "country": "US", "display_address": ["96TH St And Broadway", "New York, NY 10025"], "address1": "96TH St And Broadway", "city": "New York", "zip_code": "10025", "address3": "", "state": "NY"}, "coordinates": {"longitude": -73.9716833478033, "latitude": 40.7946117104402}, "review_count": 123, "image_url": "https://s3-media3.fl.yelpcdn.com/bphoto/97_lYpyr7b68U1Xo8Zqbzw/o.jpg", "price": "$", "rating": 3.5, "name": "Super Tacos", "url": "https://www.yelp.com/biz/super-tacos-new-york?adjust_creative=gBcvfFpabk3CnzmXKdYe3w&utm_campaign=yelp_api_v3&utm_medium=api_v3_business_search&utm_source=gBcvfFpabk3CnzmXKdYe3w"}, {"transactions": ["delivery", "pickup"], "distance": 6412.684472581999, "phone": "+12127573737", "categories": [{"alias": "mexican", "title": "Mexican"}], "id": "parada-47-new-york", "display_phone": "(212) 757-3737", "is_closed": false, "location": {"address2": "", "country": "US", "display_address": ["526 W 47th St", "New York, NY 10036"], "address1": "526 W 47th St", "city": "New York", "zip_code": "10036", "address3": "", "state": "NY"}, "coordinates": {"longitude": -73.99443, "latitude": 40.763092}, "review_count": 23, "image_url": "https://s3-media2.fl.yelpcdn.com/bphoto/V8Ht9Fe9lGuy2-UGn4N9Tg/o.jpg", "price": "$", "rating": 3.5, "name": "Parada 47", "url": "https://www.yelp.com/biz/parada-47-new-york?adjust_creative=gBcvfFpabk3CnzmXKdYe3w&utm_campaign=yelp_api_v3&utm_medium=api_v3_business_search&utm_source=gBcvfFpabk3CnzmXKdYe3w"}, {"transactions": ["delivery", "pickup"], "distance": 11364.557830576, "phone": "+17186397300", "categories": [{"alias": "mexican", "title": "Mexican"}], "id": "aqui-en-bella-puebla-jackson-heights", "display_phone": "(718) 639-7300", "is_closed": false, "location": {"address2": "", "country": "US", "display_address": ["94-11 Roosevelt Ave", "Jackson Heights, NY 11372"], "address1": "94-11 Roosevelt Ave", "city": "Jackson Heights", "zip_code": "11372", "address3": "", "state": "NY"}, "coordinates": {"longitude": -73.8722916, "latitude": 40.7491188}, "review_count": 12, "image_url": "https://s3-media4.fl.yelpcdn.com/bphoto/4VgL2VZ4SmV5HVqQYn3u8A/o.jpg", "price": "$$", "rating": 4.5, "name": "Aqui En Bella Puebla", "url": "https://www.yelp.com/biz/aqui-en-bella-puebla-jackson-heights?adjust_creative=gBcvfFpabk3CnzmXKdYe3w&utm_campaign=yelp_api_v3&utm_medium=api_v3_business_search&utm_source=gBcvfFpabk3CnzmXKdYe3w"}, {"transactions": ["delivery", "pickup"], "distance": 1228.1372435399999, "phone": "+12124808500", "categories": [{"alias": "mexican", "title": "Mexican"}], "id": "al-horno-lean-mexican-kitchen-new-york-16", "display_phone": "(212) 480-8500", "is_closed": false, "location": {"address2": "", "country": "US", "display_address": ["110 Pearl St", "New York, NY 10005"], "address1": "110 Pearl St", "city": "New York", "zip_code": "10005", "address3": null, "state": "NY"}, "coordinates": {"longitude": -74.009238, "latitude": 40.7044967}, "review_count": 8, "image_url": "https://s3-media1.fl.yelpcdn.com/bphoto/kOt0u9ZN_4WfT8FVHMa2-g/o.jpg", "price": "$$", "rating": 4.5, "name": "Al Horno Lean Mexican Kitchen", "url": "https://www.yelp.com/biz/al-horno-lean-mexican-kitchen-new-york-16?adjust_creative=gBcvfFpabk3CnzmXKdYe3w&utm_campaign=yelp_api_v3&utm_medium=api_v3_business_search&utm_source=gBcvfFpabk3CnzmXKdYe3w"}, {"transactions": ["delivery", "pickup"], "distance": 6330.96331392, "phone": "+17188326715", "categories": [{"alias": "mexican", "title": "Mexican"}], "id": "isabela-mexican-restaurant-brooklyn", "display_phone": "(718) 832-6715", "is_closed": false, "location": {"address2": "", "country": "US", "display_address": ["4412 4th Ave", "Brooklyn, NY 11220"], "address1": "4412 4th Ave", "city": "Brooklyn", "zip_code": "11220", "address3": "", "state": "NY"}, "coordinates": {"longitude": -74.0096207, "latitude": 40.6497307}, "review_count": 19, "image_url": "https://s3-media2.fl.yelpcdn.com/bphoto/LFUmNq6TlOwXWLbQvYbz6g/o.jpg", "price": "$", "rating": 3.5, "name": "Isabela Mexican Restaurant", "url": "https://www.yelp.com/biz/isabela-mexican-restaurant-brooklyn?adjust_creative=gBcvfFpabk3CnzmXKdYe3w&utm_campaign=yelp_api_v3&utm_medium=api_v3_business_search&utm_source=gBcvfFpabk3CnzmXKdYe3w"}, {"transactions": [], "distance": 16681.51881894, "phone": "+17188609674", "categories": [{"alias": "mexican", "title": "Mexican"}], "id": "vista-hermosa-restaurant-bronx", "display_phone": "(718) 860-9674", "is_closed": false, "location": {"address2": "", "country": "US", "display_address": ["1201 Evergreen Ave", "Bronx, NY 10472"], "address1": "1201 Evergreen Ave", "city": "Bronx", "zip_code": "10472", "address3": "", "state": "NY"}, "coordinates": {"longitude": -73.8812332, "latitude": 40.828701}, "review_count": 25, "image_url": "https://s3-media3.fl.yelpcdn.com/bphoto/BhEGW4sQAi_tV7q0C5SEDQ/o.jpg", "price": "$$", "rating": 4.0, "name": "Vista Hermosa Restaurant", "url": "https://www.yelp.com/biz/vista-hermosa-restaurant-bronx?adjust_creative=gBcvfFpabk3CnzmXKdYe3w&utm_campaign=yelp_api_v3&utm_medium=api_v3_business_search&utm_source=gBcvfFpabk3CnzmXKdYe3w"}, {"transactions": [], "distance": 19784.009298959998, "phone": "+17182398290", "categories": [{"alias": "mexican", "title": "Mexican"}], "id": "estrellita-poblana-iv-bronx", "display_phone": "(718) 239-8290", "is_closed": false, "location": {"address2": "", "country": "US", "display_address": ["45 Westchester Sq", "Bronx, NY 10461"], "address1": "45 Westchester Sq", "city": "Bronx", "zip_code": "10461", "address3": "", "state": "NY"}, "coordinates": {"longitude": -73.84381, "latitude": 40.84221}, "review_count": 119, "image_url": "https://s3-media3.fl.yelpcdn.com/bphoto/O-7qjGAc1lj71kRF2QJDiA/o.jpg", "price": "$$", "rating": 4.0, "name": "Estrellita Poblana IV", "url": "https://www.yelp.com/biz/estrellita-poblana-iv-bronx?adjust_creative=gBcvfFpabk3CnzmXKdYe3w&utm_campaign=yelp_api_v3&utm_medium=api_v3_business_search&utm_source=gBcvfFpabk3CnzmXKdYe3w"}, {"transactions": [], "distance": 6772.19606172, "phone": "+12123077307", "categories": [{"alias": "mexican", "title": "Mexican"}], "id": "cancun-new-york", "display_phone": "(212) 307-7307", "is_closed": false, "location": {"address2": "", "country": "US", "display_address": ["937 8th Ave", "New York, NY 10019"], "address1": "937 8th Ave", "city": "New York", "zip_code": "10019", "address3": "", "state": "NY"}, "coordinates": {"longitude": -73.983932, "latitude": 40.765834}, "review_count": 237, "image_url": "https://s3-media2.fl.yelpcdn.com/bphoto/lOI8MMu8We-7OOloTPi2DQ/o.jpg", "price": "$$", "rating": 3.0, "name": "Cancun", "url": "https://www.yelp.com/biz/cancun-new-york?adjust_creative=gBcvfFpabk3CnzmXKdYe3w&utm_campaign=yelp_api_v3&utm_medium=api_v3_business_search&utm_source=gBcvfFpabk3CnzmXKdYe3w"}, {"transactions": [], "distance": 2586.5180514119997, "phone": "+13472421456", "categories": [{"alias": "streetvendors", "title": "Street Vendors"}, {"alias": "mexican", "title": "Mexican"}], "id": "tacos-hidalgo-new-york", "display_phone": "(347) 242-1456", "is_closed": false, "location": {"address2": "", "country": "US", "display_address": ["154 Bleecker St", "New York, NY 10012"], "address1": "154 Bleecker St", "city": "New York", "zip_code": "10012", "address3": "", "state": "NY"}, "coordinates": {"longitude": -73.99962635664, "latitude": 40.728352637419}, "review_count": 2, "image_url": "", "price": "$", "rating": 5.0, "name": "Tacos Hidalgo", "url": "https://www.yelp.com/biz/tacos-hidalgo-new-york?adjust_creative=gBcvfFpabk3CnzmXKdYe3w&utm_campaign=yelp_api_v3&utm_medium=api_v3_business_search&utm_source=gBcvfFpabk3CnzmXKdYe3w"}, {"transactions": ["delivery", "pickup"], "distance": 2775.632077614, "phone": "+12122544822", "categories": [{"alias": "mexican", "title": "Mexican"}, {"alias": "bars", "title": "Bars"}], "id": "guac-tacos-and-tequila-new-york", "display_phone": "(212) 254-4822", "is_closed": false, "location": {"address2": "", "country": "US", "display_address": ["179 Avenue B", "New York, NY 10009"], "address1": "179 Avenue B", "city": "New York", "zip_code": "10009", "address3": null, "state": "NY"}, "coordinates": {"longitude": -73.97911, "latitude": 40.7276}, "review_count": 54, "image_url": "https://s3-media3.fl.yelpcdn.com/bphoto/YPc-PkhtrUsFZjQfF56Srw/o.jpg", "price": "$$", "rating": 3.5, "name": "Guac Tacos and Tequila", "url": "https://www.yelp.com/biz/guac-tacos-and-tequila-new-york?adjust_creative=gBcvfFpabk3CnzmXKdYe3w&utm_campaign=yelp_api_v3&utm_medium=api_v3_business_search&utm_source=gBcvfFpabk3CnzmXKdYe3w"}, {"transactions": [], "distance": 4210.453799608, "phone": "+13476893163", "categories": [{"alias": "musicvenues", "title": "Music Venues"}, {"alias": "bars", "title": "Bars"}, {"alias": "mexican", "title": "Mexican"}], "id": "don-pedro-brooklyn", "display_phone": "(347) 689-3163", "is_closed": false, "location": {"address2": "", "country": "US", "display_address": ["90 Manhattan Ave", "Brooklyn, NY 11206"], "address1": "90 Manhattan Ave", "city": "Brooklyn", "zip_code": "11206", "address3": "", "state": "NY"}, "coordinates": {"longitude": -73.9442977905273, "latitude": 40.7053680419922}, "review_count": 60, "image_url": "https://s3-media1.fl.yelpcdn.com/bphoto/-gjfnkqlAmyfmea_RjiXtQ/o.jpg", "price": "$", "rating": 3.5, "name": "Don Pedro", "url": "https://www.yelp.com/biz/don-pedro-brooklyn?adjust_creative=gBcvfFpabk3CnzmXKdYe3w&utm_campaign=yelp_api_v3&utm_medium=api_v3_business_search&utm_source=gBcvfFpabk3CnzmXKdYe3w"}, {"transactions": [], "distance": 15313.750408979999, "phone": "+13478252088", "categories": [{"alias": "mexican", "title": "Mexican"}], "id": "pacos-mexican-bistro-staten-island", "display_phone": "(347) 825-2088", "is_closed": false, "location": {"address2": "", "country": "US", "display_address": ["1642 Hylan Blvd", "Staten Island, NY 10305"], "address1": "1642 Hylan Blvd", "city": "Staten Island", "zip_code": "10305", "address3": "", "state": "NY"}, "coordinates": {"longitude": -74.0899734, "latitude": 40.5884018}, "review_count": 148, "image_url": "https://s3-media2.fl.yelpcdn.com/bphoto/OXR7VEUPmLnYA3M_iBaWhA/o.jpg", "price": "$$", "rating": 3.5, "name": "Paco's Mexican Bistro", "url": "https://www.yelp.com/biz/pacos-mexican-bistro-staten-island?adjust_creative=gBcvfFpabk3CnzmXKdYe3w&utm_campaign=yelp_api_v3&utm_medium=api_v3_business_search&utm_source=gBcvfFpabk3CnzmXKdYe3w"}, {"transactions": ["delivery", "pickup"], "distance": 8235.088857598, "phone": "+17183661595", "categories": [{"alias": "mexican", "title": "Mexican"}, {"alias": "diners", "title": "Diners"}], "id": "fresh-pond-mexican-coffee-restaurant-ridgewood", "display_phone": "(718) 366-1595", "is_closed": false, "location": {"address2": "", "country": "US", "display_address": ["67-22 Fresh Pond Rd", "Ridgewood, NY 11385"], "address1": "67-22 Fresh Pond Rd", "city": "Ridgewood", "zip_code": "11385", "address3": "", "state": "NY"}, "coordinates": {"longitude": -73.89659, "latitude": 40.70515}, "review_count": 33, "image_url": "https://s3-media2.fl.yelpcdn.com/bphoto/5k-nCdP7919yUcpIW8SvRw/o.jpg", "price": "$", "rating": 3.0, "name": "Fresh Pond Mexican Coffee Restaurant", "url": "https://www.yelp.com/biz/fresh-pond-mexican-coffee-restaurant-ridgewood?adjust_creative=gBcvfFpabk3CnzmXKdYe3w&utm_campaign=yelp_api_v3&utm_medium=api_v3_business_search&utm_source=gBcvfFpabk3CnzmXKdYe3w"}, {"transactions": [], "distance": 2772.381210814, "phone": "+12124735239", "categories": [{"alias": "mexican", "title": "Mexican"}], "id": "panchitos-mexican-restaurant-and-cantina-new-york", "display_phone": "(212) 473-5239", "is_closed": false, "location": {"address2": "", "country": "US", "display_address": ["105 MacDougal St", "New York, NY 10012"], "address1": "105 MacDougal St", "city": "New York", "zip_code": "10012", "address3": "", "state": "NY"}, "coordinates": {"longitude": -74.0010070800781, "latitude": 40.7298583984375}, "review_count": 263, "image_url": "https://s3-media4.fl.yelpcdn.com/bphoto/tNaxcyGbZkNy1BxH_0mcDw/o.jpg", "price": "$$", "rating": 2.5, "name": "Panchito's Mexican Restaurant & Cantina", "url": "https://www.yelp.com/biz/panchitos-mexican-restaurant-and-cantina-new-york?adjust_creative=gBcvfFpabk3CnzmXKdYe3w&utm_campaign=yelp_api_v3&utm_medium=api_v3_business_search&utm_source=gBcvfFpabk3CnzmXKdYe3w"}, {"transactions": ["delivery", "pickup"], "distance": 2706.9208235119995, "phone": "+17186239016", "categories": [{"alias": "mexican", "title": "Mexican"}], "id": "villa-pancho-taqueria-brooklyn-2", "display_phone": "(718) 623-9016", "is_closed": false, "location": {"address2": "", "country": "US", "display_address": ["472 Myrtle Ave", "Brooklyn, NY 11205"], "address1": "472 Myrtle Ave", "city": "Brooklyn", "zip_code": "11205", "address3": null, "state": "NY"}, "coordinates": {"longitude": -73.9664311287236, "latitude": 40.6933447063192}, "review_count": 8, "image_url": "https://s3-media2.fl.yelpcdn.com/bphoto/JpAXAlFrLQ0gDmrdQo6P_Q/o.jpg", "price": "$", "rating": 4.5, "name": "Villa Pancho Taqueria", "url": "https://www.yelp.com/biz/villa-pancho-taqueria-brooklyn-2?adjust_creative=gBcvfFpabk3CnzmXKdYe3w&utm_campaign=yelp_api_v3&utm_medium=api_v3_business_search&utm_source=gBcvfFpabk3CnzmXKdYe3w"}, {"transactions": ["delivery", "pickup"], "distance": 4405.58192939, "phone": "+12013333220", "categories": [{"alias": "mexican", "title": "Mexican"}, {"alias": "bars", "title": "Bars"}], "id": "taqueria-downtown-jersey-city", "display_phone": "(201) 333-3220", "is_closed": false, "location": {"address2": "", "country": "US", "display_address": ["236 Grove St", "Jersey City, NJ 07302"], "address1": "236 Grove St", "city": "Jersey City", "zip_code": "07302", "address3": "", "state": "NJ"}, "coordinates": {"longitude": -74.0445709, "latitude": 40.716259}, "review_count": 1292, "image_url": "https://s3-media4.fl.yelpcdn.com/bphoto/Ab39H9e0FR6PSCo4x6ZpmA/o.jpg", "price": "$", "rating": 4.0, "name": "Taqueria Downtown", "url": "https://www.yelp.com/biz/taqueria-downtown-jersey-city?adjust_creative=gBcvfFpabk3CnzmXKdYe3w&utm_campaign=yelp_api_v3&utm_medium=api_v3_business_search&utm_source=gBcvfFpabk3CnzmXKdYe3w"}, {"transactions": [], "distance": 12705.58480336, "phone": "", "categories": [{"alias": "mexican", "title": "Mexican"}], "id": "mexican-food-forest-hills", "display_phone": "", "is_closed": false, "location": {"address2": "", "country": "US", "display_address": ["71st Ave & Austin St", "Forest Hills, NY 11375"], "address1": "71st Ave & Austin St", "city": "Forest Hills", "zip_code": "11375", "address3": "", "state": "NY"}, "coordinates": {"longitude": -73.8447921353291, "latitude": 40.7201701389815}, "review_count": 22, "image_url": "https://s3-media1.fl.yelpcdn.com/bphoto/rQoQRqNxNAnaca5WCCKsgA/o.jpg", "price": "$", "rating": 3.5, "name": "Mexican Food", "url": "https://www.yelp.com/biz/mexican-food-forest-hills?adjust_creative=gBcvfFpabk3CnzmXKdYe3w&utm_campaign=yelp_api_v3&utm_medium=api_v3_business_search&utm_source=gBcvfFpabk3CnzmXKdYe3w"}, {"transactions": [], "distance": 5151.24628296, "phone": "+12126431270", "categories": [{"alias": "tex-mex", "title": "Tex-Mex"}, {"alias": "bars", "title": "Bars"}, {"alias": "mexican", "title": "Mexican"}], "id": "lucys-cantina-royale-new-york", "display_phone": "(212) 643-1270", "is_closed": false, "location": {"address2": "", "country": "US", "display_address": ["1 Penn Plz", "New York, NY 10119"], "address1": "1 Penn Plz", "city": "New York", "zip_code": "10119", "address3": "", "state": "NY"}, "coordinates": {"longitude": -73.9928958215327, "latitude": 40.751757506263}, "review_count": 447, "image_url": "https://s3-media3.fl.yelpcdn.com/bphoto/ZskfWsGIhfC4TO4QubOtxg/o.jpg", "price": "$$", "rating": 2.5, "name": "Lucy's Cantina Royale", "url": "https://www.yelp.com/biz/lucys-cantina-royale-new-york?adjust_creative=gBcvfFpabk3CnzmXKdYe3w&utm_campaign=yelp_api_v3&utm_medium=api_v3_business_search&utm_source=gBcvfFpabk3CnzmXKdYe3w"}, {"transactions": ["delivery", "pickup"], "distance": 3154.058722574, "phone": "+12122287587", "categories": [{"alias": "burgers", "title": "Burgers"}, {"alias": "tacos", "title": "Tacos"}, {"alias": "chicken_wings", "title": "Chicken Wings"}], "id": "emojo-burger-new-york-2", "display_phone": "(212) 228-7587", "is_closed": false, "location": {"address2": "", "country": "US", "display_address": ["261 1st Ave", "New York, NY 10003"], "address1": "261 1st Ave", "city": "New York", "zip_code": "10003", "address3": null, "state": "NY"}, "coordinates": {"longitude": -73.98224, "latitude": 40.7323}, "review_count": 53, "image_url": "https://s3-media2.fl.yelpcdn.com/bphoto/7Pqeq5LOwxs2qVUPvxOGUA/o.jpg", "price": "$", "rating": 4.5, "name": "Emojo Burger", "url": "https://www.yelp.com/biz/emojo-burger-new-york-2?adjust_creative=gBcvfFpabk3CnzmXKdYe3w&utm_campaign=yelp_api_v3&utm_medium=api_v3_business_search&utm_source=gBcvfFpabk3CnzmXKdYe3w"}, {"transactions": [], "distance": 7480.238874109999, "phone": "+17187521818", "categories": [{"alias": "mexican", "title": "Mexican"}], "id": "fresh-tacos-woodside", "display_phone": "(718) 752-1818", "is_closed": false, "location": {"address2": "", "country": "US", "display_address": ["4559 46th St", "Woodside, NY 11377"], "address1": "4559 46th St", "city": "Woodside", "zip_code": "11377", "address3": "", "state": "NY"}, "coordinates": {"longitude": -73.918899, "latitude": 40.741268}, "review_count": 21, "image_url": "https://s3-media1.fl.yelpcdn.com/bphoto/3EKthzFLpLyfY38teglPNA/o.jpg", "price": "$", "rating": 3.5, "name": "Fresh Tacos", "url": "https://www.yelp.com/biz/fresh-tacos-woodside?adjust_creative=gBcvfFpabk3CnzmXKdYe3w&utm_campaign=yelp_api_v3&utm_medium=api_v3_business_search&utm_source=gBcvfFpabk3CnzmXKdYe3w"}, {"transactions": ["delivery", "pickup"], "distance": 5741.732762907999, "phone": "+17184561054", "categories": [{"alias": "mexican", "title": "Mexican"}], "id": "leos-restaurant-brooklyn", "display_phone": "(718) 456-1054", "is_closed": false, "location": {"address2": null, "country": "US", "display_address": ["207 Knickerbocker Ave", "Brooklyn, NY 11237"], "address1": "207 Knickerbocker Ave", "city": "Brooklyn", "zip_code": "11237", "address3": null, "state": "NY"}, "coordinates": {"longitude": -73.926227, "latitude": 40.703573}, "review_count": 29, "image_url": "https://s3-media1.fl.yelpcdn.com/bphoto/GEYXV8gCa5TNLF4nY47m3Q/o.jpg", "price": "$", "rating": 3.5, "name": "Leo's Restaurant", "url": "https://www.yelp.com/biz/leos-restaurant-brooklyn?adjust_creative=gBcvfFpabk3CnzmXKdYe3w&utm_campaign=yelp_api_v3&utm_medium=api_v3_business_search&utm_source=gBcvfFpabk3CnzmXKdYe3w"}, {"transactions": ["delivery", "pickup"], "distance": 2741.3457326499997, "phone": "+17188589500", "categories": [{"alias": "cuban", "title": "Cuban"}, {"alias": "mexican", "title": "Mexican"}, {"alias": "fooddeliveryservices", "title": "Food Delivery Services"}], "id": "habana-to-go-brooklyn", "display_phone": "(718) 858-9500", "is_closed": false, "location": {"address2": "", "country": "US", "display_address": ["690 Fulton St", "Brooklyn, NY 11217"], "address1": "690 Fulton St", "city": "Brooklyn", "zip_code": "11217", "address3": "", "state": "NY"}, "coordinates": {"longitude": -73.974182, "latitude": 40.686004}, "review_count": 34, "image_url": "https://s3-media1.fl.yelpcdn.com/bphoto/wa0YTdqODYU-VvoN_8qqDQ/o.jpg", "price": "$$", "rating": 3.5, "name": "Habana To Go", "url": "https://www.yelp.com/biz/habana-to-go-brooklyn?adjust_creative=gBcvfFpabk3CnzmXKdYe3w&utm_campaign=yelp_api_v3&utm_medium=api_v3_business_search&utm_source=gBcvfFpabk3CnzmXKdYe3w"}, {"transactions": [], "distance": 4445.148036092, "phone": "+12013330001", "categories": [{"alias": "mexican", "title": "Mexican"}], "id": "orale-mexican-kitchen-jersey-city", "display_phone": "(201) 333-0001", "is_closed": false, "location": {"address2": "", "country": "US", "display_address": ["341 Grove St", "Jersey City, NJ 07302"], "address1": "341 Grove St", "city": "Jersey City", "zip_code": "07302", "address3": "", "state": "NJ"}, "coordinates": {"longitude": -74.043127, "latitude": 40.720538}, "review_count": 630, "image_url": "https://s3-media2.fl.yelpcdn.com/bphoto/xuIAXsWH_FcC2NzBPCD9zQ/o.jpg", "price": "$$", "rating": 4.0, "name": "Orale Mexican Kitchen", "url": "https://www.yelp.com/biz/orale-mexican-kitchen-jersey-city?adjust_creative=gBcvfFpabk3CnzmXKdYe3w&utm_campaign=yelp_api_v3&utm_medium=api_v3_business_search&utm_source=gBcvfFpabk3CnzmXKdYe3w"}, {"transactions": [], "distance": 11875.35687482, "phone": "+17188058000", "categories": [{"alias": "mexican", "title": "Mexican"}], "id": "oaxaquita-la-bella-woodhaven", "display_phone": "(718) 805-8000", "is_closed": false, "location": {"address2": "", "country": "US", "display_address": ["90-06 Jamaica Ave", "Woodhaven, NY 11421"], "address1": "90-06 Jamaica Ave", "city": "Woodhaven", "zip_code": "11421", "address3": "", "state": "NY"}, "coordinates": {"longitude": -73.8544204851584, "latitude": 40.6927557609923}, "review_count": 10, "image_url": "https://s3-media3.fl.yelpcdn.com/bphoto/sfIEHWpbXym2v8t1wyogJQ/o.jpg", "price": "$", "rating": 3.5, "name": "Oaxaquita La Bella", "url": "https://www.yelp.com/biz/oaxaquita-la-bella-woodhaven?adjust_creative=gBcvfFpabk3CnzmXKdYe3w&utm_campaign=yelp_api_v3&utm_medium=api_v3_business_search&utm_source=gBcvfFpabk3CnzmXKdYe3w"}, {"transactions": [], "distance": 7542.540448859999, "phone": "+17184561044", "categories": [{"alias": "mexican", "title": "Mexican"}, {"alias": "delis", "title": "Delis"}, {"alias": "juicebars", "title": "Juice Bars & Smoothies"}], "id": "el-alto-deli-mexican-food-queens", "display_phone": "(718) 456-1044", "is_closed": false, "location": {"address2": "Ste 1", "country": "US", "display_address": ["60-01 Metropolitan Ave", "Ste 1", "Queens, NY 11385"], "address1": "60-01 Metropolitan Ave", "city": "Queens", "zip_code": "11385", "address3": null, "state": "NY"}, "coordinates": {"longitude": -73.90526, "latitude": 40.7131}, "review_count": 6, "image_url": "https://s3-media2.fl.yelpcdn.com/bphoto/pWeHxHc5VofYD2-16sS30w/o.jpg", "price": "$", "rating": 5.0, "name": "El Alto  Deli Mexican Food", "url": "https://www.yelp.com/biz/el-alto-deli-mexican-food-queens?adjust_creative=gBcvfFpabk3CnzmXKdYe3w&utm_campaign=yelp_api_v3&utm_medium=api_v3_business_search&utm_source=gBcvfFpabk3CnzmXKdYe3w"}, {"transactions": ["delivery", "pickup"], "distance": 6507.866794739999, "phone": "+12125469316", "categories": [{"alias": "mexican", "title": "Mexican"}, {"alias": "vegetarian", "title": "Vegetarian"}], "id": "al-horno-lean-mexican-kitchen-new-york-5", "display_phone": "(212) 546-9316", "is_closed": false, "location": {"address2": "", "country": "US", "display_address": ["1089 2nd Ave", "New York, NY 10022"], "address1": "1089 2nd Ave", "city": "New York", "zip_code": "10022", "address3": "", "state": "NY"}, "coordinates": {"longitude": -73.965332, "latitude": 40.7597}, "review_count": 90, "image_url": "https://s3-media1.fl.yelpcdn.com/bphoto/ZYOhgOIAb3fhdMcdQDCaIQ/o.jpg", "price": "$$", "rating": 3.0, "name": "Al Horno Lean Mexican Kitchen", "url": "https://www.yelp.com/biz/al-horno-lean-mexican-kitchen-new-york-5?adjust_creative=gBcvfFpabk3CnzmXKdYe3w&utm_campaign=yelp_api_v3&utm_medium=api_v3_business_search&utm_source=gBcvfFpabk3CnzmXKdYe3w"}, {"transactions": ["delivery", "pickup"], "distance": 18200.49437794, "phone": "+13476913221", "categories": [{"alias": "mexican", "title": "Mexican"}], "id": "taqueria-los-reyes-bronx", "display_phone": "(347) 691-3221", "is_closed": false, "location": {"address2": "", "country": "US", "display_address": ["1380 White Plains Rd", "Bronx, NY 10462"], "address1": "1380 White Plains Rd", "city": "Bronx", "zip_code": "10462", "address3": "", "state": "NY"}, "coordinates": {"longitude": -73.862746, "latitude": 40.8353139}, "review_count": 29, "image_url": "https://s3-media2.fl.yelpcdn.com/bphoto/IgCRog-nBPyjROcxG2WhDQ/o.jpg", "price": "$$", "rating": 4.0, "name": "Taqueria Los Reyes", "url": "https://www.yelp.com/biz/taqueria-los-reyes-bronx?adjust_creative=gBcvfFpabk3CnzmXKdYe3w&utm_campaign=yelp_api_v3&utm_medium=api_v3_business_search&utm_source=gBcvfFpabk3CnzmXKdYe3w"}, {"transactions": [], "distance": 17293.71980164, "phone": "+19175210972", "categories": [{"alias": "mexican", "title": "Mexican"}], "id": "tacos-el-paisa-new-york", "display_phone": "(917) 521-0972", "is_closed": false, "location": {"address2": "", "country": "US", "display_address": ["1548 Saint Nicholas Ave", "New York, NY 10040"], "address1": "1548 Saint Nicholas Ave", "city": "New York", "zip_code": "10040", "address3": "", "state": "NY"}, "coordinates": {"longitude": -73.9306442, "latitude": 40.8533143}, "review_count": 71, "image_url": "https://s3-media3.fl.yelpcdn.com/bphoto/mpUCr4qklMCyl7op0BfBcA/o.jpg", "price": "$", "rating": 3.5, "name": "Tacos El Paisa", "url": "https://www.yelp.com/biz/tacos-el-paisa-new-york?adjust_creative=gBcvfFpabk3CnzmXKdYe3w&utm_campaign=yelp_api_v3&utm_medium=api_v3_business_search&utm_source=gBcvfFpabk3CnzmXKdYe3w"}, {"transactions": ["delivery", "pickup"], "distance": 3796.3496961879996, "phone": "+17184843615", "categories": [{"alias": "mexican", "title": "Mexican"}], "id": "l-a-burrito-brooklyn", "display_phone": "(718) 484-3615", "is_closed": false, "location": {"address2": "", "country": "US", "display_address": ["43 Underhill Ave", "Brooklyn, NY 11238"], "address1": "43 Underhill Ave", "city": "Brooklyn", "zip_code": "11238", "address3": "", "state": "NY"}, "coordinates": {"longitude": -73.9647560566664, "latitude": 40.679673108316}, "review_count": 43, "image_url": "https://s3-media1.fl.yelpcdn.com/bphoto/P8UHdzZgEXBljau0zsCR2g/o.jpg", "price": "$", "rating": 3.0, "name": "L.A. Burrito", "url": "https://www.yelp.com/biz/l-a-burrito-brooklyn?adjust_creative=gBcvfFpabk3CnzmXKdYe3w&utm_campaign=yelp_api_v3&utm_medium=api_v3_business_search&utm_source=gBcvfFpabk3CnzmXKdYe3w"}, {"transactions": [], "distance": 10409.17732386, "phone": "", "categories": [{"alias": "mexican", "title": "Mexican"}, {"alias": "foodstands", "title": "Food Stands"}], "id": "el-picosito-elmhurst", "display_phone": "", "is_closed": false, "location": {"address2": "", "country": "US", "display_address": ["8277 Broadway", "Elmhurst, NY 11373"], "address1": "8277 Broadway", "city": "Elmhurst", "zip_code": "11373", "address3": "", "state": "NY"}, "coordinates": {"longitude": -73.8804444, "latitude": 40.7416173}, "review_count": 16, "image_url": "https://s3-media1.fl.yelpcdn.com/bphoto/Zza8JqtC6HUS4xLFTpJOAg/o.jpg", "price": "$", "rating": 4.0, "name": "El Picosito", "url": "https://www.yelp.com/biz/el-picosito-elmhurst?adjust_creative=gBcvfFpabk3CnzmXKdYe3w&utm_campaign=yelp_api_v3&utm_medium=api_v3_business_search&utm_source=gBcvfFpabk3CnzmXKdYe3w"}, {"transactions": [], "distance": 5771.195272156, "phone": "+12123024010", "categories": [{"alias": "mexican", "title": "Mexican"}, {"alias": "bars", "title": "Bars"}, {"alias": "tex-mex", "title": "Tex-Mex"}], "id": "chevys-fresh-mex-new-york-3", "display_phone": "(212) 302-4010", "is_closed": false, "location": {"address2": "", "country": "US", "display_address": ["259 West 42nd St", "New York, NY 10036"], "address1": "259 West 42nd St", "city": "New York", "zip_code": "10036", "address3": "", "state": "NY"}, "coordinates": {"longitude": -73.98931, "latitude": 40.75721}, "review_count": 532, "image_url": "https://s3-media2.fl.yelpcdn.com/bphoto/KFv63evGzDZoz0id2aHNnQ/o.jpg", "price": "$$", "rating": 3.0, "name": "Chevys Fresh Mex", "url": "https://www.yelp.com/biz/chevys-fresh-mex-new-york-3?adjust_creative=gBcvfFpabk3CnzmXKdYe3w&utm_campaign=yelp_api_v3&utm_medium=api_v3_business_search&utm_source=gBcvfFpabk3CnzmXKdYe3w"}, {"transactions": ["delivery", "pickup"], "distance": 16835.64048272, "phone": "+16469187432", "categories": [{"alias": "mexican", "title": "Mexican"}, {"alias": "vegetarian", "title": "Vegetarian"}, {"alias": "bars", "title": "Bars"}], "id": "la-pi\u00f1ata-mexican-cuisine-new-york", "display_phone": "(646) 918-7432", "is_closed": false, "location": {"address2": null, "country": "US", "display_address": ["711 W 181st St", "New York, NY 10033"], "address1": "711 W 181st St", "city": "New York", "zip_code": "10033", "address3": "", "state": "NY"}, "coordinates": {"longitude": -73.9362618492127, "latitude": 40.8503336711767}, "review_count": 86, "image_url": "https://s3-media2.fl.yelpcdn.com/bphoto/hNsYGXTZLsbhvJYBVNrP2Q/o.jpg", "price": "$$", "rating": 3.0, "name": "La Pi\u00f1ata Mexican Cuisine", "url": "https://www.yelp.com/biz/la-pi%C3%B1ata-mexican-cuisine-new-york?adjust_creative=gBcvfFpabk3CnzmXKdYe3w&utm_campaign=yelp_api_v3&utm_medium=api_v3_business_search&utm_source=gBcvfFpabk3CnzmXKdYe3w"}]}