{"region": {"center": {"longitude": -73.99429321289062, "latitude": 40.70544486444615}}, "total": 1496, "businesses": [{"transactions": ["delivery", "pickup"], "distance": 18801.3318109, "phone": "+19174719067", "categories": [{"alias": "mexican", "title": "Mexican"}], "id": "elias-cinco-de-mayo-bronx", "display_phone": "(917) 471-9067", "is_closed": false, "location": {"address2": null, "country": "US", "display_address": ["2337 Grand Concourse Ave", "Bronx, NY 10468"], "address1": "2337 Grand Concourse Ave", "city": "Bronx", "zip_code": "10468", "address3": "", "state": "NY"}, "coordinates": {"longitude": -73.89975, "latitude": 40.85864}, "review_count": 11, "image_url": "https://s3-media4.fl.yelpcdn.com/bphoto/RwxZh-kWGih94N0DVgrGIg/o.jpg", "price": "$$", "rating": 3.5, "name": "Elias' Cinco De Mayo", "url": "https://www.yelp.com/biz/elias-cinco-de-mayo-bronx?adjust_creative=gBcvfFpabk3CnzmXKdYe3w&utm_campaign=yelp_api_v3&utm_medium=api_v3_business_search&utm_source=gBcvfFpabk3CnzmXKdYe3w"}, {"transactions": [], "distance": 16391.5946086, "phone": "+12014382111", "categories": [{"alias": "mexican", "title": "Mexican"}], "id": "azteca-restaurante-mexican-cuisine-rutherford", "display_phone": "(201) 438-2111", "is_closed": false, "location": {"address2": "", "country": "US", "display_address": ["47 Park Ave", "Rutherford, NJ 07070"], "address1": "47 Park Ave", "city": "Rutherford", "zip_code": "07070", "address3": "", "state": "NJ"}, "coordinates": {"longitude": -74.103651, "latitude": 40.8273889}, "review_count": 123, "image_url": "https://s3-media4.fl.yelpcdn.com/bphoto/yVD3lkqAr9AQ-39PnKfaUA/o.jpg", "price": "$$", "rating": 4.0, "name": "Azteca Restaurante Mexican Cuisine", "url": "https://www.yelp.com/biz/azteca-restaurante-mexican-cuisine-rutherford?adjust_creative=gBcvfFpabk3CnzmXKdYe3w&utm_campaign=yelp_api_v3&utm_medium=api_v3_business_search&utm_source=gBcvfFpabk3CnzmXKdYe3w"}, {"transactions": [], "distance": 4083.543500284, "phone": "+16467915413", "categories": [{"alias": "cocktailbars", "title": "Cocktail Bars"}, {"alias": "tacos", "title": "Tacos"}, {"alias": "beerbar", "title": "Beer Bar"}], "id": "street-taco-new-york", "display_phone": "(646) 791-5413", "is_closed": false, "location": {"address2": "", "country": "US", "display_address": ["358 3rd Ave", "New York, NY 10016"], "address1": "358 3rd Ave", "city": "New York", "zip_code": "10016", "address3": null, "state": "NY"}, "coordinates": {"longitude": -73.98202, "latitude": 40.74097}, "review_count": 24, "image_url": "https://s3-media2.fl.yelpcdn.com/bphoto/txrm3NTNNocH_sIiuzSazg/o.jpg", "price": "$$", "rating": 3.5, "name": "Street Taco", "url": "https://www.yelp.com/biz/street-taco-new-york?adjust_creative=gBcvfFpabk3CnzmXKdYe3w&utm_campaign=yelp_api_v3&utm_medium=api_v3_business_search&utm_source=gBcvfFpabk3CnzmXKdYe3w"}, {"transactions": [], "distance": 14009.027893519999, "phone": "", "categories": [{"alias": "foodstands", "title": "Food Stands"}, {"alias": "mexican", "title": "Mexican"}], "id": "nice-tamale-lady-new-york", "display_phone": "", "is_closed": false, "location": {"address2": "", "country": "US", "display_address": ["145TH And Broadway", "Next to the newspaper stand and the S.E. corner", "New York, NY 10031"], "address1": "145TH And Broadway", "city": "New York", "zip_code": "10031", "address3": "Next to the newspaper stand and the S.E. corner", "state": "NY"}, "coordinates": {"longitude": -73.9503653707317, "latitude": 40.82640713513}, "review_count": 8, "image_url": "https://s3-media2.fl.yelpcdn.com/bphoto/NztWm-gvsBPwkfErp48avQ/o.jpg", "price": "$", "rating": 5.0, "name": "Nice Tamale Lady", "url": "https://www.yelp.com/biz/nice-tamale-lady-new-york?adjust_creative=gBcvfFpabk3CnzmXKdYe3w&utm_campaign=yelp_api_v3&utm_medium=api_v3_business_search&utm_source=gBcvfFpabk3CnzmXKdYe3w"}, {"transactions": [], "distance": 1821.828885032, "phone": "+17183601839", "categories": [{"alias": "korean", "title": "Korean"}, {"alias": "foodtrucks", "title": "Food Trucks"}, {"alias": "mexican", "title": "Mexican"}], "id": "kimchi-taco-new-york-2", "display_phone": "(718) 360-1839", "is_closed": false, "location": {"address2": "", "country": "US", "display_address": ["New York, NY 10281"], "address1": "", "city": "New York", "zip_code": "10281", "address3": "", "state": "NY"}, "coordinates": {"longitude": -74.0143051147461, "latitude": 40.7122039794922}, "review_count": 220, "image_url": "https://s3-media3.fl.yelpcdn.com/bphoto/wVCYyErCBBfJckS-J9DUOg/o.jpg", "price": "$", "rating": 3.0, "name": "Kimchi Taco", "url": "https://www.yelp.com/biz/kimchi-taco-new-york-2?adjust_creative=gBcvfFpabk3CnzmXKdYe3w&utm_campaign=yelp_api_v3&utm_medium=api_v3_business_search&utm_source=gBcvfFpabk3CnzmXKdYe3w"}, {"transactions": [], "distance": 10220.568147615999, "phone": "+12014533086", "categories": [{"alias": "mexican", "title": "Mexican"}], "id": "taqueria-mexicana-north-bergen", "display_phone": "(201) 453-3086", "is_closed": false, "location": {"address2": "", "country": "US", "display_address": ["7024 Bergenline Ave", "North Bergen, NJ 07047"], "address1": "7024 Bergenline Ave", "city": "North Bergen", "zip_code": "07047", "address3": "", "state": "NJ"}, "coordinates": {"longitude": -74.0103249, "latitude": 40.7965563}, "review_count": 44, "image_url": "https://s3-media1.fl.yelpcdn.com/bphoto/xpgQkpxWNjwXEAj34T9gTw/o.jpg", "price": "$", "rating": 4.0, "name": "Taqueria Mexicana", "url": "https://www.yelp.com/biz/taqueria-mexicana-north-bergen?adjust_creative=gBcvfFpabk3CnzmXKdYe3w&utm_campaign=yelp_api_v3&utm_medium=api_v3_business_search&utm_source=gBcvfFpabk3CnzmXKdYe3w"}, {"transactions": [], "distance": 11404.480727956, "phone": "+13472510509", "categories": [{"alias": "mexican", "title": "Mexican"}], "id": "chipotlan-hot-sauce-new-york", "display_phone": "(347) 251-0509", "is_closed": false, "location": {"address2": "Ste 2R", "country": "US", "display_address": ["97-05 75th St", "Ste 2R", "New York, NY 11416"], "address1": "97-05 75th St", "city": "New York", "zip_code": "11416", "address3": "", "state": "NY"}, "coordinates": {"longitude": -73.8628769, "latitude": 40.6811104}, "review_count": 1, "image_url": "https://s3-media3.fl.yelpcdn.com/bphoto/P9YtGgWB53JOKyr6L0epXw/o.jpg", "rating": 5.0, "name": "Chipotlan Hot Sauce", "url": "https://www.yelp.com/biz/chipotlan-hot-sauce-new-york?adjust_creative=gBcvfFpabk3CnzmXKdYe3w&utm_campaign=yelp_api_v3&utm_medium=api_v3_business_search&utm_source=gBcvfFpabk3CnzmXKdYe3w"}, {"transactions": [], "distance": 11246.93213558, "phone": "+12122872006", "categories": [{"alias": "mexican", "title": "Mexican"}, {"alias": "italian", "title": "Italian"}, {"alias": "latin", "title": "Latin American"}], "id": "il-gnocchi-new-york", "display_phone": "(212) 287-2006", "is_closed": false, "location": {"address2": "", "country": "US", "display_address": ["118 E 116th St", "New York, NY 10029"], "address1": "118 E 116th St", "city": "New York", "zip_code": "10029", "address3": "", "state": "NY"}, "coordinates": {"longitude": -73.9424362, "latitude": 40.7986488}, "review_count": 1, "image_url": "https://s3-media2.fl.yelpcdn.com/bphoto/JOVSvWYMMHX6Obw8rr-M8A/o.jpg", "rating": 5.0, "name": "Il Gnocchi", "url": "https://www.yelp.com/biz/il-gnocchi-new-york?adjust_creative=gBcvfFpabk3CnzmXKdYe3w&utm_campaign=yelp_api_v3&utm_medium=api_v3_business_search&utm_source=gBcvfFpabk3CnzmXKdYe3w"}, {"transactions": [], "distance": 8022.889814699999, "phone": "+12018631481", "categories": [{"alias": "mexican", "title": "Mexican"}], "id": "el-rey-del-taco-union-city", "display_phone": "(201) 863-1481", "is_closed": false, "location": {"address2": "", "country": "US", "display_address": ["3217 Bergenline Ave", "Union City, NJ 07087"], "address1": "3217 Bergenline Ave", "city": "Union City", "zip_code": "07087", "address3": "", "state": "NJ"}, "coordinates": {"longitude": -74.0291146, "latitude": 40.7725668}, "review_count": 18, "image_url": "https://s3-media2.fl.yelpcdn.com/bphoto/FydsbYr1lrNC6Pda6PVi3Q/o.jpg", "price": "$$", "rating": 4.0, "name": "El Rey Del Taco", "url": "https://www.yelp.com/biz/el-rey-del-taco-union-city?adjust_creative=gBcvfFpabk3CnzmXKdYe3w&utm_campaign=yelp_api_v3&utm_medium=api_v3_business_search&utm_source=gBcvfFpabk3CnzmXKdYe3w"}, {"transactions": [], "distance": 15565.378764679997, "phone": "+17188831688", "categories": [{"alias": "bubbletea", "title": "Bubble Tea"}, {"alias": "juicebars", "title": "Juice Bars & Smoothies"}, {"alias": "mexican", "title": "Mexican"}], "id": "sweet-mango-jamaica-2", "display_phone": "(718) 883-1688", "is_closed": false, "location": {"address2": "", "country": "US", "display_address": ["8782 Sutphin Blvd", "Jamaica, NY 11435"], "address1": "8782 Sutphin Blvd", "city": "Jamaica", "zip_code": "11435", "address3": "", "state": "NY"}, "coordinates": {"longitude": -73.8096373, "latitude": 40.7048854}, "review_count": 25, "image_url": "https://s3-media1.fl.yelpcdn.com/bphoto/XuiPPqkQnCn56qO9upRGOg/o.jpg", "price": "$", "rating": 3.5, "name": "Sweet Mango", "url": "https://www.yelp.com/biz/sweet-mango-jamaica-2?adjust_creative=gBcvfFpabk3CnzmXKdYe3w&utm_campaign=yelp_api_v3&utm_medium=api_v3_business_search&utm_source=gBcvfFpabk3CnzmXKdYe3w"}, {"transactions": [], "distance": 7034.595247238, "phone": "+12129775919", "categories": [{"alias": "mexican", "title": "Mexican"}], "id": "new-taco-express-new-york", "display_phone": "(212) 977-5919", "is_closed": false, "location": {"address2": "", "country": "US", "display_address": ["858 10th Ave", "New York, NY 10019"], "address1": "858 10th Ave", "city": "New York", "zip_code": "10019", "address3": "", "state": "NY"}, "coordinates": {"longitude": -73.988578, "latitude": 40.768569}, "review_count": 12, "image_url": "https://s3-media1.fl.yelpcdn.com/bphoto/7vaAVWiW39MTY4TF9t3hpA/o.jpg", "price": "$", "rating": 3.0, "name": "New Taco Express", "url": "https://www.yelp.com/biz/new-taco-express-new-york?adjust_creative=gBcvfFpabk3CnzmXKdYe3w&utm_campaign=yelp_api_v3&utm_medium=api_v3_business_search&utm_source=gBcvfFpabk3CnzmXKdYe3w"}, {"transactions": [], "distance": 5707.1943953, "phone": "+13478812732", "categories": [{"alias": "mexican", "title": "Mexican"}], "id": "taqueria-la-asuncion-brooklyn", "display_phone": "(347) 881-2732", "is_closed": false, "location": {"address2": "", "country": "US", "display_address": ["206 Knickerbocker Ave", "Brooklyn, NY 11237"], "address1": "206 Knickerbocker Ave", "city": "Brooklyn", "zip_code": "11237", "address3": "", "state": "NY"}, "coordinates": {"longitude": -73.9266586303711, "latitude": 40.7032508850098}, "review_count": 1, "image_url": "", "rating": 4.0, "name": "Taqueria La Asuncion", "url": "https://www.yelp.com/biz/taqueria-la-asuncion-brooklyn?adjust_creative=gBcvfFpabk3CnzmXKdYe3w&utm_campaign=yelp_api_v3&utm_medium=api_v3_business_search&utm_source=gBcvfFpabk3CnzmXKdYe3w"}, {"transactions": ["delivery", "pickup"], "distance": 3349.5946591119996, "phone": "+17187898600", "categories": [{"alias": "mexican", "title": "Mexican"}], "id": "gallitos-express-clinton-hill", "display_phone": "(718) 789-8600", "is_closed": false, "location": {"address2": "", "country": "US", "display_address": ["852 Fulton St", "Clinton Hill, NY 11238"], "address1": "852 Fulton St", "city": "Clinton Hill", "zip_code": "11238", "address3": "", "state": "NY"}, "coordinates": {"longitude": -73.967292, "latitude": 40.683326}, "review_count": 34, "image_url": "https://s3-media1.fl.yelpcdn.com/bphoto/71Nk80moSIB83Qrkjj9s5A/o.jpg", "price": "$$", "rating": 4.0, "name": "Gallito's Express", "url": "https://www.yelp.com/biz/gallitos-express-clinton-hill?adjust_creative=gBcvfFpabk3CnzmXKdYe3w&utm_campaign=yelp_api_v3&utm_medium=api_v3_business_search&utm_source=gBcvfFpabk3CnzmXKdYe3w"}, {"transactions": [], "distance": 11170.270098142, "phone": "+17183392197", "categories": [{"alias": "mexican", "title": "Mexican"}, {"alias": "hotdogs", "title": "Fast Food"}], "id": "chipotle-mexican-grill-brooklyn-9", "display_phone": "(718) 339-2197", "is_closed": false, "location": {"address2": "", "country": "US", "display_address": ["1325 Kings Hwy", "Brooklyn, NY 11229"], "address1": "1325 Kings Hwy", "city": "Brooklyn", "zip_code": "11229", "address3": "", "state": "NY"}, "coordinates": {"longitude": -73.95957, "latitude": 40.60836}, "review_count": 29, "image_url": "https://s3-media3.fl.yelpcdn.com/bphoto/_Dep6vZTw4VRpcba_CUX4g/o.jpg", "price": "$$", "rating": 3.0, "name": "Chipotle Mexican Grill", "url": "https://www.yelp.com/biz/chipotle-mexican-grill-brooklyn-9?adjust_creative=gBcvfFpabk3CnzmXKdYe3w&utm_campaign=yelp_api_v3&utm_medium=api_v3_business_search&utm_source=gBcvfFpabk3CnzmXKdYe3w"}, {"transactions": [], "distance": 11425.85211942, "phone": "+17183395927", "categories": [{"alias": "mexican", "title": "Mexican"}], "id": "el-encanto-mexican-restaurant-brooklyn", "display_phone": "(718) 339-5927", "is_closed": false, "location": {"address2": "", "country": "US", "display_address": ["470 Kings Hwy", "Brooklyn, NY 11223"], "address1": "470 Kings Hwy", "city": "Brooklyn", "zip_code": "11223", "address3": "", "state": "NY"}, "coordinates": {"longitude": -73.972572, "latitude": 40.603965}, "review_count": 5, "image_url": "https://s3-media1.fl.yelpcdn.com/bphoto/SHghJIN8DNaBdTj-sT1ccA/o.jpg", "rating": 3.0, "name": "El Encanto Mexican Restaurant", "url": "https://www.yelp.com/biz/el-encanto-mexican-restaurant-brooklyn?adjust_creative=gBcvfFpabk3CnzmXKdYe3w&utm_campaign=yelp_api_v3&utm_medium=api_v3_business_search&utm_source=gBcvfFpabk3CnzmXKdYe3w"}, {"transactions": [], "distance": 19793.25173858, "phone": "+17188928681", "categories": [{"alias": "mexican", "title": "Mexican"}], "id": "fresco-tortillas-bronx-2", "display_phone": "(718) 892-8681", "is_closed": false, "location": {"address2": "", "country": "US", "display_address": ["1041 Morris Park Ave", "Bronx, NY 10462"], "address1": "1041 Morris Park Ave", "city": "Bronx", "zip_code": "10462", "address3": "", "state": "NY"}, "coordinates": {"longitude": -73.8557225, "latitude": 40.8484968}, "review_count": 11, "image_url": "https://s3-media4.fl.yelpcdn.com/bphoto/HdOvaS2sqrMxSaXCRo2EpA/o.jpg", "price": "$", "rating": 3.0, "name": "Fresco Tortillas", "url": "https://www.yelp.com/biz/fresco-tortillas-bronx-2?adjust_creative=gBcvfFpabk3CnzmXKdYe3w&utm_campaign=yelp_api_v3&utm_medium=api_v3_business_search&utm_source=gBcvfFpabk3CnzmXKdYe3w"}, {"transactions": [], "distance": 3764.422321796, "phone": "+17189654800", "categories": [{"alias": "mexican", "title": "Mexican"}], "id": "sonia-restaurant-brooklyn", "display_phone": "(718) 965-4800", "is_closed": false, "location": {"address2": "", "country": "US", "display_address": ["460 3rd Ave", "Brooklyn, NY 11215"], "address1": "460 3rd Ave", "city": "Brooklyn", "zip_code": "11215", "address3": "", "state": "NY"}, "coordinates": {"longitude": -73.99118, "latitude": 40.671665}, "review_count": 1, "image_url": "https://s3-media2.fl.yelpcdn.com/bphoto/VetVdfXpsZLeC7bzckVNbw/o.jpg", "rating": 4.0, "name": "Sonia Restaurant", "url": "https://www.yelp.com/biz/sonia-restaurant-brooklyn?adjust_creative=gBcvfFpabk3CnzmXKdYe3w&utm_campaign=yelp_api_v3&utm_medium=api_v3_business_search&utm_source=gBcvfFpabk3CnzmXKdYe3w"}, {"transactions": [], "distance": 11695.086654719998, "phone": "+17188180928", "categories": [{"alias": "mexican", "title": "Mexican"}], "id": "yummy-taco-rosebank", "display_phone": "(718) 818-0928", "is_closed": false, "location": {"address2": "", "country": "US", "display_address": ["1082 Bay St", "Rosebank, NY 10305"], "address1": "1082 Bay St", "city": "Rosebank", "zip_code": "10305", "address3": "", "state": "NY"}, "coordinates": {"longitude": -74.068223, "latitude": 40.616468}, "review_count": 12, "image_url": "", "price": "$", "rating": 3.5, "name": "Yummy Taco", "url": "https://www.yelp.com/biz/yummy-taco-rosebank?adjust_creative=gBcvfFpabk3CnzmXKdYe3w&utm_campaign=yelp_api_v3&utm_medium=api_v3_business_search&utm_source=gBcvfFpabk3CnzmXKdYe3w"}, {"transactions": [], "distance": 6882.689000902, "phone": "+17188538999", "categories": [{"alias": "mexican", "title": "Mexican"}], "id": "a-and-k-tacos-brooklyn", "display_phone": "(718) 853-8999", "is_closed": false, "location": {"address2": null, "country": "US", "display_address": ["3806 Fort Hamilton Pkwy", "Brooklyn, NY 11218"], "address1": "3806 Fort Hamilton Pkwy", "city": "Brooklyn", "zip_code": "11218", "address3": null, "state": "NY"}, "coordinates": {"longitude": -73.990234, "latitude": 40.643623}, "review_count": 8, "image_url": "https://s3-media2.fl.yelpcdn.com/bphoto/kMEW0HQwh_v_wqcrNHST8Q/o.jpg", "price": "$", "rating": 3.0, "name": "A & K Tacos", "url": "https://www.yelp.com/biz/a-and-k-tacos-brooklyn?adjust_creative=gBcvfFpabk3CnzmXKdYe3w&utm_campaign=yelp_api_v3&utm_medium=api_v3_business_search&utm_source=gBcvfFpabk3CnzmXKdYe3w"}, {"transactions": [], "distance": 5744.8682400299995, "phone": "+12128406580", "categories": [{"alias": "grocery", "title": "Grocery"}, {"alias": "delis", "title": "Delis"}, {"alias": "mexican", "title": "Mexican"}], "id": "smilers-food-store-new-york", "display_phone": "(212) 840-6580", "is_closed": false, "location": {"address2": "", "country": "US", "display_address": ["554 5th Ave", "New York, NY 10036"], "address1": "554 5th Ave", "city": "New York", "zip_code": "10036", "address3": "", "state": "NY"}, "coordinates": {"longitude": -73.9795455932617, "latitude": 40.7558822631836}, "review_count": 37, "image_url": "https://s3-media1.fl.yelpcdn.com/bphoto/woQEB2Ay_MpUNJCsvN88_w/o.jpg", "price": "$", "rating": 3.0, "name": "Smilers Food Store", "url": "https://www.yelp.com/biz/smilers-food-store-new-york?adjust_creative=gBcvfFpabk3CnzmXKdYe3w&utm_campaign=yelp_api_v3&utm_medium=api_v3_business_search&utm_source=gBcvfFpabk3CnzmXKdYe3w"}, {"transactions": ["delivery", "pickup"], "distance": 12552.619772238, "phone": "+13478087121", "categories": [{"alias": "mexican", "title": "Mexican"}, {"alias": "grocery", "title": "Grocery"}], "id": "tulcingo-grocery-corona", "display_phone": "(347) 808-7121", "is_closed": false, "location": {"address2": null, "country": "US", "display_address": ["106-18 Northern Blvd", "Corona, NY 11368"], "address1": "106-18 Northern Blvd", "city": "Corona", "zip_code": "11368", "address3": "", "state": "NY"}, "coordinates": {"longitude": -73.8626404, "latitude": 40.7576256}, "review_count": 8, "image_url": "https://s3-media1.fl.yelpcdn.com/bphoto/h-ej2bPS1NnP2-FSA05O9g/o.jpg", "price": "$", "rating": 4.5, "name": "Tulcingo Grocery", "url": "https://www.yelp.com/biz/tulcingo-grocery-corona?adjust_creative=gBcvfFpabk3CnzmXKdYe3w&utm_campaign=yelp_api_v3&utm_medium=api_v3_business_search&utm_source=gBcvfFpabk3CnzmXKdYe3w"}, {"transactions": [], "distance": 4271.760158502, "phone": "+17187693888", "categories": [{"alias": "mexican", "title": "Mexican"}], "id": "the-cactus-brooklyn", "display_phone": "(718) 769-3888", "is_closed": false, "location": {"address2": "", "country": "US", "display_address": ["715 Flushing Ave", "Brooklyn, NY 11206"], "address1": "715 Flushing Ave", "city": "Brooklyn", "zip_code": "11206", "address3": "", "state": "NY"}, "coordinates": {"longitude": -73.94408, "latitude": 40.70058}, "review_count": 16, "image_url": "https://s3-media3.fl.yelpcdn.com/bphoto/zI5xCSCr0q7mkbdg7BtIPw/o.jpg", "price": "$", "rating": 3.5, "name": "The Cactus", "url": "https://www.yelp.com/biz/the-cactus-brooklyn?adjust_creative=gBcvfFpabk3CnzmXKdYe3w&utm_campaign=yelp_api_v3&utm_medium=api_v3_business_search&utm_source=gBcvfFpabk3CnzmXKdYe3w"}, {"transactions": [], "distance": 11132.447550395998, "phone": "+17182773780", "categories": [{"alias": "tacos", "title": "Tacos"}], "id": "tacosssssss-brooklyn", "display_phone": "(718) 277-3780", "is_closed": false, "location": {"address2": "", "country": "US", "display_address": ["33-85 Fulton St", "Brooklyn, NY 11208"], "address1": "33-85 Fulton St", "city": "Brooklyn", "zip_code": "11208", "address3": null, "state": "NY"}, "coordinates": {"longitude": -73.8659721903473, "latitude": 40.6818324851444}, "review_count": 2, "image_url": "https://s3-media1.fl.yelpcdn.com/bphoto/6EJ2IO9WNlxAbvSTGzQtHw/o.jpg", "price": "$", "rating": 4.5, "name": "Tacosssssss", "url": "https://www.yelp.com/biz/tacosssssss-brooklyn?adjust_creative=gBcvfFpabk3CnzmXKdYe3w&utm_campaign=yelp_api_v3&utm_medium=api_v3_business_search&utm_source=gBcvfFpabk3CnzmXKdYe3w"}, {"transactions": [], "distance": 10908.07111452, "phone": "+16463703334", "categories": [{"alias": "mexican", "title": "Mexican"}], "id": "los-cascabeles-new-york", "display_phone": "(646) 370-3334", "is_closed": false, "location": {"address2": "", "country": "US", "display_address": ["2030 3rd Ave", "New York, NY 10029"], "address1": "2030 3rd Ave", "city": "New York", "zip_code": "10029", "address3": "", "state": "NY"}, "coordinates": {"longitude": -73.9421605472625, "latitude": 40.7952438191817}, "review_count": 1, "image_url": "https://s3-media1.fl.yelpcdn.com/bphoto/RrPaUqww8RySD_MUjCTaxg/o.jpg", "price": "$$", "rating": 4.0, "name": "Los Cascabeles", "url": "https://www.yelp.com/biz/los-cascabeles-new-york?adjust_creative=gBcvfFpabk3CnzmXKdYe3w&utm_campaign=yelp_api_v3&utm_medium=api_v3_business_search&utm_source=gBcvfFpabk3CnzmXKdYe3w"}, {"transactions": [], "distance": 8605.865183, "phone": "", "categories": [{"alias": "mexican", "title": "Mexican"}, {"alias": "foodstands", "title": "Food Stands"}], "id": "mexican-tortas-and-tacos-new-york", "display_phone": "", "is_closed": false, "location": {"address2": "", "country": "US", "display_address": ["34th St & Broadway", "New York, NY 11106"], "address1": "34th St & Broadway", "city": "New York", "zip_code": "11106", "address3": "", "state": "NY"}, "coordinates": {"longitude": -73.922997088148, "latitude": 40.7608526950241}, "review_count": 10, "image_url": "https://s3-media2.fl.yelpcdn.com/bphoto/zFiKqn15ROmu6w5-4lCS0A/o.jpg", "price": "$", "rating": 3.5, "name": "Mexican Tortas & Tacos", "url": "https://www.yelp.com/biz/mexican-tortas-and-tacos-new-york?adjust_creative=gBcvfFpabk3CnzmXKdYe3w&utm_campaign=yelp_api_v3&utm_medium=api_v3_business_search&utm_source=gBcvfFpabk3CnzmXKdYe3w"}, {"transactions": [], "distance": 13034.20237532, "phone": "+13479189466", "categories": [{"alias": "seafood", "title": "Seafood"}, {"alias": "mexican", "title": "Mexican"}, {"alias": "sandwiches", "title": "Sandwiches"}], "id": "taco-veloz-bronx", "display_phone": "(347) 918-9466", "is_closed": false, "location": {"address2": "", "country": "US", "display_address": ["359 East 138th St", "Bronx, NY 10454"], "address1": "359 East 138th St", "city": "Bronx", "zip_code": "10454", "address3": null, "state": "NY"}, "coordinates": {"longitude": -73.9238662719727, "latitude": 40.8098182678223}, "review_count": 2, "image_url": "https://s3-media1.fl.yelpcdn.com/bphoto/dMKFd23tH1zumLS4rLBang/o.jpg", "price": "$$", "rating": 4.5, "name": "Taco Veloz", "url": "https://www.yelp.com/biz/taco-veloz-bronx?adjust_creative=gBcvfFpabk3CnzmXKdYe3w&utm_campaign=yelp_api_v3&utm_medium=api_v3_business_search&utm_source=gBcvfFpabk3CnzmXKdYe3w"}, {"transactions": ["delivery", "pickup"], "distance": 20210.50371104, "phone": "+19737481707", "categories": [{"alias": "mexican", "title": "Mexican"}], "id": "el-matador-mexican-restaurant-bloomfield", "display_phone": "(973) 748-1707", "is_closed": false, "location": {"address2": "", "country": "US", "display_address": ["418 Broad St", "Bloomfield, NJ 07003"], "address1": "418 Broad St", "city": "Bloomfield", "zip_code": "07003", "address3": "", "state": "NJ"}, "coordinates": {"longitude": -74.1925306, "latitude": 40.8078556}, "review_count": 397, "image_url": "https://s3-media2.fl.yelpcdn.com/bphoto/Xth_3YFzv9HUOVCEuZif7Q/o.jpg", "price": "$", "rating": 4.0, "name": "El Matador Mexican Restaurant", "url": "https://www.yelp.com/biz/el-matador-mexican-restaurant-bloomfield?adjust_creative=gBcvfFpabk3CnzmXKdYe3w&utm_campaign=yelp_api_v3&utm_medium=api_v3_business_search&utm_source=gBcvfFpabk3CnzmXKdYe3w"}, {"transactions": ["delivery", "pickup"], "distance": 11456.176913039999, "phone": "+16465599306", "categories": [{"alias": "chicken_wings", "title": "Chicken Wings"}, {"alias": "tradamerican", "title": "American (Traditional)"}, {"alias": "mexican", "title": "Mexican"}], "id": "terrific-wings-tacos-and-things-new-york", "display_phone": "(646) 559-9306", "is_closed": false, "location": {"address2": "", "country": "US", "display_address": ["1901 Lexington Ave", "New York, NY 10035"], "address1": "1901 Lexington Ave", "city": "New York", "zip_code": "10035", "address3": "", "state": "NY"}, "coordinates": {"longitude": -73.9404931291938, "latitude": 40.8000680303579}, "review_count": 6, "image_url": "https://s3-media3.fl.yelpcdn.com/bphoto/qKVRXAUvSzzPRdgMc3DGCQ/o.jpg", "price": "$$", "rating": 4.0, "name": "Terrific Wings Tacos And Things", "url": "https://www.yelp.com/biz/terrific-wings-tacos-and-things-new-york?adjust_creative=gBcvfFpabk3CnzmXKdYe3w&utm_campaign=yelp_api_v3&utm_medium=api_v3_business_search&utm_source=gBcvfFpabk3CnzmXKdYe3w"}, {"transactions": ["pickup", "delivery"], "distance": 5701.497492633999, "phone": "+17188405780", "categories": [{"alias": "mexican", "title": "Mexican"}, {"alias": "diners", "title": "Diners"}, {"alias": "greek", "title": "Greek"}], "id": "spiros-cafe-and-pizza-brooklyn", "display_phone": "(718) 840-5780", "is_closed": false, "location": {"address2": "", "country": "US", "display_address": ["942 4th Ave", "Brooklyn, NY 11232"], "address1": "942 4th Ave", "city": "Brooklyn", "zip_code": "11232", "address3": "", "state": "NY"}, "coordinates": {"longitude": -74.0043869018555, "latitude": 40.6547813415527}, "review_count": 33, "image_url": "https://s3-media2.fl.yelpcdn.com/bphoto/kJLrN_k_-44lYAwqGQlAyg/o.jpg", "price": "$", "rating": 3.5, "name": "Spiro's Cafe & Pizza", "url": "https://www.yelp.com/biz/spiros-cafe-and-pizza-brooklyn?adjust_creative=gBcvfFpabk3CnzmXKdYe3w&utm_campaign=yelp_api_v3&utm_medium=api_v3_business_search&utm_source=gBcvfFpabk3CnzmXKdYe3w"}, {"transactions": [], "distance": 8074.589379398, "phone": "+17189720010", "categories": [{"alias": "chinese", "title": "Chinese"}, {"alias": "mexican", "title": "Mexican"}, {"alias": "kosher", "title": "Kosher"}], "id": "sub-express-brooklyn", "display_phone": "(718) 972-0010", "is_closed": false, "location": {"address2": "", "country": "US", "display_address": ["5219 13th Ave", "Brooklyn, NY 11219"], "address1": "5219 13th Ave", "city": "Brooklyn", "zip_code": "11219", "address3": "", "state": "NY"}, "coordinates": {"longitude": -73.9939503, "latitude": 40.6330405}, "review_count": 6, "image_url": "", "price": "$$", "rating": 3.5, "name": "Sub Express", "url": "https://www.yelp.com/biz/sub-express-brooklyn?adjust_creative=gBcvfFpabk3CnzmXKdYe3w&utm_campaign=yelp_api_v3&utm_medium=api_v3_business_search&utm_source=gBcvfFpabk3CnzmXKdYe3w"}, {"transactions": [], "distance": 5069.385916388, "phone": "+13474981056", "categories": [{"alias": "mexican", "title": "Mexican"}], "id": "atoradero-caqueria-new-york", "display_phone": "(347) 498-1056", "is_closed": false, "location": {"address2": null, "country": "US", "display_address": ["800 E 149th", "New York, NY 10001"], "address1": "800 E 149th", "city": "New York", "zip_code": "10001", "address3": null, "state": "NY"}, "coordinates": {"longitude": -73.9067077636719, "latitude": 40.8125305175781}, "review_count": 1, "image_url": "", "rating": 3.0, "name": "Atoradero Caqueria", "url": "https://www.yelp.com/biz/atoradero-caqueria-new-york?adjust_creative=gBcvfFpabk3CnzmXKdYe3w&utm_campaign=yelp_api_v3&utm_medium=api_v3_business_search&utm_source=gBcvfFpabk3CnzmXKdYe3w"}, {"transactions": [], "distance": 15319.568173079999, "phone": "+17188154393", "categories": [{"alias": "mexican", "title": "Mexican"}], "id": "la-campena-staten-island", "display_phone": "(718) 815-4393", "is_closed": false, "location": {"address2": null, "country": "US", "display_address": ["300 Morningstar Rd", "Staten Island, NY 10303"], "address1": "300 Morningstar Rd", "city": "Staten Island", "zip_code": "10303", "address3": null, "state": "NY"}, "coordinates": {"longitude": -74.1472168, "latitude": 40.6310997}, "review_count": 15, "image_url": "https://s3-media3.fl.yelpcdn.com/bphoto/B8Aa06iZubLWPxIvjeyYgg/o.jpg", "price": "$$", "rating": 3.0, "name": "La Campena", "url": "https://www.yelp.com/biz/la-campena-staten-island?adjust_creative=gBcvfFpabk3CnzmXKdYe3w&utm_campaign=yelp_api_v3&utm_medium=api_v3_business_search&utm_source=gBcvfFpabk3CnzmXKdYe3w"}, {"transactions": ["delivery", "pickup"], "distance": 6665.365497575999, "phone": "+12122650022", "categories": [{"alias": "mexican", "title": "Mexican"}, {"alias": "vegan", "title": "Vegan"}, {"alias": "vegetarian", "title": "Vegetarian"}], "id": "mi-nidito-new-york", "display_phone": "(212) 265-0022", "is_closed": false, "location": {"address2": null, "country": "US", "display_address": ["789 9th Ave", "New York, NY 10019"], "address1": "789 9th Ave", "city": "New York", "zip_code": "10019", "address3": "", "state": "NY"}, "coordinates": {"longitude": -73.98809, "latitude": 40.76521}, "review_count": 142, "image_url": "https://s3-media3.fl.yelpcdn.com/bphoto/q_BStiieOPnDE-rg5keWWA/o.jpg", "price": "$$", "rating": 3.0, "name": "Mi Nidito", "url": "https://www.yelp.com/biz/mi-nidito-new-york?adjust_creative=gBcvfFpabk3CnzmXKdYe3w&utm_campaign=yelp_api_v3&utm_medium=api_v3_business_search&utm_source=gBcvfFpabk3CnzmXKdYe3w"}, {"transactions": [], "distance": 15608.587129669997, "phone": "+13473587109", "categories": [{"alias": "mexican", "title": "Mexican"}, {"alias": "foodstands", "title": "Food Stands"}], "id": "tacos-carmelita-truck-jamaica", "display_phone": "(347) 358-7109", "is_closed": false, "location": {"address2": "", "country": "US", "display_address": ["88 Ave & Sutphin Blvd", "Jamaica, NY 11435"], "address1": "88 Ave & Sutphin Blvd", "city": "Jamaica", "zip_code": "11435", "address3": "", "state": "NY"}, "coordinates": {"longitude": -73.8091303737351, "latitude": 40.7046929514823}, "review_count": 23, "image_url": "https://s3-media4.fl.yelpcdn.com/bphoto/KQTdWwF-_QuG7NfTadgERQ/o.jpg", "price": "$", "rating": 4.0, "name": "Tacos Carmelita Truck", "url": "https://www.yelp.com/biz/tacos-carmelita-truck-jamaica?adjust_creative=gBcvfFpabk3CnzmXKdYe3w&utm_campaign=yelp_api_v3&utm_medium=api_v3_business_search&utm_source=gBcvfFpabk3CnzmXKdYe3w"}, {"transactions": ["delivery", "pickup"], "distance": 11272.48201742, "phone": "+12128763055", "categories": [{"alias": "mexican", "title": "Mexican"}], "id": "el-tapatio-mexican-restaurant-new-york", "display_phone": "(212) 876-3055", "is_closed": false, "location": {"address2": "", "country": "US", "display_address": ["209 E 116th St", "New York, NY 10029"], "address1": "209 E 116th St", "city": "New York", "zip_code": "10029", "address3": "", "state": "NY"}, "coordinates": {"longitude": -73.93926, "latitude": 40.7978}, "review_count": 22, "image_url": "https://s3-media4.fl.yelpcdn.com/bphoto/cYKtquUX645cxnBnEkvRBA/o.jpg", "price": "$", "rating": 2.5, "name": "El Tapatio Mexican Restaurant", "url": "https://www.yelp.com/biz/el-tapatio-mexican-restaurant-new-york?adjust_creative=gBcvfFpabk3CnzmXKdYe3w&utm_campaign=yelp_api_v3&utm_medium=api_v3_business_search&utm_source=gBcvfFpabk3CnzmXKdYe3w"}, {"transactions": [], "distance": 5746.462613168, "phone": "+13478413633", "categories": [{"alias": "foodtrucks", "title": "Food Trucks"}, {"alias": "tacos", "title": "Tacos"}], "id": "taquitos-daza-brooklyn", "display_phone": "(347) 841-3633", "is_closed": false, "location": {"address2": "", "country": "US", "display_address": ["942 4th Ave", "Brooklyn, NY 11232"], "address1": "942 4th Ave", "city": "Brooklyn", "zip_code": "11232", "address3": null, "state": "NY"}, "coordinates": {"longitude": -74.0044835, "latitude": 40.6543463}, "review_count": 1, "image_url": "https://s3-media2.fl.yelpcdn.com/bphoto/8AzsF3s5Gyv4B8QsJe8M3Q/o.jpg", "rating": 5.0, "name": "Taquitos Daza", "url": "https://www.yelp.com/biz/taquitos-daza-brooklyn?adjust_creative=gBcvfFpabk3CnzmXKdYe3w&utm_campaign=yelp_api_v3&utm_medium=api_v3_business_search&utm_source=gBcvfFpabk3CnzmXKdYe3w"}, {"transactions": [], "distance": 8922.88182757, "phone": "+12017700789", "categories": [{"alias": "foodstands", "title": "Food Stands"}, {"alias": "mexican", "title": "Mexican"}], "id": "taquerias-veracruz-west-new-york", "display_phone": "(201) 770-0789", "is_closed": false, "location": {"address2": "", "country": "US", "display_address": ["434 51st St", "West New York, NJ 07093"], "address1": "434 51st St", "city": "West New York", "zip_code": "07093", "address3": "", "state": "NJ"}, "coordinates": {"longitude": -74.0197169, "latitude": 40.7833448}, "review_count": 19, "image_url": "https://s3-media1.fl.yelpcdn.com/bphoto/LTAu0U2NO87xVyx2zjzJCA/o.jpg", "price": "$", "rating": 4.0, "name": "Taquerias Veracruz", "url": "https://www.yelp.com/biz/taquerias-veracruz-west-new-york?adjust_creative=gBcvfFpabk3CnzmXKdYe3w&utm_campaign=yelp_api_v3&utm_medium=api_v3_business_search&utm_source=gBcvfFpabk3CnzmXKdYe3w"}, {"transactions": [], "distance": 17477.77197074, "phone": "", "categories": [{"alias": "mexican", "title": "Mexican"}, {"alias": "burgers", "title": "Burgers"}, {"alias": "sandwiches", "title": "Sandwiches"}], "id": "jordans-snack-bar-and-burger-new-york", "display_phone": "", "is_closed": false, "location": {"address2": "", "country": "US", "display_address": ["4419 Broadway", "New York, NY 10034"], "address1": "4419 Broadway", "city": "New York", "zip_code": "10034", "address3": null, "state": "NY"}, "coordinates": {"longitude": -73.93341, "latitude": 40.85566}, "review_count": 7, "image_url": "https://s3-media3.fl.yelpcdn.com/bphoto/jms_1HN0h7F9pTF77FYJ-w/o.jpg", "price": "$$", "rating": 4.0, "name": "Jordan's Snack Bar & Burger", "url": "https://www.yelp.com/biz/jordans-snack-bar-and-burger-new-york?adjust_creative=gBcvfFpabk3CnzmXKdYe3w&utm_campaign=yelp_api_v3&utm_medium=api_v3_business_search&utm_source=gBcvfFpabk3CnzmXKdYe3w"}, {"transactions": ["delivery", "pickup"], "distance": 6823.686895019999, "phone": "+17183811042", "categories": [{"alias": "bars", "title": "Bars"}, {"alias": "mexican", "title": "Mexican"}], "id": "vaqueros-brooklyn", "display_phone": "(718) 381-1042", "is_closed": false, "location": {"address2": null, "country": "US", "display_address": ["1541 Myrtle Ave", "Brooklyn, NY 11237"], "address1": "1541 Myrtle Ave", "city": "Brooklyn", "zip_code": "11237", "address3": null, "state": "NY"}, "coordinates": {"longitude": -73.913757, "latitude": 40.699451}, "review_count": 11, "image_url": "https://s3-media2.fl.yelpcdn.com/bphoto/a8mmK7VRBzJ3kTSplX2RkQ/o.jpg", "price": "$$", "rating": 3.0, "name": "Vaqueros", "url": "https://www.yelp.com/biz/vaqueros-brooklyn?adjust_creative=gBcvfFpabk3CnzmXKdYe3w&utm_campaign=yelp_api_v3&utm_medium=api_v3_business_search&utm_source=gBcvfFpabk3CnzmXKdYe3w"}, {"transactions": [], "distance": 1622.358594996, "phone": "+17185226880", "categories": [{"alias": "mexican", "title": "Mexican"}], "id": "yummy-taco-brooklyn-5", "display_phone": "(718) 522-6880", "is_closed": false, "location": {"address2": "", "country": "US", "display_address": ["52 Willoughby St", "Brooklyn, NY 11201"], "address1": "52 Willoughby St", "city": "Brooklyn", "zip_code": "11201", "address3": "", "state": "NY"}, "coordinates": {"longitude": -73.98681, "latitude": 40.69213}, "review_count": 33, "image_url": "https://s3-media1.fl.yelpcdn.com/bphoto/yYJDVfHS0uMnbSk3jGMN9w/o.jpg", "price": "$", "rating": 2.5, "name": "Yummy Taco", "url": "https://www.yelp.com/biz/yummy-taco-brooklyn-5?adjust_creative=gBcvfFpabk3CnzmXKdYe3w&utm_campaign=yelp_api_v3&utm_medium=api_v3_business_search&utm_source=gBcvfFpabk3CnzmXKdYe3w"}, {"transactions": [], "distance": 12010.193334578, "phone": "+17187797898", "categories": [{"alias": "mexican", "title": "Mexican"}], "id": "la-estancia-de-la-spiga-corona", "display_phone": "(718) 779-7898", "is_closed": false, "location": {"address2": "", "country": "US", "display_address": ["42-13 102nd St", "Corona, NY 11368"], "address1": "42-13 102nd St", "city": "Corona", "zip_code": "11368", "address3": "", "state": "NY"}, "coordinates": {"longitude": -73.8629729300737, "latitude": 40.7474930584431}, "review_count": 4, "image_url": "https://s3-media3.fl.yelpcdn.com/bphoto/PT8Jh5rtXeoAI8G9W4SU4Q/o.jpg", "rating": 4.5, "name": "La Estancia de La Spiga", "url": "https://www.yelp.com/biz/la-estancia-de-la-spiga-corona?adjust_creative=gBcvfFpabk3CnzmXKdYe3w&utm_campaign=yelp_api_v3&utm_medium=api_v3_business_search&utm_source=gBcvfFpabk3CnzmXKdYe3w"}, {"transactions": [], "distance": 6935.784828984, "phone": "+17184924303", "categories": [{"alias": "mexican", "title": "Mexican"}], "id": "tequilitas-restaurant-brooklyn", "display_phone": "(718) 492-4303", "is_closed": false, "location": {"address2": "", "country": "US", "display_address": ["5213 4th Ave", "Brooklyn, NY 11220"], "address1": "5213 4th Ave", "city": "Brooklyn", "zip_code": "11220", "address3": "", "state": "NY"}, "coordinates": {"longitude": -74.0138092041016, "latitude": 40.6448631286621}, "review_count": 13, "image_url": "https://s3-media2.fl.yelpcdn.com/bphoto/s0JDoPJZiN3cLEIWczcFqA/o.jpg", "price": "$", "rating": 3.5, "name": "Tequilitas Restaurant", "url": "https://www.yelp.com/biz/tequilitas-restaurant-brooklyn?adjust_creative=gBcvfFpabk3CnzmXKdYe3w&utm_campaign=yelp_api_v3&utm_medium=api_v3_business_search&utm_source=gBcvfFpabk3CnzmXKdYe3w"}, {"transactions": ["delivery", "pickup"], "distance": 1859.620694384, "phone": "+12124771616", "categories": [{"alias": "bars", "title": "Bars"}, {"alias": "mexican", "title": "Mexican"}], "id": "no-fun-new-york", "display_phone": "(212) 477-1616", "is_closed": false, "location": {"address2": null, "country": "US", "display_address": ["161 Ludlow St", "New York, NY 10002"], "address1": "161 Ludlow St", "city": "New York", "zip_code": "10002", "address3": "", "state": "NY"}, "coordinates": {"longitude": -73.98789, "latitude": 40.72145}, "review_count": 197, "image_url": "https://s3-media1.fl.yelpcdn.com/bphoto/UwCwUdzZTpGxzKklRY1rUQ/o.jpg", "price": "$$", "rating": 2.5, "name": "No Fun", "url": "https://www.yelp.com/biz/no-fun-new-york?adjust_creative=gBcvfFpabk3CnzmXKdYe3w&utm_campaign=yelp_api_v3&utm_medium=api_v3_business_search&utm_source=gBcvfFpabk3CnzmXKdYe3w"}, {"transactions": [], "distance": 14591.937278879997, "phone": "+17185758226", "categories": [{"alias": "kosher", "title": "Kosher"}, {"alias": "mexican", "title": "Mexican"}], "id": "carlos-and-gabbys-flushing", "display_phone": "(718) 575-8226", "is_closed": false, "location": {"address2": "", "country": "US", "display_address": ["67-11 Main St", "Flushing, NY 11367"], "address1": "67-11 Main St", "city": "Flushing", "zip_code": "11367", "address3": "", "state": "NY"}, "coordinates": {"longitude": -73.8252184, "latitude": 40.7337297}, "review_count": 95, "image_url": "https://s3-media1.fl.yelpcdn.com/bphoto/ngcG2sot3YniHI4zhOfE8w/o.jpg", "price": "$$", "rating": 2.5, "name": "Carlos & Gabby's", "url": "https://www.yelp.com/biz/carlos-and-gabbys-flushing?adjust_creative=gBcvfFpabk3CnzmXKdYe3w&utm_campaign=yelp_api_v3&utm_medium=api_v3_business_search&utm_source=gBcvfFpabk3CnzmXKdYe3w"}, {"transactions": ["delivery", "pickup"], "distance": 6246.626816824, "phone": "+13479852399", "categories": [{"alias": "cafes", "title": "Cafes"}, {"alias": "mexican", "title": "Mexican"}, {"alias": "spanish", "title": "Spanish"}], "id": "255-cafe-brooklyn", "display_phone": "(347) 985-2399", "is_closed": false, "location": {"address2": "", "country": "US", "display_address": ["255 Wilson Ave", "Brooklyn, NY 11237"], "address1": "255 Wilson Ave", "city": "Brooklyn", "zip_code": "11237", "address3": "", "state": "NY"}, "coordinates": {"longitude": -73.9208457055055, "latitude": 40.6980023617086}, "review_count": 3, "image_url": "https://s3-media1.fl.yelpcdn.com/bphoto/5jwWCAymCYh9OEN4aNEd0g/o.jpg", "price": "$", "rating": 3.5, "name": "255 Cafe", "url": "https://www.yelp.com/biz/255-cafe-brooklyn?adjust_creative=gBcvfFpabk3CnzmXKdYe3w&utm_campaign=yelp_api_v3&utm_medium=api_v3_business_search&utm_source=gBcvfFpabk3CnzmXKdYe3w"}, {"transactions": [], "distance": 4503.322619346, "phone": "+17185997292", "categories": [{"alias": "mexican", "title": "Mexican"}, {"alias": "hotdogs", "title": "Fast Food"}, {"alias": "tex-mex", "title": "Tex-Mex"}], "id": "taco-bell-brooklyn-14", "display_phone": "(718) 599-7292", "is_closed": false, "location": {"address2": "", "country": "US", "display_address": ["785 Flushing Ave", "Brooklyn, NY 11206"], "address1": "785 Flushing Ave", "city": "Brooklyn", "zip_code": "11206", "address3": "", "state": "NY"}, "coordinates": {"longitude": -73.941219, "latitude": 40.700852}, "review_count": 21, "image_url": "https://s3-media3.fl.yelpcdn.com/bphoto/-ewkOUaEYeP9FlsSWDBuNQ/o.jpg", "price": "$", "rating": 3.5, "name": "Taco Bell", "url": "https://www.yelp.com/biz/taco-bell-brooklyn-14?adjust_creative=gBcvfFpabk3CnzmXKdYe3w&utm_campaign=yelp_api_v3&utm_medium=api_v3_business_search&utm_source=gBcvfFpabk3CnzmXKdYe3w"}, {"transactions": ["delivery", "pickup"], "distance": 7478.28433068, "phone": "+17187066222", "categories": [{"alias": "mexican", "title": "Mexican"}, {"alias": "breakfast_brunch", "title": "Breakfast & Brunch"}, {"alias": "pizza", "title": "Pizza"}], "id": "fiesta-deli-woodside", "display_phone": "(718) 706-6222", "is_closed": false, "location": {"address2": "", "country": "US", "display_address": ["45-58 46th St", "Woodside, NY 11377"], "address1": "45-58 46th St", "city": "Woodside", "zip_code": "11377", "address3": "", "state": "NY"}, "coordinates": {"longitude": -73.9190190285444, "latitude": 40.7418825477362}, "review_count": 2, "image_url": "", "price": "$$", "rating": 5.0, "name": "Fiesta Deli", "url": "https://www.yelp.com/biz/fiesta-deli-woodside?adjust_creative=gBcvfFpabk3CnzmXKdYe3w&utm_campaign=yelp_api_v3&utm_medium=api_v3_business_search&utm_source=gBcvfFpabk3CnzmXKdYe3w"}, {"transactions": [], "distance": 18500.443167139998, "phone": "+17183582333", "categories": [{"alias": "tex-mex", "title": "Tex-Mex"}, {"alias": "mexican", "title": "Mexican"}], "id": "taco-hut-new-york", "display_phone": "(718) 358-2333", "is_closed": false, "location": {"address2": "", "country": "US", "display_address": ["3267 Francis Lewis Blvd", "New York, NY 11358"], "address1": "3267 Francis Lewis Blvd", "city": "New York", "zip_code": "11358", "address3": "", "state": "NY"}, "coordinates": {"longitude": -73.7907491, "latitude": 40.767954}, "review_count": 39, "image_url": "https://s3-media2.fl.yelpcdn.com/bphoto/MDgC4ut59sOP9mr-zBpuZw/o.jpg", "price": "$", "rating": 3.0, "name": "Taco Hut", "url": "https://www.yelp.com/biz/taco-hut-new-york?adjust_creative=gBcvfFpabk3CnzmXKdYe3w&utm_campaign=yelp_api_v3&utm_medium=api_v3_business_search&utm_source=gBcvfFpabk3CnzmXKdYe3w"}, {"transactions": ["delivery", "pickup"], "distance": 9743.826278319999, "phone": "+17187585822", "categories": [{"alias": "mexican", "title": "Mexican"}, {"alias": "bars", "title": "Bars"}], "id": "blue-agave-restaurant-bar-bensonhurst", "display_phone": "(718) 758-5822", "is_closed": false, "location": {"address2": "", "country": "US", "display_address": ["7201 16th Ave", "Bensonhurst, NY 11204"], "address1": "7201 16th Ave", "city": "Bensonhurst", "zip_code": "11204", "address3": "", "state": "NY"}, "coordinates": {"longitude": -73.9990214085986, "latitude": 40.6178877280414}, "review_count": 63, "image_url": "https://s3-media3.fl.yelpcdn.com/bphoto/exH-pHLZSDpCI2DmFbfznA/o.jpg", "price": "$$", "rating": 4.0, "name": "Blue Agave Restaurant Bar", "url": "https://www.yelp.com/biz/blue-agave-restaurant-bar-bensonhurst?adjust_creative=gBcvfFpabk3CnzmXKdYe3w&utm_campaign=yelp_api_v3&utm_medium=api_v3_business_search&utm_source=gBcvfFpabk3CnzmXKdYe3w"}, {"transactions": [], "distance": 21534.547157869998, "phone": "+17183568798", "categories": [{"alias": "spanish", "title": "Spanish"}, {"alias": "mexican", "title": "Mexican"}], "id": "la-candela-espanola-staten-island", "display_phone": "(718) 356-8798", "is_closed": false, "location": {"address2": "", "country": "US", "display_address": ["3921 Amboy Rd", "Staten Island, NY 10308"], "address1": "3921 Amboy Rd", "city": "Staten Island", "zip_code": "10308", "address3": "", "state": "NY"}, "coordinates": {"longitude": -74.1493507, "latitude": 40.5516364}, "review_count": 58, "image_url": "https://s3-media1.fl.yelpcdn.com/bphoto/wvFRcgt9GJPcsfKg_vnKbw/o.jpg", "price": "$$", "rating": 3.0, "name": "La Candela Espanola", "url": "https://www.yelp.com/biz/la-candela-espanola-staten-island?adjust_creative=gBcvfFpabk3CnzmXKdYe3w&utm_campaign=yelp_api_v3&utm_medium=api_v3_business_search&utm_source=gBcvfFpabk3CnzmXKdYe3w"}]}