{"region": {"center": {"longitude": -73.99429321289062, "latitude": 40.70544486444615}}, "total": 1496, "businesses": [{"transactions": [], "distance": 11148.377119584, "phone": "+17189682600", "categories": [{"alias": "mexican", "title": "Mexican"}], "id": "yummy-taco-brooklyn-6", "display_phone": "(718) 968-2600", "is_closed": false, "location": {"address2": "", "country": "US", "display_address": ["9625 Avenue L", "Brooklyn, NY 11236"], "address1": "9625 Avenue L", "city": "Brooklyn", "zip_code": "11236", "address3": "", "state": "NY"}, "coordinates": {"longitude": -73.8955383, "latitude": 40.6387901}, "review_count": 19, "image_url": "https://s3-media1.fl.yelpcdn.com/bphoto/MBLylWKSZi1P2K9GugBxEw/o.jpg", "price": "$", "rating": 2.5, "name": "Yummy Taco", "url": "https://www.yelp.com/biz/yummy-taco-brooklyn-6?adjust_creative=gBcvfFpabk3CnzmXKdYe3w&utm_campaign=yelp_api_v3&utm_medium=api_v3_business_search&utm_source=gBcvfFpabk3CnzmXKdYe3w"}, {"transactions": [], "distance": 7401.439955019999, "phone": "+17186334536", "categories": [{"alias": "mexican", "title": "Mexican"}], "id": "mi-pequeno-ranchito-restaurant-brooklyn", "display_phone": "(718) 633-4536", "is_closed": false, "location": {"address2": "", "country": "US", "display_address": ["4614 New Utrecht Ave", "Brooklyn, NY 11219"], "address1": "4614 New Utrecht Ave", "city": "Brooklyn", "zip_code": "11219", "address3": "", "state": "NY"}, "coordinates": {"longitude": -73.9944920424362, "latitude": 40.6388833181132}, "review_count": 2, "image_url": "", "rating": 4.0, "name": "Mi Pequeno Ranchito Restaurant", "url": "https://www.yelp.com/biz/mi-pequeno-ranchito-restaurant-brooklyn?adjust_creative=gBcvfFpabk3CnzmXKdYe3w&utm_campaign=yelp_api_v3&utm_medium=api_v3_business_search&utm_source=gBcvfFpabk3CnzmXKdYe3w"}, {"transactions": [], "distance": 18168.57472838, "phone": "+12127402496", "categories": [{"alias": "mexican", "title": "Mexican"}], "id": "taqueria-los-jarritos-new-york", "display_phone": "(212) 740-2496", "is_closed": false, "location": {"address2": "", "country": "US", "display_address": ["121 Nagle Ave", "New York, NY 10040"], "address1": "121 Nagle Ave", "city": "New York", "zip_code": "10040", "address3": "", "state": "NY"}, "coordinates": {"longitude": -73.92697, "latitude": 40.86061}, "review_count": 15, "image_url": "https://s3-media2.fl.yelpcdn.com/bphoto/lYVlfuDiO6qDTLPW4LRVPg/o.jpg", "price": "$", "rating": 4.0, "name": "Taqueria Los Jarritos", "url": "https://www.yelp.com/biz/taqueria-los-jarritos-new-york?adjust_creative=gBcvfFpabk3CnzmXKdYe3w&utm_campaign=yelp_api_v3&utm_medium=api_v3_business_search&utm_source=gBcvfFpabk3CnzmXKdYe3w"}, {"transactions": [], "distance": 5743.213033839999, "phone": "+12128406116", "categories": [{"alias": "mexican", "title": "Mexican"}], "id": "la-cafe-new-york-2", "display_phone": "(212) 840-6116", "is_closed": false, "location": {"address2": "", "country": "US", "display_address": ["17 W 45th St", "New York, NY 10036"], "address1": "17 W 45th St", "city": "New York", "zip_code": "10036", "address3": "", "state": "NY"}, "coordinates": {"longitude": -73.9803085327148, "latitude": 40.7560043334961}, "review_count": 1, "image_url": "", "rating": 4.0, "name": "La Cafe", "url": "https://www.yelp.com/biz/la-cafe-new-york-2?adjust_creative=gBcvfFpabk3CnzmXKdYe3w&utm_campaign=yelp_api_v3&utm_medium=api_v3_business_search&utm_source=gBcvfFpabk3CnzmXKdYe3w"}, {"transactions": [], "distance": 2031.2218827059999, "phone": "", "categories": [{"alias": "tradamerican", "title": "American (Traditional)"}, {"alias": "mexican", "title": "Mexican"}], "id": "luntey-commons-brooklyn", "display_phone": "", "is_closed": false, "location": {"address2": "", "country": "US", "display_address": ["213 Duffield St", "Brooklyn, NY 11201"], "address1": "213 Duffield St", "city": "Brooklyn", "zip_code": "11201", "address3": "", "state": "NY"}, "coordinates": {"longitude": -73.9812179287965, "latitude": 40.6901007787083}, "review_count": 1, "image_url": "https://s3-media2.fl.yelpcdn.com/bphoto/hpBS1WBQBOUigLdiW1LBHw/o.jpg", "price": "$", "rating": 4.0, "name": "Luntey Commons", "url": "https://www.yelp.com/biz/luntey-commons-brooklyn?adjust_creative=gBcvfFpabk3CnzmXKdYe3w&utm_campaign=yelp_api_v3&utm_medium=api_v3_business_search&utm_source=gBcvfFpabk3CnzmXKdYe3w"}, {"transactions": ["delivery", "pickup"], "distance": 4445.945785929999, "phone": "+12122529800", "categories": [{"alias": "mexican", "title": "Mexican"}, {"alias": "tex-mex", "title": "Tex-Mex"}, {"alias": "latin", "title": "Latin American"}], "id": "the-original-fresh-tortillas-grill-new-york-3", "display_phone": "(212) 252-9800", "is_closed": false, "location": {"address2": "", "country": "US", "display_address": ["573 2nd Ave", "New York, NY 10016"], "address1": "573 2nd Ave", "city": "New York", "zip_code": "10016", "address3": "", "state": "NY"}, "coordinates": {"longitude": -73.97735, "latitude": 40.74332}, "review_count": 42, "image_url": "https://s3-media2.fl.yelpcdn.com/bphoto/EX25wb43ZwAJi59OBH6XwQ/o.jpg", "price": "$", "rating": 2.5, "name": "The Original Fresh Tortillas Grill", "url": "https://www.yelp.com/biz/the-original-fresh-tortillas-grill-new-york-3?adjust_creative=gBcvfFpabk3CnzmXKdYe3w&utm_campaign=yelp_api_v3&utm_medium=api_v3_business_search&utm_source=gBcvfFpabk3CnzmXKdYe3w"}, {"transactions": [], "distance": 6871.768180595999, "phone": "+17188216072", "categories": [{"alias": "mexican", "title": "Mexican"}], "id": "mi-sueno-mexican-restaurant-brooklyn", "display_phone": "(718) 821-6072", "is_closed": false, "location": {"address2": null, "country": "US", "display_address": ["283 Wyckoff Ave", "Brooklyn, NY 11237"], "address1": "283 Wyckoff Ave", "city": "Brooklyn", "zip_code": "11237", "address3": null, "state": "NY"}, "coordinates": {"longitude": -73.913002, "latitude": 40.700829}, "review_count": 3, "image_url": "https://s3-media2.fl.yelpcdn.com/bphoto/LeU_YXbOLox1bE0MfCNLWA/o.jpg", "price": "$$", "rating": 4.5, "name": "Mi Sueno Mexican Restaurant", "url": "https://www.yelp.com/biz/mi-sueno-mexican-restaurant-brooklyn?adjust_creative=gBcvfFpabk3CnzmXKdYe3w&utm_campaign=yelp_api_v3&utm_medium=api_v3_business_search&utm_source=gBcvfFpabk3CnzmXKdYe3w"}, {"transactions": ["delivery", "pickup"], "distance": 5909.41762234, "phone": "+17187888484", "categories": [{"alias": "mexican", "title": "Mexican"}], "id": "los-tres-potrillos-brooklyn", "display_phone": "(718) 788-8484", "is_closed": false, "location": {"address2": "", "country": "US", "display_address": ["1004 4th Ave", "Brooklyn, NY 11232"], "address1": "1004 4th Ave", "city": "Brooklyn", "zip_code": "11232", "address3": "", "state": "NY"}, "coordinates": {"longitude": -74.0061438828707, "latitude": 40.6528298556805}, "review_count": 40, "image_url": "https://s3-media2.fl.yelpcdn.com/bphoto/wNom7lNMw7Sg2kSVVxBmsw/o.jpg", "price": "$$", "rating": 3.0, "name": "Los Tres Potrillos", "url": "https://www.yelp.com/biz/los-tres-potrillos-brooklyn?adjust_creative=gBcvfFpabk3CnzmXKdYe3w&utm_campaign=yelp_api_v3&utm_medium=api_v3_business_search&utm_source=gBcvfFpabk3CnzmXKdYe3w"}, {"transactions": [], "distance": 15072.55701384, "phone": "", "categories": [{"alias": "mexican", "title": "Mexican"}], "id": "ricos-tacos-mexicanos-new-york", "display_phone": "", "is_closed": false, "location": {"address2": "", "country": "US", "display_address": ["Broadway & 159th", "New York, NY 10032"], "address1": "Broadway & 159th", "city": "New York", "zip_code": "10032", "address3": "", "state": "NY"}, "coordinates": {"longitude": -73.9440273325409, "latitude": 40.8355407549309}, "review_count": 2, "image_url": "https://s3-media4.fl.yelpcdn.com/bphoto/MEIBHTt1HIVtg4Ahu7inRA/o.jpg", "rating": 5.0, "name": "Ricos Tacos Mexicanos", "url": "https://www.yelp.com/biz/ricos-tacos-mexicanos-new-york?adjust_creative=gBcvfFpabk3CnzmXKdYe3w&utm_campaign=yelp_api_v3&utm_medium=api_v3_business_search&utm_source=gBcvfFpabk3CnzmXKdYe3w"}, {"transactions": ["delivery", "pickup"], "distance": 6568.77709506, "phone": "+16465967293", "categories": [{"alias": "tex-mex", "title": "Tex-Mex"}, {"alias": "beerbar", "title": "Beer Bar"}, {"alias": "mexican", "title": "Mexican"}], "id": "el-original-tx-mx-new-york", "display_phone": "(646) 596-7293", "is_closed": false, "location": {"address2": "", "country": "US", "display_address": ["735 10th Ave", "New York, NY 10019"], "address1": "735 10th Ave", "city": "New York", "zip_code": "10019", "address3": "", "state": "NY"}, "coordinates": {"longitude": -73.9921226352453, "latitude": 40.764496514454}, "review_count": 279, "image_url": "https://s3-media2.fl.yelpcdn.com/bphoto/-RUOgBe5XapWOrLQv8Tnlg/o.jpg", "price": "$$", "rating": 3.0, "name": "El Original TX MX", "url": "https://www.yelp.com/biz/el-original-tx-mx-new-york?adjust_creative=gBcvfFpabk3CnzmXKdYe3w&utm_campaign=yelp_api_v3&utm_medium=api_v3_business_search&utm_source=gBcvfFpabk3CnzmXKdYe3w"}, {"transactions": [], "distance": 17550.56402828, "phone": "+19177923395", "categories": [{"alias": "mexican", "title": "Mexican"}], "id": "las-sirenas-restaurant-bronx", "display_phone": "(917) 792-3395", "is_closed": false, "location": {"address2": null, "country": "US", "display_address": ["1896 Jerome Ave", "Bronx, NY 10453"], "address1": "1896 Jerome Ave", "city": "Bronx", "zip_code": "10453", "address3": "", "state": "NY"}, "coordinates": {"longitude": -73.9107464253902, "latitude": 40.8498441427946}, "review_count": 4, "image_url": "https://s3-media3.fl.yelpcdn.com/bphoto/sjmT4B_5GgxNQzX9gYF1pQ/o.jpg", "price": "$", "rating": 3.5, "name": "Las Sirenas Restaurant", "url": "https://www.yelp.com/biz/las-sirenas-restaurant-bronx?adjust_creative=gBcvfFpabk3CnzmXKdYe3w&utm_campaign=yelp_api_v3&utm_medium=api_v3_business_search&utm_source=gBcvfFpabk3CnzmXKdYe3w"}, {"transactions": ["delivery", "pickup"], "distance": 7215.47428066, "phone": "+17183891122", "categories": [{"alias": "mexican", "title": "Mexican"}], "id": "sunnyside-fresh-taco-sunnyside-2", "display_phone": "(718) 389-1122", "is_closed": false, "location": {"address2": "", "country": "US", "display_address": ["4222 Greenpoint Ave", "Sunnyside, NY 11104"], "address1": "4222 Greenpoint Ave", "city": "Sunnyside", "zip_code": "11104", "address3": "", "state": "NY"}, "coordinates": {"longitude": -73.9226629, "latitude": 40.7404526}, "review_count": 54, "image_url": "https://s3-media1.fl.yelpcdn.com/bphoto/dlMyLGa-M_SftMg9tcAd0g/o.jpg", "price": "$", "rating": 3.0, "name": "Sunnyside Fresh Taco", "url": "https://www.yelp.com/biz/sunnyside-fresh-taco-sunnyside-2?adjust_creative=gBcvfFpabk3CnzmXKdYe3w&utm_campaign=yelp_api_v3&utm_medium=api_v3_business_search&utm_source=gBcvfFpabk3CnzmXKdYe3w"}, {"transactions": [], "distance": 4134.99313448, "phone": "", "categories": [{"alias": "mexican", "title": "Mexican"}, {"alias": "foodstands", "title": "Food Stands"}], "id": "virgin-mary-tacos-new-york", "display_phone": "", "is_closed": false, "location": {"address2": "", "country": "US", "display_address": ["370 E 28th St", "New York, NY 10016"], "address1": "370 E 28th St", "city": "New York", "zip_code": "10016", "address3": "", "state": "NY"}, "coordinates": {"longitude": -73.9766541, "latitude": 40.7400398}, "review_count": 1, "image_url": "https://s3-media1.fl.yelpcdn.com/bphoto/E34SNRK4Xy2O_zNC2MfEKA/o.jpg", "rating": 4.0, "name": "Virgin Mary Tacos", "url": "https://www.yelp.com/biz/virgin-mary-tacos-new-york?adjust_creative=gBcvfFpabk3CnzmXKdYe3w&utm_campaign=yelp_api_v3&utm_medium=api_v3_business_search&utm_source=gBcvfFpabk3CnzmXKdYe3w"}, {"transactions": [], "distance": 5815.080203682, "phone": "+17184171015", "categories": [{"alias": "mexican", "title": "Mexican"}], "id": "tres-marias-taco-deli-new-york", "display_phone": "(718) 417-1015", "is_closed": false, "location": {"address2": "", "country": "US", "display_address": ["146 Wilson Ave", "New York, NY 11221"], "address1": "146 Wilson Ave", "city": "New York", "zip_code": "11221", "address3": null, "state": "NY"}, "coordinates": {"longitude": -73.925636, "latitude": 40.700363}, "review_count": 2, "image_url": "", "rating": 3.0, "name": "Tres Marias Taco Deli", "url": "https://www.yelp.com/biz/tres-marias-taco-deli-new-york?adjust_creative=gBcvfFpabk3CnzmXKdYe3w&utm_campaign=yelp_api_v3&utm_medium=api_v3_business_search&utm_source=gBcvfFpabk3CnzmXKdYe3w"}, {"transactions": [], "distance": 10531.727599255999, "phone": "+17182362793", "categories": [{"alias": "mexican", "title": "Mexican"}], "id": "mezcals-brooklyn", "display_phone": "(718) 236-2793", "is_closed": false, "location": {"address2": "", "country": "US", "display_address": ["1470 86th St", "Brooklyn, NY 11228"], "address1": "1470 86th St", "city": "Brooklyn", "zip_code": "11228", "address3": "", "state": "NY"}, "coordinates": {"longitude": -74.0101776123047, "latitude": 40.611499786377}, "review_count": 35, "image_url": "https://s3-media1.fl.yelpcdn.com/bphoto/0RkpnLE9nwCG2yR1ihY6uA/o.jpg", "price": "$$", "rating": 2.5, "name": "Mezcals", "url": "https://www.yelp.com/biz/mezcals-brooklyn?adjust_creative=gBcvfFpabk3CnzmXKdYe3w&utm_campaign=yelp_api_v3&utm_medium=api_v3_business_search&utm_source=gBcvfFpabk3CnzmXKdYe3w"}, {"transactions": [], "distance": 7408.9346514, "phone": "+17188216563", "categories": [{"alias": "pastashops", "title": "Pasta Shops"}, {"alias": "mexican", "title": "Mexican"}, {"alias": "sandwiches", "title": "Sandwiches"}], "id": "fresh-taco-ridgewood", "display_phone": "(718) 821-6563", "is_closed": false, "location": {"address2": "", "country": "US", "display_address": ["799 Cypress Ave", "Ridgewood, NY 11385"], "address1": "799 Cypress Ave", "city": "Ridgewood", "zip_code": "11385", "address3": "", "state": "NY"}, "coordinates": {"longitude": -73.90664935112, "latitude": 40.7004794161793}, "review_count": 73, "image_url": "https://s3-media1.fl.yelpcdn.com/bphoto/UKEvoPznD8gExbKg8n6C7A/o.jpg", "price": "$", "rating": 3.0, "name": "Fresh Taco", "url": "https://www.yelp.com/biz/fresh-taco-ridgewood?adjust_creative=gBcvfFpabk3CnzmXKdYe3w&utm_campaign=yelp_api_v3&utm_medium=api_v3_business_search&utm_source=gBcvfFpabk3CnzmXKdYe3w"}, {"transactions": ["delivery", "pickup"], "distance": 15080.17080138, "phone": "+16469227999", "categories": [{"alias": "mexican", "title": "Mexican"}, {"alias": "breakfast_brunch", "title": "Breakfast & Brunch"}, {"alias": "intlgrocery", "title": "International Grocery"}], "id": "the-mexican-culture-new-york", "display_phone": "(646) 922-7999", "is_closed": false, "location": {"address2": "", "country": "US", "display_address": ["2017 Amsterdam Ave", "Bet 160 & 161", "New York, NY 10032"], "address1": "2017 Amsterdam Ave", "city": "New York", "zip_code": "10032", "address3": "Bet 160 & 161", "state": "NY"}, "coordinates": {"longitude": -73.94044, "latitude": 40.83476}, "review_count": 9, "image_url": "https://s3-media1.fl.yelpcdn.com/bphoto/tngv2ErTZ9K2jMi1FJBWTQ/o.jpg", "price": "$", "rating": 3.5, "name": "The Mexican Culture", "url": "https://www.yelp.com/biz/the-mexican-culture-new-york?adjust_creative=gBcvfFpabk3CnzmXKdYe3w&utm_campaign=yelp_api_v3&utm_medium=api_v3_business_search&utm_source=gBcvfFpabk3CnzmXKdYe3w"}, {"transactions": [], "distance": 16348.462687259998, "phone": "+17184838136", "categories": [{"alias": "delis", "title": "Delis"}, {"alias": "sandwiches", "title": "Sandwiches"}, {"alias": "mexican", "title": "Mexican"}], "id": "tulcimex-corporation-bronx", "display_phone": "(718) 483-8136", "is_closed": false, "location": {"address2": null, "country": "US", "display_address": ["1197 Bryant Ave", "Bronx, NY 10459"], "address1": "1197 Bryant Ave", "city": "Bronx", "zip_code": "10459", "address3": null, "state": "NY"}, "coordinates": {"longitude": -73.8890668004751, "latitude": 40.8289175480604}, "review_count": 11, "image_url": "https://s3-media4.fl.yelpcdn.com/bphoto/fUq7ZtAUk4t5OmeDHPV8FQ/o.jpg", "price": "$", "rating": 3.5, "name": "Tulcimex Corporation", "url": "https://www.yelp.com/biz/tulcimex-corporation-bronx?adjust_creative=gBcvfFpabk3CnzmXKdYe3w&utm_campaign=yelp_api_v3&utm_medium=api_v3_business_search&utm_source=gBcvfFpabk3CnzmXKdYe3w"}, {"transactions": [], "distance": 4277.3823877919995, "phone": "+17186230867", "categories": [{"alias": "mexican", "title": "Mexican"}], "id": "yummy-taco-new-york-2", "display_phone": "(718) 623-0867", "is_closed": false, "location": {"address2": "", "country": "US", "display_address": ["774 Washington Ave", "New York, NY 11238"], "address1": "774 Washington Ave", "city": "New York", "zip_code": "11238", "address3": "", "state": "NY"}, "coordinates": {"longitude": -73.963448, "latitude": 40.674904}, "review_count": 16, "image_url": "https://s3-media1.fl.yelpcdn.com/bphoto/NlnsnJuPhbzbvZl1zajzRQ/o.jpg", "price": "$", "rating": 3.0, "name": "Yummy Taco", "url": "https://www.yelp.com/biz/yummy-taco-new-york-2?adjust_creative=gBcvfFpabk3CnzmXKdYe3w&utm_campaign=yelp_api_v3&utm_medium=api_v3_business_search&utm_source=gBcvfFpabk3CnzmXKdYe3w"}, {"transactions": [], "distance": 3890.802826392, "phone": "", "categories": [{"alias": "foodstands", "title": "Food Stands"}, {"alias": "mexican", "title": "Mexican"}], "id": "naranjos-taco-truck-manhattan", "display_phone": "", "is_closed": false, "location": {"address2": "", "country": "US", "display_address": ["936 Broadway", "Manhattan, NY 10010"], "address1": "936 Broadway", "city": "Manhattan", "zip_code": "10010", "address3": "", "state": "NY"}, "coordinates": {"longitude": -73.9891129, "latitude": 40.7402496}, "review_count": 5, "image_url": "https://s3-media2.fl.yelpcdn.com/bphoto/vWXcneyRQmYyEWi-LcZPtQ/o.jpg", "price": "$", "rating": 4.0, "name": "Naranjo's Taco Truck", "url": "https://www.yelp.com/biz/naranjos-taco-truck-manhattan?adjust_creative=gBcvfFpabk3CnzmXKdYe3w&utm_campaign=yelp_api_v3&utm_medium=api_v3_business_search&utm_source=gBcvfFpabk3CnzmXKdYe3w"}, {"transactions": ["delivery", "pickup"], "distance": 6120.247921568, "phone": "+17185522255", "categories": [{"alias": "mexican", "title": "Mexican"}], "id": "taqueria-izucar-ii-brooklyn", "display_phone": "(718) 552-2255", "is_closed": false, "location": {"address2": null, "country": "US", "display_address": ["1480 Dekalb Ave", "Brooklyn, NY 11237"], "address1": "1480 Dekalb Ave", "city": "Brooklyn", "zip_code": "11237", "address3": null, "state": "NY"}, "coordinates": {"longitude": -73.92195, "latitude": 40.70138}, "review_count": 2, "image_url": "https://s3-media3.fl.yelpcdn.com/bphoto/1C2cgX3JmU-cMFnLmOWNqw/o.jpg", "price": "$", "rating": 5.0, "name": "Taqueria Izucar II", "url": "https://www.yelp.com/biz/taqueria-izucar-ii-brooklyn?adjust_creative=gBcvfFpabk3CnzmXKdYe3w&utm_campaign=yelp_api_v3&utm_medium=api_v3_business_search&utm_source=gBcvfFpabk3CnzmXKdYe3w"}, {"transactions": ["delivery", "pickup"], "distance": 8879.27917428, "phone": "+17189320002", "categories": [{"alias": "mexican", "title": "Mexican"}], "id": "yummy-taco-astoria-5", "display_phone": "(718) 932-0002", "is_closed": false, "location": {"address2": "", "country": "US", "display_address": ["48-14 Broadway", "Newtown Rd", "Astoria, NY 11106"], "address1": "48-14 Broadway", "city": "Astoria", "zip_code": "11106", "address3": "Newtown Rd", "state": "NY"}, "coordinates": {"longitude": -73.9125410964203, "latitude": 40.75583354633}, "review_count": 58, "image_url": "https://s3-media2.fl.yelpcdn.com/bphoto/fxGPAev85OUfNLFH2NwHnw/o.jpg", "price": "$", "rating": 3.0, "name": "Yummy Taco", "url": "https://www.yelp.com/biz/yummy-taco-astoria-5?adjust_creative=gBcvfFpabk3CnzmXKdYe3w&utm_campaign=yelp_api_v3&utm_medium=api_v3_business_search&utm_source=gBcvfFpabk3CnzmXKdYe3w"}, {"transactions": ["delivery", "pickup"], "distance": 9486.742260019999, "phone": "+13474924488", "categories": [{"alias": "mexican", "title": "Mexican"}, {"alias": "salvadoran", "title": "Salvadoran"}], "id": "puerta-del-sol-brooklyn", "display_phone": "(347) 492-4488", "is_closed": false, "location": {"address2": "", "country": "US", "display_address": ["1550 Bay Ridge Ave", "Brooklyn, NY 11219"], "address1": "1550 Bay Ridge Ave", "city": "Brooklyn", "zip_code": "11219", "address3": "", "state": "NY"}, "coordinates": {"longitude": -73.9983647, "latitude": 40.6201985}, "review_count": 9, "image_url": "https://s3-media4.fl.yelpcdn.com/bphoto/eoIVjwXHRm_hmOTmFDlZ1Q/o.jpg", "price": "$", "rating": 2.5, "name": "Puerta Del Sol", "url": "https://www.yelp.com/biz/puerta-del-sol-brooklyn?adjust_creative=gBcvfFpabk3CnzmXKdYe3w&utm_campaign=yelp_api_v3&utm_medium=api_v3_business_search&utm_source=gBcvfFpabk3CnzmXKdYe3w"}, {"transactions": ["delivery", "pickup"], "distance": 9004.12694346, "phone": "+13474353434", "categories": [{"alias": "mexican", "title": "Mexican"}, {"alias": "juicebars", "title": "Juice Bars & Smoothies"}], "id": "ovis-express-brooklyn", "display_phone": "(347) 435-3434", "is_closed": false, "location": {"address2": null, "country": "US", "display_address": ["37 Hillel Pl", "Brooklyn, NY 11210"], "address1": "37 Hillel Pl", "city": "Brooklyn", "zip_code": "11210", "address3": "", "state": "NY"}, "coordinates": {"longitude": -73.9481437951326, "latitude": 40.6325905770063}, "review_count": 7, "image_url": "https://s3-media3.fl.yelpcdn.com/bphoto/6VMGmETPSEoS4_yTs2HVgw/o.jpg", "rating": 4.0, "name": "Ovi's Express", "url": "https://www.yelp.com/biz/ovis-express-brooklyn?adjust_creative=gBcvfFpabk3CnzmXKdYe3w&utm_campaign=yelp_api_v3&utm_medium=api_v3_business_search&utm_source=gBcvfFpabk3CnzmXKdYe3w"}, {"transactions": ["delivery", "pickup"], "distance": 14861.551618419999, "phone": "+17189911606", "categories": [{"alias": "mexican", "title": "Mexican"}, {"alias": "breakfast_brunch", "title": "Breakfast & Brunch"}, {"alias": "foodtrucks", "title": "Food Trucks"}], "id": "city-tamale-bronx-3", "display_phone": "(718) 991-1606", "is_closed": false, "location": {"address2": "", "country": "US", "display_address": ["1316 Oakpoint Ave", "Bronx, NY 10474"], "address1": "1316 Oakpoint Ave", "city": "Bronx", "zip_code": "10474", "address3": "", "state": "NY"}, "coordinates": {"longitude": -73.884651184082, "latitude": 40.8101615905762}, "review_count": 6, "image_url": "https://s3-media2.fl.yelpcdn.com/bphoto/u5bcp-umkWNVcqje5wyliA/o.jpg", "price": "$", "rating": 5.0, "name": "City Tamale", "url": "https://www.yelp.com/biz/city-tamale-bronx-3?adjust_creative=gBcvfFpabk3CnzmXKdYe3w&utm_campaign=yelp_api_v3&utm_medium=api_v3_business_search&utm_source=gBcvfFpabk3CnzmXKdYe3w"}, {"transactions": ["delivery", "pickup"], "distance": 10567.010125679999, "phone": "+17182348226", "categories": [{"alias": "mexican", "title": "Mexican"}], "id": "pacos-tacos-plus-brooklyn-2", "display_phone": "(718) 234-8226", "is_closed": false, "location": {"address2": "", "country": "US", "display_address": ["1504 86th St", "Brooklyn, NY 11228"], "address1": "1504 86th St", "city": "Brooklyn", "zip_code": "11228", "address3": "", "state": "NY"}, "coordinates": {"longitude": -74.0095296, "latitude": 40.61112}, "review_count": 101, "image_url": "https://s3-media3.fl.yelpcdn.com/bphoto/vCFO4G2PuLdPKui0KFQhGw/o.jpg", "price": "$$", "rating": 2.5, "name": "Paco's Tacos Plus", "url": "https://www.yelp.com/biz/pacos-tacos-plus-brooklyn-2?adjust_creative=gBcvfFpabk3CnzmXKdYe3w&utm_campaign=yelp_api_v3&utm_medium=api_v3_business_search&utm_source=gBcvfFpabk3CnzmXKdYe3w"}, {"transactions": [], "distance": 11295.2091169, "phone": "+12128760700", "categories": [{"alias": "mexican", "title": "Mexican"}], "id": "don-paco-lopez-tortas-manhattan", "display_phone": "(212) 876-0700", "is_closed": false, "location": {"address2": "", "country": "US", "display_address": ["2131 3rd Ave", "Manhattan, NY 10029"], "address1": "2131 3rd Ave", "city": "Manhattan", "zip_code": "10029", "address3": "", "state": "NY"}, "coordinates": {"longitude": -73.939522, "latitude": 40.798164}, "review_count": 20, "image_url": "https://s3-media4.fl.yelpcdn.com/bphoto/ZdUW4SAiFxNv4e2IkICSpw/o.jpg", "price": "$", "rating": 3.5, "name": "Don Paco Lopez Tortas", "url": "https://www.yelp.com/biz/don-paco-lopez-tortas-manhattan?adjust_creative=gBcvfFpabk3CnzmXKdYe3w&utm_campaign=yelp_api_v3&utm_medium=api_v3_business_search&utm_source=gBcvfFpabk3CnzmXKdYe3w"}, {"transactions": ["delivery", "pickup"], "distance": 10659.34600818, "phone": "+12128286520", "categories": [{"alias": "mexican", "title": "Mexican"}], "id": "taqueria-guadalupe-new-york", "display_phone": "(212) 828-6520", "is_closed": false, "location": {"address2": "", "country": "US", "display_address": ["1743 Lexington Ave", "New York, NY 10029"], "address1": "1743 Lexington Ave", "city": "New York", "zip_code": "10029", "address3": "", "state": "NY"}, "coordinates": {"longitude": -73.944923, "latitude": 40.793716}, "review_count": 31, "image_url": "https://s3-media1.fl.yelpcdn.com/bphoto/zo9S9BK22P2XFMvyM_gDVQ/o.jpg", "price": "$$", "rating": 2.5, "name": "Taqueria Guadalupe", "url": "https://www.yelp.com/biz/taqueria-guadalupe-new-york?adjust_creative=gBcvfFpabk3CnzmXKdYe3w&utm_campaign=yelp_api_v3&utm_medium=api_v3_business_search&utm_source=gBcvfFpabk3CnzmXKdYe3w"}, {"transactions": [], "distance": 3614.9799749999997, "phone": "+17185996900", "categories": [{"alias": "bars", "title": "Bars"}, {"alias": "tacos", "title": "Tacos"}, {"alias": "chicken_wings", "title": "Chicken Wings"}], "id": "the-whiskey-annex-brooklyn", "display_phone": "(718) 599-6900", "is_closed": false, "location": {"address2": "", "country": "US", "display_address": ["44 Berry St", "Brooklyn, NY 11249"], "address1": "44 Berry St", "city": "Brooklyn", "zip_code": "11249", "address3": null, "state": "NY"}, "coordinates": {"longitude": -73.956733, "latitude": 40.721141}, "review_count": 3, "image_url": "https://s3-media1.fl.yelpcdn.com/bphoto/qaRLXpk9XizKFd7uvUKlUQ/o.jpg", "price": "$$", "rating": 4.5, "name": "The Whiskey Annex", "url": "https://www.yelp.com/biz/the-whiskey-annex-brooklyn?adjust_creative=gBcvfFpabk3CnzmXKdYe3w&utm_campaign=yelp_api_v3&utm_medium=api_v3_business_search&utm_source=gBcvfFpabk3CnzmXKdYe3w"}, {"transactions": ["delivery", "pickup"], "distance": 17896.20439409, "phone": "+13478610364", "categories": [{"alias": "pizza", "title": "Pizza"}, {"alias": "mexican", "title": "Mexican"}, {"alias": "bakeries", "title": "Bakeries"}], "id": "cafe-con-pan-staten-island", "display_phone": "(347) 861-0364", "is_closed": false, "location": {"address2": "", "country": "US", "display_address": ["32 New Dorp Plz", "Staten Island, NY 10306"], "address1": "32 New Dorp Plz", "city": "Staten Island", "zip_code": "10306", "address3": "", "state": "NY"}, "coordinates": {"longitude": -74.1163063662258, "latitude": 40.5737987704037}, "review_count": 8, "image_url": "https://s3-media2.fl.yelpcdn.com/bphoto/cTkv7sNGC4ndq1Dwp4s3Iw/o.jpg", "price": "$$", "rating": 4.0, "name": "Cafe Con Pan", "url": "https://www.yelp.com/biz/cafe-con-pan-staten-island?adjust_creative=gBcvfFpabk3CnzmXKdYe3w&utm_campaign=yelp_api_v3&utm_medium=api_v3_business_search&utm_source=gBcvfFpabk3CnzmXKdYe3w"}, {"transactions": ["delivery", "pickup"], "distance": 11257.668042719999, "phone": "+16463516895", "categories": [{"alias": "mexican", "title": "Mexican"}], "id": "hot-jalape\u00f1o-new-york-2", "display_phone": "(646) 351-6895", "is_closed": false, "location": {"address2": "", "country": "US", "display_address": ["219 E 116th St", "New York, NY 10029"], "address1": "219 E 116th St", "city": "New York", "zip_code": "10029", "address3": "", "state": "NY"}, "coordinates": {"longitude": -73.9390864432851, "latitude": 40.7976444478292}, "review_count": 48, "image_url": "https://s3-media3.fl.yelpcdn.com/bphoto/MyW5KEDufmC5Mq9J3IbsHg/o.jpg", "price": "$$", "rating": 3.5, "name": "Hot Jalape\u00f1o", "url": "https://www.yelp.com/biz/hot-jalape%C3%B1o-new-york-2?adjust_creative=gBcvfFpabk3CnzmXKdYe3w&utm_campaign=yelp_api_v3&utm_medium=api_v3_business_search&utm_source=gBcvfFpabk3CnzmXKdYe3w"}, {"transactions": ["pickup"], "distance": 3130.042058952, "phone": "+19179091865", "categories": [{"alias": "icecream", "title": "Ice Cream & Frozen Yogurt"}, {"alias": "poke", "title": "Poke"}, {"alias": "mexican", "title": "Mexican"}], "id": "blossom-ice-cream-and-the-pok\u00e9-brooklyn", "display_phone": "(917) 909-1865", "is_closed": false, "location": {"address2": "", "country": "US", "display_address": ["54 N 6th St", "Brooklyn, NY 11249"], "address1": "54 N 6th St", "city": "Brooklyn", "zip_code": "11249", "address3": null, "state": "NY"}, "coordinates": {"longitude": -73.9619604, "latitude": 40.7193584}, "review_count": 12, "image_url": "https://s3-media1.fl.yelpcdn.com/bphoto/1eVFrFwbaO8A1oNZfUNRuA/o.jpg", "price": "$$", "rating": 3.5, "name": "Blossom Ice Cream & The Pok\u00e9", "url": "https://www.yelp.com/biz/blossom-ice-cream-and-the-pok%C3%A9-brooklyn?adjust_creative=gBcvfFpabk3CnzmXKdYe3w&utm_campaign=yelp_api_v3&utm_medium=api_v3_business_search&utm_source=gBcvfFpabk3CnzmXKdYe3w"}, {"transactions": ["delivery", "pickup"], "distance": 7027.898139762, "phone": "+17184318062", "categories": [{"alias": "mexican", "title": "Mexican"}], "id": "yummy-taco-brooklyn", "display_phone": "(718) 431-8062", "is_closed": false, "location": {"address2": "", "country": "US", "display_address": ["129 Church Ave", "Brooklyn, NY 11218"], "address1": "129 Church Ave", "city": "Brooklyn", "zip_code": "11218", "address3": "", "state": "NY"}, "coordinates": {"longitude": -73.9785079956055, "latitude": 40.643424987793}, "review_count": 43, "image_url": "https://s3-media2.fl.yelpcdn.com/bphoto/ZZOUEWAnWf2sdCoTDUG6ag/o.jpg", "price": "$", "rating": 2.5, "name": "Yummy Taco", "url": "https://www.yelp.com/biz/yummy-taco-brooklyn?adjust_creative=gBcvfFpabk3CnzmXKdYe3w&utm_campaign=yelp_api_v3&utm_medium=api_v3_business_search&utm_source=gBcvfFpabk3CnzmXKdYe3w"}, {"transactions": [], "distance": 8137.7403638, "phone": "+12013301130", "categories": [{"alias": "mexican", "title": "Mexican"}], "id": "charritos-restaurant-weehawken", "display_phone": "(201) 330-1130", "is_closed": false, "location": {"address2": "", "country": "US", "display_address": ["974 Blvd E", "Weehawken, NJ 07086"], "address1": "974 Blvd E", "city": "Weehawken", "zip_code": "07086", "address3": "", "state": "NJ"}, "coordinates": {"longitude": -74.0136, "latitude": 40.77707}, "review_count": 364, "image_url": "https://s3-media1.fl.yelpcdn.com/bphoto/XsXdIlGGlz-FZ_w2tp5Y-A/o.jpg", "price": "$$", "rating": 3.5, "name": "Charrito's Restaurant", "url": "https://www.yelp.com/biz/charritos-restaurant-weehawken?adjust_creative=gBcvfFpabk3CnzmXKdYe3w&utm_campaign=yelp_api_v3&utm_medium=api_v3_business_search&utm_source=gBcvfFpabk3CnzmXKdYe3w"}, {"transactions": [], "distance": 1882.8574718419998, "phone": "", "categories": [{"alias": "mexican", "title": "Mexican"}], "id": "casa-masa-new-york", "display_phone": "", "is_closed": false, "location": {"address2": "", "country": "US", "display_address": ["200 Liberty St", "Winter Garden Promenade", "New York, NY 10281"], "address1": "200 Liberty St", "city": "New York", "zip_code": "10281", "address3": "Winter Garden Promenade", "state": "NY"}, "coordinates": {"longitude": -74.015556, "latitude": 40.710643}, "review_count": 3, "image_url": "https://s3-media2.fl.yelpcdn.com/bphoto/IlaOxtIC1Z5WDV8cZdksMw/o.jpg", "rating": 3.0, "name": "Casa Masa", "url": "https://www.yelp.com/biz/casa-masa-new-york?adjust_creative=gBcvfFpabk3CnzmXKdYe3w&utm_campaign=yelp_api_v3&utm_medium=api_v3_business_search&utm_source=gBcvfFpabk3CnzmXKdYe3w"}, {"transactions": ["delivery", "pickup"], "distance": 6373.6703695, "phone": "+17184433355", "categories": [{"alias": "mexican", "title": "Mexican"}], "id": "azul-tequila-mexican-restaurant-brooklyn", "display_phone": "(718) 443-3355", "is_closed": false, "location": {"address2": "", "country": "US", "display_address": ["1429 Myrtle Ave", "Brooklyn, NY 11237"], "address1": "1429 Myrtle Ave", "city": "Brooklyn", "zip_code": "11237", "address3": "", "state": "NY"}, "coordinates": {"longitude": -73.9191928023678, "latitude": 40.6988292957031}, "review_count": 15, "image_url": "https://s3-media3.fl.yelpcdn.com/bphoto/Xly-4-80xcZnU48LbOuGxQ/o.jpg", "price": "$$", "rating": 2.5, "name": "Azul Tequila Mexican Restaurant", "url": "https://www.yelp.com/biz/azul-tequila-mexican-restaurant-brooklyn?adjust_creative=gBcvfFpabk3CnzmXKdYe3w&utm_campaign=yelp_api_v3&utm_medium=api_v3_business_search&utm_source=gBcvfFpabk3CnzmXKdYe3w"}, {"transactions": [], "distance": 2740.40990144, "phone": "+12125158899", "categories": [{"alias": "mexican", "title": "Mexican"}], "id": "freshco-burrito-taco-new-york", "display_phone": "(212) 515-8899", "is_closed": false, "location": {"address2": "", "country": "US", "display_address": ["235 Sullivan St", "New York, NY 10012"], "address1": "235 Sullivan St", "city": "New York", "zip_code": "10012", "address3": "", "state": "NY"}, "coordinates": {"longitude": -73.999389, "latitude": 40.72977}, "review_count": 9, "image_url": "https://s3-media4.fl.yelpcdn.com/bphoto/15B35a8H9L4ceX8jVw3Zpg/o.jpg", "price": "$", "rating": 2.5, "name": "Freshco Burrito Taco", "url": "https://www.yelp.com/biz/freshco-burrito-taco-new-york?adjust_creative=gBcvfFpabk3CnzmXKdYe3w&utm_campaign=yelp_api_v3&utm_medium=api_v3_business_search&utm_source=gBcvfFpabk3CnzmXKdYe3w"}, {"transactions": [], "distance": 2560.24831179, "phone": "+13475101834", "categories": [{"alias": "mexican", "title": "Mexican"}], "id": "el-idolo-new-york-2", "display_phone": "(347) 510-1834", "is_closed": false, "location": {"address2": "", "country": "US", "display_address": ["E 3rd St & 6th Ave", "New York, NY 10012"], "address1": "E 3rd St & 6th Ave", "city": "New York", "zip_code": "10012", "address3": "", "state": "NY"}, "coordinates": {"longitude": -74.0014062726126, "latitude": 40.7310577633541}, "review_count": 18, "image_url": "https://s3-media3.fl.yelpcdn.com/bphoto/M7LpzRtwBXuQ5DE3x3WheQ/o.jpg", "price": "$", "rating": 3.0, "name": "El Idolo", "url": "https://www.yelp.com/biz/el-idolo-new-york-2?adjust_creative=gBcvfFpabk3CnzmXKdYe3w&utm_campaign=yelp_api_v3&utm_medium=api_v3_business_search&utm_source=gBcvfFpabk3CnzmXKdYe3w"}, {"transactions": [], "distance": 12288.03671234, "phone": "+17182714260", "categories": [{"alias": "mexican", "title": "Mexican"}], "id": "tacos-y-quesadillas-mexico-restaurant-queens", "display_phone": "(718) 271-4260", "is_closed": false, "location": {"address2": "", "country": "US", "display_address": ["104-40 Corona Ave", "Queens, NY 11368"], "address1": "104-40 Corona Ave", "city": "Queens", "zip_code": "11368", "address3": null, "state": "NY"}, "coordinates": {"longitude": -73.85728, "latitude": 40.74367}, "review_count": 14, "image_url": "https://s3-media3.fl.yelpcdn.com/bphoto/pNokZNJ79eKlEJjUDjx8Yg/o.jpg", "rating": 4.0, "name": "Tacos Y Quesadillas Mexico Restaurant", "url": "https://www.yelp.com/biz/tacos-y-quesadillas-mexico-restaurant-queens?adjust_creative=gBcvfFpabk3CnzmXKdYe3w&utm_campaign=yelp_api_v3&utm_medium=api_v3_business_search&utm_source=gBcvfFpabk3CnzmXKdYe3w"}, {"transactions": [], "distance": 14735.78974412, "phone": "+17183735862", "categories": [{"alias": "mexican", "title": "Mexican"}], "id": "place-to-beach-brooklyn", "display_phone": "(718) 373-5862", "is_closed": false, "location": {"address2": "", "country": "US", "display_address": ["1301 Broadwalk W", "Brooklyn, NY 11224"], "address1": "1301 Broadwalk W", "city": "Brooklyn", "zip_code": "11224", "address3": "", "state": "NY"}, "coordinates": {"longitude": -73.9813919696086, "latitude": 40.5732822946671}, "review_count": 66, "image_url": "https://s3-media4.fl.yelpcdn.com/bphoto/Qgv2vyUV-DwK8YwrhU-jtw/o.jpg", "price": "$$", "rating": 3.0, "name": "Place To Beach", "url": "https://www.yelp.com/biz/place-to-beach-brooklyn?adjust_creative=gBcvfFpabk3CnzmXKdYe3w&utm_campaign=yelp_api_v3&utm_medium=api_v3_business_search&utm_source=gBcvfFpabk3CnzmXKdYe3w"}, {"transactions": [], "distance": 3621.377584302, "phone": "+12126458660", "categories": [{"alias": "bars", "title": "Bars"}, {"alias": "tradamerican", "title": "American (Traditional)"}, {"alias": "mexican", "title": "Mexican"}], "id": "automatic-slims-new-york", "display_phone": "(212) 645-8660", "is_closed": false, "location": {"address2": "", "country": "US", "display_address": ["733 Washington St", "New York, NY 10014"], "address1": "733 Washington St", "city": "New York", "zip_code": "10014", "address3": "", "state": "NY"}, "coordinates": {"longitude": -74.0082413703203, "latitude": 40.7363250106573}, "review_count": 80, "image_url": "https://s3-media4.fl.yelpcdn.com/bphoto/WkZQoh34GfeRRw9VWLbEVg/o.jpg", "price": "$$", "rating": 3.5, "name": "Automatic Slims", "url": "https://www.yelp.com/biz/automatic-slims-new-york?adjust_creative=gBcvfFpabk3CnzmXKdYe3w&utm_campaign=yelp_api_v3&utm_medium=api_v3_business_search&utm_source=gBcvfFpabk3CnzmXKdYe3w"}, {"transactions": ["delivery", "pickup"], "distance": 5311.96382673, "phone": "+12125757711", "categories": [{"alias": "tex-mex", "title": "Tex-Mex"}, {"alias": "mexican", "title": "Mexican"}], "id": "moes-southwest-grill-new-york-10", "display_phone": "(212) 575-7711", "is_closed": false, "location": {"address2": "", "country": "US", "display_address": ["1029A Ave Of The Americas", "New York, NY 10018"], "address1": "1029A Ave Of The Americas", "city": "New York", "zip_code": "10018", "address3": "", "state": "NY"}, "coordinates": {"longitude": -73.9859157, "latitude": 40.7527917}, "review_count": 84, "image_url": "https://s3-media4.fl.yelpcdn.com/bphoto/mkcsMbz9btD0lN-67W7muA/o.jpg", "price": "$", "rating": 3.5, "name": "Moe's Southwest Grill", "url": "https://www.yelp.com/biz/moes-southwest-grill-new-york-10?adjust_creative=gBcvfFpabk3CnzmXKdYe3w&utm_campaign=yelp_api_v3&utm_medium=api_v3_business_search&utm_source=gBcvfFpabk3CnzmXKdYe3w"}, {"transactions": ["delivery", "pickup"], "distance": 1670.272348278, "phone": "+17182378898", "categories": [{"alias": "mexican", "title": "Mexican"}], "id": "court-street-fresco-tortilla-brooklyn", "display_phone": "(718) 237-8898", "is_closed": false, "location": {"address2": "", "country": "US", "display_address": ["113 Court St", "Brooklyn, NY 11201"], "address1": "113 Court St", "city": "Brooklyn", "zip_code": "11201", "address3": "", "state": "NY"}, "coordinates": {"longitude": -73.99178, "latitude": 40.6906}, "review_count": 20, "image_url": "https://s3-media2.fl.yelpcdn.com/bphoto/cFu7mQYwgQUs1fQOjRxfVQ/o.jpg", "price": "$", "rating": 3.0, "name": "Court Street Fresco Tortilla", "url": "https://www.yelp.com/biz/court-street-fresco-tortilla-brooklyn?adjust_creative=gBcvfFpabk3CnzmXKdYe3w&utm_campaign=yelp_api_v3&utm_medium=api_v3_business_search&utm_source=gBcvfFpabk3CnzmXKdYe3w"}, {"transactions": [], "distance": 1330.489497266, "phone": "", "categories": [{"alias": "mexican", "title": "Mexican"}], "id": "glorias-mexican-food-cart-new-york", "display_phone": "", "is_closed": false, "location": {"address2": "", "country": "US", "display_address": ["Nassau St At Cedar St", "New York, NY 10271"], "address1": "Nassau St At Cedar St", "city": "New York", "zip_code": "10271", "address3": "", "state": "NY"}, "coordinates": {"longitude": -74.0096247196198, "latitude": 40.7082793124574}, "review_count": 2, "image_url": "", "price": "$", "rating": 3.5, "name": "Gloria's Mexican Food Cart", "url": "https://www.yelp.com/biz/glorias-mexican-food-cart-new-york?adjust_creative=gBcvfFpabk3CnzmXKdYe3w&utm_campaign=yelp_api_v3&utm_medium=api_v3_business_search&utm_source=gBcvfFpabk3CnzmXKdYe3w"}, {"transactions": [], "distance": 5932.483166022, "phone": "", "categories": [{"alias": "foodstands", "title": "Food Stands"}, {"alias": "mexican", "title": "Mexican"}], "id": "el-rey-del-sabor-new-york-3", "display_phone": "", "is_closed": false, "location": {"address2": "", "country": "US", "display_address": ["148 49th St", "New York, NY 10022"], "address1": "148 49th St", "city": "New York", "zip_code": "10022", "address3": "", "state": "NY"}, "coordinates": {"longitude": -73.9746434377878, "latitude": 40.7566760156385}, "review_count": 26, "image_url": "https://s3-media2.fl.yelpcdn.com/bphoto/Px2qFle31rX-1AByfI3U2Q/o.jpg", "price": "$", "rating": 3.5, "name": "El Rey Del Sabor", "url": "https://www.yelp.com/biz/el-rey-del-sabor-new-york-3?adjust_creative=gBcvfFpabk3CnzmXKdYe3w&utm_campaign=yelp_api_v3&utm_medium=api_v3_business_search&utm_source=gBcvfFpabk3CnzmXKdYe3w"}, {"transactions": [], "distance": 12833.817980164, "phone": "+17188910880", "categories": [{"alias": "mexican", "title": "Mexican"}, {"alias": "hawaiian", "title": "Hawaiian"}, {"alias": "tex-mex", "title": "Tex-Mex"}], "id": "empire-tortillas-brooklyn", "display_phone": "(718) 891-0880", "is_closed": false, "location": {"address2": null, "country": "US", "display_address": ["3556 Nostrand Ave", "Brooklyn, NY 11229"], "address1": "3556 Nostrand Ave", "city": "Brooklyn", "zip_code": "11229", "address3": null, "state": "NY"}, "coordinates": {"longitude": -73.94146, "latitude": 40.59719}, "review_count": 7, "image_url": "https://s3-media3.fl.yelpcdn.com/bphoto/AjvxWBESsmPktabqzsP9aQ/o.jpg", "price": "$", "rating": 3.5, "name": "Empire Tortillas", "url": "https://www.yelp.com/biz/empire-tortillas-brooklyn?adjust_creative=gBcvfFpabk3CnzmXKdYe3w&utm_campaign=yelp_api_v3&utm_medium=api_v3_business_search&utm_source=gBcvfFpabk3CnzmXKdYe3w"}, {"transactions": [], "distance": 7896.00301174, "phone": "+17188564093", "categories": [{"alias": "mexican", "title": "Mexican"}], "id": "gonzalez-mexican-restaurant-brooklyn", "display_phone": "(718) 856-4093", "is_closed": false, "location": {"address2": "", "country": "US", "display_address": ["830 Coney Island Ave", "Brooklyn, NY 11218"], "address1": "830 Coney Island Ave", "city": "Brooklyn", "zip_code": "11218", "address3": "", "state": "NY"}, "coordinates": {"longitude": -73.968559, "latitude": 40.637169}, "review_count": 7, "image_url": "https://s3-media4.fl.yelpcdn.com/bphoto/fxIXFhD6I8ElzLeG4wSe8A/o.jpg", "price": "$", "rating": 3.0, "name": "Gonzalez Mexican Restaurant", "url": "https://www.yelp.com/biz/gonzalez-mexican-restaurant-brooklyn?adjust_creative=gBcvfFpabk3CnzmXKdYe3w&utm_campaign=yelp_api_v3&utm_medium=api_v3_business_search&utm_source=gBcvfFpabk3CnzmXKdYe3w"}, {"transactions": [], "distance": 11467.039958039999, "phone": "+12014712135", "categories": [{"alias": "mexican", "title": "Mexican"}, {"alias": "bars", "title": "Bars"}], "id": "mezcal-kitchen-bayonne", "display_phone": "(201) 471-2135", "is_closed": false, "location": {"address2": null, "country": "US", "display_address": ["482 Broadway", "Bayonne, NJ 07002"], "address1": "482 Broadway", "city": "Bayonne", "zip_code": "07002", "address3": "", "state": "NJ"}, "coordinates": {"longitude": -74.11837, "latitude": 40.66334}, "review_count": 58, "image_url": "https://s3-media3.fl.yelpcdn.com/bphoto/fTSHhs6ybYtCK4-moj-D3A/o.jpg", "price": "$$", "rating": 4.0, "name": "Mezcal Kitchen", "url": "https://www.yelp.com/biz/mezcal-kitchen-bayonne?adjust_creative=gBcvfFpabk3CnzmXKdYe3w&utm_campaign=yelp_api_v3&utm_medium=api_v3_business_search&utm_source=gBcvfFpabk3CnzmXKdYe3w"}, {"transactions": [], "distance": 6929.927475119999, "phone": "+13477894989", "categories": [{"alias": "mexican", "title": "Mexican"}, {"alias": "bars", "title": "Bars"}], "id": "la-fogata-brooklyn", "display_phone": "(347) 789-4989", "is_closed": false, "location": {"address2": "", "country": "US", "display_address": ["1549 Gates Ave", "Brooklyn, NY 11237"], "address1": "1549 Gates Ave", "city": "Brooklyn", "zip_code": "11237", "address3": "", "state": "NY"}, "coordinates": {"longitude": -73.912436, "latitude": 40.699681}, "review_count": 1, "image_url": "https://s3-media4.fl.yelpcdn.com/bphoto/bsdhZnlm0VE0N8u6sRVVFg/o.jpg", "price": "$$", "rating": 4.0, "name": "La Fogata", "url": "https://www.yelp.com/biz/la-fogata-brooklyn?adjust_creative=gBcvfFpabk3CnzmXKdYe3w&utm_campaign=yelp_api_v3&utm_medium=api_v3_business_search&utm_source=gBcvfFpabk3CnzmXKdYe3w"}, {"transactions": [], "distance": 5941.0500047099995, "phone": "", "categories": [{"alias": "mexican", "title": "Mexican"}, {"alias": "foodtrucks", "title": "Food Trucks"}], "id": "lucio-angelita-taco-new-york", "display_phone": "", "is_closed": false, "location": {"address2": "", "country": "US", "display_address": ["E 50th St 3rd Ave", "New York, NY 10022"], "address1": "E 50th St 3rd Ave", "city": "New York", "zip_code": "10022", "address3": null, "state": "NY"}, "coordinates": {"longitude": -73.970935231277, "latitude": 40.7558553459013}, "review_count": 1, "image_url": "https://s3-media2.fl.yelpcdn.com/bphoto/9CI60LG1w3znJUslY91A-A/o.jpg", "rating": 5.0, "name": "Lucio Angelita Taco", "url": "https://www.yelp.com/biz/lucio-angelita-taco-new-york?adjust_creative=gBcvfFpabk3CnzmXKdYe3w&utm_campaign=yelp_api_v3&utm_medium=api_v3_business_search&utm_source=gBcvfFpabk3CnzmXKdYe3w"}]}