{"region": {"center": {"longitude": -73.99429321289062, "latitude": 40.70544486444615}}, "total": 1496, "businesses": [{"transactions": [], "distance": 14959.705265019998, "phone": "+12122812886", "categories": [{"alias": "mexican", "title": "Mexican"}], "id": "la-fiesta-new-york", "display_phone": "(212) 281-2886", "is_closed": false, "location": {"address2": "", "country": "US", "display_address": ["3797 Broadway", "New York, NY 10032"], "address1": "3797 Broadway", "city": "New York", "zip_code": "10032", "address3": "", "state": "NY"}, "coordinates": {"longitude": -73.94482, "latitude": 40.8346}, "review_count": 76, "image_url": "https://s3-media2.fl.yelpcdn.com/bphoto/SMsJOHyvg04D7-4o00JlIg/o.jpg", "price": "$", "rating": 4.0, "name": "La Fiesta", "url": "https://www.yelp.com/biz/la-fiesta-new-york?adjust_creative=gBcvfFpabk3CnzmXKdYe3w&utm_campaign=yelp_api_v3&utm_medium=api_v3_business_search&utm_source=gBcvfFpabk3CnzmXKdYe3w"}, {"transactions": ["delivery", "pickup"], "distance": 17604.3529991, "phone": "+17184459999", "categories": [{"alias": "mexican", "title": "Mexican"}], "id": "sabroso-fresh-meadows", "display_phone": "(718) 445-9999", "is_closed": false, "location": {"address2": "", "country": "US", "display_address": ["183-20 Horace Harding Expy", "Fresh Meadows, NY 11365"], "address1": "183-20 Horace Harding Expy", "city": "Fresh Meadows", "zip_code": "11365", "address3": "", "state": "NY"}, "coordinates": {"longitude": -73.79021, "latitude": 40.73936}, "review_count": 72, "image_url": "https://s3-media2.fl.yelpcdn.com/bphoto/Kb2QTS3CphGJb3ZkEk2RGw/o.jpg", "price": "$", "rating": 3.5, "name": "Sabroso", "url": "https://www.yelp.com/biz/sabroso-fresh-meadows?adjust_creative=gBcvfFpabk3CnzmXKdYe3w&utm_campaign=yelp_api_v3&utm_medium=api_v3_business_search&utm_source=gBcvfFpabk3CnzmXKdYe3w"}, {"transactions": ["delivery", "pickup"], "distance": 7355.65020867, "phone": "+17183495999", "categories": [{"alias": "bars", "title": "Bars"}, {"alias": "salad", "title": "Salad"}, {"alias": "tacos", "title": "Tacos"}], "id": "arriba-arriba-sunnyside-sunnyside-111", "display_phone": "(718) 349-5999", "is_closed": false, "location": {"address2": "", "country": "US", "display_address": ["40-15 Queens Blvd", "Sunnyside, NY 11104"], "address1": "40-15 Queens Blvd", "city": "Sunnyside", "zip_code": "11104", "address3": "", "state": "NY"}, "coordinates": {"longitude": -73.92352, "latitude": 40.74413}, "review_count": 173, "image_url": "https://s3-media2.fl.yelpcdn.com/bphoto/F0zEF5IJlKgonleuDosdHQ/o.jpg", "price": "$$", "rating": 3.0, "name": "Arriba Arriba Sunnyside", "url": "https://www.yelp.com/biz/arriba-arriba-sunnyside-sunnyside-111?adjust_creative=gBcvfFpabk3CnzmXKdYe3w&utm_campaign=yelp_api_v3&utm_medium=api_v3_business_search&utm_source=gBcvfFpabk3CnzmXKdYe3w"}, {"transactions": ["delivery", "pickup"], "distance": 5983.487978642, "phone": "+12129579050", "categories": [{"alias": "mexican", "title": "Mexican"}], "id": "patron-mexican-grill-new-york-3", "display_phone": "(212) 957-9050", "is_closed": false, "location": {"address2": "", "country": "US", "display_address": ["608 9th Ave", "New York, NY 10036"], "address1": "608 9th Ave", "city": "New York", "zip_code": "10036", "address3": "", "state": "NY"}, "coordinates": {"longitude": -73.991729, "latitude": 40.759227}, "review_count": 303, "image_url": "https://s3-media1.fl.yelpcdn.com/bphoto/DcQvejUhQrXw-OhQnoYPWA/o.jpg", "price": "$$", "rating": 3.0, "name": "Patron Mexican Grill", "url": "https://www.yelp.com/biz/patron-mexican-grill-new-york-3?adjust_creative=gBcvfFpabk3CnzmXKdYe3w&utm_campaign=yelp_api_v3&utm_medium=api_v3_business_search&utm_source=gBcvfFpabk3CnzmXKdYe3w"}, {"transactions": [], "distance": 8313.590048787999, "phone": "+17184827835", "categories": [{"alias": "mexican", "title": "Mexican"}], "id": "st-james-deli-astoria", "display_phone": "(718) 482-7835", "is_closed": false, "location": {"address2": "", "country": "US", "display_address": ["34-02 34th Ave", "Astoria, NY 11106"], "address1": "34-02 34th Ave", "city": "Astoria", "zip_code": "11106", "address3": "", "state": "NY"}, "coordinates": {"longitude": -73.9247274398804, "latitude": 40.7584647036595}, "review_count": 51, "image_url": "https://s3-media1.fl.yelpcdn.com/bphoto/N0n5c9e43Xpn64fzL-Pdfw/o.jpg", "price": "$", "rating": 4.0, "name": "St James Deli", "url": "https://www.yelp.com/biz/st-james-deli-astoria?adjust_creative=gBcvfFpabk3CnzmXKdYe3w&utm_campaign=yelp_api_v3&utm_medium=api_v3_business_search&utm_source=gBcvfFpabk3CnzmXKdYe3w"}, {"transactions": ["delivery", "pickup"], "distance": 19786.92864172, "phone": "+17188630099", "categories": [{"alias": "mexican", "title": "Mexican"}, {"alias": "lounges", "title": "Lounges"}], "id": "cabo-bronx", "display_phone": "(718) 863-0099", "is_closed": false, "location": {"address2": "", "country": "US", "display_address": ["3764 E Tremont Ave", "Bronx, NY 10465"], "address1": "3764 E Tremont Ave", "city": "Bronx", "zip_code": "10465", "address3": "", "state": "NY"}, "coordinates": {"longitude": -73.8216, "latitude": 40.82576}, "review_count": 217, "image_url": "https://s3-media4.fl.yelpcdn.com/bphoto/8q6-zjownloxl5RQmw2NJA/o.jpg", "price": "$$", "rating": 4.0, "name": "Cabo", "url": "https://www.yelp.com/biz/cabo-bronx?adjust_creative=gBcvfFpabk3CnzmXKdYe3w&utm_campaign=yelp_api_v3&utm_medium=api_v3_business_search&utm_source=gBcvfFpabk3CnzmXKdYe3w"}, {"transactions": ["delivery", "pickup"], "distance": 2945.5981764959997, "phone": "+17183935500", "categories": [{"alias": "mexican", "title": "Mexican"}], "id": "cafe-de-la-esquina-brooklyn", "display_phone": "(718) 393-5500", "is_closed": false, "location": {"address2": "", "country": "US", "display_address": ["225 Wythe Ave", "Brooklyn, NY 11249"], "address1": "225 Wythe Ave", "city": "Brooklyn", "zip_code": "11249", "address3": "", "state": "NY"}, "coordinates": {"longitude": -73.9630146324635, "latitude": 40.717047303915}, "review_count": 292, "image_url": "https://s3-media4.fl.yelpcdn.com/bphoto/BP0_Vp8qPUCxyT9G2e_kNw/o.jpg", "price": "$$", "rating": 2.5, "name": "Cafe De La Esquina", "url": "https://www.yelp.com/biz/cafe-de-la-esquina-brooklyn?adjust_creative=gBcvfFpabk3CnzmXKdYe3w&utm_campaign=yelp_api_v3&utm_medium=api_v3_business_search&utm_source=gBcvfFpabk3CnzmXKdYe3w"}, {"transactions": ["delivery", "pickup"], "distance": 8695.05319646, "phone": "+17182042406", "categories": [{"alias": "mexican", "title": "Mexican"}, {"alias": "latin", "title": "Latin American"}], "id": "cuatomate-astoria-2", "display_phone": "(718) 204-2406", "is_closed": false, "location": {"address2": "", "country": "US", "display_address": ["3807 Broadway", "Astoria, NY 11103"], "address1": "3807 Broadway", "city": "Astoria", "zip_code": "11103", "address3": "", "state": "NY"}, "coordinates": {"longitude": -73.9192641481933, "latitude": 40.7591336346404}, "review_count": 77, "image_url": "https://s3-media2.fl.yelpcdn.com/bphoto/x7kd1GqOd27LuCUH4CkmnQ/o.jpg", "price": "$$", "rating": 3.5, "name": "Cuatomate", "url": "https://www.yelp.com/biz/cuatomate-astoria-2?adjust_creative=gBcvfFpabk3CnzmXKdYe3w&utm_campaign=yelp_api_v3&utm_medium=api_v3_business_search&utm_source=gBcvfFpabk3CnzmXKdYe3w"}, {"transactions": [], "distance": 5224.386279808, "phone": "+19177104757", "categories": [{"alias": "mexican", "title": "Mexican"}, {"alias": "seafood", "title": "Seafood"}, {"alias": "asianfusion", "title": "Asian Fusion"}], "id": "takumi-taco-new-york-10", "display_phone": "(917) 710-4757", "is_closed": false, "location": {"address2": "Fl 17", "country": "US", "display_address": ["601 W 26th St", "Fl 17", "New York, NY 10001"], "address1": "601 W 26th St", "city": "New York", "zip_code": "10001", "address3": "", "state": "NY"}, "coordinates": {"longitude": -74.00685, "latitude": 40.75154}, "review_count": 21, "image_url": "https://s3-media2.fl.yelpcdn.com/bphoto/bbs7Hg7zJA7W_Xsd2lIidQ/o.jpg", "price": "$$", "rating": 4.0, "name": "Takumi Taco", "url": "https://www.yelp.com/biz/takumi-taco-new-york-10?adjust_creative=gBcvfFpabk3CnzmXKdYe3w&utm_campaign=yelp_api_v3&utm_medium=api_v3_business_search&utm_source=gBcvfFpabk3CnzmXKdYe3w"}, {"transactions": [], "distance": 6762.91821662, "phone": "+13476660253", "categories": [{"alias": "mexican", "title": "Mexican"}, {"alias": "foodtrucks", "title": "Food Trucks"}], "id": "tacos-el-dorado-brooklyn-2", "display_phone": "(347) 666-0253", "is_closed": false, "location": {"address2": "", "country": "US", "display_address": ["Church Ave And E 17th St", "Brooklyn, NY 11226"], "address1": "Church Ave And E 17th St", "city": "Brooklyn", "zip_code": "11226", "address3": "", "state": "NY"}, "coordinates": {"longitude": -73.9639794539628, "latitude": 40.649136053146}, "review_count": 10, "image_url": "https://s3-media3.fl.yelpcdn.com/bphoto/yZqO0APof1f-_-eA6RupgA/o.jpg", "price": "$", "rating": 4.0, "name": "Tacos El Dorado", "url": "https://www.yelp.com/biz/tacos-el-dorado-brooklyn-2?adjust_creative=gBcvfFpabk3CnzmXKdYe3w&utm_campaign=yelp_api_v3&utm_medium=api_v3_business_search&utm_source=gBcvfFpabk3CnzmXKdYe3w"}, {"transactions": [], "distance": 7118.986944695999, "phone": "+13476783509", "categories": [{"alias": "mexican", "title": "Mexican"}, {"alias": "breakfast_brunch", "title": "Breakfast & Brunch"}, {"alias": "sandwiches", "title": "Sandwiches"}], "id": "cherokee-deli-brooklyn", "display_phone": "(347) 678-3509", "is_closed": false, "location": {"address2": "", "country": "US", "display_address": ["1626 Broadway", "Brooklyn, NY 11207"], "address1": "1626 Broadway", "city": "Brooklyn", "zip_code": "11207", "address3": "", "state": "NY"}, "coordinates": {"longitude": -73.914368, "latitude": 40.684788}, "review_count": 4, "image_url": "https://s3-media4.fl.yelpcdn.com/bphoto/G6sKN-WMa_A5h6nRipp73g/o.jpg", "price": "$", "rating": 5.0, "name": "Cherokee Deli", "url": "https://www.yelp.com/biz/cherokee-deli-brooklyn?adjust_creative=gBcvfFpabk3CnzmXKdYe3w&utm_campaign=yelp_api_v3&utm_medium=api_v3_business_search&utm_source=gBcvfFpabk3CnzmXKdYe3w"}, {"transactions": ["delivery", "pickup"], "distance": 5496.6193373959995, "phone": "+17184977445", "categories": [{"alias": "mexican", "title": "Mexican"}], "id": "taqueria-el-fogon-brooklyn", "display_phone": "(718) 497-7445", "is_closed": false, "location": {"address2": "", "country": "US", "display_address": ["1050 Flushing Ave", "Brooklyn, NY 11237"], "address1": "1050 Flushing Ave", "city": "Brooklyn", "zip_code": "11237", "address3": "", "state": "NY"}, "coordinates": {"longitude": -73.9291005, "latitude": 40.7044101}, "review_count": 141, "image_url": "https://s3-media2.fl.yelpcdn.com/bphoto/4vo-I2w746hzTvAdbFfOCA/o.jpg", "price": "$", "rating": 3.5, "name": "Taqueria El Fogon", "url": "https://www.yelp.com/biz/taqueria-el-fogon-brooklyn?adjust_creative=gBcvfFpabk3CnzmXKdYe3w&utm_campaign=yelp_api_v3&utm_medium=api_v3_business_search&utm_source=gBcvfFpabk3CnzmXKdYe3w"}, {"transactions": ["delivery", "pickup"], "distance": 4227.6016391759995, "phone": "+12129292678", "categories": [{"alias": "mexican", "title": "Mexican"}], "id": "salsa-y-salsa-new-york", "display_phone": "(212) 929-2678", "is_closed": false, "location": {"address2": "", "country": "US", "display_address": ["206 7th Ave", "New York, NY 10011"], "address1": "206 7th Ave", "city": "New York", "zip_code": "10011", "address3": "", "state": "NY"}, "coordinates": {"longitude": -73.9963821428885, "latitude": 40.7434314162883}, "review_count": 170, "image_url": "https://s3-media1.fl.yelpcdn.com/bphoto/K1g9VCaWfU6iZaQTVMR0AA/o.jpg", "price": "$$", "rating": 3.0, "name": "Salsa Y Salsa", "url": "https://www.yelp.com/biz/salsa-y-salsa-new-york?adjust_creative=gBcvfFpabk3CnzmXKdYe3w&utm_campaign=yelp_api_v3&utm_medium=api_v3_business_search&utm_source=gBcvfFpabk3CnzmXKdYe3w"}, {"transactions": ["delivery", "pickup"], "distance": 7846.932625799999, "phone": "+13476894996", "categories": [{"alias": "bars", "title": "Bars"}, {"alias": "newamerican", "title": "American (New)"}, {"alias": "mexican", "title": "Mexican"}], "id": "the-deep-end-queens", "display_phone": "(347) 689-4996", "is_closed": false, "location": {"address2": null, "country": "US", "display_address": ["1080 Wyckoff Ave", "Queens, NY 11385"], "address1": "1080 Wyckoff Ave", "city": "Queens", "zip_code": "11385", "address3": "", "state": "NY"}, "coordinates": {"longitude": -73.902355909787, "latitude": 40.6943930345841}, "review_count": 8, "image_url": "https://s3-media4.fl.yelpcdn.com/bphoto/BY1nD7wX7byZ1HUDP8WWTw/o.jpg", "price": "$$", "rating": 5.0, "name": "The Deep End", "url": "https://www.yelp.com/biz/the-deep-end-queens?adjust_creative=gBcvfFpabk3CnzmXKdYe3w&utm_campaign=yelp_api_v3&utm_medium=api_v3_business_search&utm_source=gBcvfFpabk3CnzmXKdYe3w"}, {"transactions": [], "distance": 6374.375260419999, "phone": "+12122625510", "categories": [{"alias": "mexican", "title": "Mexican"}], "id": "tulcingo-del-valle-new-york", "display_phone": "(212) 262-5510", "is_closed": false, "location": {"address2": null, "country": "US", "display_address": ["665 10th Ave", "New York, NY 10036"], "address1": "665 10th Ave", "city": "New York", "zip_code": "10036", "address3": "", "state": "NY"}, "coordinates": {"longitude": -73.993545, "latitude": 40.762756}, "review_count": 213, "image_url": "https://s3-media3.fl.yelpcdn.com/bphoto/810A5lqWlv6Xz2bNrOYsSg/o.jpg", "price": "$$", "rating": 3.5, "name": "Tulcingo Del Valle", "url": "https://www.yelp.com/biz/tulcingo-del-valle-new-york?adjust_creative=gBcvfFpabk3CnzmXKdYe3w&utm_campaign=yelp_api_v3&utm_medium=api_v3_business_search&utm_source=gBcvfFpabk3CnzmXKdYe3w"}, {"transactions": [], "distance": 2663.6266806999997, "phone": "+17188572368", "categories": [{"alias": "cafes", "title": "Cafes"}, {"alias": "mexican", "title": "Mexican"}, {"alias": "tradamerican", "title": "American (Traditional)"}], "id": "evodios-place-new-york", "display_phone": "(718) 857-2368", "is_closed": false, "location": {"address2": "", "country": "US", "display_address": ["222 Clinton Ave", "New York, NY 11205"], "address1": "222 Clinton Ave", "city": "New York", "zip_code": "11205", "address3": "", "state": "NY"}, "coordinates": {"longitude": -73.9687436216104, "latitude": 40.6913531760712}, "review_count": 2, "image_url": "", "rating": 5.0, "name": "Evodio's Place", "url": "https://www.yelp.com/biz/evodios-place-new-york?adjust_creative=gBcvfFpabk3CnzmXKdYe3w&utm_campaign=yelp_api_v3&utm_medium=api_v3_business_search&utm_source=gBcvfFpabk3CnzmXKdYe3w"}, {"transactions": ["delivery", "pickup"], "distance": 6851.980218758, "phone": "+13472953710", "categories": [{"alias": "cafes", "title": "Cafes"}, {"alias": "breakfast_brunch", "title": "Breakfast & Brunch"}, {"alias": "mexican", "title": "Mexican"}], "id": "savoy-cafe-and-grill-brooklyn", "display_phone": "(347) 295-3710", "is_closed": false, "location": {"address2": "", "country": "US", "display_address": ["591 Knickerbocker Ave", "Brooklyn, NY 11221"], "address1": "591 Knickerbocker Ave", "city": "Brooklyn", "zip_code": "11221", "address3": "", "state": "NY"}, "coordinates": {"longitude": -73.91388, "latitude": 40.69646}, "review_count": 79, "image_url": "https://s3-media1.fl.yelpcdn.com/bphoto/EoJH4UFoM1WhxnXIqLr1Eg/o.jpg", "price": "$", "rating": 4.0, "name": "Savoy Cafe & Grill", "url": "https://www.yelp.com/biz/savoy-cafe-and-grill-brooklyn?adjust_creative=gBcvfFpabk3CnzmXKdYe3w&utm_campaign=yelp_api_v3&utm_medium=api_v3_business_search&utm_source=gBcvfFpabk3CnzmXKdYe3w"}, {"transactions": ["delivery", "pickup"], "distance": 3212.7449150139996, "phone": "+17182188479", "categories": [{"alias": "mexican", "title": "Mexican"}], "id": "san-loco-brooklyn-3", "display_phone": "(718) 218-8479", "is_closed": false, "location": {"address2": "", "country": "US", "display_address": ["637 Driggs Ave", "Brooklyn, NY 11211"], "address1": "637 Driggs Ave", "city": "Brooklyn", "zip_code": "11211", "address3": "", "state": "NY"}, "coordinates": {"longitude": -73.9583154806302, "latitude": 40.7149801398938}, "review_count": 83, "image_url": "https://s3-media2.fl.yelpcdn.com/bphoto/tuAt6Gg1BBdSFDmgbsgUGw/o.jpg", "price": "$$", "rating": 3.0, "name": "San Loco", "url": "https://www.yelp.com/biz/san-loco-brooklyn-3?adjust_creative=gBcvfFpabk3CnzmXKdYe3w&utm_campaign=yelp_api_v3&utm_medium=api_v3_business_search&utm_source=gBcvfFpabk3CnzmXKdYe3w"}, {"transactions": ["delivery", "pickup"], "distance": 8514.24867548, "phone": "+17184924228", "categories": [{"alias": "mexican", "title": "Mexican"}], "id": "mandato-mexican-restaurant-brooklyn", "display_phone": "(718) 492-4228", "is_closed": false, "location": {"address2": "", "country": "US", "display_address": ["7218 3rd Ave", "Brooklyn, NY 11209"], "address1": "7218 3rd Ave", "city": "Brooklyn", "zip_code": "11209", "address3": "", "state": "NY"}, "coordinates": {"longitude": -74.0274277, "latitude": 40.63311}, "review_count": 44, "image_url": "https://s3-media1.fl.yelpcdn.com/bphoto/kkcYCjyDz4UtC7-uFjDgsQ/o.jpg", "price": "$", "rating": 3.5, "name": "Mandato Mexican Restaurant", "url": "https://www.yelp.com/biz/mandato-mexican-restaurant-brooklyn?adjust_creative=gBcvfFpabk3CnzmXKdYe3w&utm_campaign=yelp_api_v3&utm_medium=api_v3_business_search&utm_source=gBcvfFpabk3CnzmXKdYe3w"}, {"transactions": [], "distance": 19705.17577906, "phone": "+19176458720", "categories": [{"alias": "mexican", "title": "Mexican"}], "id": "tacos-el-bronco-ii-bronx", "display_phone": "(917) 645-8720", "is_closed": false, "location": {"address2": "", "country": "US", "display_address": ["White Plains Rd & Lydig Ave", "Bronx, NY 10462"], "address1": "White Plains Rd & Lydig Ave", "city": "Bronx", "zip_code": "10462", "address3": "", "state": "NY"}, "coordinates": {"longitude": -73.86769, "latitude": 40.85453}, "review_count": 60, "image_url": "https://s3-media4.fl.yelpcdn.com/bphoto/lzEvdImuVr0cWxwfDyZjlQ/o.jpg", "price": "$", "rating": 4.5, "name": "Tacos El Bronco II", "url": "https://www.yelp.com/biz/tacos-el-bronco-ii-bronx?adjust_creative=gBcvfFpabk3CnzmXKdYe3w&utm_campaign=yelp_api_v3&utm_medium=api_v3_business_search&utm_source=gBcvfFpabk3CnzmXKdYe3w"}, {"transactions": ["delivery", "pickup"], "distance": 1826.634052404, "phone": "+12122537580", "categories": [{"alias": "tex-mex", "title": "Tex-Mex"}, {"alias": "mexican", "title": "Mexican"}], "id": "san-loco-new-york-2", "display_phone": "(212) 253-7580", "is_closed": false, "location": {"address2": "", "country": "US", "display_address": ["111 Stanton St", "New York, NY 10002"], "address1": "111 Stanton St", "city": "New York", "zip_code": "10002", "address3": "", "state": "NY"}, "coordinates": {"longitude": -73.9873483031988, "latitude": 40.7210578769445}, "review_count": 199, "image_url": "https://s3-media2.fl.yelpcdn.com/bphoto/h5pye7UPKiwirDfA8iuvQw/o.jpg", "price": "$", "rating": 3.0, "name": "San Loco", "url": "https://www.yelp.com/biz/san-loco-new-york-2?adjust_creative=gBcvfFpabk3CnzmXKdYe3w&utm_campaign=yelp_api_v3&utm_medium=api_v3_business_search&utm_source=gBcvfFpabk3CnzmXKdYe3w"}, {"transactions": ["delivery", "pickup"], "distance": 4328.5848273639995, "phone": "+17183888215", "categories": [{"alias": "mexican", "title": "Mexican"}], "id": "el-loco-burrito-brooklyn", "display_phone": "(718) 388-8215", "is_closed": false, "location": {"address2": "", "country": "US", "display_address": ["345 Graham Ave", "Brooklyn, NY 11211"], "address1": "345 Graham Ave", "city": "Brooklyn", "zip_code": "11211", "address3": "", "state": "NY"}, "coordinates": {"longitude": -73.9444866031408, "latitude": 40.714792907238}, "review_count": 144, "image_url": "https://s3-media3.fl.yelpcdn.com/bphoto/82QjJ3KZwO3I70pMwuvtgg/o.jpg", "price": "$", "rating": 3.0, "name": "El Loco Burrito", "url": "https://www.yelp.com/biz/el-loco-burrito-brooklyn?adjust_creative=gBcvfFpabk3CnzmXKdYe3w&utm_campaign=yelp_api_v3&utm_medium=api_v3_business_search&utm_source=gBcvfFpabk3CnzmXKdYe3w"}, {"transactions": ["delivery", "pickup"], "distance": 9620.950916244, "phone": "+17189211234", "categories": [{"alias": "mexican", "title": "Mexican"}], "id": "lobo-loco-brooklyn", "display_phone": "(718) 921-1234", "is_closed": false, "location": {"address2": "", "country": "US", "display_address": ["8530 3rd Ave", "Brooklyn, NY 11209"], "address1": "8530 3rd Ave", "city": "Brooklyn", "zip_code": "11209", "address3": null, "state": "NY"}, "coordinates": {"longitude": -74.0310907468305, "latitude": 40.6235482129985}, "review_count": 108, "image_url": "https://s3-media2.fl.yelpcdn.com/bphoto/791AhBOaD0CTlh21Wu3Rrw/o.jpg", "price": "$$", "rating": 3.0, "name": "Lobo Loco", "url": "https://www.yelp.com/biz/lobo-loco-brooklyn?adjust_creative=gBcvfFpabk3CnzmXKdYe3w&utm_campaign=yelp_api_v3&utm_medium=api_v3_business_search&utm_source=gBcvfFpabk3CnzmXKdYe3w"}, {"transactions": [], "distance": 11295.525513143999, "phone": "+17184290510", "categories": [{"alias": "mexican", "title": "Mexican"}], "id": "mi-otra-casa-restaurant-elmhurst", "display_phone": "(718) 429-0510", "is_closed": false, "location": {"address2": "", "country": "US", "display_address": ["9106 43rd Ave", "Elmhurst, NY 11373"], "address1": "9106 43rd Ave", "city": "Elmhurst", "zip_code": "11373", "address3": "", "state": "NY"}, "coordinates": {"longitude": -73.87412, "latitude": 40.74321}, "review_count": 4, "image_url": "https://s3-media3.fl.yelpcdn.com/bphoto/MzZMmF_ajJEqYXwj3AAXIQ/o.jpg", "price": "$$", "rating": 5.0, "name": "Mi Otra Casa Restaurant", "url": "https://www.yelp.com/biz/mi-otra-casa-restaurant-elmhurst?adjust_creative=gBcvfFpabk3CnzmXKdYe3w&utm_campaign=yelp_api_v3&utm_medium=api_v3_business_search&utm_source=gBcvfFpabk3CnzmXKdYe3w"}, {"transactions": [], "distance": 18743.36821212, "phone": "+17182207641", "categories": [{"alias": "mexican", "title": "Mexican"}], "id": "estrellita-poblana-iii-bronx", "display_phone": "(718) 220-7641", "is_closed": false, "location": {"address2": "Ste 5", "country": "US", "display_address": ["2328 Arthur Ave", "Ste 5", "Bronx, NY 10458"], "address1": "2328 Arthur Ave", "city": "Bronx", "zip_code": "10458", "address3": "", "state": "NY"}, "coordinates": {"longitude": -73.888672, "latitude": 40.853828}, "review_count": 84, "image_url": "https://s3-media3.fl.yelpcdn.com/bphoto/Ximulefs7EWgrF-9FgUgvw/o.jpg", "price": "$$", "rating": 4.0, "name": "Estrellita Poblana III", "url": "https://www.yelp.com/biz/estrellita-poblana-iii-bronx?adjust_creative=gBcvfFpabk3CnzmXKdYe3w&utm_campaign=yelp_api_v3&utm_medium=api_v3_business_search&utm_source=gBcvfFpabk3CnzmXKdYe3w"}, {"transactions": ["delivery", "pickup"], "distance": 7394.9361292779995, "phone": "+17183816669", "categories": [{"alias": "tex-mex", "title": "Tex-Mex"}, {"alias": "mexican", "title": "Mexican"}], "id": "happy-fresh-taco-ridgewood", "display_phone": "(718) 381-6669", "is_closed": false, "location": {"address2": "", "country": "US", "display_address": ["1693A Putnam Ave", "Ridgewood, NY 11385"], "address1": "1693A Putnam Ave", "city": "Ridgewood", "zip_code": "11385", "address3": "", "state": "NY"}, "coordinates": {"longitude": -73.9069016, "latitude": 40.7002962}, "review_count": 45, "image_url": "https://s3-media2.fl.yelpcdn.com/bphoto/eEs794EwvK4KmwgI9NVJcg/o.jpg", "price": "$", "rating": 3.5, "name": "Happy Fresh Taco", "url": "https://www.yelp.com/biz/happy-fresh-taco-ridgewood?adjust_creative=gBcvfFpabk3CnzmXKdYe3w&utm_campaign=yelp_api_v3&utm_medium=api_v3_business_search&utm_source=gBcvfFpabk3CnzmXKdYe3w"}, {"transactions": [], "distance": 6351.11386006, "phone": "+13476248637", "categories": [{"alias": "foodtrucks", "title": "Food Trucks"}, {"alias": "tacos", "title": "Tacos"}], "id": "lucio-angelita-tacos-new-york", "display_phone": "(347) 624-8637", "is_closed": false, "location": {"address2": "", "country": "US", "display_address": ["55 Lexington Ave", "New York, NY 10022"], "address1": "55 Lexington Ave", "city": "New York", "zip_code": "10022", "address3": "", "state": "NY"}, "coordinates": {"longitude": -73.9697938801726, "latitude": 40.7594591154635}, "review_count": 11, "image_url": "https://s3-media4.fl.yelpcdn.com/bphoto/bHhXaoLnSZr9NtRPGh79RQ/o.jpg", "price": "$", "rating": 4.0, "name": "Lucio Angelita Tacos", "url": "https://www.yelp.com/biz/lucio-angelita-tacos-new-york?adjust_creative=gBcvfFpabk3CnzmXKdYe3w&utm_campaign=yelp_api_v3&utm_medium=api_v3_business_search&utm_source=gBcvfFpabk3CnzmXKdYe3w"}, {"transactions": [], "distance": 3057.606631156, "phone": "", "categories": [{"alias": "foodstands", "title": "Food Stands"}, {"alias": "mexican", "title": "Mexican"}], "id": "authentic-mexican-cuisine-and-american-fast-food-cart-brooklyn", "display_phone": "", "is_closed": false, "location": {"address2": "", "country": "US", "display_address": ["Metropolitan Ave And Bedford Ave", "Brooklyn, NY 11211"], "address1": "Metropolitan Ave And Bedford Ave", "city": "Brooklyn", "zip_code": "11211", "address3": "", "state": "NY"}, "coordinates": {"longitude": -73.96043, "latitude": 40.71531}, "review_count": 8, "image_url": "https://s3-media2.fl.yelpcdn.com/bphoto/IFH1kKvTynDgwT9qE9nihA/o.jpg", "price": "$", "rating": 4.0, "name": "Authentic Mexican Cuisine & American Fast Food Cart", "url": "https://www.yelp.com/biz/authentic-mexican-cuisine-and-american-fast-food-cart-brooklyn?adjust_creative=gBcvfFpabk3CnzmXKdYe3w&utm_campaign=yelp_api_v3&utm_medium=api_v3_business_search&utm_source=gBcvfFpabk3CnzmXKdYe3w"}, {"transactions": [], "distance": 2468.4726405439997, "phone": "+12127800999", "categories": [{"alias": "mexican", "title": "Mexican"}], "id": "empellon-cocina-new-york", "display_phone": "(212) 780-0999", "is_closed": false, "location": {"address2": "", "country": "US", "display_address": ["105 1st Ave", "New York, NY 10003"], "address1": "105 1st Ave", "city": "New York", "zip_code": "10003", "address3": "", "state": "NY"}, "coordinates": {"longitude": -73.986282, "latitude": 40.726799}, "review_count": 267, "image_url": "https://s3-media1.fl.yelpcdn.com/bphoto/8bX5ZCfAC3pCeyInOSv6XA/o.jpg", "price": "$$$", "rating": 3.5, "name": "Empellon Cocina", "url": "https://www.yelp.com/biz/empellon-cocina-new-york?adjust_creative=gBcvfFpabk3CnzmXKdYe3w&utm_campaign=yelp_api_v3&utm_medium=api_v3_business_search&utm_source=gBcvfFpabk3CnzmXKdYe3w"}, {"transactions": ["delivery", "pickup"], "distance": 11216.535404462, "phone": "+17189989860", "categories": [{"alias": "mexican", "title": "Mexican"}], "id": "paraiso-azteca-restaurant-brooklyn", "display_phone": "(718) 998-9860", "is_closed": false, "location": {"address2": "", "country": "US", "display_address": ["1681 E 16th St", "Brooklyn, NY 11229"], "address1": "1681 E 16th St", "city": "Brooklyn", "zip_code": "11229", "address3": "", "state": "NY"}, "coordinates": {"longitude": -73.9571799, "latitude": 40.6086}, "review_count": 40, "image_url": "https://s3-media1.fl.yelpcdn.com/bphoto/p-wJ77zJDp7UzdHJ4KFqKA/o.jpg", "price": "$", "rating": 3.5, "name": "Paraiso Azteca Restaurant", "url": "https://www.yelp.com/biz/paraiso-azteca-restaurant-brooklyn?adjust_creative=gBcvfFpabk3CnzmXKdYe3w&utm_campaign=yelp_api_v3&utm_medium=api_v3_business_search&utm_source=gBcvfFpabk3CnzmXKdYe3w"}, {"transactions": ["delivery", "pickup"], "distance": 2928.083246474, "phone": "+17187827728", "categories": [{"alias": "mexican", "title": "Mexican"}], "id": "la-burrito-brooklyn-2", "display_phone": "(718) 782-7728", "is_closed": false, "location": {"address2": "", "country": "US", "display_address": ["287 Bedford Ave", "Brooklyn, NY 11211"], "address1": "287 Bedford Ave", "city": "Brooklyn", "zip_code": "11211", "address3": "", "state": "NY"}, "coordinates": {"longitude": -73.96147, "latitude": 40.71403}, "review_count": 184, "image_url": "https://s3-media1.fl.yelpcdn.com/bphoto/GIlLaAA1hIm5Vh24SM2SfA/o.jpg", "price": "$", "rating": 3.5, "name": "LA Burrito", "url": "https://www.yelp.com/biz/la-burrito-brooklyn-2?adjust_creative=gBcvfFpabk3CnzmXKdYe3w&utm_campaign=yelp_api_v3&utm_medium=api_v3_business_search&utm_source=gBcvfFpabk3CnzmXKdYe3w"}, {"transactions": ["delivery", "pickup"], "distance": 9777.85577262, "phone": "+12129619600", "categories": [{"alias": "mexican", "title": "Mexican"}], "id": "gabrielas-restaurant-and-tequila-bar-new-york-2", "display_phone": "(212) 961-9600", "is_closed": false, "location": {"address2": "", "country": "US", "display_address": ["688 Columbus Ave", "New York, NY 10025"], "address1": "688 Columbus Ave", "city": "New York", "zip_code": "10025", "address3": "", "state": "NY"}, "coordinates": {"longitude": -73.9689331, "latitude": 40.7912178}, "review_count": 357, "image_url": "https://s3-media1.fl.yelpcdn.com/bphoto/xLoAowXi8lUHNGM_2lBGlQ/o.jpg", "price": "$$", "rating": 3.0, "name": "Gabriela's Restaurant & Tequila Bar", "url": "https://www.yelp.com/biz/gabrielas-restaurant-and-tequila-bar-new-york-2?adjust_creative=gBcvfFpabk3CnzmXKdYe3w&utm_campaign=yelp_api_v3&utm_medium=api_v3_business_search&utm_source=gBcvfFpabk3CnzmXKdYe3w"}, {"transactions": ["delivery", "pickup"], "distance": 9530.857488099999, "phone": "+17185452292", "categories": [{"alias": "mexican", "title": "Mexican"}], "id": "el-rey-restaurant-astoria", "display_phone": "(718) 545-2292", "is_closed": false, "location": {"address2": "", "country": "US", "display_address": ["25-21 Astoria Blvd", "Astoria, NY 11102"], "address1": "25-21 Astoria Blvd", "city": "Astoria", "zip_code": "11102", "address3": "", "state": "NY"}, "coordinates": {"longitude": -73.92198, "latitude": 40.77137}, "review_count": 61, "image_url": "https://s3-media2.fl.yelpcdn.com/bphoto/GUUGKo8pmJij1A4JwRu7Fw/o.jpg", "price": "$$", "rating": 3.5, "name": "El Rey Restaurant", "url": "https://www.yelp.com/biz/el-rey-restaurant-astoria?adjust_creative=gBcvfFpabk3CnzmXKdYe3w&utm_campaign=yelp_api_v3&utm_medium=api_v3_business_search&utm_source=gBcvfFpabk3CnzmXKdYe3w"}, {"transactions": ["delivery", "pickup"], "distance": 6871.13184756, "phone": "+17183031749", "categories": [{"alias": "mexican", "title": "Mexican"}], "id": "taqueria-los-poblanos-brooklyn-2", "display_phone": "(718) 303-1749", "is_closed": false, "location": {"address2": "", "country": "US", "display_address": ["733 Church Ave", "Brooklyn, NY 11218"], "address1": "733 Church Ave", "city": "Brooklyn", "zip_code": "11218", "address3": "", "state": "NY"}, "coordinates": {"longitude": -73.9721832, "latitude": 40.6459618}, "review_count": 27, "image_url": "https://s3-media2.fl.yelpcdn.com/bphoto/wX7YPW714ss5f72GwWNvGg/o.jpg", "price": "$", "rating": 3.5, "name": "Taqueria Los Poblanos", "url": "https://www.yelp.com/biz/taqueria-los-poblanos-brooklyn-2?adjust_creative=gBcvfFpabk3CnzmXKdYe3w&utm_campaign=yelp_api_v3&utm_medium=api_v3_business_search&utm_source=gBcvfFpabk3CnzmXKdYe3w"}, {"transactions": ["delivery", "pickup"], "distance": 2324.27802962, "phone": "+17188521925", "categories": [{"alias": "diners", "title": "Diners"}, {"alias": "mexican", "title": "Mexican"}, {"alias": "newamerican", "title": "American (New)"}], "id": "mex-carrolls-diner-brooklyn", "display_phone": "(718) 852-1925", "is_closed": false, "location": {"address2": "", "country": "US", "display_address": ["192 Columbia St", "Brooklyn, NY 11231"], "address1": "192 Columbia St", "city": "Brooklyn", "zip_code": "11231", "address3": "", "state": "NY"}, "coordinates": {"longitude": -74.00276, "latitude": 40.68556}, "review_count": 18, "image_url": "https://s3-media1.fl.yelpcdn.com/bphoto/_KIE1xcyHl_EU8b5AiZZCA/o.jpg", "price": "$$", "rating": 4.0, "name": "Mex Carroll's Diner", "url": "https://www.yelp.com/biz/mex-carrolls-diner-brooklyn?adjust_creative=gBcvfFpabk3CnzmXKdYe3w&utm_campaign=yelp_api_v3&utm_medium=api_v3_business_search&utm_source=gBcvfFpabk3CnzmXKdYe3w"}, {"transactions": ["delivery", "pickup"], "distance": 2687.69596974, "phone": "+12125334002", "categories": [{"alias": "mexican", "title": "Mexican"}], "id": "sabor-a-mexico-taqueria-new-york", "display_phone": "(212) 533-4002", "is_closed": false, "location": {"address2": "", "country": "US", "display_address": ["160 1st Ave", "New York, NY 10009"], "address1": "160 1st Ave", "city": "New York", "zip_code": "10009", "address3": "", "state": "NY"}, "coordinates": {"longitude": -73.9844540083, "latitude": 40.7284353669}, "review_count": 75, "image_url": "https://s3-media4.fl.yelpcdn.com/bphoto/5Y0a3L-a4Eqk0FHVudtVSw/o.jpg", "price": "$$", "rating": 3.5, "name": "Sabor A Mexico Taqueria", "url": "https://www.yelp.com/biz/sabor-a-mexico-taqueria-new-york?adjust_creative=gBcvfFpabk3CnzmXKdYe3w&utm_campaign=yelp_api_v3&utm_medium=api_v3_business_search&utm_source=gBcvfFpabk3CnzmXKdYe3w"}, {"transactions": [], "distance": 3534.087465504, "phone": "+17187839000", "categories": [{"alias": "mexican", "title": "Mexican"}], "id": "salva-vida-brooklyn", "display_phone": "(718) 783-9000", "is_closed": false, "location": {"address2": "", "country": "US", "display_address": ["291 Greene Ave", "Brooklyn, NY 11238"], "address1": "291 Greene Ave", "city": "Brooklyn", "zip_code": "11238", "address3": "", "state": "NY"}, "coordinates": {"longitude": -73.9598979055882, "latitude": 40.6874243170023}, "review_count": 77, "image_url": "https://s3-media1.fl.yelpcdn.com/bphoto/-7zC84G6qfLOeYimTjnmhQ/o.jpg", "price": "$", "rating": 3.0, "name": "Salva Vida", "url": "https://www.yelp.com/biz/salva-vida-brooklyn?adjust_creative=gBcvfFpabk3CnzmXKdYe3w&utm_campaign=yelp_api_v3&utm_medium=api_v3_business_search&utm_source=gBcvfFpabk3CnzmXKdYe3w"}, {"transactions": ["pickup", "delivery"], "distance": 8332.36267802, "phone": "+12127370095", "categories": [{"alias": "burgers", "title": "Burgers"}, {"alias": "mexican", "title": "Mexican"}], "id": "burger-one-new-york", "display_phone": "(212) 737-0095", "is_closed": false, "location": {"address2": "", "country": "US", "display_address": ["1150 Lexington Ave", "New York, NY 10075"], "address1": "1150 Lexington Ave", "city": "New York", "zip_code": "10075", "address3": "", "state": "NY"}, "coordinates": {"longitude": -73.9587344974279, "latitude": 40.7752780616283}, "review_count": 138, "image_url": "https://s3-media4.fl.yelpcdn.com/bphoto/vYR8TZ1ieW8gbfln3s3Ydg/o.jpg", "price": "$", "rating": 4.0, "name": "Burger One", "url": "https://www.yelp.com/biz/burger-one-new-york?adjust_creative=gBcvfFpabk3CnzmXKdYe3w&utm_campaign=yelp_api_v3&utm_medium=api_v3_business_search&utm_source=gBcvfFpabk3CnzmXKdYe3w"}, {"transactions": [], "distance": 7177.070600239999, "phone": "+17189729669", "categories": [{"alias": "mexican", "title": "Mexican"}], "id": "taqueria-restaurante-mi-barrio-brooklyn", "display_phone": "(718) 972-9669", "is_closed": false, "location": {"address2": "", "country": "US", "display_address": ["3415 14th Ave", "Brooklyn, NY 11218"], "address1": "3415 14th Ave", "city": "Brooklyn", "zip_code": "11218", "address3": "", "state": "NY"}, "coordinates": {"longitude": -73.981455, "latitude": 40.6415601}, "review_count": 23, "image_url": "https://s3-media4.fl.yelpcdn.com/bphoto/r3afu8ZaXGfGM54BrL0LEA/o.jpg", "price": "$$", "rating": 4.0, "name": "Taqueria Restaurante Mi Barrio", "url": "https://www.yelp.com/biz/taqueria-restaurante-mi-barrio-brooklyn?adjust_creative=gBcvfFpabk3CnzmXKdYe3w&utm_campaign=yelp_api_v3&utm_medium=api_v3_business_search&utm_source=gBcvfFpabk3CnzmXKdYe3w"}, {"transactions": ["delivery", "pickup"], "distance": 12538.38886142, "phone": "+17187309002", "categories": [{"alias": "mexican", "title": "Mexican"}, {"alias": "spanish", "title": "Spanish"}, {"alias": "latin", "title": "Latin American"}], "id": "el-rey-latino-forest-hills", "display_phone": "(718) 730-9002", "is_closed": false, "location": {"address2": "", "country": "US", "display_address": ["63-42 108th St", "Forest Hills, NY 11375"], "address1": "63-42 108th St", "city": "Forest Hills", "zip_code": "11375", "address3": "", "state": "NY"}, "coordinates": {"longitude": -73.8503124767212, "latitude": 40.7338441080313}, "review_count": 53, "image_url": "https://s3-media3.fl.yelpcdn.com/bphoto/jjwtPIlSuoAHM5xZqg9JeA/o.jpg", "price": "$$", "rating": 3.0, "name": "El Rey Latino", "url": "https://www.yelp.com/biz/el-rey-latino-forest-hills?adjust_creative=gBcvfFpabk3CnzmXKdYe3w&utm_campaign=yelp_api_v3&utm_medium=api_v3_business_search&utm_source=gBcvfFpabk3CnzmXKdYe3w"}, {"transactions": [], "distance": 2877.695937612, "phone": "", "categories": [{"alias": "mexican", "title": "Mexican"}, {"alias": "foodstands", "title": "Food Stands"}], "id": "la-troca-del-sabor-brooklyn", "display_phone": "", "is_closed": false, "location": {"address2": "", "country": "US", "display_address": ["N 4th St Bedford Ave", "Brooklyn, NY 11211"], "address1": "N 4th St Bedford Ave", "city": "Brooklyn", "zip_code": "11211", "address3": "", "state": "NY"}, "coordinates": {"longitude": -73.95604, "latitude": 40.7194}, "review_count": 38, "image_url": "https://s3-media4.fl.yelpcdn.com/bphoto/4QhADAywTlC7SeUqFVNpWw/o.jpg", "price": "$", "rating": 4.5, "name": "La Troca del Sabor", "url": "https://www.yelp.com/biz/la-troca-del-sabor-brooklyn?adjust_creative=gBcvfFpabk3CnzmXKdYe3w&utm_campaign=yelp_api_v3&utm_medium=api_v3_business_search&utm_source=gBcvfFpabk3CnzmXKdYe3w"}, {"transactions": [], "distance": 6590.911957419999, "phone": "+17184391661", "categories": [{"alias": "mexican", "title": "Mexican"}], "id": "tacos-california-brooklyn", "display_phone": "(718) 439-1661", "is_closed": false, "location": {"address2": "", "country": "US", "display_address": ["4616 5th Ave", "Brooklyn, NY 11220"], "address1": "4616 5th Ave", "city": "Brooklyn", "zip_code": "11220", "address3": "", "state": "NY"}, "coordinates": {"longitude": -74.0085983276367, "latitude": 40.647144317627}, "review_count": 19, "image_url": "https://s3-media2.fl.yelpcdn.com/bphoto/BbgNUykyPs3glErgcB_viw/o.jpg", "price": "$", "rating": 4.0, "name": "Tacos California", "url": "https://www.yelp.com/biz/tacos-california-brooklyn?adjust_creative=gBcvfFpabk3CnzmXKdYe3w&utm_campaign=yelp_api_v3&utm_medium=api_v3_business_search&utm_source=gBcvfFpabk3CnzmXKdYe3w"}, {"transactions": [], "distance": 3752.112158268, "phone": "+17184860757", "categories": [{"alias": "mexican", "title": "Mexican"}], "id": "yolas-cafe-brooklyn", "display_phone": "(718) 486-0757", "is_closed": false, "location": {"address2": null, "country": "US", "display_address": ["524 Metropolitan Ave", "Brooklyn, NY 11211"], "address1": "524 Metropolitan Ave", "city": "Brooklyn", "zip_code": "11211", "address3": "", "state": "NY"}, "coordinates": {"longitude": -73.951126, "latitude": 40.713844}, "review_count": 187, "image_url": "https://s3-media4.fl.yelpcdn.com/bphoto/3wRGaq048MbBeHpLedTshQ/o.jpg", "price": "$", "rating": 3.0, "name": "Yola's Cafe", "url": "https://www.yelp.com/biz/yolas-cafe-brooklyn?adjust_creative=gBcvfFpabk3CnzmXKdYe3w&utm_campaign=yelp_api_v3&utm_medium=api_v3_business_search&utm_source=gBcvfFpabk3CnzmXKdYe3w"}, {"transactions": [], "distance": 11033.313172, "phone": "", "categories": [{"alias": "tacos", "title": "Tacos"}, {"alias": "foodstands", "title": "Food Stands"}], "id": "taco-veloz-jackson-heights", "display_phone": "", "is_closed": false, "location": {"address2": "", "country": "US", "display_address": ["8610 Roosevelt Ave", "Jackson Heights, NY 11372"], "address1": "8610 Roosevelt Ave", "city": "Jackson Heights", "zip_code": "11372", "address3": "", "state": "NY"}, "coordinates": {"longitude": -73.87978, "latitude": 40.74776}, "review_count": 38, "image_url": "https://s3-media3.fl.yelpcdn.com/bphoto/xGVeO339UNTrzLWDNlOrDA/o.jpg", "price": "$", "rating": 4.0, "name": "Taco Veloz", "url": "https://www.yelp.com/biz/taco-veloz-jackson-heights?adjust_creative=gBcvfFpabk3CnzmXKdYe3w&utm_campaign=yelp_api_v3&utm_medium=api_v3_business_search&utm_source=gBcvfFpabk3CnzmXKdYe3w"}, {"transactions": ["delivery", "pickup"], "distance": 5906.223404308, "phone": "+12127515257", "categories": [{"alias": "mexican", "title": "Mexican"}], "id": "pampano-taqueria-new-york", "display_phone": "(212) 751-5257", "is_closed": false, "location": {"address2": "", "country": "US", "display_address": ["805 3rd Ave", "New York, NY 10022"], "address1": "805 3rd Ave", "city": "New York", "zip_code": "10022", "address3": "", "state": "NY"}, "coordinates": {"longitude": -73.970535, "latitude": 40.75539}, "review_count": 148, "image_url": "https://s3-media2.fl.yelpcdn.com/bphoto/vD5uu4n5UMbmOnSX1_KsAA/o.jpg", "price": "$", "rating": 3.5, "name": "Pampano Taqueria", "url": "https://www.yelp.com/biz/pampano-taqueria-new-york?adjust_creative=gBcvfFpabk3CnzmXKdYe3w&utm_campaign=yelp_api_v3&utm_medium=api_v3_business_search&utm_source=gBcvfFpabk3CnzmXKdYe3w"}, {"transactions": [], "distance": 3767.835410068, "phone": "", "categories": [{"alias": "foodstands", "title": "Food Stands"}, {"alias": "mexican", "title": "Mexican"}], "id": "tri-mexican-tacos-new-york", "display_phone": "", "is_closed": false, "location": {"address2": "", "country": "US", "display_address": ["20th St & Broadway", "New York, NY 10003"], "address1": "20th St & Broadway", "city": "New York", "zip_code": "10003", "address3": "", "state": "NY"}, "coordinates": {"longitude": -73.989769667387, "latitude": 40.7391802221537}, "review_count": 9, "image_url": "https://s3-media3.fl.yelpcdn.com/bphoto/v8GLw7RSVotbMen53Ks5rw/o.jpg", "price": "$", "rating": 4.5, "name": "TRI Mexican Tacos", "url": "https://www.yelp.com/biz/tri-mexican-tacos-new-york?adjust_creative=gBcvfFpabk3CnzmXKdYe3w&utm_campaign=yelp_api_v3&utm_medium=api_v3_business_search&utm_source=gBcvfFpabk3CnzmXKdYe3w"}, {"transactions": ["delivery", "pickup"], "distance": 6359.057079497999, "phone": "+19292100860", "categories": [{"alias": "mexican", "title": "Mexican"}], "id": "new-santa-ana-brooklyn", "display_phone": "(929) 210-0860", "is_closed": false, "location": {"address2": "", "country": "US", "display_address": ["187 Irving Ave", "Brooklyn, NY 11237"], "address1": "187 Irving Ave", "city": "Brooklyn", "zip_code": "11237", "address3": "", "state": "NY"}, "coordinates": {"longitude": -73.9190216064453, "latitude": 40.7019462585449}, "review_count": 9, "image_url": "https://s3-media4.fl.yelpcdn.com/bphoto/FZUNRab2RS8vGZFYVNOAgA/o.jpg", "price": "$", "rating": 4.0, "name": "New Santa Ana", "url": "https://www.yelp.com/biz/new-santa-ana-brooklyn?adjust_creative=gBcvfFpabk3CnzmXKdYe3w&utm_campaign=yelp_api_v3&utm_medium=api_v3_business_search&utm_source=gBcvfFpabk3CnzmXKdYe3w"}, {"transactions": [], "distance": 7157.786361821999, "phone": "+17188517229", "categories": [{"alias": "bakeries", "title": "Bakeries"}, {"alias": "mexican", "title": "Mexican"}], "id": "panaderia-puebla-brooklyn", "display_phone": "(718) 851-7229", "is_closed": false, "location": {"address2": "", "country": "US", "display_address": ["3713 13th Ave", "Brooklyn, NY 11218"], "address1": "3713 13th Ave", "city": "Brooklyn", "zip_code": "11218", "address3": "", "state": "NY"}, "coordinates": {"longitude": -73.98522, "latitude": 40.64131}, "review_count": 8, "image_url": "https://s3-media2.fl.yelpcdn.com/bphoto/4jC_K55b5y8q4jGwCj_Kug/o.jpg", "price": "$", "rating": 4.5, "name": "Panaderia Puebla", "url": "https://www.yelp.com/biz/panaderia-puebla-brooklyn?adjust_creative=gBcvfFpabk3CnzmXKdYe3w&utm_campaign=yelp_api_v3&utm_medium=api_v3_business_search&utm_source=gBcvfFpabk3CnzmXKdYe3w"}, {"transactions": [], "distance": 13353.342544019997, "phone": "+17184471960", "categories": [{"alias": "mexican", "title": "Mexican"}], "id": "casa-chonita-west-brighton-2", "display_phone": "(718) 447-1960", "is_closed": false, "location": {"address2": "", "country": "US", "display_address": ["490 Broadway", "West Brighton, NY 10310"], "address1": "490 Broadway", "city": "West Brighton", "zip_code": "10310", "address3": "", "state": "NY"}, "coordinates": {"longitude": -74.116485, "latitude": 40.629081}, "review_count": 10, "image_url": "https://s3-media3.fl.yelpcdn.com/bphoto/iXAwPP6PRAZUz6x_2D851g/o.jpg", "price": "$", "rating": 5.0, "name": "Casa Chonita", "url": "https://www.yelp.com/biz/casa-chonita-west-brighton-2?adjust_creative=gBcvfFpabk3CnzmXKdYe3w&utm_campaign=yelp_api_v3&utm_medium=api_v3_business_search&utm_source=gBcvfFpabk3CnzmXKdYe3w"}, {"transactions": ["delivery", "pickup"], "distance": 10893.570317384, "phone": "+17184397012", "categories": [{"alias": "mexican", "title": "Mexican"}], "id": "el-penacho-restaurant-brooklyn-2", "display_phone": "(718) 439-7012", "is_closed": false, "location": {"address2": "", "country": "US", "display_address": ["374 Avenue P", "Brooklyn, NY 11228"], "address1": "374 Avenue P", "city": "Brooklyn", "zip_code": "11228", "address3": "", "state": "NY"}, "coordinates": {"longitude": -73.9736557006836, "latitude": 40.608470916748}, "review_count": 30, "image_url": "https://s3-media3.fl.yelpcdn.com/bphoto/3Fb6tBt27Fe8mdgPyXJdMw/o.jpg", "price": "$$", "rating": 3.5, "name": "El Penacho Restaurant", "url": "https://www.yelp.com/biz/el-penacho-restaurant-brooklyn-2?adjust_creative=gBcvfFpabk3CnzmXKdYe3w&utm_campaign=yelp_api_v3&utm_medium=api_v3_business_search&utm_source=gBcvfFpabk3CnzmXKdYe3w"}]}