{"region": {"center": {"longitude": -73.99429321289062, "latitude": 40.70544486444615}}, "total": 1496, "businesses": [{"transactions": [], "distance": 12765.762532112, "phone": "+17188159200", "categories": [{"alias": "mexican", "title": "Mexican"}, {"alias": "bars", "title": "Bars"}], "id": "burrito-bar-staten-island", "display_phone": "(718) 815-9200", "is_closed": false, "location": {"address2": "", "country": "US", "display_address": ["585 Forest Ave", "Staten Island, NY 10310"], "address1": "585 Forest Ave", "city": "Staten Island", "zip_code": "10310", "address3": "", "state": "NY"}, "coordinates": {"longitude": -74.108752, "latitude": 40.630321}, "review_count": 147, "image_url": "https://s3-media1.fl.yelpcdn.com/bphoto/xUOtrzNtCWdeR0qoF2hQ0A/o.jpg", "price": "$$", "rating": 3.0, "name": "Burrito Bar", "url": "https://www.yelp.com/biz/burrito-bar-staten-island?adjust_creative=gBcvfFpabk3CnzmXKdYe3w&utm_campaign=yelp_api_v3&utm_medium=api_v3_business_search&utm_source=gBcvfFpabk3CnzmXKdYe3w"}, {"transactions": [], "distance": 6518.487955937999, "phone": "+17189722380", "categories": [{"alias": "mexican", "title": "Mexican"}, {"alias": "bars", "title": "Bars"}], "id": "la-cucina-mexican-grill-and-cantina-bar-brooklyn", "display_phone": "(718) 972-2380", "is_closed": false, "location": {"address2": "", "country": "US", "display_address": ["4503 5th Ave", "Brooklyn, NY 11217"], "address1": "4503 5th Ave", "city": "Brooklyn", "zip_code": "11217", "address3": "", "state": "NY"}, "coordinates": {"longitude": -74.007339, "latitude": 40.647663}, "review_count": 13, "image_url": "https://s3-media3.fl.yelpcdn.com/bphoto/SFqouqdRFkenRuwHWy833Q/o.jpg", "price": "$$", "rating": 4.0, "name": "La Cucina Mexican Grill & Cantina Bar", "url": "https://www.yelp.com/biz/la-cucina-mexican-grill-and-cantina-bar-brooklyn?adjust_creative=gBcvfFpabk3CnzmXKdYe3w&utm_campaign=yelp_api_v3&utm_medium=api_v3_business_search&utm_source=gBcvfFpabk3CnzmXKdYe3w"}, {"transactions": ["delivery", "pickup"], "distance": 7174.8110868799995, "phone": "+17184398434", "categories": [{"alias": "mexican", "title": "Mexican"}, {"alias": "food", "title": "Food"}], "id": "sunstone-tortillas-express-restaurant-brooklyn", "display_phone": "(718) 439-8434", "is_closed": false, "location": {"address2": "", "country": "US", "display_address": ["5411 5th Ave", "Brooklyn, NY 11220"], "address1": "5411 5th Ave", "city": "Brooklyn", "zip_code": "11220", "address3": "", "state": "NY"}, "coordinates": {"longitude": -74.0127029418945, "latitude": 40.6424446105957}, "review_count": 36, "image_url": "https://s3-media4.fl.yelpcdn.com/bphoto/7WGg0PvhpytcvgXhwxD5_w/o.jpg", "price": "$", "rating": 3.5, "name": "Sunstone Tortillas Express Restaurant", "url": "https://www.yelp.com/biz/sunstone-tortillas-express-restaurant-brooklyn?adjust_creative=gBcvfFpabk3CnzmXKdYe3w&utm_campaign=yelp_api_v3&utm_medium=api_v3_business_search&utm_source=gBcvfFpabk3CnzmXKdYe3w"}, {"transactions": [], "distance": 15227.11480876, "phone": "+17184470557", "categories": [{"alias": "mexican", "title": "Mexican"}], "id": "venga-mexican-grill-staten-island", "display_phone": "(718) 447-0557", "is_closed": false, "location": {"address2": "", "country": "US", "display_address": ["1903 Victory Blvd", "Staten Island, NY 10314"], "address1": "1903 Victory Blvd", "city": "Staten Island", "zip_code": "10314", "address3": "", "state": "NY"}, "coordinates": {"longitude": -74.127456, "latitude": 40.612987}, "review_count": 70, "image_url": "https://s3-media3.fl.yelpcdn.com/bphoto/0D5c06LHusQ8oAlnC1OaaA/o.jpg", "price": "$", "rating": 3.5, "name": "Venga Mexican Grill", "url": "https://www.yelp.com/biz/venga-mexican-grill-staten-island?adjust_creative=gBcvfFpabk3CnzmXKdYe3w&utm_campaign=yelp_api_v3&utm_medium=api_v3_business_search&utm_source=gBcvfFpabk3CnzmXKdYe3w"}, {"transactions": [], "distance": 10813.386239356, "phone": "+17182358880", "categories": [{"alias": "mexican", "title": "Mexican"}], "id": "mariachi-taco-brooklyn", "display_phone": "(718) 235-8880", "is_closed": false, "location": {"address2": null, "country": "US", "display_address": ["3428 Fulton St", "Brooklyn, NY 11208"], "address1": "3428 Fulton St", "city": "Brooklyn", "zip_code": "11208", "address3": null, "state": "NY"}, "coordinates": {"longitude": -73.86911, "latitude": 40.684261}, "review_count": 15, "image_url": "https://s3-media1.fl.yelpcdn.com/bphoto/An8h1neVvGRX5eEyA8pTLw/o.jpg", "price": "$", "rating": 3.5, "name": "Mariachi Taco", "url": "https://www.yelp.com/biz/mariachi-taco-brooklyn?adjust_creative=gBcvfFpabk3CnzmXKdYe3w&utm_campaign=yelp_api_v3&utm_medium=api_v3_business_search&utm_source=gBcvfFpabk3CnzmXKdYe3w"}, {"transactions": ["delivery", "pickup"], "distance": 5266.359154479999, "phone": "+19176756613", "categories": [{"alias": "mexican", "title": "Mexican"}], "id": "choza-taqueria-new-york-8", "display_phone": "(917) 675-6613", "is_closed": false, "location": {"address2": "", "country": "US", "display_address": ["100 Park Ave", "New York, NY 10017"], "address1": "100 Park Ave", "city": "New York", "zip_code": "10017", "address3": "", "state": "NY"}, "coordinates": {"longitude": -73.978919, "latitude": 40.751342}, "review_count": 18, "image_url": "https://s3-media3.fl.yelpcdn.com/bphoto/-iJRL7vaonmJ6Uyg02Rc7w/o.jpg", "price": "$", "rating": 3.0, "name": "Choza Taqueria", "url": "https://www.yelp.com/biz/choza-taqueria-new-york-8?adjust_creative=gBcvfFpabk3CnzmXKdYe3w&utm_campaign=yelp_api_v3&utm_medium=api_v3_business_search&utm_source=gBcvfFpabk3CnzmXKdYe3w"}, {"transactions": [], "distance": 5254.217810718, "phone": "+17187680909", "categories": [{"alias": "mexican", "title": "Mexican"}], "id": "burritos-and-tacos-don-clemente-brooklyn", "display_phone": "(718) 768-0909", "is_closed": false, "location": {"address2": "", "country": "US", "display_address": ["252 Prospect Park W", "Brooklyn, NY 11215"], "address1": "252 Prospect Park W", "city": "Brooklyn", "zip_code": "11215", "address3": "", "state": "NY"}, "coordinates": {"longitude": -73.9817810058594, "latitude": 40.6591606140137}, "review_count": 9, "image_url": "https://s3-media2.fl.yelpcdn.com/bphoto/kugJVKk78rUgye4iW4nxGg/o.jpg", "price": "$$", "rating": 3.0, "name": "Burritos & Tacos Don Clemente", "url": "https://www.yelp.com/biz/burritos-and-tacos-don-clemente-brooklyn?adjust_creative=gBcvfFpabk3CnzmXKdYe3w&utm_campaign=yelp_api_v3&utm_medium=api_v3_business_search&utm_source=gBcvfFpabk3CnzmXKdYe3w"}, {"transactions": ["pickup"], "distance": 9356.75828223, "phone": "+12123482800", "categories": [{"alias": "mexican", "title": "Mexican"}], "id": "gina-mexicana-new-york", "display_phone": "(212) 348-2800", "is_closed": false, "location": {"address2": "", "country": "US", "display_address": ["1288 Madison Ave", "E 91st St", "New York, NY 10128"], "address1": "1288 Madison Ave", "city": "New York", "zip_code": "10128", "address3": "E 91st St", "state": "NY"}, "coordinates": {"longitude": -73.95631, "latitude": 40.78454}, "review_count": 38, "image_url": "https://s3-media4.fl.yelpcdn.com/bphoto/wWgR4JzPu_iLtjqbsrKV_g/o.jpg", "price": "$$$", "rating": 3.0, "name": "Gina Mexicana", "url": "https://www.yelp.com/biz/gina-mexicana-new-york?adjust_creative=gBcvfFpabk3CnzmXKdYe3w&utm_campaign=yelp_api_v3&utm_medium=api_v3_business_search&utm_source=gBcvfFpabk3CnzmXKdYe3w"}, {"transactions": [], "distance": 18809.09848574, "phone": "+17182207641", "categories": [{"alias": "mexican", "title": "Mexican"}], "id": "estrella-poblanita-bronx", "display_phone": "(718) 220-7641", "is_closed": false, "location": {"address2": "", "country": "US", "display_address": ["2348 Arthur Ave", "Bronx, NY 10458"], "address1": "2348 Arthur Ave", "city": "Bronx", "zip_code": "10458", "address3": "", "state": "NY"}, "coordinates": {"longitude": -73.888252, "latitude": 40.85432}, "review_count": 27, "image_url": "https://s3-media3.fl.yelpcdn.com/bphoto/5zvfkzWDIa5AUN-NfVld7g/o.jpg", "price": "$$", "rating": 4.5, "name": "Estrella Poblanita", "url": "https://www.yelp.com/biz/estrella-poblanita-bronx?adjust_creative=gBcvfFpabk3CnzmXKdYe3w&utm_campaign=yelp_api_v3&utm_medium=api_v3_business_search&utm_source=gBcvfFpabk3CnzmXKdYe3w"}, {"transactions": ["delivery", "pickup"], "distance": 8116.32970444, "phone": "+17187866096", "categories": [{"alias": "mexican", "title": "Mexican"}, {"alias": "breakfast_brunch", "title": "Breakfast & Brunch"}, {"alias": "coffee", "title": "Coffee & Tea"}], "id": "swick-2-astoria-2", "display_phone": "(718) 786-6096", "is_closed": false, "location": {"address2": "", "country": "US", "display_address": ["35-04 35th St", "Astoria, NY 11106"], "address1": "35-04 35th St", "city": "Astoria", "zip_code": "11106", "address3": null, "state": "NY"}, "coordinates": {"longitude": -73.9254339, "latitude": 40.7564825}, "review_count": 9, "image_url": "https://s3-media3.fl.yelpcdn.com/bphoto/nmZr8CD1s7FzMgSdTNuSGg/o.jpg", "rating": 4.5, "name": "Swick 2", "url": "https://www.yelp.com/biz/swick-2-astoria-2?adjust_creative=gBcvfFpabk3CnzmXKdYe3w&utm_campaign=yelp_api_v3&utm_medium=api_v3_business_search&utm_source=gBcvfFpabk3CnzmXKdYe3w"}, {"transactions": [], "distance": 20108.300965, "phone": "", "categories": [{"alias": "mexican", "title": "Mexican"}], "id": "tacoway-beach-rockaway-beach", "display_phone": "", "is_closed": false, "location": {"address2": "", "country": "US", "display_address": ["302 Beach 87th St", "Rockaway Beach, NY 11693"], "address1": "302 Beach 87th St", "city": "Rockaway Beach", "zip_code": "11693", "address3": "", "state": "NY"}, "coordinates": {"longitude": -73.812093, "latitude": 40.58886}, "review_count": 108, "image_url": "https://s3-media2.fl.yelpcdn.com/bphoto/72lcfI8qdTE57TmPDbCG7A/o.jpg", "price": "$", "rating": 4.0, "name": "Tacoway Beach", "url": "https://www.yelp.com/biz/tacoway-beach-rockaway-beach?adjust_creative=gBcvfFpabk3CnzmXKdYe3w&utm_campaign=yelp_api_v3&utm_medium=api_v3_business_search&utm_source=gBcvfFpabk3CnzmXKdYe3w"}, {"transactions": [], "distance": 4028.531752932, "phone": "+17186220022", "categories": [{"alias": "mexican", "title": "Mexican"}], "id": "calaca-bedford-stuyvesant", "display_phone": "(718) 622-0022", "is_closed": false, "location": {"address2": "", "country": "US", "display_address": ["139 Putnam Ave", "Bedford-Stuyvesant, NY 11238"], "address1": "139 Putnam Ave", "city": "Bedford-Stuyvesant", "zip_code": "11238", "address3": "", "state": "NY"}, "coordinates": {"longitude": -73.9565499, "latitude": 40.6834}, "review_count": 109, "image_url": "https://s3-media3.fl.yelpcdn.com/bphoto/0ttUOtl9PLHD76mLVFO3Dw/o.jpg", "price": "$$", "rating": 4.5, "name": "Calaca", "url": "https://www.yelp.com/biz/calaca-bedford-stuyvesant?adjust_creative=gBcvfFpabk3CnzmXKdYe3w&utm_campaign=yelp_api_v3&utm_medium=api_v3_business_search&utm_source=gBcvfFpabk3CnzmXKdYe3w"}, {"transactions": ["delivery", "pickup"], "distance": 5168.682355322, "phone": "+17183662159", "categories": [{"alias": "mexican", "title": "Mexican"}], "id": "taqueria-el-fogon-brooklyn-2", "display_phone": "(718) 366-2159", "is_closed": false, "location": {"address2": "", "country": "US", "display_address": ["241 Cook St", "Brooklyn, NY 11206"], "address1": "241 Cook St", "city": "Brooklyn", "zip_code": "11206", "address3": "", "state": "NY"}, "coordinates": {"longitude": -73.93314, "latitude": 40.70362}, "review_count": 21, "image_url": "https://s3-media3.fl.yelpcdn.com/bphoto/3YAITHdYcKbGxiOPJfpRkQ/o.jpg", "price": "$$", "rating": 3.0, "name": "Taqueria El Fogon", "url": "https://www.yelp.com/biz/taqueria-el-fogon-brooklyn-2?adjust_creative=gBcvfFpabk3CnzmXKdYe3w&utm_campaign=yelp_api_v3&utm_medium=api_v3_business_search&utm_source=gBcvfFpabk3CnzmXKdYe3w"}, {"transactions": ["delivery", "pickup"], "distance": 3792.864670418, "phone": "+13473053600", "categories": [{"alias": "tex-mex", "title": "Tex-Mex"}, {"alias": "newamerican", "title": "American (New)"}, {"alias": "mexican", "title": "Mexican"}], "id": "el-paso-mexican-grill-brooklyn-2", "display_phone": "(347) 305-3600", "is_closed": false, "location": {"address2": null, "country": "US", "display_address": ["387 Flatbush Ave", "Brooklyn, NY 11238"], "address1": "387 Flatbush Ave", "city": "Brooklyn", "zip_code": "11238", "address3": "", "state": "NY"}, "coordinates": {"longitude": -73.9713534, "latitude": 40.6759231}, "review_count": 21, "image_url": "https://s3-media1.fl.yelpcdn.com/bphoto/OMFhpR5-hbNEnsG6mkWmpg/o.jpg", "price": "$", "rating": 2.5, "name": "El Paso Mexican Grill", "url": "https://www.yelp.com/biz/el-paso-mexican-grill-brooklyn-2?adjust_creative=gBcvfFpabk3CnzmXKdYe3w&utm_campaign=yelp_api_v3&utm_medium=api_v3_business_search&utm_source=gBcvfFpabk3CnzmXKdYe3w"}, {"transactions": ["delivery", "pickup"], "distance": 7116.014815584, "phone": "+17183662795", "categories": [{"alias": "mexican", "title": "Mexican"}], "id": "mallys-2-ridgewood", "display_phone": "(718) 366-2795", "is_closed": false, "location": {"address2": "", "country": "US", "display_address": ["602 Seneca Ave", "Ridgewood, NY 11385"], "address1": "602 Seneca Ave", "city": "Ridgewood", "zip_code": "11385", "address3": "", "state": "NY"}, "coordinates": {"longitude": -73.9098091, "latitude": 40.7038964}, "review_count": 7, "image_url": "https://s3-media2.fl.yelpcdn.com/bphoto/9XTKOrti3h38EmRfsQWGqQ/o.jpg", "rating": 3.5, "name": "Mally's 2", "url": "https://www.yelp.com/biz/mallys-2-ridgewood?adjust_creative=gBcvfFpabk3CnzmXKdYe3w&utm_campaign=yelp_api_v3&utm_medium=api_v3_business_search&utm_source=gBcvfFpabk3CnzmXKdYe3w"}, {"transactions": ["delivery", "pickup"], "distance": 14027.7799232, "phone": "+13475906989", "categories": [{"alias": "mexican", "title": "Mexican"}], "id": "el-jalapenos-bronx-3", "display_phone": "(347) 590-6989", "is_closed": false, "location": {"address2": "", "country": "US", "display_address": ["800 E 149th St", "Bronx, NY 10455"], "address1": "800 E 149th St", "city": "Bronx", "zip_code": "10455", "address3": "", "state": "NY"}, "coordinates": {"longitude": -73.9068994362503, "latitude": 40.8128368845012}, "review_count": 8, "image_url": "https://s3-media2.fl.yelpcdn.com/bphoto/DNd2dfiAZk3ifrULAc_LvA/o.jpg", "price": "$", "rating": 4.5, "name": "El Jalapenos", "url": "https://www.yelp.com/biz/el-jalapenos-bronx-3?adjust_creative=gBcvfFpabk3CnzmXKdYe3w&utm_campaign=yelp_api_v3&utm_medium=api_v3_business_search&utm_source=gBcvfFpabk3CnzmXKdYe3w"}, {"transactions": ["pickup"], "distance": 14051.767135899998, "phone": "+19178914480", "categories": [{"alias": "foodtrucks", "title": "Food Trucks"}, {"alias": "mexican", "title": "Mexican"}], "id": "tacos-azteca-new-york-2", "display_phone": "(917) 891-4480", "is_closed": false, "location": {"address2": "", "country": "US", "display_address": ["3468 Bdwy", "New York, NY 10031"], "address1": "3468 Bdwy", "city": "New York", "zip_code": "10031", "address3": "", "state": "NY"}, "coordinates": {"longitude": -73.9496753681795, "latitude": 40.8272113930405}, "review_count": 13, "image_url": "https://s3-media1.fl.yelpcdn.com/bphoto/u-y3A1l0ipQnzUZW-q90Ug/o.jpg", "price": "$", "rating": 4.0, "name": "Tacos Azteca", "url": "https://www.yelp.com/biz/tacos-azteca-new-york-2?adjust_creative=gBcvfFpabk3CnzmXKdYe3w&utm_campaign=yelp_api_v3&utm_medium=api_v3_business_search&utm_source=gBcvfFpabk3CnzmXKdYe3w"}, {"transactions": [], "distance": 9892.884314723999, "phone": "+17185011868", "categories": [{"alias": "mexican", "title": "Mexican"}, {"alias": "foodtrucks", "title": "Food Trucks"}], "id": "tacos-\u00e9l-gallo-giro-jackson-heights-2", "display_phone": "(718) 501-1868", "is_closed": false, "location": {"address2": "", "country": "US", "display_address": ["Roosevelt Ave & 75th St", "Jackson Heights, NY 11372"], "address1": "Roosevelt Ave & 75th St", "city": "Jackson Heights", "zip_code": "11372", "address3": "", "state": "NY"}, "coordinates": {"longitude": -73.8904679194093, "latitude": 40.7469686677174}, "review_count": 27, "image_url": "https://s3-media3.fl.yelpcdn.com/bphoto/ucx2mwXBFIDW_JCpNKb9PQ/o.jpg", "price": "$", "rating": 4.0, "name": "Tacos \u00c9l Gallo Giro", "url": "https://www.yelp.com/biz/tacos-%C3%A9l-gallo-giro-jackson-heights-2?adjust_creative=gBcvfFpabk3CnzmXKdYe3w&utm_campaign=yelp_api_v3&utm_medium=api_v3_business_search&utm_source=gBcvfFpabk3CnzmXKdYe3w"}, {"transactions": ["delivery", "pickup"], "distance": 8197.466672682, "phone": "+17186510200", "categories": [{"alias": "mexican", "title": "Mexican"}, {"alias": "bakeries", "title": "Bakeries"}], "id": "la-adelita-restaurant-woodside-45", "display_phone": "(718) 651-0200", "is_closed": false, "location": {"address2": null, "country": "US", "display_address": ["52-22 Roosevelt Ave", "Woodside, NY 11377"], "address1": "52-22 Roosevelt Ave", "city": "Woodside", "zip_code": "11377", "address3": "", "state": "NY"}, "coordinates": {"longitude": -73.9116622479279, "latitude": 40.74434433656}, "review_count": 79, "image_url": "https://s3-media3.fl.yelpcdn.com/bphoto/pz3li43b1Eb3ngEbmDC_yQ/o.jpg", "price": "$$", "rating": 3.5, "name": "La Adelita Restaurant", "url": "https://www.yelp.com/biz/la-adelita-restaurant-woodside-45?adjust_creative=gBcvfFpabk3CnzmXKdYe3w&utm_campaign=yelp_api_v3&utm_medium=api_v3_business_search&utm_source=gBcvfFpabk3CnzmXKdYe3w"}, {"transactions": ["delivery", "pickup"], "distance": 5174.89312025, "phone": "+17184848005", "categories": [{"alias": "mexican", "title": "Mexican"}], "id": "taqueria-milear-crown-heights", "display_phone": "(718) 484-8005", "is_closed": false, "location": {"address2": "", "country": "US", "display_address": ["752A Nostrand Ave", "Crown Heights, NY 11216"], "address1": "752A Nostrand Ave", "city": "Crown Heights", "zip_code": "11216", "address3": "", "state": "NY"}, "coordinates": {"longitude": -73.9503121359905, "latitude": 40.6729835327648}, "review_count": 99, "image_url": "https://s3-media1.fl.yelpcdn.com/bphoto/_FR-iQKiDaVMjyjgd0Kg7Q/o.jpg", "price": "$", "rating": 4.5, "name": "Taqueria Milear", "url": "https://www.yelp.com/biz/taqueria-milear-crown-heights?adjust_creative=gBcvfFpabk3CnzmXKdYe3w&utm_campaign=yelp_api_v3&utm_medium=api_v3_business_search&utm_source=gBcvfFpabk3CnzmXKdYe3w"}, {"transactions": ["delivery", "pickup"], "distance": 3702.1292765480002, "phone": "+13477631548", "categories": [{"alias": "mexican", "title": "Mexican"}], "id": "los-tacos-mcondo-williamsburg", "display_phone": "(347) 763-1548", "is_closed": false, "location": {"address2": "", "country": "US", "display_address": ["502 Grand St", "Williamsburg, NY 11211"], "address1": "502 Grand St", "city": "Williamsburg", "zip_code": "11211", "address3": "", "state": "NY"}, "coordinates": {"longitude": -73.9509542539666, "latitude": 40.7108323440285}, "review_count": 149, "image_url": "https://s3-media2.fl.yelpcdn.com/bphoto/AbQbuuv-O89O3hQUfdnU8Q/o.jpg", "price": "$$", "rating": 4.5, "name": "Los Tacos-Mcondo", "url": "https://www.yelp.com/biz/los-tacos-mcondo-williamsburg?adjust_creative=gBcvfFpabk3CnzmXKdYe3w&utm_campaign=yelp_api_v3&utm_medium=api_v3_business_search&utm_source=gBcvfFpabk3CnzmXKdYe3w"}, {"transactions": [], "distance": 14334.335053099998, "phone": "+19176319253", "categories": [{"alias": "delis", "title": "Delis"}, {"alias": "mexican", "title": "Mexican"}], "id": "san-jos\u00e9-tulcingo-deli-grocery-bronx", "display_phone": "(917) 631-9253", "is_closed": false, "location": {"address2": "", "country": "US", "display_address": ["109 E 153rd St", "Bronx, NY 10451"], "address1": "109 E 153rd St", "city": "Bronx", "zip_code": "10451", "address3": "", "state": "NY"}, "coordinates": {"longitude": -73.9279800807582, "latitude": 40.8241674799833}, "review_count": 7, "image_url": "https://s3-media3.fl.yelpcdn.com/bphoto/dM9IFrjQbGFLDCKbp21Nyg/o.jpg", "price": "$", "rating": 4.5, "name": "San Jos\u00e9 Tulcingo Deli Grocery", "url": "https://www.yelp.com/biz/san-jos%C3%A9-tulcingo-deli-grocery-bronx?adjust_creative=gBcvfFpabk3CnzmXKdYe3w&utm_campaign=yelp_api_v3&utm_medium=api_v3_business_search&utm_source=gBcvfFpabk3CnzmXKdYe3w"}, {"transactions": ["delivery", "pickup"], "distance": 11394.52229297, "phone": "+12128641143", "categories": [{"alias": "mexican", "title": "Mexican"}], "id": "amigos-new-york", "display_phone": "(212) 864-1143", "is_closed": false, "location": {"address2": "", "country": "US", "display_address": ["2888 Broadway", "New York, NY 10025"], "address1": "2888 Broadway", "city": "New York", "zip_code": "10025", "address3": "", "state": "NY"}, "coordinates": {"longitude": -73.965308, "latitude": 40.80554}, "review_count": 233, "image_url": "https://s3-media3.fl.yelpcdn.com/bphoto/NgGBX0oXxdh5pHTBvkDbFg/o.jpg", "price": "$$", "rating": 3.0, "name": "Amigos", "url": "https://www.yelp.com/biz/amigos-new-york?adjust_creative=gBcvfFpabk3CnzmXKdYe3w&utm_campaign=yelp_api_v3&utm_medium=api_v3_business_search&utm_source=gBcvfFpabk3CnzmXKdYe3w"}, {"transactions": [], "distance": 21639.69741012, "phone": "+17189484719", "categories": [{"alias": "mexican", "title": "Mexican"}], "id": "la-iguana-azul-bay-terrace", "display_phone": "(718) 948-4719", "is_closed": false, "location": {"address2": "", "country": "US", "display_address": ["8 Giffords Ln", "Bay Terrace, NY 10308"], "address1": "8 Giffords Ln", "city": "Bay Terrace", "zip_code": "10308", "address3": "", "state": "NY"}, "coordinates": {"longitude": -74.1503085941076, "latitude": 40.5510004609823}, "review_count": 13, "image_url": "https://s3-media4.fl.yelpcdn.com/bphoto/umVdPioaIzvTaoAylIdI7A/o.jpg", "price": "$$", "rating": 4.0, "name": "La Iguana Azul", "url": "https://www.yelp.com/biz/la-iguana-azul-bay-terrace?adjust_creative=gBcvfFpabk3CnzmXKdYe3w&utm_campaign=yelp_api_v3&utm_medium=api_v3_business_search&utm_source=gBcvfFpabk3CnzmXKdYe3w"}, {"transactions": [], "distance": 4903.702914981999, "phone": "+17183695000", "categories": [{"alias": "mexican", "title": "Mexican"}], "id": "el-centenario-brooklyn", "display_phone": "(718) 369-5000", "is_closed": false, "location": {"address2": "", "country": "US", "display_address": ["687 5th Ave", "Brooklyn, NY 11215"], "address1": "687 5th Ave", "city": "Brooklyn", "zip_code": "11215", "address3": "", "state": "NY"}, "coordinates": {"longitude": -73.9930038452148, "latitude": 40.6613960266113}, "review_count": 1, "image_url": "https://s3-media1.fl.yelpcdn.com/bphoto/n20Yyd_tY0f55tSJRJRBUA/o.jpg", "rating": 4.0, "name": "El Centenario", "url": "https://www.yelp.com/biz/el-centenario-brooklyn?adjust_creative=gBcvfFpabk3CnzmXKdYe3w&utm_campaign=yelp_api_v3&utm_medium=api_v3_business_search&utm_source=gBcvfFpabk3CnzmXKdYe3w"}, {"transactions": [], "distance": 3810.7320458999993, "phone": "", "categories": [{"alias": "mexican", "title": "Mexican"}], "id": "piaztlan-brooklyn", "display_phone": "", "is_closed": false, "location": {"address2": "", "country": "US", "display_address": ["155 Bay St", "Brooklyn, NY 11231"], "address1": "155 Bay St", "city": "Brooklyn", "zip_code": "11231", "address3": "", "state": "NY"}, "coordinates": {"longitude": -74.003242, "latitude": 40.671852}, "review_count": 1, "image_url": "https://s3-media4.fl.yelpcdn.com/bphoto/Yb3RrCgcZG_1uIwZNGfOVQ/o.jpg", "rating": 5.0, "name": "Piaztlan", "url": "https://www.yelp.com/biz/piaztlan-brooklyn?adjust_creative=gBcvfFpabk3CnzmXKdYe3w&utm_campaign=yelp_api_v3&utm_medium=api_v3_business_search&utm_source=gBcvfFpabk3CnzmXKdYe3w"}, {"transactions": [], "distance": 12124.090027859998, "phone": "+12128653880", "categories": [{"alias": "mexican", "title": "Mexican"}], "id": "oaxaca-taqueria-new-york-11", "display_phone": "(212) 865-3880", "is_closed": false, "location": {"address2": "", "country": "US", "display_address": ["1264 Amsterdam Ave", "New York, NY 10027"], "address1": "1264 Amsterdam Ave", "city": "New York", "zip_code": "10027", "address3": null, "state": "NY"}, "coordinates": {"longitude": -73.958381652832, "latitude": 40.8110313415527}, "review_count": 16, "image_url": "https://s3-media3.fl.yelpcdn.com/bphoto/7-L9c3LFXcya3Wv1Nn5Z0Q/o.jpg", "price": "$", "rating": 3.0, "name": "Oaxaca Taqueria", "url": "https://www.yelp.com/biz/oaxaca-taqueria-new-york-11?adjust_creative=gBcvfFpabk3CnzmXKdYe3w&utm_campaign=yelp_api_v3&utm_medium=api_v3_business_search&utm_source=gBcvfFpabk3CnzmXKdYe3w"}, {"transactions": ["delivery", "pickup"], "distance": 13170.97696324, "phone": "+16469228301", "categories": [{"alias": "juicebars", "title": "Juice Bars & Smoothies"}, {"alias": "mexican", "title": "Mexican"}, {"alias": "coffee", "title": "Coffee & Tea"}], "id": "presto-fresh-cafe-new-york", "display_phone": "(646) 922-8301", "is_closed": false, "location": {"address2": null, "country": "US", "display_address": ["559 Malcolm X Blvd", "New York, NY 10037"], "address1": "559 Malcolm X Blvd", "city": "New York", "zip_code": "10037", "address3": null, "state": "NY"}, "coordinates": {"longitude": -73.9393588900566, "latitude": 40.816368162632}, "review_count": 39, "image_url": "https://s3-media4.fl.yelpcdn.com/bphoto/w1eazC9q6aEhb0KiRRDFPg/o.jpg", "price": "$$", "rating": 3.5, "name": "Presto Fresh Cafe", "url": "https://www.yelp.com/biz/presto-fresh-cafe-new-york?adjust_creative=gBcvfFpabk3CnzmXKdYe3w&utm_campaign=yelp_api_v3&utm_medium=api_v3_business_search&utm_source=gBcvfFpabk3CnzmXKdYe3w"}, {"transactions": [], "distance": 5711.308994878, "phone": "+12128189500", "categories": [{"alias": "mexican", "title": "Mexican"}], "id": "oaxaca-mexican-grill-new-york", "display_phone": "(212) 818-9500", "is_closed": false, "location": {"address2": "", "country": "US", "display_address": ["245 Park Ave", "New York, NY 10167"], "address1": "245 Park Ave", "city": "New York", "zip_code": "10167", "address3": "", "state": "NY"}, "coordinates": {"longitude": -73.97471, "latitude": 40.75462}, "review_count": 108, "image_url": "https://s3-media1.fl.yelpcdn.com/bphoto/cTZE-voCTnQ-TNjdELjU4g/o.jpg", "price": "$", "rating": 3.0, "name": "Oaxaca Mexican Grill", "url": "https://www.yelp.com/biz/oaxaca-mexican-grill-new-york?adjust_creative=gBcvfFpabk3CnzmXKdYe3w&utm_campaign=yelp_api_v3&utm_medium=api_v3_business_search&utm_source=gBcvfFpabk3CnzmXKdYe3w"}, {"transactions": ["delivery", "pickup"], "distance": 3542.817652202, "phone": "+17185222006", "categories": [{"alias": "mexican", "title": "Mexican"}], "id": "la-placita-oaxaquena-brooklyn-2", "display_phone": "(718) 522-2006", "is_closed": false, "location": {"address2": "", "country": "US", "display_address": ["709 Myrtle Ave", "Brooklyn, NY 11205"], "address1": "709 Myrtle Ave", "city": "Brooklyn", "zip_code": "11205", "address3": null, "state": "NY"}, "coordinates": {"longitude": -73.9546, "latitude": 40.69496}, "review_count": 2, "image_url": "", "rating": 4.5, "name": "La Placita Oaxaquena", "url": "https://www.yelp.com/biz/la-placita-oaxaquena-brooklyn-2?adjust_creative=gBcvfFpabk3CnzmXKdYe3w&utm_campaign=yelp_api_v3&utm_medium=api_v3_business_search&utm_source=gBcvfFpabk3CnzmXKdYe3w"}, {"transactions": [], "distance": 10154.245475942, "phone": "+12018580033", "categories": [{"alias": "mexican", "title": "Mexican"}, {"alias": "bars", "title": "Bars"}], "id": "el-aguila-dorada-restaurant-bayonne", "display_phone": "(201) 858-0033", "is_closed": false, "location": {"address2": "", "country": "US", "display_address": ["830 Broadway", "Bayonne, NJ 07002"], "address1": "830 Broadway", "city": "Bayonne", "zip_code": "07002", "address3": "", "state": "NJ"}, "coordinates": {"longitude": -74.10808, "latitude": 40.67556}, "review_count": 208, "image_url": "https://s3-media3.fl.yelpcdn.com/bphoto/c27DG_y5ksZH-CJ7oW_61A/o.jpg", "price": "$$", "rating": 4.5, "name": "El Aguila Dorada Restaurant", "url": "https://www.yelp.com/biz/el-aguila-dorada-restaurant-bayonne?adjust_creative=gBcvfFpabk3CnzmXKdYe3w&utm_campaign=yelp_api_v3&utm_medium=api_v3_business_search&utm_source=gBcvfFpabk3CnzmXKdYe3w"}, {"transactions": ["delivery", "pickup"], "distance": 11860.393231499998, "phone": "+17182587515", "categories": [{"alias": "mexican", "title": "Mexican"}], "id": "pacos-tacos-brooklyn", "display_phone": "(718) 258-7515", "is_closed": false, "location": {"address2": "", "country": "US", "display_address": ["2368 Flatbush Ave", "Brooklyn, NY 11234"], "address1": "2368 Flatbush Ave", "city": "Brooklyn", "zip_code": "11234", "address3": "", "state": "NY"}, "coordinates": {"longitude": -73.9258651733398, "latitude": 40.6122550964355}, "review_count": 112, "image_url": "https://s3-media3.fl.yelpcdn.com/bphoto/0pSbrThZp0tqR0XrrdQkfw/o.jpg", "price": "$$", "rating": 2.5, "name": "Paco's Tacos", "url": "https://www.yelp.com/biz/pacos-tacos-brooklyn?adjust_creative=gBcvfFpabk3CnzmXKdYe3w&utm_campaign=yelp_api_v3&utm_medium=api_v3_business_search&utm_source=gBcvfFpabk3CnzmXKdYe3w"}, {"transactions": [], "distance": 10454.304826799998, "phone": "+17182854333", "categories": [{"alias": "mexican", "title": "Mexican"}], "id": "cinderellas-restaurant-staten-island", "display_phone": "(718) 285-4333", "is_closed": false, "location": {"address2": "", "country": "US", "display_address": ["108 Victory Blvd", "Staten Island, NY 10301"], "address1": "108 Victory Blvd", "city": "Staten Island", "zip_code": "10301", "address3": "", "state": "NY"}, "coordinates": {"longitude": -74.0799102783203, "latitude": 40.6374549865723}, "review_count": 7, "image_url": "https://s3-media4.fl.yelpcdn.com/bphoto/m_Q9BWoUw8_P84p6Vs_BEg/o.jpg", "price": "$$", "rating": 4.0, "name": "Cinderella's Restaurant", "url": "https://www.yelp.com/biz/cinderellas-restaurant-staten-island?adjust_creative=gBcvfFpabk3CnzmXKdYe3w&utm_campaign=yelp_api_v3&utm_medium=api_v3_business_search&utm_source=gBcvfFpabk3CnzmXKdYe3w"}, {"transactions": ["delivery", "pickup"], "distance": 6311.4664816879995, "phone": "+12129771000", "categories": [{"alias": "mexican", "title": "Mexican"}], "id": "al-horno-lean-mexican-kitchen-new-york", "display_phone": "(212) 977-1000", "is_closed": false, "location": {"address2": null, "country": "US", "display_address": ["417 W 47th St", "New York, NY 10036"], "address1": "417 W 47th St", "city": "New York", "zip_code": "10036", "address3": null, "state": "NY"}, "coordinates": {"longitude": -73.990997, "latitude": 40.762149}, "review_count": 182, "image_url": "https://s3-media2.fl.yelpcdn.com/bphoto/-WK6jVAI1_J9BIzDL0Sbcg/o.jpg", "price": "$$", "rating": 3.5, "name": "Al Horno Lean Mexican Kitchen", "url": "https://www.yelp.com/biz/al-horno-lean-mexican-kitchen-new-york?adjust_creative=gBcvfFpabk3CnzmXKdYe3w&utm_campaign=yelp_api_v3&utm_medium=api_v3_business_search&utm_source=gBcvfFpabk3CnzmXKdYe3w"}, {"transactions": ["delivery", "pickup"], "distance": 6865.454900709999, "phone": "+17187640621", "categories": [{"alias": "mexican", "title": "Mexican"}], "id": "viannely-brooklyn", "display_phone": "(718) 764-0621", "is_closed": false, "location": {"address2": null, "country": "US", "display_address": ["250 Wyckoff Ave", "Brooklyn, NY 11237"], "address1": "250 Wyckoff Ave", "city": "Brooklyn", "zip_code": "11237", "address3": null, "state": "NY"}, "coordinates": {"longitude": -73.91307, "latitude": 40.70051}, "review_count": 11, "image_url": "https://s3-media4.fl.yelpcdn.com/bphoto/9vzMitntDnVhFIVQbIWP-A/o.jpg", "price": "$$", "rating": 3.0, "name": "Viannely", "url": "https://www.yelp.com/biz/viannely-brooklyn?adjust_creative=gBcvfFpabk3CnzmXKdYe3w&utm_campaign=yelp_api_v3&utm_medium=api_v3_business_search&utm_source=gBcvfFpabk3CnzmXKdYe3w"}, {"transactions": [], "distance": 2959.6082858659997, "phone": "+12124881554", "categories": [{"alias": "mexican", "title": "Mexican"}], "id": "el-cantante-new-york", "display_phone": "(212) 488-1554", "is_closed": false, "location": {"address2": "", "country": "US", "display_address": ["110 Leroy St", "New York, NY 10014"], "address1": "110 Leroy St", "city": "New York", "zip_code": "10014", "address3": "", "state": "NY"}, "coordinates": {"longitude": -74.00762, "latitude": 40.73019}, "review_count": 1, "image_url": "https://s3-media2.fl.yelpcdn.com/bphoto/qUk_6ffDhJccn6NMyPyG9w/o.jpg", "rating": 4.0, "name": "El Cantante", "url": "https://www.yelp.com/biz/el-cantante-new-york?adjust_creative=gBcvfFpabk3CnzmXKdYe3w&utm_campaign=yelp_api_v3&utm_medium=api_v3_business_search&utm_source=gBcvfFpabk3CnzmXKdYe3w"}, {"transactions": [], "distance": 5323.338159047999, "phone": "+17184847701", "categories": [{"alias": "mexican", "title": "Mexican"}], "id": "tepache-bedford-stuyvesant", "display_phone": "(718) 484-7701", "is_closed": false, "location": {"address2": "", "country": "US", "display_address": ["361 Halsey St", "Bedford-Stuyvesant, NY 11216"], "address1": "361 Halsey St", "city": "Bedford-Stuyvesant", "zip_code": "11216", "address3": "", "state": "NY"}, "coordinates": {"longitude": -73.9382858276367, "latitude": 40.6833686828613}, "review_count": 187, "image_url": "https://s3-media1.fl.yelpcdn.com/bphoto/frXoVxR_HknqbnvD5vXdcg/o.jpg", "price": "$$", "rating": 4.0, "name": "Tepache", "url": "https://www.yelp.com/biz/tepache-bedford-stuyvesant?adjust_creative=gBcvfFpabk3CnzmXKdYe3w&utm_campaign=yelp_api_v3&utm_medium=api_v3_business_search&utm_source=gBcvfFpabk3CnzmXKdYe3w"}, {"transactions": [], "distance": 3568.639995304, "phone": "+17186221111", "categories": [{"alias": "mexican", "title": "Mexican"}], "id": "alta-calidad-brooklyn", "display_phone": "(718) 622-1111", "is_closed": false, "location": {"address2": "", "country": "US", "display_address": ["552 Vanderbilt Ave", "Brooklyn, NY 11238"], "address1": "552 Vanderbilt Ave", "city": "Brooklyn", "zip_code": "11238", "address3": null, "state": "NY"}, "coordinates": {"longitude": -73.9682998657227, "latitude": 40.6801376342773}, "review_count": 11, "image_url": "https://s3-media4.fl.yelpcdn.com/bphoto/lqip_xyfGCNNL-j_AO3LKg/o.jpg", "price": "$$$", "rating": 4.5, "name": "Alta Calidad", "url": "https://www.yelp.com/biz/alta-calidad-brooklyn?adjust_creative=gBcvfFpabk3CnzmXKdYe3w&utm_campaign=yelp_api_v3&utm_medium=api_v3_business_search&utm_source=gBcvfFpabk3CnzmXKdYe3w"}, {"transactions": [], "distance": 8902.597384342, "phone": "+17184788188", "categories": [{"alias": "mexican", "title": "Mexican"}, {"alias": "hotdogs", "title": "Fast Food"}], "id": "fresca-tortilla-maspeth", "display_phone": "(718) 478-8188", "is_closed": false, "location": {"address2": "", "country": "US", "display_address": ["7009 Grand Ave", "Maspeth, NY 11378"], "address1": "7009 Grand Ave", "city": "Maspeth", "zip_code": "11378", "address3": "", "state": "NY"}, "coordinates": {"longitude": -73.89284, "latitude": 40.72776}, "review_count": 23, "image_url": "https://s3-media2.fl.yelpcdn.com/bphoto/b5dXez2qm3wJCxkt98ChiA/o.jpg", "price": "$", "rating": 3.0, "name": "Fresca Tortilla", "url": "https://www.yelp.com/biz/fresca-tortilla-maspeth?adjust_creative=gBcvfFpabk3CnzmXKdYe3w&utm_campaign=yelp_api_v3&utm_medium=api_v3_business_search&utm_source=gBcvfFpabk3CnzmXKdYe3w"}, {"transactions": ["delivery", "pickup"], "distance": 17917.87818054, "phone": "+17189802667", "categories": [{"alias": "mexican", "title": "Mexican"}, {"alias": "fooddeliveryservices", "title": "Food Delivery Services"}], "id": "amore-a-la-mexicana-new-dorp", "display_phone": "(718) 980-2667", "is_closed": false, "location": {"address2": "", "country": "US", "display_address": ["10 New Dorp Ln", "New Dorp, NY 10306"], "address1": "10 New Dorp Ln", "city": "New Dorp", "zip_code": "10306", "address3": "", "state": "NY"}, "coordinates": {"longitude": -74.1192887, "latitude": 40.5753923}, "review_count": 12, "image_url": "https://s3-media2.fl.yelpcdn.com/bphoto/spe9YmM_DbyKbOE4OUDNtg/o.jpg", "price": "$", "rating": 3.5, "name": "Amore A La Mexicana", "url": "https://www.yelp.com/biz/amore-a-la-mexicana-new-dorp?adjust_creative=gBcvfFpabk3CnzmXKdYe3w&utm_campaign=yelp_api_v3&utm_medium=api_v3_business_search&utm_source=gBcvfFpabk3CnzmXKdYe3w"}, {"transactions": ["delivery", "pickup"], "distance": 7440.8076301, "phone": "+17184924369", "categories": [{"alias": "mexican", "title": "Mexican"}], "id": "tacos-tijuana-b-c-brooklyn-4", "display_phone": "(718) 492-4369", "is_closed": false, "location": {"address2": "", "country": "US", "display_address": ["5807 5th Ave", "Brooklyn, NY 11220"], "address1": "5807 5th Ave", "city": "Brooklyn", "zip_code": "11220", "address3": "", "state": "NY"}, "coordinates": {"longitude": -74.01505, "latitude": 40.64036}, "review_count": 25, "image_url": "https://s3-media4.fl.yelpcdn.com/bphoto/jlSPSQiQsKLZ1d2wfjrgUA/o.jpg", "price": "$", "rating": 3.0, "name": "Tacos Tijuana B.C", "url": "https://www.yelp.com/biz/tacos-tijuana-b-c-brooklyn-4?adjust_creative=gBcvfFpabk3CnzmXKdYe3w&utm_campaign=yelp_api_v3&utm_medium=api_v3_business_search&utm_source=gBcvfFpabk3CnzmXKdYe3w"}, {"transactions": [], "distance": 1574.7886932984, "phone": "+12128492885", "categories": [{"alias": "mexican", "title": "Mexican"}, {"alias": "bars", "title": "Bars"}], "id": "masa-y-agave-new-york-2", "display_phone": "(212) 849-2885", "is_closed": false, "location": {"address2": null, "country": "US", "display_address": ["41 Murray St", "New York, NY 10007"], "address1": "41 Murray St", "city": "New York", "zip_code": "10007", "address3": null, "state": "NY"}, "coordinates": {"longitude": -74.009056, "latitude": 40.714149}, "review_count": 5, "image_url": "https://s3-media2.fl.yelpcdn.com/bphoto/aNhzTA_czyo1hsywhJgGnw/o.jpg", "price": "$$", "rating": 3.0, "name": "Masa y Agave", "url": "https://www.yelp.com/biz/masa-y-agave-new-york-2?adjust_creative=gBcvfFpabk3CnzmXKdYe3w&utm_campaign=yelp_api_v3&utm_medium=api_v3_business_search&utm_source=gBcvfFpabk3CnzmXKdYe3w"}, {"transactions": ["delivery", "pickup"], "distance": 2257.639444504, "phone": "+16466093762", "categories": [{"alias": "mexican", "title": "Mexican"}], "id": "al-horno-lean-mexican-kitchen-new-york-15", "display_phone": "(646) 609-3762", "is_closed": false, "location": {"address2": "", "country": "US", "display_address": ["57 1st Ave", "New York, NY 10003"], "address1": "57 1st Ave", "city": "New York", "zip_code": "10003", "address3": null, "state": "NY"}, "coordinates": {"longitude": -73.987533, "latitude": 40.725105}, "review_count": 7, "image_url": "https://s3-media3.fl.yelpcdn.com/bphoto/_9BRq3JJ0rgxx1VNH5FwcA/o.jpg", "price": "$$", "rating": 2.5, "name": "Al Horno Lean Mexican Kitchen", "url": "https://www.yelp.com/biz/al-horno-lean-mexican-kitchen-new-york-15?adjust_creative=gBcvfFpabk3CnzmXKdYe3w&utm_campaign=yelp_api_v3&utm_medium=api_v3_business_search&utm_source=gBcvfFpabk3CnzmXKdYe3w"}, {"transactions": [], "distance": 10774.13862104, "phone": "", "categories": [{"alias": "streetvendors", "title": "Street Vendors"}, {"alias": "mexican", "title": "Mexican"}], "id": "tacos-el-ranchero-manhattan", "display_phone": "", "is_closed": false, "location": {"address2": "", "country": "US", "display_address": ["110th St & 3rd Ave", "Manhattan, NY 10029"], "address1": "110th St & 3rd Ave", "city": "Manhattan", "zip_code": "10029", "address3": "", "state": "NY"}, "coordinates": {"longitude": -73.9428001642227, "latitude": 40.7941299676895}, "review_count": 5, "image_url": "https://s3-media3.fl.yelpcdn.com/bphoto/Z2yBERcCxijDR8LXsbGu5g/o.jpg", "price": "$$", "rating": 4.5, "name": "Tacos El Ranchero", "url": "https://www.yelp.com/biz/tacos-el-ranchero-manhattan?adjust_creative=gBcvfFpabk3CnzmXKdYe3w&utm_campaign=yelp_api_v3&utm_medium=api_v3_business_search&utm_source=gBcvfFpabk3CnzmXKdYe3w"}, {"transactions": [], "distance": 17789.39008428, "phone": "+19177377100", "categories": [{"alias": "mexican", "title": "Mexican"}, {"alias": "juicebars", "title": "Juice Bars & Smoothies"}, {"alias": "italian", "title": "Italian"}], "id": "elenas-restaurant-authentic-mexican-cusine-new-york", "display_phone": "(917) 737-7100", "is_closed": false, "location": {"address2": "", "country": "US", "display_address": ["5 West Tremont Ave", "New York, NY 10453"], "address1": "5 West Tremont Ave", "city": "New York", "zip_code": "10453", "address3": "", "state": "NY"}, "coordinates": {"longitude": -73.9095045626163, "latitude": 40.8519563823938}, "review_count": 20, "image_url": "https://s3-media1.fl.yelpcdn.com/bphoto/5O5JDys_SZLdoh5QvHslNw/o.jpg", "price": "$$", "rating": 4.0, "name": "Elena's Restaurant Authentic Mexican Cusine", "url": "https://www.yelp.com/biz/elenas-restaurant-authentic-mexican-cusine-new-york?adjust_creative=gBcvfFpabk3CnzmXKdYe3w&utm_campaign=yelp_api_v3&utm_medium=api_v3_business_search&utm_source=gBcvfFpabk3CnzmXKdYe3w"}, {"transactions": ["delivery", "pickup"], "distance": 6080.082174782, "phone": "+17184170381", "categories": [{"alias": "mexican", "title": "Mexican"}, {"alias": "desserts", "title": "Desserts"}, {"alias": "seafood", "title": "Seafood"}], "id": "el-burro-mexican-grill-brooklyn", "display_phone": "(718) 417-0381", "is_closed": false, "location": {"address2": "", "country": "US", "display_address": ["324 Suydam St", "Brooklyn, NY 11237"], "address1": "324 Suydam St", "city": "Brooklyn", "zip_code": "11237", "address3": "", "state": "NY"}, "coordinates": {"longitude": -73.9222, "latitude": 40.70331}, "review_count": 24, "image_url": "https://s3-media3.fl.yelpcdn.com/bphoto/xqVcnKlpak0wdwB2Lwx8yA/o.jpg", "price": "$", "rating": 3.0, "name": "El Burro Mexican Grill", "url": "https://www.yelp.com/biz/el-burro-mexican-grill-brooklyn?adjust_creative=gBcvfFpabk3CnzmXKdYe3w&utm_campaign=yelp_api_v3&utm_medium=api_v3_business_search&utm_source=gBcvfFpabk3CnzmXKdYe3w"}, {"transactions": ["delivery", "pickup"], "distance": 3939.56936894, "phone": "+16469645183", "categories": [{"alias": "mexican", "title": "Mexican"}], "id": "al-horno-lean-mexican-kitchen-new-york-13", "display_phone": "(646) 964-5183", "is_closed": false, "location": {"address2": "", "country": "US", "display_address": ["36 Lexington Ave", "New York, NY 10010"], "address1": "36 Lexington Ave", "city": "New York", "zip_code": "10010", "address3": "", "state": "NY"}, "coordinates": {"longitude": -73.98453, "latitude": 40.74004}, "review_count": 50, "image_url": "https://s3-media1.fl.yelpcdn.com/bphoto/67TANXxX1xQGW-lgBwEESA/o.jpg", "price": "$$", "rating": 3.0, "name": "Al Horno Lean Mexican Kitchen", "url": "https://www.yelp.com/biz/al-horno-lean-mexican-kitchen-new-york-13?adjust_creative=gBcvfFpabk3CnzmXKdYe3w&utm_campaign=yelp_api_v3&utm_medium=api_v3_business_search&utm_source=gBcvfFpabk3CnzmXKdYe3w"}, {"transactions": [], "distance": 11347.853203244, "phone": "+17188963468", "categories": [{"alias": "tex-mex", "title": "Tex-Mex"}, {"alias": "hotdogs", "title": "Fast Food"}, {"alias": "mexican", "title": "Mexican"}], "id": "taco-place-rego-park", "display_phone": "(718) 896-3468", "is_closed": false, "location": {"address2": "", "country": "US", "display_address": ["94-03A 63rd Dr", "Rego Park, NY 11374"], "address1": "94-03A 63rd Dr", "city": "Rego Park", "zip_code": "11374", "address3": "", "state": "NY"}, "coordinates": {"longitude": -73.8632815798423, "latitude": 40.7289953930051}, "review_count": 5, "image_url": "https://s3-media2.fl.yelpcdn.com/bphoto/Hcev2VZ0XlrXN7w5lI5Oog/o.jpg", "rating": 3.5, "name": "Taco Place", "url": "https://www.yelp.com/biz/taco-place-rego-park?adjust_creative=gBcvfFpabk3CnzmXKdYe3w&utm_campaign=yelp_api_v3&utm_medium=api_v3_business_search&utm_source=gBcvfFpabk3CnzmXKdYe3w"}, {"transactions": [], "distance": 10325.68798334, "phone": "+17182093000", "categories": [{"alias": "mexican", "title": "Mexican"}], "id": "yummy-taco-brooklyn-7", "display_phone": "(718) 209-3000", "is_closed": false, "location": {"address2": "", "country": "US", "display_address": ["8011 Flatlands Ave", "Brooklyn, NY 11236"], "address1": "8011 Flatlands Ave", "city": "Brooklyn", "zip_code": "11236", "address3": "", "state": "NY"}, "coordinates": {"longitude": -73.9131869, "latitude": 40.6357488}, "review_count": 10, "image_url": "https://s3-media4.fl.yelpcdn.com/bphoto/aKNaITeheHt6iqb-OaU8cA/o.jpg", "price": "$", "rating": 3.0, "name": "Yummy Taco", "url": "https://www.yelp.com/biz/yummy-taco-brooklyn-7?adjust_creative=gBcvfFpabk3CnzmXKdYe3w&utm_campaign=yelp_api_v3&utm_medium=api_v3_business_search&utm_source=gBcvfFpabk3CnzmXKdYe3w"}, {"transactions": [], "distance": 3310.091799472, "phone": "+12122069229", "categories": [{"alias": "mexican", "title": "Mexican"}], "id": "la-barbona-new-york", "display_phone": "(212) 206-9229", "is_closed": false, "location": {"address2": "", "country": "US", "display_address": ["139 W 10th St", "New York, NY 10014"], "address1": "139 W 10th St", "city": "New York", "zip_code": "10014", "address3": "", "state": "NY"}, "coordinates": {"longitude": -74.0007938817143, "latitude": 40.7348019839623}, "review_count": 9, "image_url": "https://s3-media1.fl.yelpcdn.com/bphoto/O_B5xrkBueP6bGWw1fX_IA/o.jpg", "price": "$$", "rating": 2.5, "name": "La Barbona", "url": "https://www.yelp.com/biz/la-barbona-new-york?adjust_creative=gBcvfFpabk3CnzmXKdYe3w&utm_campaign=yelp_api_v3&utm_medium=api_v3_business_search&utm_source=gBcvfFpabk3CnzmXKdYe3w"}]}