{"region": {"center": {"longitude": -73.99429321289062, "latitude": 40.70544486444615}}, "total": 1496, "businesses": [{"transactions": ["delivery", "pickup"], "distance": 3272.8210944119996, "phone": "+12123670999", "categories": [{"alias": "mexican", "title": "Mexican"}, {"alias": "venues", "title": "Venues & Event Spaces"}], "id": "empell\u00f3n-taqueria-new-york", "display_phone": "(212) 367-0999", "is_closed": false, "location": {"address2": "", "country": "US", "display_address": ["230 W 4th St", "New York, NY 10014"], "address1": "230 W 4th St", "city": "New York", "zip_code": "10014", "address3": "", "state": "NY"}, "coordinates": {"longitude": -74.0030294, "latitude": 40.7341219}, "review_count": 555, "image_url": "https://s3-media1.fl.yelpcdn.com/bphoto/PZKL3yOKQBH2b2EleEBDyA/o.jpg", "price": "$$$", "rating": 3.5, "name": "Empell\u00f3n Taqueria", "url": "https://www.yelp.com/biz/empell%C3%B3n-taqueria-new-york?adjust_creative=gBcvfFpabk3CnzmXKdYe3w&utm_campaign=yelp_api_v3&utm_medium=api_v3_business_search&utm_source=gBcvfFpabk3CnzmXKdYe3w"}, {"transactions": [], "distance": 8138.866258063999, "phone": "+17187862727", "categories": [{"alias": "mexican", "title": "Mexican"}, {"alias": "tapas", "title": "Tapas Bars"}, {"alias": "latin", "title": "Latin American"}], "id": "tacuba-cantina-mexicana-astoria", "display_phone": "(718) 786-2727", "is_closed": false, "location": {"address2": "", "country": "US", "display_address": ["35-01 36th St", "Astoria, NY 11106"], "address1": "35-01 36th St", "city": "Astoria", "zip_code": "11106", "address3": "", "state": "NY"}, "coordinates": {"longitude": -73.92447, "latitude": 40.75585}, "review_count": 407, "image_url": "https://s3-media3.fl.yelpcdn.com/bphoto/IfQcthCdnxNGJqQSz-SYcA/o.jpg", "price": "$$", "rating": 3.5, "name": "Tacuba Cantina Mexicana", "url": "https://www.yelp.com/biz/tacuba-cantina-mexicana-astoria?adjust_creative=gBcvfFpabk3CnzmXKdYe3w&utm_campaign=yelp_api_v3&utm_medium=api_v3_business_search&utm_source=gBcvfFpabk3CnzmXKdYe3w"}, {"transactions": [], "distance": 4009.704567074, "phone": "+12126793665", "categories": [{"alias": "mexican", "title": "Mexican"}, {"alias": "comfortfood", "title": "Comfort Food"}, {"alias": "cocktailbars", "title": "Cocktail Bars"}], "id": "mexico-lindo-restaurant-new-york", "display_phone": "(212) 679-3665", "is_closed": false, "location": {"address2": "", "country": "US", "display_address": ["459 2nd Ave", "New York, NY 10010"], "address1": "459 2nd Ave", "city": "New York", "zip_code": "10010", "address3": "", "state": "NY"}, "coordinates": {"longitude": -73.97984, "latitude": 40.73981}, "review_count": 206, "image_url": "https://s3-media4.fl.yelpcdn.com/bphoto/byTCGtU9C7ooHmwBjJV5Ig/o.jpg", "price": "$$", "rating": 3.5, "name": "Mexico Lindo Restaurant", "url": "https://www.yelp.com/biz/mexico-lindo-restaurant-new-york?adjust_creative=gBcvfFpabk3CnzmXKdYe3w&utm_campaign=yelp_api_v3&utm_medium=api_v3_business_search&utm_source=gBcvfFpabk3CnzmXKdYe3w"}, {"transactions": ["delivery", "pickup"], "distance": 3951.9107536639995, "phone": "+17182308111", "categories": [{"alias": "mexican", "title": "Mexican"}], "id": "oaxaca-taqueria-brooklyn", "display_phone": "(718) 230-8111", "is_closed": false, "location": {"address2": "", "country": "US", "display_address": ["1116 Bedford Ave", "Brooklyn, NY 11216"], "address1": "1116 Bedford Ave", "city": "Brooklyn", "zip_code": "11216", "address3": "", "state": "NY"}, "coordinates": {"longitude": -73.954767, "latitude": 40.68634}, "review_count": 127, "image_url": "https://s3-media3.fl.yelpcdn.com/bphoto/pEJyq2bQObrvQ6pM30EY3Q/o.jpg", "price": "$", "rating": 3.5, "name": "Oaxaca Taqueria", "url": "https://www.yelp.com/biz/oaxaca-taqueria-brooklyn?adjust_creative=gBcvfFpabk3CnzmXKdYe3w&utm_campaign=yelp_api_v3&utm_medium=api_v3_business_search&utm_source=gBcvfFpabk3CnzmXKdYe3w"}, {"transactions": ["delivery", "pickup"], "distance": 3208.049826498, "phone": "+12124775577", "categories": [{"alias": "mexican", "title": "Mexican"}, {"alias": "bars", "title": "Bars"}], "id": "trece-mexican-cuisine-and-tequila-bar-new-york-2", "display_phone": "(212) 477-5577", "is_closed": false, "location": {"address2": null, "country": "US", "display_address": ["54 E 13th St", "New York, NY 10003"], "address1": "54 E 13th St", "city": "New York", "zip_code": "10003", "address3": "", "state": "NY"}, "coordinates": {"longitude": -73.991526, "latitude": 40.734218}, "review_count": 170, "image_url": "https://s3-media3.fl.yelpcdn.com/bphoto/niytNOFBf6YSOvBUUltTPw/o.jpg", "price": "$$", "rating": 3.5, "name": "Trece Mexican Cuisine & Tequila Bar", "url": "https://www.yelp.com/biz/trece-mexican-cuisine-and-tequila-bar-new-york-2?adjust_creative=gBcvfFpabk3CnzmXKdYe3w&utm_campaign=yelp_api_v3&utm_medium=api_v3_business_search&utm_source=gBcvfFpabk3CnzmXKdYe3w"}, {"transactions": ["delivery", "pickup"], "distance": 7954.70690692, "phone": "+17182820366", "categories": [{"alias": "mexican", "title": "Mexican"}], "id": "el-ranchito-poblano-brooklyn-2", "display_phone": "(718) 282-0366", "is_closed": false, "location": {"address2": "", "country": "US", "display_address": ["1228 Flatbush Ave", "Brooklyn, NY 11226"], "address1": "1228 Flatbush Ave", "city": "Brooklyn", "zip_code": "11226", "address3": "", "state": "NY"}, "coordinates": {"longitude": -73.95566, "latitude": 40.64016}, "review_count": 81, "image_url": "https://s3-media3.fl.yelpcdn.com/bphoto/GRi1HqnO9U0Ns62rqIvUmw/o.jpg", "price": "$", "rating": 3.0, "name": "El Ranchito Poblano", "url": "https://www.yelp.com/biz/el-ranchito-poblano-brooklyn-2?adjust_creative=gBcvfFpabk3CnzmXKdYe3w&utm_campaign=yelp_api_v3&utm_medium=api_v3_business_search&utm_source=gBcvfFpabk3CnzmXKdYe3w"}, {"transactions": ["delivery", "pickup"], "distance": 5517.51436422, "phone": "+17187068783", "categories": [{"alias": "mexican", "title": "Mexican"}, {"alias": "theater", "title": "Performing Arts"}, {"alias": "comedyclubs", "title": "Comedy Clubs"}], "id": "the-creek-and-the-cave-long-island-city-2", "display_phone": "(718) 706-8783", "is_closed": false, "location": {"address2": null, "country": "US", "display_address": ["10-93 Jackson Ave", "Long Island City, NY 11101"], "address1": "10-93 Jackson Ave", "city": "Long Island City", "zip_code": "11101", "address3": "", "state": "NY"}, "coordinates": {"longitude": -73.9517822061977, "latitude": 40.743181238679}, "review_count": 298, "image_url": "https://s3-media4.fl.yelpcdn.com/bphoto/-CY-9WpSMRb-tNeISFab3A/o.jpg", "price": "$$", "rating": 3.5, "name": "The Creek & The Cave", "url": "https://www.yelp.com/biz/the-creek-and-the-cave-long-island-city-2?adjust_creative=gBcvfFpabk3CnzmXKdYe3w&utm_campaign=yelp_api_v3&utm_medium=api_v3_business_search&utm_source=gBcvfFpabk3CnzmXKdYe3w"}, {"transactions": ["delivery", "pickup"], "distance": 7310.486012778, "phone": "+17183616513", "categories": [{"alias": "mexican", "title": "Mexican"}, {"alias": "breakfast_brunch", "title": "Breakfast & Brunch"}, {"alias": "salad", "title": "Salad"}], "id": "mr-burrito-mexican-restaurant-sunnyside", "display_phone": "(718) 361-6513", "is_closed": false, "location": {"address2": "", "country": "US", "display_address": ["4320 Greenpoint Ave", "Sunnyside, NY 11104"], "address1": "4320 Greenpoint Ave", "city": "Sunnyside", "zip_code": "11104", "address3": "", "state": "NY"}, "coordinates": {"longitude": -73.92131, "latitude": 40.74098}, "review_count": 69, "image_url": "https://s3-media2.fl.yelpcdn.com/bphoto/mySVanQ0Pdl00z0ZiUWdyw/o.jpg", "price": "$", "rating": 4.0, "name": "Mr. Burrito Mexican Restaurant", "url": "https://www.yelp.com/biz/mr-burrito-mexican-restaurant-sunnyside?adjust_creative=gBcvfFpabk3CnzmXKdYe3w&utm_campaign=yelp_api_v3&utm_medium=api_v3_business_search&utm_source=gBcvfFpabk3CnzmXKdYe3w"}, {"transactions": [], "distance": 15339.004172259998, "phone": "+19175210349", "categories": [{"alias": "mexican", "title": "Mexican"}], "id": "las-palmas-restaurant-new-york-2", "display_phone": "(917) 521-0349", "is_closed": false, "location": {"address2": "", "country": "US", "display_address": ["3891 Broadway", "New York, NY 10032"], "address1": "3891 Broadway", "city": "New York", "zip_code": "10032", "address3": "", "state": "NY"}, "coordinates": {"longitude": -73.9425248, "latitude": 40.8377037}, "review_count": 98, "image_url": "https://s3-media1.fl.yelpcdn.com/bphoto/hBGqszgx7gSXzI_UKWg88A/o.jpg", "price": "$", "rating": 4.0, "name": "Las Palmas Restaurant", "url": "https://www.yelp.com/biz/las-palmas-restaurant-new-york-2?adjust_creative=gBcvfFpabk3CnzmXKdYe3w&utm_campaign=yelp_api_v3&utm_medium=api_v3_business_search&utm_source=gBcvfFpabk3CnzmXKdYe3w"}, {"transactions": [], "distance": 4966.77407612, "phone": "+12128670922", "categories": [{"alias": "mexican", "title": "Mexican"}, {"alias": "bars", "title": "Bars"}, {"alias": "desserts", "title": "Desserts"}], "id": "el-rio-grande-new-york", "display_phone": "(212) 867-0922", "is_closed": false, "location": {"address2": "", "country": "US", "display_address": ["160 E 38th St", "New York, NY 10016"], "address1": "160 E 38th St", "city": "New York", "zip_code": "10016", "address3": "", "state": "NY"}, "coordinates": {"longitude": -73.976690081965, "latitude": 40.748074661455}, "review_count": 481, "image_url": "https://s3-media4.fl.yelpcdn.com/bphoto/sFR_5xNtaZUQoXd8RlN22Q/o.jpg", "price": "$$", "rating": 3.5, "name": "El Rio Grande", "url": "https://www.yelp.com/biz/el-rio-grande-new-york?adjust_creative=gBcvfFpabk3CnzmXKdYe3w&utm_campaign=yelp_api_v3&utm_medium=api_v3_business_search&utm_source=gBcvfFpabk3CnzmXKdYe3w"}, {"transactions": ["delivery", "pickup"], "distance": 1681.864424298, "phone": "+12125283175", "categories": [{"alias": "mexican", "title": "Mexican"}, {"alias": "tradamerican", "title": "American (Traditional)"}], "id": "mariachis-new-york-3", "display_phone": "(212) 528-3175", "is_closed": false, "location": {"address2": "", "country": "US", "display_address": ["156 Chambers St", "New York, NY 10007"], "address1": "156 Chambers St", "city": "New York", "zip_code": "10007", "address3": "", "state": "NY"}, "coordinates": {"longitude": -74.009553, "latitude": 40.715192}, "review_count": 153, "image_url": "https://s3-media4.fl.yelpcdn.com/bphoto/HZ9pP11W7Zevr-kwHahTQw/o.jpg", "price": "$$", "rating": 3.5, "name": "Mariachi's", "url": "https://www.yelp.com/biz/mariachis-new-york-3?adjust_creative=gBcvfFpabk3CnzmXKdYe3w&utm_campaign=yelp_api_v3&utm_medium=api_v3_business_search&utm_source=gBcvfFpabk3CnzmXKdYe3w"}, {"transactions": ["delivery", "pickup"], "distance": 6893.478499064, "phone": "+12123159444", "categories": [{"alias": "mexican", "title": "Mexican"}, {"alias": "bars", "title": "Bars"}], "id": "mamasita-bar-and-grill-new-york", "display_phone": "(212) 315-9444", "is_closed": false, "location": {"address2": "", "country": "US", "display_address": ["818 10th Ave", "New York, NY 10019"], "address1": "818 10th Ave", "city": "New York", "zip_code": "10019", "address3": "", "state": "NY"}, "coordinates": {"longitude": -73.989449, "latitude": 40.76733}, "review_count": 456, "image_url": "https://s3-media2.fl.yelpcdn.com/bphoto/JkSFn6hP-9Dnlz3kOIt0-Q/o.jpg", "price": "$$", "rating": 4.0, "name": "Mamasita Bar & Grill", "url": "https://www.yelp.com/biz/mamasita-bar-and-grill-new-york?adjust_creative=gBcvfFpabk3CnzmXKdYe3w&utm_campaign=yelp_api_v3&utm_medium=api_v3_business_search&utm_source=gBcvfFpabk3CnzmXKdYe3w"}, {"transactions": [], "distance": 4245.660687052, "phone": "+12126452100", "categories": [{"alias": "mexican", "title": "Mexican"}], "id": "temerario-new-york-2", "display_phone": "(212) 645-2100", "is_closed": false, "location": {"address2": "", "country": "US", "display_address": ["198 8th Ave", "New York, NY 10011"], "address1": "198 8th Ave", "city": "New York", "zip_code": "10011", "address3": "", "state": "NY"}, "coordinates": {"longitude": -73.9996277220286, "latitude": 40.7434133400872}, "review_count": 99, "image_url": "https://s3-media3.fl.yelpcdn.com/bphoto/PP0BJhNrCwL8Pa7tHrYb0w/o.jpg", "price": "$$", "rating": 3.5, "name": "Temerario", "url": "https://www.yelp.com/biz/temerario-new-york-2?adjust_creative=gBcvfFpabk3CnzmXKdYe3w&utm_campaign=yelp_api_v3&utm_medium=api_v3_business_search&utm_source=gBcvfFpabk3CnzmXKdYe3w"}, {"transactions": ["delivery", "pickup"], "distance": 7769.03091376, "phone": "+17184180808", "categories": [{"alias": "mexican", "title": "Mexican"}, {"alias": "spanish", "title": "Spanish"}, {"alias": "empanadas", "title": "Empanadas"}], "id": "super-pollo-restaurant-ridgewood", "display_phone": "(718) 418-0808", "is_closed": false, "location": {"address2": "", "country": "US", "display_address": ["865 Woodward Ave", "Ridgewood, NY 11385"], "address1": "865 Woodward Ave", "city": "Ridgewood", "zip_code": "11385", "address3": "", "state": "NY"}, "coordinates": {"longitude": -73.902179, "latitude": 40.703204}, "review_count": 138, "image_url": "https://s3-media1.fl.yelpcdn.com/bphoto/wI1vK_K5HNYskqpu7hzj0g/o.jpg", "price": "$$", "rating": 4.0, "name": "Super  Pollo  Restaurant", "url": "https://www.yelp.com/biz/super-pollo-restaurant-ridgewood?adjust_creative=gBcvfFpabk3CnzmXKdYe3w&utm_campaign=yelp_api_v3&utm_medium=api_v3_business_search&utm_source=gBcvfFpabk3CnzmXKdYe3w"}, {"transactions": [], "distance": 12607.611885641998, "phone": "+17188968100", "categories": [{"alias": "mexican", "title": "Mexican"}], "id": "taco-king-forest-hills", "display_phone": "(718) 896-8100", "is_closed": false, "location": {"address2": "", "country": "US", "display_address": ["6405 108th St", "Forest Hills, NY 11375"], "address1": "6405 108th St", "city": "Forest Hills", "zip_code": "11375", "address3": "", "state": "NY"}, "coordinates": {"longitude": -73.8493243, "latitude": 40.7327858}, "review_count": 95, "image_url": "https://s3-media4.fl.yelpcdn.com/bphoto/TuI1bM4UTSOsXCry4dExGg/o.jpg", "price": "$", "rating": 4.0, "name": "Taco King", "url": "https://www.yelp.com/biz/taco-king-forest-hills?adjust_creative=gBcvfFpabk3CnzmXKdYe3w&utm_campaign=yelp_api_v3&utm_medium=api_v3_business_search&utm_source=gBcvfFpabk3CnzmXKdYe3w"}, {"transactions": [], "distance": 2608.2251512, "phone": "+12127772537", "categories": [{"alias": "breakfast_brunch", "title": "Breakfast & Brunch"}, {"alias": "mexican", "title": "Mexican"}, {"alias": "desserts", "title": "Desserts"}], "id": "la-palapa-new-york", "display_phone": "(212) 777-2537", "is_closed": false, "location": {"address2": "", "country": "US", "display_address": ["77 St Mark's Pl", "New York, NY 10003"], "address1": "77 St Mark's Pl", "city": "New York", "zip_code": "10003", "address3": "", "state": "NY"}, "coordinates": {"longitude": -73.985604, "latitude": 40.727969}, "review_count": 565, "image_url": "https://s3-media1.fl.yelpcdn.com/bphoto/etYbcsg3F69xwJgDhQ-Zfw/o.jpg", "price": "$$", "rating": 3.5, "name": "La Palapa", "url": "https://www.yelp.com/biz/la-palapa-new-york?adjust_creative=gBcvfFpabk3CnzmXKdYe3w&utm_campaign=yelp_api_v3&utm_medium=api_v3_business_search&utm_source=gBcvfFpabk3CnzmXKdYe3w"}, {"transactions": [], "distance": 10553.56408998, "phone": "", "categories": [{"alias": "mexican", "title": "Mexican"}, {"alias": "foodtrucks", "title": "Food Trucks"}], "id": "el-rey-del-taco-astoria", "display_phone": "", "is_closed": false, "location": {"address2": "", "country": "US", "display_address": ["31ST St And Ditmars Ave", "Astoria, NY 11105"], "address1": "31ST St And Ditmars Ave", "city": "Astoria", "zip_code": "11105", "address3": "", "state": "NY"}, "coordinates": {"longitude": -73.9107, "latitude": 40.77613}, "review_count": 79, "image_url": "https://s3-media2.fl.yelpcdn.com/bphoto/HLZqscttTC9ltceRcuFb9Q/o.jpg", "price": "$", "rating": 4.5, "name": "El Rey Del Taco", "url": "https://www.yelp.com/biz/el-rey-del-taco-astoria?adjust_creative=gBcvfFpabk3CnzmXKdYe3w&utm_campaign=yelp_api_v3&utm_medium=api_v3_business_search&utm_source=gBcvfFpabk3CnzmXKdYe3w"}, {"transactions": ["delivery", "pickup"], "distance": 7706.806265462, "phone": "+19174719191", "categories": [{"alias": "mexican", "title": "Mexican"}, {"alias": "diners", "title": "Diners"}], "id": "mexico-diner-brooklyn", "display_phone": "(917) 471-9191", "is_closed": false, "location": {"address2": "", "country": "US", "display_address": ["902 Cortelyou Rd", "Brooklyn, NY 11218"], "address1": "902 Cortelyou Rd", "city": "Brooklyn", "zip_code": "11218", "address3": null, "state": "NY"}, "coordinates": {"longitude": -73.96963, "latitude": 40.6387}, "review_count": 19, "image_url": "https://s3-media4.fl.yelpcdn.com/bphoto/CoaqiKLI6FzIueVck7FPMw/o.jpg", "price": "$", "rating": 4.5, "name": "Mexico Diner", "url": "https://www.yelp.com/biz/mexico-diner-brooklyn?adjust_creative=gBcvfFpabk3CnzmXKdYe3w&utm_campaign=yelp_api_v3&utm_medium=api_v3_business_search&utm_source=gBcvfFpabk3CnzmXKdYe3w"}, {"transactions": [], "distance": 3840.2001878379997, "phone": "+12129139659", "categories": [{"alias": "mexican", "title": "Mexican"}, {"alias": "desserts", "title": "Desserts"}, {"alias": "cocktailbars", "title": "Cocktail Bars"}], "id": "cosme-new-york", "display_phone": "(212) 913-9659", "is_closed": false, "location": {"address2": "", "country": "US", "display_address": ["35 E 21st St", "New York, NY 10010"], "address1": "35 E 21st St", "city": "New York", "zip_code": "10010", "address3": "", "state": "NY"}, "coordinates": {"longitude": -73.988428, "latitude": 40.739691}, "review_count": 465, "image_url": "https://s3-media1.fl.yelpcdn.com/bphoto/rrtrB5Bb8ZfdwhyaJTfwQA/o.jpg", "price": "$$$", "rating": 3.5, "name": "Cosme", "url": "https://www.yelp.com/biz/cosme-new-york?adjust_creative=gBcvfFpabk3CnzmXKdYe3w&utm_campaign=yelp_api_v3&utm_medium=api_v3_business_search&utm_source=gBcvfFpabk3CnzmXKdYe3w"}, {"transactions": [], "distance": 7451.776891539999, "phone": "+17184921660", "categories": [{"alias": "mexican", "title": "Mexican"}], "id": "alimentos-saludables-brooklyn", "display_phone": "(718) 492-1660", "is_closed": false, "location": {"address2": "", "country": "US", "display_address": ["5919 4th Ave", "Brooklyn, NY 11220"], "address1": "5919 4th Ave", "city": "Brooklyn", "zip_code": "11220", "address3": "", "state": "NY"}, "coordinates": {"longitude": -74.017937, "latitude": 40.640877}, "review_count": 15, "image_url": "https://s3-media2.fl.yelpcdn.com/bphoto/BZHQulzZSYPYBqqXE-SypA/o.jpg", "price": "$", "rating": 4.5, "name": "Alimentos Saludables", "url": "https://www.yelp.com/biz/alimentos-saludables-brooklyn?adjust_creative=gBcvfFpabk3CnzmXKdYe3w&utm_campaign=yelp_api_v3&utm_medium=api_v3_business_search&utm_source=gBcvfFpabk3CnzmXKdYe3w"}, {"transactions": [], "distance": 7044.530185859999, "phone": "+12125851818", "categories": [{"alias": "mexican", "title": "Mexican"}], "id": "maya-new-york", "display_phone": "(212) 585-1818", "is_closed": false, "location": {"address2": "between 64th St & 65th St", "country": "US", "display_address": ["1191 1st Ave", "between 64th St & 65th St", "New York, NY 10065"], "address1": "1191 1st Ave", "city": "New York", "zip_code": "10065", "address3": "", "state": "NY"}, "coordinates": {"longitude": -73.9595425128937, "latitude": 40.7630642882915}, "review_count": 631, "image_url": "https://s3-media4.fl.yelpcdn.com/bphoto/x5grOd2pcpUqZbqkyeFAeQ/o.jpg", "price": "$$$", "rating": 3.5, "name": "Maya", "url": "https://www.yelp.com/biz/maya-new-york?adjust_creative=gBcvfFpabk3CnzmXKdYe3w&utm_campaign=yelp_api_v3&utm_medium=api_v3_business_search&utm_source=gBcvfFpabk3CnzmXKdYe3w"}, {"transactions": [], "distance": 15205.66713458, "phone": "+17188880455", "categories": [{"alias": "mexican", "title": "Mexican"}], "id": "blue-tijuana-college-point", "display_phone": "(718) 888-0455", "is_closed": false, "location": {"address2": "", "country": "US", "display_address": ["15-24 College Point Blvd", "College Point, NY 11356"], "address1": "15-24 College Point Blvd", "city": "College Point", "zip_code": "11356", "address3": "", "state": "NY"}, "coordinates": {"longitude": -73.846121, "latitude": 40.783534}, "review_count": 33, "image_url": "https://s3-media4.fl.yelpcdn.com/bphoto/MUsILl2n0H5kLCzPA6xEWw/o.jpg", "price": "$$", "rating": 4.0, "name": "Blue Tijuana", "url": "https://www.yelp.com/biz/blue-tijuana-college-point?adjust_creative=gBcvfFpabk3CnzmXKdYe3w&utm_campaign=yelp_api_v3&utm_medium=api_v3_business_search&utm_source=gBcvfFpabk3CnzmXKdYe3w"}, {"transactions": ["delivery", "pickup"], "distance": 6355.152981591999, "phone": "+12129204770", "categories": [{"alias": "mexican", "title": "Mexican"}, {"alias": "tapasmallplates", "title": "Tapas/Small Plates"}], "id": "anejo-new-york-10", "display_phone": "(212) 920-4770", "is_closed": false, "location": {"address2": "", "country": "US", "display_address": ["668 10th Ave", "New York, NY 10036"], "address1": "668 10th Ave", "city": "New York", "zip_code": "10036", "address3": "", "state": "NY"}, "coordinates": {"longitude": -73.992919, "latitude": 40.762577}, "review_count": 461, "image_url": "https://s3-media1.fl.yelpcdn.com/bphoto/fQ6ZI2h7jZJEWD2OSji83Q/o.jpg", "price": "$$", "rating": 3.5, "name": "Anejo", "url": "https://www.yelp.com/biz/anejo-new-york-10?adjust_creative=gBcvfFpabk3CnzmXKdYe3w&utm_campaign=yelp_api_v3&utm_medium=api_v3_business_search&utm_source=gBcvfFpabk3CnzmXKdYe3w"}, {"transactions": [], "distance": 6739.10159396, "phone": "+13473532939", "categories": [{"alias": "foodstands", "title": "Food Stands"}, {"alias": "mexican", "title": "Mexican"}], "id": "el-rey-del-sabor-new-york", "display_phone": "(347) 353-2939", "is_closed": false, "location": {"address2": "", "country": "US", "display_address": ["166 E 60th St", "New York, NY 10021"], "address1": "166 E 60th St", "city": "New York", "zip_code": "10021", "address3": "", "state": "NY"}, "coordinates": {"longitude": -73.9663818196397, "latitude": 40.7622400274526}, "review_count": 66, "image_url": "https://s3-media3.fl.yelpcdn.com/bphoto/Wde02eJCDUoqGA4hBqUpug/o.jpg", "price": "$", "rating": 4.0, "name": "El Rey del Sabor", "url": "https://www.yelp.com/biz/el-rey-del-sabor-new-york?adjust_creative=gBcvfFpabk3CnzmXKdYe3w&utm_campaign=yelp_api_v3&utm_medium=api_v3_business_search&utm_source=gBcvfFpabk3CnzmXKdYe3w"}, {"transactions": [], "distance": 2593.37577102, "phone": "", "categories": [{"alias": "streetvendors", "title": "Street Vendors"}, {"alias": "mexican", "title": "Mexican"}], "id": "taqueria-garibaldi-new-york", "display_phone": "", "is_closed": false, "location": {"address2": "", "country": "US", "display_address": ["Bleecker & Thompson", "New York, NY 10012"], "address1": "Bleecker & Thompson", "city": "New York", "zip_code": "10012", "address3": "", "state": "NY"}, "coordinates": {"longitude": -73.9996719, "latitude": 40.7284088}, "review_count": 26, "image_url": "https://s3-media2.fl.yelpcdn.com/bphoto/LpWZrphTocNJf2SKOGC7Og/o.jpg", "price": "$", "rating": 4.0, "name": "Taqueria Garibaldi", "url": "https://www.yelp.com/biz/taqueria-garibaldi-new-york?adjust_creative=gBcvfFpabk3CnzmXKdYe3w&utm_campaign=yelp_api_v3&utm_medium=api_v3_business_search&utm_source=gBcvfFpabk3CnzmXKdYe3w"}, {"transactions": ["delivery", "pickup"], "distance": 4225.3765656919995, "phone": "+17183492626", "categories": [{"alias": "mexican", "title": "Mexican"}], "id": "taqueria-la-nortena-brooklyn-8", "display_phone": "(718) 349-2626", "is_closed": false, "location": {"address2": "", "country": "US", "display_address": ["668 Manhattan Ave", "Brooklyn, NY 11222"], "address1": "668 Manhattan Ave", "city": "Brooklyn", "zip_code": "11222", "address3": "", "state": "NY"}, "coordinates": {"longitude": -73.95121, "latitude": 40.72474}, "review_count": 77, "image_url": "https://s3-media3.fl.yelpcdn.com/bphoto/lLGIMsf71RS2gO11GpjOnw/o.jpg", "price": "$", "rating": 3.0, "name": "Taqueria La Nortena", "url": "https://www.yelp.com/biz/taqueria-la-nortena-brooklyn-8?adjust_creative=gBcvfFpabk3CnzmXKdYe3w&utm_campaign=yelp_api_v3&utm_medium=api_v3_business_search&utm_source=gBcvfFpabk3CnzmXKdYe3w"}, {"transactions": [], "distance": 7950.4051411, "phone": "+17183962779", "categories": [{"alias": "mexican", "title": "Mexican"}, {"alias": "delis", "title": "Delis"}], "id": "el-rey-del-taco-deli-woodside", "display_phone": "(718) 396-2779", "is_closed": false, "location": {"address2": "", "country": "US", "display_address": ["49-06 43rd Ave", "Woodside, NY 11377"], "address1": "49-06 43rd Ave", "city": "Woodside", "zip_code": "11377", "address3": "", "state": "NY"}, "coordinates": {"longitude": -73.9153558015823, "latitude": 40.7445104420185}, "review_count": 33, "image_url": "https://s3-media2.fl.yelpcdn.com/bphoto/sJUfqyoUuIVCsNUIwflZMA/o.jpg", "price": "$", "rating": 4.0, "name": "El Rey del Taco Deli", "url": "https://www.yelp.com/biz/el-rey-del-taco-deli-woodside?adjust_creative=gBcvfFpabk3CnzmXKdYe3w&utm_campaign=yelp_api_v3&utm_medium=api_v3_business_search&utm_source=gBcvfFpabk3CnzmXKdYe3w"}, {"transactions": ["delivery", "pickup"], "distance": 10363.19043336, "phone": "+16465904202", "categories": [{"alias": "mexican", "title": "Mexican"}], "id": "lupitas-restaurant-new-york-2", "display_phone": "(646) 590-4202", "is_closed": false, "location": {"address2": "", "country": "US", "display_address": ["2049 2nd Ave", "New York, NY 10029"], "address1": "2049 2nd Ave", "city": "New York", "zip_code": "10029", "address3": "", "state": "NY"}, "coordinates": {"longitude": -73.943136, "latitude": 40.790205}, "review_count": 76, "image_url": "https://s3-media4.fl.yelpcdn.com/bphoto/6sUIPIvcz-z6r603x3mcAg/o.jpg", "price": "$$", "rating": 4.0, "name": "Lupita's Restaurant", "url": "https://www.yelp.com/biz/lupitas-restaurant-new-york-2?adjust_creative=gBcvfFpabk3CnzmXKdYe3w&utm_campaign=yelp_api_v3&utm_medium=api_v3_business_search&utm_source=gBcvfFpabk3CnzmXKdYe3w"}, {"transactions": ["delivery"], "distance": 4001.7973968519996, "phone": "+12126992400", "categories": [{"alias": "mexican", "title": "Mexican"}], "id": "dos-caminos-new-york-3", "display_phone": "(212) 699-2400", "is_closed": false, "location": {"address2": "", "country": "US", "display_address": ["675 Hudson St", "New York, NY 10014"], "address1": "675 Hudson St", "city": "New York", "zip_code": "10014", "address3": "", "state": "NY"}, "coordinates": {"longitude": -74.00541, "latitude": 40.7404}, "review_count": 773, "image_url": "https://s3-media1.fl.yelpcdn.com/bphoto/OjqowmWExanMFsEQPVws9g/o.jpg", "price": "$$", "rating": 3.0, "name": "Dos Caminos", "url": "https://www.yelp.com/biz/dos-caminos-new-york-3?adjust_creative=gBcvfFpabk3CnzmXKdYe3w&utm_campaign=yelp_api_v3&utm_medium=api_v3_business_search&utm_source=gBcvfFpabk3CnzmXKdYe3w"}, {"transactions": ["delivery", "pickup"], "distance": 5504.120953938, "phone": "+17187298300", "categories": [{"alias": "bars", "title": "Bars"}, {"alias": "mexican", "title": "Mexican"}], "id": "skinnys-cantina-long-island-city", "display_phone": "(718) 729-8300", "is_closed": false, "location": {"address2": "", "country": "US", "display_address": ["4705 Center Blvd", "Long Island City, NY 11109"], "address1": "4705 Center Blvd", "city": "Long Island City", "zip_code": "11109", "address3": "", "state": "NY"}, "coordinates": {"longitude": -73.9563131306885, "latitude": 40.7457158661738}, "review_count": 332, "image_url": "https://s3-media2.fl.yelpcdn.com/bphoto/lT_m1AHq1UPBBXDBrvzXJg/o.jpg", "price": "$$", "rating": 3.0, "name": "Skinny's Cantina", "url": "https://www.yelp.com/biz/skinnys-cantina-long-island-city?adjust_creative=gBcvfFpabk3CnzmXKdYe3w&utm_campaign=yelp_api_v3&utm_medium=api_v3_business_search&utm_source=gBcvfFpabk3CnzmXKdYe3w"}, {"transactions": [], "distance": 10523.82509612, "phone": "+19177450500", "categories": [{"alias": "mexican", "title": "Mexican"}, {"alias": "bars", "title": "Bars"}, {"alias": "latin", "title": "Latin American"}], "id": "two-lizards-mexican-bar-and-grill-astoria", "display_phone": "(917) 745-0500", "is_closed": false, "location": {"address2": "", "country": "US", "display_address": ["35-02 Ditmars Blvd", "Astoria, NY 11105"], "address1": "35-02 Ditmars Blvd", "city": "Astoria", "zip_code": "11105", "address3": "", "state": "NY"}, "coordinates": {"longitude": -73.909012041986, "latitude": 40.7745989266801}, "review_count": 171, "image_url": "https://s3-media2.fl.yelpcdn.com/bphoto/E-QLQCfYPvhB9XnS8N3pzw/o.jpg", "price": "$$", "rating": 3.0, "name": "Two Lizards Mexican Bar & Grill", "url": "https://www.yelp.com/biz/two-lizards-mexican-bar-and-grill-astoria?adjust_creative=gBcvfFpabk3CnzmXKdYe3w&utm_campaign=yelp_api_v3&utm_medium=api_v3_business_search&utm_source=gBcvfFpabk3CnzmXKdYe3w"}, {"transactions": ["delivery", "pickup"], "distance": 5060.971965, "phone": "+13477152455", "categories": [{"alias": "mexican", "title": "Mexican"}], "id": "la-lupe-brooklyn", "display_phone": "(347) 715-2455", "is_closed": false, "location": {"address2": "", "country": "US", "display_address": ["9 Jefferson St", "Brooklyn, NY 11206"], "address1": "9 Jefferson St", "city": "Brooklyn", "zip_code": "11206", "address3": "", "state": "NY"}, "coordinates": {"longitude": -73.9350967, "latitude": 40.6973572}, "review_count": 96, "image_url": "https://s3-media1.fl.yelpcdn.com/bphoto/KdNrOt6Ro4WYL2-zdGXW5Q/o.jpg", "price": "$$", "rating": 3.5, "name": "La Lupe", "url": "https://www.yelp.com/biz/la-lupe-brooklyn?adjust_creative=gBcvfFpabk3CnzmXKdYe3w&utm_campaign=yelp_api_v3&utm_medium=api_v3_business_search&utm_source=gBcvfFpabk3CnzmXKdYe3w"}, {"transactions": [], "distance": 5808.547731688, "phone": "+12128329426", "categories": [{"alias": "mexican", "title": "Mexican"}, {"alias": "breakfast_brunch", "title": "Breakfast & Brunch"}, {"alias": "cocktailbars", "title": "Cocktail Bars"}], "id": "barnacho-new-york-3", "display_phone": "(212) 832-9426", "is_closed": false, "location": {"address2": "", "country": "US", "display_address": ["920 2nd Ave", "New York, NY 10017"], "address1": "920 2nd Ave", "city": "New York", "zip_code": "10017", "address3": "", "state": "NY"}, "coordinates": {"longitude": -73.9688491821289, "latitude": 40.7540321350098}, "review_count": 35, "image_url": "https://s3-media1.fl.yelpcdn.com/bphoto/TZsHihISKzE84rFTcA8SXA/o.jpg", "price": "$$", "rating": 4.0, "name": "Barnacho", "url": "https://www.yelp.com/biz/barnacho-new-york-3?adjust_creative=gBcvfFpabk3CnzmXKdYe3w&utm_campaign=yelp_api_v3&utm_medium=api_v3_business_search&utm_source=gBcvfFpabk3CnzmXKdYe3w"}, {"transactions": ["delivery", "pickup"], "distance": 1633.51952883, "phone": "+12125095017", "categories": [{"alias": "mexican", "title": "Mexican"}], "id": "tajin-new-york", "display_phone": "(212) 509-5017", "is_closed": false, "location": {"address2": "", "country": "US", "display_address": ["85 Greenwich St", "New York, NY 10006"], "address1": "85 Greenwich St", "city": "New York", "zip_code": "10006", "address3": "", "state": "NY"}, "coordinates": {"longitude": -74.01356, "latitude": 40.70772}, "review_count": 154, "image_url": "https://s3-media2.fl.yelpcdn.com/bphoto/4Be8NYA4F7-K4wq7mw2m5g/o.jpg", "price": "$$", "rating": 3.5, "name": "Tajin", "url": "https://www.yelp.com/biz/tajin-new-york?adjust_creative=gBcvfFpabk3CnzmXKdYe3w&utm_campaign=yelp_api_v3&utm_medium=api_v3_business_search&utm_source=gBcvfFpabk3CnzmXKdYe3w"}, {"transactions": ["delivery", "pickup"], "distance": 2472.862920064, "phone": "+12127778226", "categories": [{"alias": "mexican", "title": "Mexican"}], "id": "molcajete-taqueria-new-york-2", "display_phone": "(212) 777-8226", "is_closed": false, "location": {"address2": "", "country": "US", "display_address": ["494 Laguardia Pl", "New York, NY 10012"], "address1": "494 Laguardia Pl", "city": "New York", "zip_code": "10012", "address3": "", "state": "NY"}, "coordinates": {"longitude": -73.9998703, "latitude": 40.7272263}, "review_count": 79, "image_url": "https://s3-media2.fl.yelpcdn.com/bphoto/VVNnJ34289ln7uiLvc9NzA/o.jpg", "price": "$$", "rating": 3.5, "name": "Molcajete Taqueria", "url": "https://www.yelp.com/biz/molcajete-taqueria-new-york-2?adjust_creative=gBcvfFpabk3CnzmXKdYe3w&utm_campaign=yelp_api_v3&utm_medium=api_v3_business_search&utm_source=gBcvfFpabk3CnzmXKdYe3w"}, {"transactions": ["delivery", "pickup"], "distance": 5246.975619784, "phone": "+12129120044", "categories": [{"alias": "mexican", "title": "Mexican"}], "id": "elias-cinco-de-mayo-new-york-2", "display_phone": "(212) 912-0044", "is_closed": false, "location": {"address2": "", "country": "US", "display_address": ["144 W 37th St", "New York, NY 10018"], "address1": "144 W 37th St", "city": "New York", "zip_code": "10018", "address3": null, "state": "NY"}, "coordinates": {"longitude": -73.98864, "latitude": 40.75255}, "review_count": 14, "image_url": "https://s3-media3.fl.yelpcdn.com/bphoto/affXn0SJKEMB_pYOLKjRKg/o.jpg", "price": "$", "rating": 4.5, "name": "Elias' Cinco de Mayo", "url": "https://www.yelp.com/biz/elias-cinco-de-mayo-new-york-2?adjust_creative=gBcvfFpabk3CnzmXKdYe3w&utm_campaign=yelp_api_v3&utm_medium=api_v3_business_search&utm_source=gBcvfFpabk3CnzmXKdYe3w"}, {"transactions": [], "distance": 8469.672532424, "phone": "+12127120777", "categories": [{"alias": "mexican", "title": "Mexican"}, {"alias": "tradamerican", "title": "American (Traditional)"}, {"alias": "bars", "title": "Bars"}], "id": "playa-bettys-new-york-2", "display_phone": "(212) 712-0777", "is_closed": false, "location": {"address2": "", "country": "US", "display_address": ["320 Amsterdam Ave", "New York, NY 10023"], "address1": "320 Amsterdam Ave", "city": "New York", "zip_code": "10023", "address3": "", "state": "NY"}, "coordinates": {"longitude": -73.980384, "latitude": 40.780883}, "review_count": 307, "image_url": "https://s3-media1.fl.yelpcdn.com/bphoto/M2JXtAv6QIPqsA5TONaF9Q/o.jpg", "price": "$$", "rating": 3.5, "name": "Playa Betty's", "url": "https://www.yelp.com/biz/playa-bettys-new-york-2?adjust_creative=gBcvfFpabk3CnzmXKdYe3w&utm_campaign=yelp_api_v3&utm_medium=api_v3_business_search&utm_source=gBcvfFpabk3CnzmXKdYe3w"}, {"transactions": ["delivery", "pickup"], "distance": 3505.3312955819997, "phone": "+17182308646", "categories": [{"alias": "mexican", "title": "Mexican"}, {"alias": "bars", "title": "Bars"}], "id": "burrito-bar-brooklyn-2", "display_phone": "(718) 230-8646", "is_closed": false, "location": {"address2": null, "country": "US", "display_address": ["307 Flatbush Ave", "Brooklyn, NY 11238"], "address1": "307 Flatbush Ave", "city": "Brooklyn", "zip_code": "11238", "address3": "", "state": "NY"}, "coordinates": {"longitude": -73.9730639, "latitude": 40.678342}, "review_count": 496, "image_url": "https://s3-media1.fl.yelpcdn.com/bphoto/D6OjIXOA1h1pw7pgODMyng/o.jpg", "price": "$$", "rating": 3.0, "name": "Burrito Bar", "url": "https://www.yelp.com/biz/burrito-bar-brooklyn-2?adjust_creative=gBcvfFpabk3CnzmXKdYe3w&utm_campaign=yelp_api_v3&utm_medium=api_v3_business_search&utm_source=gBcvfFpabk3CnzmXKdYe3w"}, {"transactions": [], "distance": 6632.884027422, "phone": "+16467073950", "categories": [{"alias": "tacos", "title": "Tacos"}], "id": "la-esquina-new-york-10", "display_phone": "(646) 707-3950", "is_closed": false, "location": {"address2": "", "country": "US", "display_address": ["200 W 55th St", "New York, NY 10019"], "address1": "200 W 55th St", "city": "New York", "zip_code": "10019", "address3": null, "state": "NY"}, "coordinates": {"longitude": -73.9814604957066, "latitude": 40.7642986928764}, "review_count": 58, "image_url": "https://s3-media4.fl.yelpcdn.com/bphoto/vSbWUBoymIvv_zF0-8TR0g/o.jpg", "price": "$$", "rating": 3.5, "name": "La Esquina", "url": "https://www.yelp.com/biz/la-esquina-new-york-10?adjust_creative=gBcvfFpabk3CnzmXKdYe3w&utm_campaign=yelp_api_v3&utm_medium=api_v3_business_search&utm_source=gBcvfFpabk3CnzmXKdYe3w"}, {"transactions": ["delivery", "pickup"], "distance": 3687.867627336, "phone": "+12126339210", "categories": [{"alias": "mexican", "title": "Mexican"}, {"alias": "vegan", "title": "Vegan"}, {"alias": "vegetarian", "title": "Vegetarian"}], "id": "bennys-burritos-new-york", "display_phone": "(212) 633-9210", "is_closed": false, "location": {"address2": "", "country": "US", "display_address": ["113 Greenwich Ave", "New York, NY 10014"], "address1": "113 Greenwich Ave", "city": "New York", "zip_code": "10014", "address3": "", "state": "NY"}, "coordinates": {"longitude": -74.002123778491, "latitude": 40.7380740387279}, "review_count": 603, "image_url": "https://s3-media2.fl.yelpcdn.com/bphoto/3MBsudGKNyaMFUd5gfaWaQ/o.jpg", "price": "$$", "rating": 3.5, "name": "Benny's Burritos", "url": "https://www.yelp.com/biz/bennys-burritos-new-york?adjust_creative=gBcvfFpabk3CnzmXKdYe3w&utm_campaign=yelp_api_v3&utm_medium=api_v3_business_search&utm_source=gBcvfFpabk3CnzmXKdYe3w"}, {"transactions": ["delivery", "pickup"], "distance": 5056.018416479999, "phone": "+17183871006", "categories": [{"alias": "mexican", "title": "Mexican"}], "id": "hungry-burrito-brooklyn", "display_phone": "(718) 387-1006", "is_closed": false, "location": {"address2": "", "country": "US", "display_address": ["510 Morgan", "Brooklyn, NY 11222"], "address1": "510 Morgan", "city": "Brooklyn", "zip_code": "11222", "address3": "", "state": "NY"}, "coordinates": {"longitude": -73.9382476806641, "latitude": 40.7216567993164}, "review_count": 11, "image_url": "https://s3-media3.fl.yelpcdn.com/bphoto/zxTvlU7JFix_Q-5hERF5RQ/o.jpg", "price": "$", "rating": 4.0, "name": "Hungry Burrito", "url": "https://www.yelp.com/biz/hungry-burrito-brooklyn?adjust_creative=gBcvfFpabk3CnzmXKdYe3w&utm_campaign=yelp_api_v3&utm_medium=api_v3_business_search&utm_source=gBcvfFpabk3CnzmXKdYe3w"}, {"transactions": ["delivery", "pickup"], "distance": 10414.467224439999, "phone": "+17185454100", "categories": [{"alias": "southern", "title": "Southern"}, {"alias": "mexican", "title": "Mexican"}, {"alias": "tex-mex", "title": "Tex-Mex"}], "id": "mojave-astoria-2", "display_phone": "(718) 545-4100", "is_closed": false, "location": {"address2": "", "country": "US", "display_address": ["22-36 31st St", "Astoria, NY 11105"], "address1": "22-36 31st St", "city": "Astoria", "zip_code": "11105", "address3": "", "state": "NY"}, "coordinates": {"longitude": -73.9119911693115, "latitude": 40.7753290076368}, "review_count": 540, "image_url": "https://s3-media2.fl.yelpcdn.com/bphoto/kxePXzu4KWOiIEzh4SGBaw/o.jpg", "price": "$$", "rating": 3.5, "name": "Mojave", "url": "https://www.yelp.com/biz/mojave-astoria-2?adjust_creative=gBcvfFpabk3CnzmXKdYe3w&utm_campaign=yelp_api_v3&utm_medium=api_v3_business_search&utm_source=gBcvfFpabk3CnzmXKdYe3w"}, {"transactions": [], "distance": 17905.40740488, "phone": "+17183515474", "categories": [{"alias": "mexican", "title": "Mexican"}], "id": "cantina-mexicana-staten-island-4", "display_phone": "(718) 351-5474", "is_closed": false, "location": {"address2": "", "country": "US", "display_address": ["140 New Dorp Ln", "Staten Island, NY 10306"], "address1": "140 New Dorp Ln", "city": "Staten Island", "zip_code": "10306", "address3": "", "state": "NY"}, "coordinates": {"longitude": -74.1161499023438, "latitude": 40.5735931396484}, "review_count": 26, "image_url": "https://s3-media4.fl.yelpcdn.com/bphoto/TbTKJxtZrphVjdHs0t79Mg/o.jpg", "price": "$$", "rating": 4.0, "name": "Cantina Mexicana", "url": "https://www.yelp.com/biz/cantina-mexicana-staten-island-4?adjust_creative=gBcvfFpabk3CnzmXKdYe3w&utm_campaign=yelp_api_v3&utm_medium=api_v3_business_search&utm_source=gBcvfFpabk3CnzmXKdYe3w"}, {"transactions": ["delivery", "pickup"], "distance": 11062.789038769999, "phone": "+12126651500", "categories": [{"alias": "mexican", "title": "Mexican"}, {"alias": "bars", "title": "Bars"}], "id": "cascabel-taqueria-new-york-2", "display_phone": "(212) 665-1500", "is_closed": false, "location": {"address2": "", "country": "US", "display_address": ["2799 Broadway 108th St", "New York, NY 10025"], "address1": "2799 Broadway 108th St", "city": "New York", "zip_code": "10025", "address3": "", "state": "NY"}, "coordinates": {"longitude": -73.9679586979658, "latitude": 40.8029136693265}, "review_count": 293, "image_url": "https://s3-media2.fl.yelpcdn.com/bphoto/jWSJGW--0caaS_0ZNWX6_g/o.jpg", "price": "$$", "rating": 3.5, "name": "Cascabel Taqueria", "url": "https://www.yelp.com/biz/cascabel-taqueria-new-york-2?adjust_creative=gBcvfFpabk3CnzmXKdYe3w&utm_campaign=yelp_api_v3&utm_medium=api_v3_business_search&utm_source=gBcvfFpabk3CnzmXKdYe3w"}, {"transactions": [], "distance": 6800.5840146499995, "phone": "+19179479208", "categories": [{"alias": "mexican", "title": "Mexican"}], "id": "gordos-cantina-long-island-city-2", "display_phone": "(917) 947-9208", "is_closed": false, "location": {"address2": null, "country": "US", "display_address": ["24-11 Bridge Plz N", "Long Island City, NY 11101"], "address1": "24-11 Bridge Plz N", "city": "Long Island City", "zip_code": "11101", "address3": "", "state": "NY"}, "coordinates": {"longitude": -73.9407712, "latitude": 40.7512226}, "review_count": 60, "image_url": "https://s3-media4.fl.yelpcdn.com/bphoto/udZjTHgC66d2CJvL7Ja_5w/o.jpg", "price": "$$", "rating": 4.0, "name": "Gordo's Cantina", "url": "https://www.yelp.com/biz/gordos-cantina-long-island-city-2?adjust_creative=gBcvfFpabk3CnzmXKdYe3w&utm_campaign=yelp_api_v3&utm_medium=api_v3_business_search&utm_source=gBcvfFpabk3CnzmXKdYe3w"}, {"transactions": ["delivery", "pickup"], "distance": 4891.121255796, "phone": "+17185766611", "categories": [{"alias": "mexican", "title": "Mexican"}, {"alias": "vegan", "title": "Vegan"}, {"alias": "vegetarian", "title": "Vegetarian"}], "id": "el-barrio-burritos-brooklyn", "display_phone": "(718) 576-6611", "is_closed": false, "location": {"address2": "", "country": "US", "display_address": ["796 Franklin Ave", "Brooklyn, NY 11238"], "address1": "796 Franklin Ave", "city": "Brooklyn", "zip_code": "11238", "address3": "", "state": "NY"}, "coordinates": {"longitude": -73.9578366279602, "latitude": 40.6711929291487}, "review_count": 134, "image_url": "https://s3-media2.fl.yelpcdn.com/bphoto/YLRSSPEimdQiN0uNhpdm2g/o.jpg", "price": "$", "rating": 3.0, "name": "El Barrio Burritos", "url": "https://www.yelp.com/biz/el-barrio-burritos-brooklyn?adjust_creative=gBcvfFpabk3CnzmXKdYe3w&utm_campaign=yelp_api_v3&utm_medium=api_v3_business_search&utm_source=gBcvfFpabk3CnzmXKdYe3w"}, {"transactions": ["delivery", "pickup"], "distance": 3158.8840066959997, "phone": "+17183130877", "categories": [{"alias": "mexican", "title": "Mexican"}, {"alias": "burgers", "title": "Burgers"}, {"alias": "hotdogs", "title": "Fast Food"}], "id": "burgritos-brooklyn", "display_phone": "(718) 313-0877", "is_closed": false, "location": {"address2": "", "country": "US", "display_address": ["173 4th Ave", "Brooklyn, NY 11217"], "address1": "173 4th Ave", "city": "Brooklyn", "zip_code": "11217", "address3": null, "state": "NY"}, "coordinates": {"longitude": -73.98193359375, "latitude": 40.6784744262695}, "review_count": 39, "image_url": "https://s3-media1.fl.yelpcdn.com/bphoto/LhcvIf0aZDCHh_yX0qWYoQ/o.jpg", "price": "$$", "rating": 4.0, "name": "Burgrito's", "url": "https://www.yelp.com/biz/burgritos-brooklyn?adjust_creative=gBcvfFpabk3CnzmXKdYe3w&utm_campaign=yelp_api_v3&utm_medium=api_v3_business_search&utm_source=gBcvfFpabk3CnzmXKdYe3w"}, {"transactions": ["delivery", "pickup"], "distance": 12797.19406885, "phone": "+17183232660", "categories": [{"alias": "mexican", "title": "Mexican"}], "id": "compadres-restaurant-jamaica", "display_phone": "(718) 323-2660", "is_closed": false, "location": {"address2": "", "country": "US", "display_address": ["92-21 Liberty Ave", "Jamaica, NY 11417"], "address1": "92-21 Liberty Ave", "city": "Jamaica", "zip_code": "11417", "address3": "", "state": "NY"}, "coordinates": {"longitude": -73.8461609, "latitude": 40.6804085}, "review_count": 29, "image_url": "https://s3-media1.fl.yelpcdn.com/bphoto/NgOfmNTL6u9O4ShXoo6g3w/o.jpg", "price": "$$", "rating": 4.0, "name": "Compadres Restaurant", "url": "https://www.yelp.com/biz/compadres-restaurant-jamaica?adjust_creative=gBcvfFpabk3CnzmXKdYe3w&utm_campaign=yelp_api_v3&utm_medium=api_v3_business_search&utm_source=gBcvfFpabk3CnzmXKdYe3w"}, {"transactions": ["delivery", "pickup"], "distance": 7448.122080399999, "phone": "+13479873581", "categories": [{"alias": "mexican", "title": "Mexican"}], "id": "new-mexico-place-ii-ridgewood", "display_phone": "(347) 987-3581", "is_closed": false, "location": {"address2": "", "country": "US", "display_address": ["778 Seneca Ave", "Ridgewood, NY 11385"], "address1": "778 Seneca Ave", "city": "Ridgewood", "zip_code": "11385", "address3": "", "state": "NY"}, "coordinates": {"longitude": -73.9060716709411, "latitude": 40.7017029365783}, "review_count": 21, "image_url": "https://s3-media2.fl.yelpcdn.com/bphoto/_LCjk6vNE7_F3zTX0WSnhA/o.jpg", "price": "$", "rating": 4.0, "name": "New Mexico Place II", "url": "https://www.yelp.com/biz/new-mexico-place-ii-ridgewood?adjust_creative=gBcvfFpabk3CnzmXKdYe3w&utm_campaign=yelp_api_v3&utm_medium=api_v3_business_search&utm_source=gBcvfFpabk3CnzmXKdYe3w"}, {"transactions": [], "distance": 5076.4945321019995, "phone": "+16462593999", "categories": [{"alias": "mexican", "title": "Mexican"}, {"alias": "cocktailbars", "title": "Cocktail Bars"}], "id": "habanero-blues-new-york", "display_phone": "(646) 259-3999", "is_closed": false, "location": {"address2": null, "country": "US", "display_address": ["29 W 36th St", "New York, NY 10018"], "address1": "29 W 36th St", "city": "New York", "zip_code": "10018", "address3": "", "state": "NY"}, "coordinates": {"longitude": -73.9850997924805, "latitude": 40.7505874633789}, "review_count": 71, "image_url": "https://s3-media3.fl.yelpcdn.com/bphoto/33aotjsYOuYCBM_nGvsmIg/o.jpg", "price": "$$", "rating": 3.5, "name": "Habanero Blues", "url": "https://www.yelp.com/biz/habanero-blues-new-york?adjust_creative=gBcvfFpabk3CnzmXKdYe3w&utm_campaign=yelp_api_v3&utm_medium=api_v3_business_search&utm_source=gBcvfFpabk3CnzmXKdYe3w"}]}