{"region": {"center": {"longitude": -73.99429321289062, "latitude": 40.70544486444615}}, "total": 1496, "businesses": [{"transactions": [], "distance": 6636.5142156599995, "phone": "+12129571700", "categories": [{"alias": "lounges", "title": "Lounges"}, {"alias": "mexican", "title": "Mexican"}], "id": "cantina-rooftop-new-york-6", "display_phone": "(212) 957-1700", "is_closed": false, "location": {"address2": "", "country": "US", "display_address": ["605 W 48th St", "New York, NY 10036"], "address1": "605 W 48th St", "city": "New York", "zip_code": "10036", "address3": "", "state": "NY"}, "coordinates": {"longitude": -73.9960123243591, "latitude": 40.7651132649777}, "review_count": 194, "image_url": "https://s3-media2.fl.yelpcdn.com/bphoto/1U-8C70mLg-IgegRGpdvlg/o.jpg", "price": "$$", "rating": 2.5, "name": "Cantina Rooftop", "url": "https://www.yelp.com/biz/cantina-rooftop-new-york-6?adjust_creative=gBcvfFpabk3CnzmXKdYe3w&utm_campaign=yelp_api_v3&utm_medium=api_v3_business_search&utm_source=gBcvfFpabk3CnzmXKdYe3w"}, {"transactions": [], "distance": 10452.142839443999, "phone": "+13476397253", "categories": [{"alias": "foodtrucks", "title": "Food Trucks"}, {"alias": "mexican", "title": "Mexican"}], "id": "sidewalk-tacos-new-york", "display_phone": "(347) 639-7253", "is_closed": false, "location": {"address2": "", "country": "US", "display_address": ["New York, NY 10029"], "address1": "", "city": "New York", "zip_code": "10029", "address3": "", "state": "NY"}, "coordinates": {"longitude": -73.9440765380859, "latitude": 40.7916069030762}, "review_count": 12, "image_url": "https://s3-media3.fl.yelpcdn.com/bphoto/fDV8ryC19cwDgTgMdtFYSQ/o.jpg", "price": "$", "rating": 5.0, "name": "Sidewalk Tacos", "url": "https://www.yelp.com/biz/sidewalk-tacos-new-york?adjust_creative=gBcvfFpabk3CnzmXKdYe3w&utm_campaign=yelp_api_v3&utm_medium=api_v3_business_search&utm_source=gBcvfFpabk3CnzmXKdYe3w"}, {"transactions": ["delivery", "pickup"], "distance": 9662.96981804, "phone": "+12125107410", "categories": [{"alias": "mexican", "title": "Mexican"}, {"alias": "vegan", "title": "Vegan"}, {"alias": "vegetarian", "title": "Vegetarian"}], "id": "blockheads-new-york-7", "display_phone": "(212) 510-7410", "is_closed": false, "location": {"address2": "", "country": "US", "display_address": ["175 W 90th St", "New York, NY 10024"], "address1": "175 W 90th St", "city": "New York", "zip_code": "10024", "address3": "", "state": "NY"}, "coordinates": {"longitude": -73.972661252727, "latitude": 40.790785482428}, "review_count": 164, "image_url": "https://s3-media3.fl.yelpcdn.com/bphoto/It3OlReSzEaH2ngiAe7yqQ/o.jpg", "price": "$$", "rating": 3.0, "name": "Blockheads", "url": "https://www.yelp.com/biz/blockheads-new-york-7?adjust_creative=gBcvfFpabk3CnzmXKdYe3w&utm_campaign=yelp_api_v3&utm_medium=api_v3_business_search&utm_source=gBcvfFpabk3CnzmXKdYe3w"}, {"transactions": [], "distance": 7752.903717619999, "phone": "+19292502751", "categories": [{"alias": "mexican", "title": "Mexican"}, {"alias": "bakeries", "title": "Bakeries"}], "id": "azteca-bakery-grocery-ridgewood", "display_phone": "(929) 250-2751", "is_closed": false, "location": {"address2": "", "country": "US", "display_address": ["996 Cypress Ave", "Ridgewood, NY 11385"], "address1": "996 Cypress Ave", "city": "Ridgewood", "zip_code": "11385", "address3": "", "state": "NY"}, "coordinates": {"longitude": -73.9028174, "latitude": 40.6979434}, "review_count": 4, "image_url": "https://s3-media2.fl.yelpcdn.com/bphoto/i0pUrJNoQ5vV36404TF7Jw/o.jpg", "rating": 5.0, "name": "Azteca Bakery Grocery", "url": "https://www.yelp.com/biz/azteca-bakery-grocery-ridgewood?adjust_creative=gBcvfFpabk3CnzmXKdYe3w&utm_campaign=yelp_api_v3&utm_medium=api_v3_business_search&utm_source=gBcvfFpabk3CnzmXKdYe3w"}, {"transactions": ["delivery", "pickup"], "distance": 3981.70510882, "phone": "+17183984300", "categories": [{"alias": "mexican", "title": "Mexican"}], "id": "varrio-408-park-slope", "display_phone": "(718) 398-4300", "is_closed": false, "location": {"address2": "", "country": "US", "display_address": ["412 5th Ave", "Park Slope, NY 11215"], "address1": "412 5th Ave", "city": "Park Slope", "zip_code": "11215", "address3": "", "state": "NY"}, "coordinates": {"longitude": -73.985771, "latitude": 40.670227}, "review_count": 206, "image_url": "https://s3-media3.fl.yelpcdn.com/bphoto/1De0cGBIAkwDw4PiRkfz3A/o.jpg", "price": "$", "rating": 4.5, "name": "Varrio 408", "url": "https://www.yelp.com/biz/varrio-408-park-slope?adjust_creative=gBcvfFpabk3CnzmXKdYe3w&utm_campaign=yelp_api_v3&utm_medium=api_v3_business_search&utm_source=gBcvfFpabk3CnzmXKdYe3w"}, {"transactions": ["delivery", "pickup"], "distance": 11433.207286022, "phone": "+17185210710", "categories": [{"alias": "mexican", "title": "Mexican"}], "id": "el-puerto-mexicano-bar-and-restaurant-woodhaven", "display_phone": "(718) 521-0710", "is_closed": false, "location": {"address2": "", "country": "US", "display_address": ["84-28 Jamaica Ave", "Woodhaven, NY 11421"], "address1": "84-28 Jamaica Ave", "city": "Woodhaven", "zip_code": "11421", "address3": "", "state": "NY"}, "coordinates": {"longitude": -73.8597963, "latitude": 40.6922391}, "review_count": 18, "image_url": "https://s3-media1.fl.yelpcdn.com/bphoto/qZfAOBWHA8TPOYFnVHhaAQ/o.jpg", "price": "$$", "rating": 3.0, "name": "El Puerto Mexicano Bar & Restaurant", "url": "https://www.yelp.com/biz/el-puerto-mexicano-bar-and-restaurant-woodhaven?adjust_creative=gBcvfFpabk3CnzmXKdYe3w&utm_campaign=yelp_api_v3&utm_medium=api_v3_business_search&utm_source=gBcvfFpabk3CnzmXKdYe3w"}, {"transactions": ["delivery", "pickup"], "distance": 8206.431823019999, "phone": "+17188338865", "categories": [{"alias": "spanish", "title": "Spanish"}, {"alias": "mexican", "title": "Mexican"}], "id": "casa-pepe-brooklyn", "display_phone": "(718) 833-8865", "is_closed": false, "location": {"address2": "", "country": "US", "display_address": ["114 Bay Ridge Ave", "Brooklyn, NY 11220"], "address1": "114 Bay Ridge Ave", "city": "Brooklyn", "zip_code": "11220", "address3": "", "state": "NY"}, "coordinates": {"longitude": -74.0318069458008, "latitude": 40.6372871398926}, "review_count": 126, "image_url": "https://s3-media2.fl.yelpcdn.com/bphoto/y9XLiPCV7kriq41qVkcSpg/o.jpg", "price": "$$", "rating": 3.0, "name": "Casa Pepe", "url": "https://www.yelp.com/biz/casa-pepe-brooklyn?adjust_creative=gBcvfFpabk3CnzmXKdYe3w&utm_campaign=yelp_api_v3&utm_medium=api_v3_business_search&utm_source=gBcvfFpabk3CnzmXKdYe3w"}, {"transactions": ["delivery", "pickup"], "distance": 6318.010058127999, "phone": "+12124896677", "categories": [{"alias": "bakeries", "title": "Bakeries"}, {"alias": "mexican", "title": "Mexican"}], "id": "leon-bakery-mexican-restaurant-new-york", "display_phone": "(212) 489-6677", "is_closed": false, "location": {"address2": "", "country": "US", "display_address": ["695 9th Ave", "New York, NY 10036"], "address1": "695 9th Ave", "city": "New York", "zip_code": "10036", "address3": "", "state": "NY"}, "coordinates": {"longitude": -73.990272, "latitude": 40.762237}, "review_count": 35, "image_url": "https://s3-media2.fl.yelpcdn.com/bphoto/rUPK2uTVrVHMWUfdPhPJ8g/o.jpg", "price": "$", "rating": 4.0, "name": "Leon Bakery Mexican Restaurant", "url": "https://www.yelp.com/biz/leon-bakery-mexican-restaurant-new-york?adjust_creative=gBcvfFpabk3CnzmXKdYe3w&utm_campaign=yelp_api_v3&utm_medium=api_v3_business_search&utm_source=gBcvfFpabk3CnzmXKdYe3w"}, {"transactions": [], "distance": 6626.039665335999, "phone": "+12012169699", "categories": [{"alias": "mexican", "title": "Mexican"}], "id": "los-tres-chilitos-jersey-city", "display_phone": "(201) 216-9699", "is_closed": false, "location": {"address2": null, "country": "US", "display_address": ["456 Central Ave", "Jersey City, NJ 07307"], "address1": "456 Central Ave", "city": "Jersey City", "zip_code": "07307", "address3": null, "state": "NJ"}, "coordinates": {"longitude": -74.04619, "latitude": 40.75021}, "review_count": 130, "image_url": "https://s3-media4.fl.yelpcdn.com/bphoto/i9XAjJ4MCjXPysbFOLOcDw/o.jpg", "price": "$", "rating": 4.5, "name": "Los Tres Chilitos", "url": "https://www.yelp.com/biz/los-tres-chilitos-jersey-city?adjust_creative=gBcvfFpabk3CnzmXKdYe3w&utm_campaign=yelp_api_v3&utm_medium=api_v3_business_search&utm_source=gBcvfFpabk3CnzmXKdYe3w"}, {"transactions": [], "distance": 12940.03023588, "phone": "+17185854148", "categories": [{"alias": "mexican", "title": "Mexican"}], "id": "jalisco-tacos-bronx", "display_phone": "(718) 585-4148", "is_closed": false, "location": {"address2": "", "country": "US", "display_address": ["214 St Anns Ave", "Bronx, NY 10454"], "address1": "214 St Anns Ave", "city": "Bronx", "zip_code": "10454", "address3": "", "state": "NY"}, "coordinates": {"longitude": -73.9174880981445, "latitude": 40.8062286376953}, "review_count": 12, "image_url": "https://s3-media2.fl.yelpcdn.com/bphoto/C9biSCjwgQY1eneMW5hBug/o.jpg", "price": "$", "rating": 4.5, "name": "Jalisco Tacos", "url": "https://www.yelp.com/biz/jalisco-tacos-bronx?adjust_creative=gBcvfFpabk3CnzmXKdYe3w&utm_campaign=yelp_api_v3&utm_medium=api_v3_business_search&utm_source=gBcvfFpabk3CnzmXKdYe3w"}, {"transactions": ["delivery", "pickup"], "distance": 17297.158961219997, "phone": "+12125682299", "categories": [{"alias": "mexican", "title": "Mexican"}, {"alias": "desserts", "title": "Desserts"}, {"alias": "soup", "title": "Soup"}], "id": "refried-beans-mexican-grill-new-york-3", "display_phone": "(212) 568-2299", "is_closed": false, "location": {"address2": null, "country": "US", "display_address": ["591 Fort Washington Ave", "New York, NY 10033"], "address1": "591 Fort Washington Ave", "city": "New York", "zip_code": "10033", "address3": "", "state": "NY"}, "coordinates": {"longitude": -73.937151259784, "latitude": 40.854860416108}, "review_count": 182, "image_url": "https://s3-media4.fl.yelpcdn.com/bphoto/WJf3bhtveWWAOkT4RZVRxg/o.jpg", "price": "$$", "rating": 3.5, "name": "Refried Beans Mexican Grill", "url": "https://www.yelp.com/biz/refried-beans-mexican-grill-new-york-3?adjust_creative=gBcvfFpabk3CnzmXKdYe3w&utm_campaign=yelp_api_v3&utm_medium=api_v3_business_search&utm_source=gBcvfFpabk3CnzmXKdYe3w"}, {"transactions": ["delivery", "pickup"], "distance": 14384.02181626, "phone": "+13475900570", "categories": [{"alias": "mexican", "title": "Mexican"}], "id": "patron-mexican-restaurant-bronx", "display_phone": "(347) 590-0570", "is_closed": false, "location": {"address2": "", "country": "US", "display_address": ["835 E 152nd St", "Bronx, NY 10455"], "address1": "835 E 152nd St", "city": "Bronx", "zip_code": "10455", "address3": null, "state": "NY"}, "coordinates": {"longitude": -73.9041213989258, "latitude": 40.8153343200684}, "review_count": 5, "image_url": "https://s3-media3.fl.yelpcdn.com/bphoto/YkSCqI2npsq_KyBmocwqRA/o.jpg", "rating": 5.0, "name": "Patron Mexican Restaurant", "url": "https://www.yelp.com/biz/patron-mexican-restaurant-bronx?adjust_creative=gBcvfFpabk3CnzmXKdYe3w&utm_campaign=yelp_api_v3&utm_medium=api_v3_business_search&utm_source=gBcvfFpabk3CnzmXKdYe3w"}, {"transactions": [], "distance": 1135.0916421, "phone": "", "categories": [{"alias": "mexican", "title": "Mexican"}], "id": "factory-tamal-new-york", "display_phone": "", "is_closed": false, "location": {"address2": "", "country": "US", "display_address": ["13 Essex St", "New York, NY 10002"], "address1": "13 Essex St", "city": "New York", "zip_code": "10002", "address3": null, "state": "NY"}, "coordinates": {"longitude": -73.9902588352561, "latitude": 40.7151830139749}, "review_count": 9, "image_url": "https://s3-media4.fl.yelpcdn.com/bphoto/mELzCJ4LnUIMRV5eHNHATw/o.jpg", "price": "$", "rating": 5.0, "name": "Factory Tamal", "url": "https://www.yelp.com/biz/factory-tamal-new-york?adjust_creative=gBcvfFpabk3CnzmXKdYe3w&utm_campaign=yelp_api_v3&utm_medium=api_v3_business_search&utm_source=gBcvfFpabk3CnzmXKdYe3w"}, {"transactions": ["delivery", "pickup"], "distance": 12553.300523057998, "phone": "+17186514874", "categories": [{"alias": "mexican", "title": "Mexican"}], "id": "el-coyote-restaurant-jackson-heights-2", "display_phone": "(718) 651-4874", "is_closed": false, "location": {"address2": "", "country": "US", "display_address": ["80-18 Northern Blvd", "Jackson Heights, NY 11372"], "address1": "80-18 Northern Blvd", "city": "Jackson Heights", "zip_code": "11372", "address3": "", "state": "NY"}, "coordinates": {"longitude": -73.8467424056524, "latitude": 40.7208200862517}, "review_count": 167, "image_url": "https://s3-media3.fl.yelpcdn.com/bphoto/pK2aPzgOzWV30Q-3kF5hew/o.jpg", "price": "$$", "rating": 3.0, "name": "El Coyote Restaurant", "url": "https://www.yelp.com/biz/el-coyote-restaurant-jackson-heights-2?adjust_creative=gBcvfFpabk3CnzmXKdYe3w&utm_campaign=yelp_api_v3&utm_medium=api_v3_business_search&utm_source=gBcvfFpabk3CnzmXKdYe3w"}, {"transactions": [], "distance": 1769.306303858, "phone": "+12129206270", "categories": [{"alias": "bars", "title": "Bars"}, {"alias": "mexican", "title": "Mexican"}], "id": "abajo-new-york", "display_phone": "(212) 920-6270", "is_closed": false, "location": {"address2": "", "country": "US", "display_address": ["301 Church St", "New York, NY 10013"], "address1": "301 Church St", "city": "New York", "zip_code": "10013", "address3": "", "state": "NY"}, "coordinates": {"longitude": -74.0044393390417, "latitude": 40.7192916423082}, "review_count": 7, "image_url": "https://s3-media2.fl.yelpcdn.com/bphoto/T9O1e4lzcrC-KGob29XsjA/o.jpg", "rating": 3.5, "name": "Abajo", "url": "https://www.yelp.com/biz/abajo-new-york?adjust_creative=gBcvfFpabk3CnzmXKdYe3w&utm_campaign=yelp_api_v3&utm_medium=api_v3_business_search&utm_source=gBcvfFpabk3CnzmXKdYe3w"}, {"transactions": [], "distance": 12037.6137523, "phone": "+17186398880", "categories": [{"alias": "mexican", "title": "Mexican"}], "id": "tulcingo-restaurant-corona", "display_phone": "(718) 639-8880", "is_closed": false, "location": {"address2": "", "country": "US", "display_address": ["40-36 National St", "Corona, NY 11368"], "address1": "40-36 National St", "city": "Corona", "zip_code": "11368", "address3": "", "state": "NY"}, "coordinates": {"longitude": -73.863422, "latitude": 40.748838}, "review_count": 42, "image_url": "https://s3-media3.fl.yelpcdn.com/bphoto/xCkCeci-y-YHoQPVsV4cOA/o.jpg", "price": "$$", "rating": 3.5, "name": "Tulcingo Restaurant", "url": "https://www.yelp.com/biz/tulcingo-restaurant-corona?adjust_creative=gBcvfFpabk3CnzmXKdYe3w&utm_campaign=yelp_api_v3&utm_medium=api_v3_business_search&utm_source=gBcvfFpabk3CnzmXKdYe3w"}, {"transactions": [], "distance": 15175.88790722, "phone": "+12125686877", "categories": [{"alias": "mexican", "title": "Mexican"}], "id": "el-pitallito-mexican-restaurant-new-york", "display_phone": "(212) 568-6877", "is_closed": false, "location": {"address2": null, "country": "US", "display_address": ["3854 Broadway", "New York, NY 10032"], "address1": "3854 Broadway", "city": "New York", "zip_code": "10032", "address3": null, "state": "NY"}, "coordinates": {"longitude": -73.9430563151836, "latitude": 40.8362922817469}, "review_count": 16, "image_url": "https://s3-media3.fl.yelpcdn.com/bphoto/NpebKN2NTZTHeczEjFNx_g/o.jpg", "price": "$", "rating": 3.5, "name": "El Pitallito Mexican Restaurant", "url": "https://www.yelp.com/biz/el-pitallito-mexican-restaurant-new-york?adjust_creative=gBcvfFpabk3CnzmXKdYe3w&utm_campaign=yelp_api_v3&utm_medium=api_v3_business_search&utm_source=gBcvfFpabk3CnzmXKdYe3w"}, {"transactions": ["delivery", "pickup"], "distance": 5577.234396676, "phone": "+17189198561", "categories": [{"alias": "mexican", "title": "Mexican"}, {"alias": "spanish", "title": "Spanish"}], "id": "zefes-brooklyn", "display_phone": "(718) 919-8561", "is_closed": false, "location": {"address2": "", "country": "US", "display_address": ["1224 Myrtle Ave", "Brooklyn, NY 11221"], "address1": "1224 Myrtle Ave", "city": "Brooklyn", "zip_code": "11221", "address3": "", "state": "NY"}, "coordinates": {"longitude": -73.928978, "latitude": 40.69751}, "review_count": 38, "image_url": "https://s3-media1.fl.yelpcdn.com/bphoto/OqN45HS1Ch2livptlrCkpg/o.jpg", "price": "$", "rating": 3.0, "name": "Zefe's", "url": "https://www.yelp.com/biz/zefes-brooklyn?adjust_creative=gBcvfFpabk3CnzmXKdYe3w&utm_campaign=yelp_api_v3&utm_medium=api_v3_business_search&utm_source=gBcvfFpabk3CnzmXKdYe3w"}, {"transactions": ["delivery", "pickup"], "distance": 10970.266633763998, "phone": "+13478617065", "categories": [{"alias": "mexican", "title": "Mexican"}], "id": "el-patron-stapleton-4", "display_phone": "(347) 861-7065", "is_closed": false, "location": {"address2": "", "country": "US", "display_address": ["520 Bay St", "Stapleton, NY 10304"], "address1": "520 Bay St", "city": "Stapleton", "zip_code": "10304", "address3": "", "state": "NY"}, "coordinates": {"longitude": -74.0767305716872, "latitude": 40.6291321267293}, "review_count": 29, "image_url": "https://s3-media1.fl.yelpcdn.com/bphoto/17SXBxa65lBIwAMFkw1cmQ/o.jpg", "price": "$$", "rating": 3.5, "name": "El Patron", "url": "https://www.yelp.com/biz/el-patron-stapleton-4?adjust_creative=gBcvfFpabk3CnzmXKdYe3w&utm_campaign=yelp_api_v3&utm_medium=api_v3_business_search&utm_source=gBcvfFpabk3CnzmXKdYe3w"}, {"transactions": [], "distance": 1256.5437038799998, "phone": "+13477082483", "categories": [{"alias": "mexican", "title": "Mexican"}, {"alias": "foodtrucks", "title": "Food Trucks"}], "id": "taco-bite-food-truck-new-york", "display_phone": "(347) 708-2483", "is_closed": false, "location": {"address2": null, "country": "US", "display_address": ["New York, NY 10005"], "address1": null, "city": "New York", "zip_code": "10005", "address3": "", "state": "NY"}, "coordinates": {"longitude": -74.00889, "latitude": 40.70602}, "review_count": 39, "image_url": "https://s3-media4.fl.yelpcdn.com/bphoto/q3KDuDVN4oD7CiVYaF8zaA/o.jpg", "price": "$", "rating": 4.0, "name": "Taco Bite Food Truck", "url": "https://www.yelp.com/biz/taco-bite-food-truck-new-york?adjust_creative=gBcvfFpabk3CnzmXKdYe3w&utm_campaign=yelp_api_v3&utm_medium=api_v3_business_search&utm_source=gBcvfFpabk3CnzmXKdYe3w"}, {"transactions": ["delivery", "pickup"], "distance": 4000.7556710699996, "phone": "+12014333477", "categories": [{"alias": "mexican", "title": "Mexican"}], "id": "taqueria-viva-mexico-kitchen-cafe-jersey-city", "display_phone": "(201) 433-3477", "is_closed": false, "location": {"address2": "", "country": "US", "display_address": ["133 Morris St", "Jersey City, NJ 07302"], "address1": "133 Morris St", "city": "Jersey City", "zip_code": "07302", "address3": "", "state": "NJ"}, "coordinates": {"longitude": -74.040259, "latitude": 40.714411}, "review_count": 226, "image_url": "https://s3-media3.fl.yelpcdn.com/bphoto/zSmuTvbEgwbYLgLegz3DdA/o.jpg", "price": "$", "rating": 4.0, "name": "Taqueria Viva Mexico Kitchen Cafe", "url": "https://www.yelp.com/biz/taqueria-viva-mexico-kitchen-cafe-jersey-city?adjust_creative=gBcvfFpabk3CnzmXKdYe3w&utm_campaign=yelp_api_v3&utm_medium=api_v3_business_search&utm_source=gBcvfFpabk3CnzmXKdYe3w"}, {"transactions": [], "distance": 2408.19706392, "phone": "+12126140770", "categories": [{"alias": "mexican", "title": "Mexican"}], "id": "taco-bar-new-york-2", "display_phone": "(212) 614-0770", "is_closed": false, "location": {"address2": "", "country": "US", "display_address": ["358 Bowery", "New York, NY 10003"], "address1": "358 Bowery", "city": "New York", "zip_code": "10003", "address3": "", "state": "NY"}, "coordinates": {"longitude": -73.9918770865082, "latitude": 40.727023}, "review_count": 54, "image_url": "https://s3-media4.fl.yelpcdn.com/bphoto/r7tPBHafRCUdU7QRVBt3fg/o.jpg", "price": "$", "rating": 3.5, "name": "Taco Bar", "url": "https://www.yelp.com/biz/taco-bar-new-york-2?adjust_creative=gBcvfFpabk3CnzmXKdYe3w&utm_campaign=yelp_api_v3&utm_medium=api_v3_business_search&utm_source=gBcvfFpabk3CnzmXKdYe3w"}, {"transactions": ["delivery", "pickup"], "distance": 13629.88187358, "phone": "+17187933300", "categories": [{"alias": "mexican", "title": "Mexican"}, {"alias": "tex-mex", "title": "Tex-Mex"}], "id": "frescos-tortilleria-forest-hills", "display_phone": "(718) 793-3300", "is_closed": false, "location": {"address2": "", "country": "US", "display_address": ["116-32 Queens Blvd", "Forest Hills, NY 11375"], "address1": "116-32 Queens Blvd", "city": "Forest Hills", "zip_code": "11375", "address3": "", "state": "NY"}, "coordinates": {"longitude": -73.8334574, "latitude": 40.7156089}, "review_count": 38, "image_url": "https://s3-media2.fl.yelpcdn.com/bphoto/y_EVR6Y4MDJQSwbyMP9H6g/o.jpg", "price": "$", "rating": 3.0, "name": "Frescos Tortilleria", "url": "https://www.yelp.com/biz/frescos-tortilleria-forest-hills?adjust_creative=gBcvfFpabk3CnzmXKdYe3w&utm_campaign=yelp_api_v3&utm_medium=api_v3_business_search&utm_source=gBcvfFpabk3CnzmXKdYe3w"}, {"transactions": ["delivery", "pickup"], "distance": 6825.598790939999, "phone": "+17187868297", "categories": [{"alias": "mexican", "title": "Mexican"}, {"alias": "seafood", "title": "Seafood"}, {"alias": "tradamerican", "title": "American (Traditional)"}], "id": "momento-restaurant-long-island-city", "display_phone": "(718) 786-8297", "is_closed": false, "location": {"address2": "", "country": "US", "display_address": ["25-13 Queens Plz N", "Long Island City, NY 11101"], "address1": "25-13 Queens Plz N", "city": "Long Island City", "zip_code": "11101", "address3": "", "state": "NY"}, "coordinates": {"longitude": -73.9399615, "latitude": 40.7509952}, "review_count": 32, "image_url": "https://s3-media4.fl.yelpcdn.com/bphoto/_MkBZb2QIS3oENa_iNmw1A/o.jpg", "price": "$", "rating": 2.5, "name": "Momento Restaurant", "url": "https://www.yelp.com/biz/momento-restaurant-long-island-city?adjust_creative=gBcvfFpabk3CnzmXKdYe3w&utm_campaign=yelp_api_v3&utm_medium=api_v3_business_search&utm_source=gBcvfFpabk3CnzmXKdYe3w"}, {"transactions": [], "distance": 5176.334767021999, "phone": "", "categories": [{"alias": "mexican", "title": "Mexican"}, {"alias": "foodstands", "title": "Food Stands"}], "id": "tamale-lady-new-york-2", "display_phone": "", "is_closed": false, "location": {"address2": "", "country": "US", "display_address": ["37 E 39th St", "New York, NY 10016"], "address1": "37 E 39th St", "city": "New York", "zip_code": "10016", "address3": "", "state": "NY"}, "coordinates": {"longitude": -73.9801865, "latitude": 40.750843}, "review_count": 2, "image_url": "https://s3-media4.fl.yelpcdn.com/bphoto/HFHy2X5oQQgfZHcuU331GQ/o.jpg", "price": "$", "rating": 4.5, "name": "Tamale Lady", "url": "https://www.yelp.com/biz/tamale-lady-new-york-2?adjust_creative=gBcvfFpabk3CnzmXKdYe3w&utm_campaign=yelp_api_v3&utm_medium=api_v3_business_search&utm_source=gBcvfFpabk3CnzmXKdYe3w"}, {"transactions": ["delivery", "pickup"], "distance": 9946.012490539999, "phone": "+17186069977", "categories": [{"alias": "mexican", "title": "Mexican"}, {"alias": "breakfast_brunch", "title": "Breakfast & Brunch"}, {"alias": "sandwiches", "title": "Sandwiches"}], "id": "josefinas-restaurant-elmhurst", "display_phone": "(718) 606-9977", "is_closed": false, "location": {"address2": "", "country": "US", "display_address": ["8440 Grand Ave", "Elmhurst, NY 11313"], "address1": "8440 Grand Ave", "city": "Elmhurst", "zip_code": "11313", "address3": "", "state": "NY"}, "coordinates": {"longitude": -73.88252, "latitude": 40.73425}, "review_count": 4, "image_url": "https://s3-media1.fl.yelpcdn.com/bphoto/7oEfQNh7InYTYztttnKJOA/o.jpg", "price": "$", "rating": 4.5, "name": "Josefina's Restaurant", "url": "https://www.yelp.com/biz/josefinas-restaurant-elmhurst?adjust_creative=gBcvfFpabk3CnzmXKdYe3w&utm_campaign=yelp_api_v3&utm_medium=api_v3_business_search&utm_source=gBcvfFpabk3CnzmXKdYe3w"}, {"transactions": ["delivery", "pickup"], "distance": 4354.27295151, "phone": "+17184999881", "categories": [{"alias": "mexican", "title": "Mexican"}], "id": "happy-fresh-tortillas-grill-brooklyn", "display_phone": "(718) 499-9881", "is_closed": false, "location": {"address2": "", "country": "US", "display_address": ["299 7th Ave", "Brooklyn, NY 11215"], "address1": "299 7th Ave", "city": "Brooklyn", "zip_code": "11215", "address3": "", "state": "NY"}, "coordinates": {"longitude": -73.98059, "latitude": 40.667659}, "review_count": 54, "image_url": "https://s3-media4.fl.yelpcdn.com/bphoto/0jFwSRbVWptBZi0OUh4Z1g/o.jpg", "price": "$", "rating": 3.5, "name": "Happy Fresh Tortillas Grill", "url": "https://www.yelp.com/biz/happy-fresh-tortillas-grill-brooklyn?adjust_creative=gBcvfFpabk3CnzmXKdYe3w&utm_campaign=yelp_api_v3&utm_medium=api_v3_business_search&utm_source=gBcvfFpabk3CnzmXKdYe3w"}, {"transactions": [], "distance": 8104.884561161999, "phone": "+16466784200", "categories": [{"alias": "bars", "title": "Bars"}, {"alias": "mexican", "title": "Mexican"}], "id": "ziggys-new-york", "display_phone": "(646) 678-4200", "is_closed": false, "location": {"address2": "", "country": "US", "display_address": ["1485 2nd Ave", "New York, NY 10075"], "address1": "1485 2nd Ave", "city": "New York", "zip_code": "10075", "address3": null, "state": "NY"}, "coordinates": {"longitude": -73.95603, "latitude": 40.77231}, "review_count": 67, "image_url": "https://s3-media2.fl.yelpcdn.com/bphoto/YErhBvxPyxB-E_d9mINF6g/o.jpg", "price": "$$", "rating": 3.0, "name": "Ziggy's", "url": "https://www.yelp.com/biz/ziggys-new-york?adjust_creative=gBcvfFpabk3CnzmXKdYe3w&utm_campaign=yelp_api_v3&utm_medium=api_v3_business_search&utm_source=gBcvfFpabk3CnzmXKdYe3w"}, {"transactions": [], "distance": 11129.190729038, "phone": "+12122226969", "categories": [{"alias": "mexican", "title": "Mexican"}, {"alias": "seafood", "title": "Seafood"}], "id": "el-encanto-de-lola-new-york-new-york", "display_phone": "(212) 222-6969", "is_closed": false, "location": {"address2": null, "country": "US", "display_address": ["57 Malcolm X Blvd", "New York, NY 10026"], "address1": "57 Malcolm X Blvd", "city": "New York", "zip_code": "10026", "address3": "", "state": "NY"}, "coordinates": {"longitude": -73.951522, "latitude": 40.80014}, "review_count": 7, "image_url": "https://s3-media2.fl.yelpcdn.com/bphoto/9R3mYp5dsNOMxbUw0RnPTA/o.jpg", "price": "$$", "rating": 4.0, "name": "El Encanto de Lola New York", "url": "https://www.yelp.com/biz/el-encanto-de-lola-new-york-new-york?adjust_creative=gBcvfFpabk3CnzmXKdYe3w&utm_campaign=yelp_api_v3&utm_medium=api_v3_business_search&utm_source=gBcvfFpabk3CnzmXKdYe3w"}, {"transactions": [], "distance": 3890.1896678519993, "phone": "", "categories": [{"alias": "tex-mex", "title": "Tex-Mex"}, {"alias": "mexican", "title": "Mexican"}], "id": "el-carrito-rojo-new-york", "display_phone": "", "is_closed": false, "location": {"address2": "", "country": "US", "display_address": ["19TH St And 6th Ave", "New York, NY 10011"], "address1": "19TH St And 6th Ave", "city": "New York", "zip_code": "10011", "address3": "", "state": "NY"}, "coordinates": {"longitude": -73.99459, "latitude": 40.74044}, "review_count": 17, "image_url": "https://s3-media3.fl.yelpcdn.com/bphoto/TqvJdHbnq1sPLeCLVZf2zw/o.jpg", "price": "$", "rating": 3.5, "name": "El Carrito Rojo", "url": "https://www.yelp.com/biz/el-carrito-rojo-new-york?adjust_creative=gBcvfFpabk3CnzmXKdYe3w&utm_campaign=yelp_api_v3&utm_medium=api_v3_business_search&utm_source=gBcvfFpabk3CnzmXKdYe3w"}, {"transactions": [], "distance": 6991.717118816, "phone": "+12012221998", "categories": [{"alias": "mexican", "title": "Mexican"}], "id": "mi-mariachi-taqueria-jersey-city-2", "display_phone": "(201) 222-1998", "is_closed": false, "location": {"address2": "", "country": "US", "display_address": ["213 Sip Ave", "Jersey City, NJ 07306"], "address1": "213 Sip Ave", "city": "Jersey City", "zip_code": "07306", "address3": "", "state": "NJ"}, "coordinates": {"longitude": -74.06974, "latitude": 40.73156}, "review_count": 160, "image_url": "https://s3-media2.fl.yelpcdn.com/bphoto/X6CShBsfqc6XaA6VliAcmg/o.jpg", "price": "$", "rating": 4.5, "name": "Mi Mariachi Taqueria", "url": "https://www.yelp.com/biz/mi-mariachi-taqueria-jersey-city-2?adjust_creative=gBcvfFpabk3CnzmXKdYe3w&utm_campaign=yelp_api_v3&utm_medium=api_v3_business_search&utm_source=gBcvfFpabk3CnzmXKdYe3w"}, {"transactions": [], "distance": 1134.457723074, "phone": "", "categories": [{"alias": "foodtrucks", "title": "Food Trucks"}, {"alias": "mexican", "title": "Mexican"}], "id": "tacos-morelos-new-york-4", "display_phone": "", "is_closed": false, "location": {"address2": "", "country": "US", "display_address": ["75 Wall St", "New York, NY 10005"], "address1": "75 Wall St", "city": "New York", "zip_code": "10005", "address3": "", "state": "NY"}, "coordinates": {"longitude": -74.007755112878, "latitude": 40.7053992525685}, "review_count": 1, "image_url": "https://s3-media3.fl.yelpcdn.com/bphoto/qd194t_hGsq8lKbIMsTjQA/o.jpg", "rating": 5.0, "name": "Tacos Morelos", "url": "https://www.yelp.com/biz/tacos-morelos-new-york-4?adjust_creative=gBcvfFpabk3CnzmXKdYe3w&utm_campaign=yelp_api_v3&utm_medium=api_v3_business_search&utm_source=gBcvfFpabk3CnzmXKdYe3w"}, {"transactions": ["delivery", "pickup"], "distance": 4253.119817018, "phone": "+12126798866", "categories": [{"alias": "mexican", "title": "Mexican"}], "id": "new-taco-express-new-york-3", "display_phone": "(212) 679-8866", "is_closed": false, "location": {"address2": "", "country": "US", "display_address": ["130 E 28th St", "New York, NY 10016"], "address1": "130 E 28th St", "city": "New York", "zip_code": "10016", "address3": "", "state": "NY"}, "coordinates": {"longitude": -73.982647061348, "latitude": 40.7426771521568}, "review_count": 44, "image_url": "https://s3-media2.fl.yelpcdn.com/bphoto/CWblXRiHItJplnyWY4v4dg/o.jpg", "price": "$", "rating": 3.0, "name": "New Taco Express", "url": "https://www.yelp.com/biz/new-taco-express-new-york-3?adjust_creative=gBcvfFpabk3CnzmXKdYe3w&utm_campaign=yelp_api_v3&utm_medium=api_v3_business_search&utm_source=gBcvfFpabk3CnzmXKdYe3w"}, {"transactions": [], "distance": 5583.780226192, "phone": "+19178939600", "categories": [{"alias": "tex-mex", "title": "Tex-Mex"}, {"alias": "mexican", "title": "Mexican"}], "id": "156-tex-mex-brooklyn", "display_phone": "(917) 893-9600", "is_closed": false, "location": {"address2": "", "country": "US", "display_address": ["156 Knickerbocker Ave", "Brooklyn, NY 11237"], "address1": "156 Knickerbocker Ave", "city": "Brooklyn", "zip_code": "11237", "address3": "", "state": "NY"}, "coordinates": {"longitude": -73.928077, "latitude": 40.704044}, "review_count": 5, "image_url": "https://s3-media3.fl.yelpcdn.com/bphoto/bLtnQhxwKl2raSGyRLsl0w/o.jpg", "rating": 4.0, "name": "156 Tex Mex", "url": "https://www.yelp.com/biz/156-tex-mex-brooklyn?adjust_creative=gBcvfFpabk3CnzmXKdYe3w&utm_campaign=yelp_api_v3&utm_medium=api_v3_business_search&utm_source=gBcvfFpabk3CnzmXKdYe3w"}, {"transactions": [], "distance": 9026.571281902, "phone": "+12127227272", "categories": [{"alias": "mexican", "title": "Mexican"}], "id": "oaxaca-taqueria-new-york-12", "display_phone": "(212) 722-7272", "is_closed": false, "location": {"address2": "", "country": "US", "display_address": ["1709 2nd Ave", "New York, NY 10128"], "address1": "1709 2nd Ave", "city": "New York", "zip_code": "10128", "address3": null, "state": "NY"}, "coordinates": {"longitude": -73.95081, "latitude": 40.77964}, "review_count": 28, "image_url": "https://s3-media4.fl.yelpcdn.com/bphoto/YWM8uOcG6MBaA4uzIPiiPg/o.jpg", "price": "$", "rating": 3.0, "name": "Oaxaca Taqueria", "url": "https://www.yelp.com/biz/oaxaca-taqueria-new-york-12?adjust_creative=gBcvfFpabk3CnzmXKdYe3w&utm_campaign=yelp_api_v3&utm_medium=api_v3_business_search&utm_source=gBcvfFpabk3CnzmXKdYe3w"}, {"transactions": ["delivery", "pickup"], "distance": 4549.2198696079995, "phone": "+12124630535", "categories": [{"alias": "mexican", "title": "Mexican"}], "id": "tequila-chitos-mexican-grill-new-york", "display_phone": "(212) 463-0535", "is_closed": false, "location": {"address2": "", "country": "US", "display_address": ["358 W 23rd St", "New York, NY 10011"], "address1": "358 W 23rd St", "city": "New York", "zip_code": "10011", "address3": "", "state": "NY"}, "coordinates": {"longitude": -74.0009002685547, "latitude": 40.7460136413574}, "review_count": 159, "image_url": "https://s3-media4.fl.yelpcdn.com/bphoto/qYAYVWUw3zZm-vmgzbMNEw/o.jpg", "price": "$$", "rating": 2.5, "name": "Tequila Chito's Mexican Grill", "url": "https://www.yelp.com/biz/tequila-chitos-mexican-grill-new-york?adjust_creative=gBcvfFpabk3CnzmXKdYe3w&utm_campaign=yelp_api_v3&utm_medium=api_v3_business_search&utm_source=gBcvfFpabk3CnzmXKdYe3w"}, {"transactions": ["delivery", "pickup"], "distance": 10565.812776719999, "phone": "+17182787666", "categories": [{"alias": "tex-mex", "title": "Tex-Mex"}, {"alias": "mexican", "title": "Mexican"}], "id": "fresca-tortilla-astoria", "display_phone": "(718) 278-7666", "is_closed": false, "location": {"address2": "", "country": "US", "display_address": ["3115 Ditmars Blvd", "Astoria, NY 11105"], "address1": "3115 Ditmars Blvd", "city": "Astoria", "zip_code": "11105", "address3": "", "state": "NY"}, "coordinates": {"longitude": -73.9099826840614, "latitude": 40.7757870486376}, "review_count": 73, "image_url": "https://s3-media4.fl.yelpcdn.com/bphoto/Qv1C693yMhVDQAFk06rTnQ/o.jpg", "price": "$", "rating": 3.0, "name": "Fresca Tortilla", "url": "https://www.yelp.com/biz/fresca-tortilla-astoria?adjust_creative=gBcvfFpabk3CnzmXKdYe3w&utm_campaign=yelp_api_v3&utm_medium=api_v3_business_search&utm_source=gBcvfFpabk3CnzmXKdYe3w"}, {"transactions": ["delivery", "pickup"], "distance": 11273.918031501998, "phone": "+12128288635", "categories": [{"alias": "mexican", "title": "Mexican"}, {"alias": "latin", "title": "Latin American"}, {"alias": "cuban", "title": "Cuban"}], "id": "mojitos-new-york", "display_phone": "(212) 828-8635", "is_closed": false, "location": {"address2": "", "country": "US", "display_address": ["227 E 116th St", "New York, NY 10029"], "address1": "227 E 116th St", "city": "New York", "zip_code": "10029", "address3": "", "state": "NY"}, "coordinates": {"longitude": -73.938705, "latitude": 40.79771}, "review_count": 75, "image_url": "https://s3-media2.fl.yelpcdn.com/bphoto/VPWAPt1fabNiB9YH7UOYJw/o.jpg", "price": "$$", "rating": 3.0, "name": "Mojito's", "url": "https://www.yelp.com/biz/mojitos-new-york?adjust_creative=gBcvfFpabk3CnzmXKdYe3w&utm_campaign=yelp_api_v3&utm_medium=api_v3_business_search&utm_source=gBcvfFpabk3CnzmXKdYe3w"}, {"transactions": ["delivery", "pickup"], "distance": 18920.4229709, "phone": "+17182204888", "categories": [{"alias": "mexican", "title": "Mexican"}, {"alias": "breakfast_brunch", "title": "Breakfast & Brunch"}, {"alias": "diners", "title": "Diners"}], "id": "rjc-familys-cafe-bronx-2", "display_phone": "(718) 220-4888", "is_closed": false, "location": {"address2": "", "country": "US", "display_address": ["2378 Jerome Ave", "Bronx, NY 10468"], "address1": "2378 Jerome Ave", "city": "Bronx", "zip_code": "10468", "address3": "", "state": "NY"}, "coordinates": {"longitude": -73.902116, "latitude": 40.860625}, "review_count": 26, "image_url": "https://s3-media3.fl.yelpcdn.com/bphoto/AwovukputFNSB4JMnh-VaQ/o.jpg", "price": "$", "rating": 4.5, "name": "RJC Family's Cafe", "url": "https://www.yelp.com/biz/rjc-familys-cafe-bronx-2?adjust_creative=gBcvfFpabk3CnzmXKdYe3w&utm_campaign=yelp_api_v3&utm_medium=api_v3_business_search&utm_source=gBcvfFpabk3CnzmXKdYe3w"}, {"transactions": [], "distance": 4523.576806982, "phone": "", "categories": [{"alias": "streetvendors", "title": "Street Vendors"}, {"alias": "mexican", "title": "Mexican"}], "id": "tacos-juquilita-new-york", "display_phone": "", "is_closed": false, "location": {"address2": "", "country": "US", "display_address": ["28TH Street And 6th Ave", "New York, NY 10001"], "address1": "28TH Street And 6th Ave", "city": "New York", "zip_code": "10001", "address3": "", "state": "NY"}, "coordinates": {"longitude": -73.9905200153589, "latitude": 40.7460399717093}, "review_count": 5, "image_url": "https://s3-media3.fl.yelpcdn.com/bphoto/5_9sMb6vQMgMNx25x1KClg/o.jpg", "price": "$", "rating": 4.5, "name": "Tacos Juquilita", "url": "https://www.yelp.com/biz/tacos-juquilita-new-york?adjust_creative=gBcvfFpabk3CnzmXKdYe3w&utm_campaign=yelp_api_v3&utm_medium=api_v3_business_search&utm_source=gBcvfFpabk3CnzmXKdYe3w"}, {"transactions": ["delivery", "pickup"], "distance": 11588.227605258, "phone": "+17184403307", "categories": [{"alias": "mexican", "title": "Mexican"}], "id": "homemade-taqueria-corona-corona", "display_phone": "(718) 440-3307", "is_closed": false, "location": {"address2": null, "country": "US", "display_address": ["40-10 Junction Blvd", "Corona, NY 11368"], "address1": "40-10 Junction Blvd", "city": "Corona", "zip_code": "11368", "address3": null, "state": "NY"}, "coordinates": {"longitude": -73.8692231476307, "latitude": 40.7487763969621}, "review_count": 10, "image_url": "https://s3-media3.fl.yelpcdn.com/bphoto/A7JHK15kVJsQvTaz9SYEEQ/o.jpg", "price": "$", "rating": 3.5, "name": "Homemade Taqueria - Corona", "url": "https://www.yelp.com/biz/homemade-taqueria-corona-corona?adjust_creative=gBcvfFpabk3CnzmXKdYe3w&utm_campaign=yelp_api_v3&utm_medium=api_v3_business_search&utm_source=gBcvfFpabk3CnzmXKdYe3w"}, {"transactions": [], "distance": 9888.65722228, "phone": "", "categories": [{"alias": "mexican", "title": "Mexican"}, {"alias": "foodstands", "title": "Food Stands"}], "id": "sabor-mexicano-jackson-heights", "display_phone": "", "is_closed": false, "location": {"address2": "", "country": "US", "display_address": ["Roosevelt Ave & 75th St", "Jackson Heights, NY 11372"], "address1": "Roosevelt Ave & 75th St", "city": "Jackson Heights", "zip_code": "11372", "address3": "", "state": "NY"}, "coordinates": {"longitude": -73.89049248884, "latitude": 40.7469530536088}, "review_count": 19, "image_url": "https://s3-media1.fl.yelpcdn.com/bphoto/lawK7zQaWxictjIPee2PgA/o.jpg", "price": "$", "rating": 4.0, "name": "Sabor Mexicano", "url": "https://www.yelp.com/biz/sabor-mexicano-jackson-heights?adjust_creative=gBcvfFpabk3CnzmXKdYe3w&utm_campaign=yelp_api_v3&utm_medium=api_v3_business_search&utm_source=gBcvfFpabk3CnzmXKdYe3w"}, {"transactions": ["delivery", "pickup"], "distance": 4772.024141237999, "phone": "+19179091238", "categories": [{"alias": "bakeries", "title": "Bakeries"}, {"alias": "cafes", "title": "Cafes"}, {"alias": "mexican", "title": "Mexican"}], "id": "lopez-bakery-and-cafe-brooklyn", "display_phone": "(917) 909-1238", "is_closed": false, "location": {"address2": "", "country": "US", "display_address": ["647 5th Ave", "Brooklyn, NY 11215"], "address1": "647 5th Ave", "city": "Brooklyn", "zip_code": "11215", "address3": "", "state": "NY"}, "coordinates": {"longitude": -73.992013807233, "latitude": 40.6625622524797}, "review_count": 161, "image_url": "https://s3-media3.fl.yelpcdn.com/bphoto/bcIDLylWzTzXwPdoJgBJHg/o.jpg", "price": "$", "rating": 4.0, "name": "Lopez Bakery & cafe", "url": "https://www.yelp.com/biz/lopez-bakery-and-cafe-brooklyn?adjust_creative=gBcvfFpabk3CnzmXKdYe3w&utm_campaign=yelp_api_v3&utm_medium=api_v3_business_search&utm_source=gBcvfFpabk3CnzmXKdYe3w"}, {"transactions": [], "distance": 6797.816754519999, "phone": "", "categories": [{"alias": "mexican", "title": "Mexican"}], "id": "el-tamal-brooklyn", "display_phone": "", "is_closed": false, "location": {"address2": "", "country": "US", "display_address": ["85 E 18th St", "Brooklyn, NY 11226"], "address1": "85 E 18th St", "city": "Brooklyn", "zip_code": "11226", "address3": "", "state": "NY"}, "coordinates": {"longitude": -73.9629737, "latitude": 40.6491141}, "review_count": 3, "image_url": "https://s3-media2.fl.yelpcdn.com/bphoto/hKnFj72-KWAwoucGIvDQWQ/o.jpg", "rating": 4.5, "name": "El Tamal", "url": "https://www.yelp.com/biz/el-tamal-brooklyn?adjust_creative=gBcvfFpabk3CnzmXKdYe3w&utm_campaign=yelp_api_v3&utm_medium=api_v3_business_search&utm_source=gBcvfFpabk3CnzmXKdYe3w"}, {"transactions": [], "distance": 8827.109199499999, "phone": "+12128602266", "categories": [{"alias": "mexican", "title": "Mexican"}], "id": "taco-today-new-york", "display_phone": "(212) 860-2266", "is_closed": false, "location": {"address2": "", "country": "US", "display_address": ["355 E 86th St", "New York, NY 10028"], "address1": "355 E 86th St", "city": "New York", "zip_code": "10028", "address3": "", "state": "NY"}, "coordinates": {"longitude": -73.9503708, "latitude": 40.7774467}, "review_count": 61, "image_url": "https://s3-media2.fl.yelpcdn.com/bphoto/gXKP40j-92_ZMIg7O12OBA/o.jpg", "price": "$", "rating": 3.0, "name": "Taco Today", "url": "https://www.yelp.com/biz/taco-today-new-york?adjust_creative=gBcvfFpabk3CnzmXKdYe3w&utm_campaign=yelp_api_v3&utm_medium=api_v3_business_search&utm_source=gBcvfFpabk3CnzmXKdYe3w"}, {"transactions": [], "distance": 6251.788292071999, "phone": "+17184186491", "categories": [{"alias": "mexican", "title": "Mexican"}], "id": "aztecaville-restaurant-brooklyn", "display_phone": "(718) 418-6491", "is_closed": false, "location": {"address2": "", "country": "US", "display_address": ["91 Wyckoff", "Brooklyn, NY 11237"], "address1": "91 Wyckoff", "city": "Brooklyn", "zip_code": "11237", "address3": "", "state": "NY"}, "coordinates": {"longitude": -73.92012, "latitude": 40.70516}, "review_count": 1, "image_url": "https://s3-media1.fl.yelpcdn.com/bphoto/J0i9Vg-BK_QivaNkD1AV0Q/o.jpg", "rating": 5.0, "name": "Aztecaville Restaurant", "url": "https://www.yelp.com/biz/aztecaville-restaurant-brooklyn?adjust_creative=gBcvfFpabk3CnzmXKdYe3w&utm_campaign=yelp_api_v3&utm_medium=api_v3_business_search&utm_source=gBcvfFpabk3CnzmXKdYe3w"}, {"transactions": [], "distance": 7518.50495596, "phone": "+17184927492", "categories": [{"alias": "mexican", "title": "Mexican"}], "id": "new-mex-deli-and-grocery-brooklyn", "display_phone": "(718) 492-7492", "is_closed": false, "location": {"address2": "", "country": "US", "display_address": ["5914 5th Ave", "Brooklyn, NY 11220"], "address1": "5914 5th Ave", "city": "Brooklyn", "zip_code": "11220", "address3": "", "state": "NY"}, "coordinates": {"longitude": -74.0161285400391, "latitude": 40.6399078369141}, "review_count": 5, "image_url": "https://s3-media4.fl.yelpcdn.com/bphoto/Q-M6qlgPcuCx3Qiqw5SjBw/o.jpg", "price": "$", "rating": 4.0, "name": "New Mex Deli & Grocery", "url": "https://www.yelp.com/biz/new-mex-deli-and-grocery-brooklyn?adjust_creative=gBcvfFpabk3CnzmXKdYe3w&utm_campaign=yelp_api_v3&utm_medium=api_v3_business_search&utm_source=gBcvfFpabk3CnzmXKdYe3w"}, {"transactions": [], "distance": 18163.3250613, "phone": "+12127402496", "categories": [{"alias": "mexican", "title": "Mexican"}], "id": "taquer\u00eda-los-jarritos-new-york-3", "display_phone": "(212) 740-2496", "is_closed": false, "location": {"address2": "", "country": "US", "display_address": ["121A Nagle Ave", "New York, NY 10040"], "address1": "121A Nagle Ave", "city": "New York", "zip_code": "10040", "address3": "", "state": "NY"}, "coordinates": {"longitude": -73.92697, "latitude": 40.86061}, "review_count": 9, "image_url": "https://s3-media2.fl.yelpcdn.com/bphoto/7sRo0LukJjOol36hw1A4iw/o.jpg", "price": "$", "rating": 4.0, "name": "Taquer\u00eda Los Jarritos", "url": "https://www.yelp.com/biz/taquer%C3%ADa-los-jarritos-new-york-3?adjust_creative=gBcvfFpabk3CnzmXKdYe3w&utm_campaign=yelp_api_v3&utm_medium=api_v3_business_search&utm_source=gBcvfFpabk3CnzmXKdYe3w"}, {"transactions": [], "distance": 3036.650127544, "phone": "+12122438517", "categories": [{"alias": "mexican", "title": "Mexican"}, {"alias": "bars", "title": "Bars"}, {"alias": "tex-mex", "title": "Tex-Mex"}], "id": "caliente-cab-co-new-york", "display_phone": "(212) 243-8517", "is_closed": false, "location": {"address2": "", "country": "US", "display_address": ["61 7th Ave S", "New York, NY 10014"], "address1": "61 7th Ave S", "city": "New York", "zip_code": "10014", "address3": "", "state": "NY"}, "coordinates": {"longitude": -74.00357, "latitude": 40.7319}, "review_count": 549, "image_url": "https://s3-media3.fl.yelpcdn.com/bphoto/NtAby8YApBuIGQsEyTOYpg/o.jpg", "price": "$$", "rating": 2.5, "name": "Caliente Cab Co", "url": "https://www.yelp.com/biz/caliente-cab-co-new-york?adjust_creative=gBcvfFpabk3CnzmXKdYe3w&utm_campaign=yelp_api_v3&utm_medium=api_v3_business_search&utm_source=gBcvfFpabk3CnzmXKdYe3w"}, {"transactions": ["delivery", "pickup"], "distance": 11129.4229568, "phone": "+17188963457", "categories": [{"alias": "mexican", "title": "Mexican"}], "id": "fresh-soft-tacos-rego-park", "display_phone": "(718) 896-3457", "is_closed": false, "location": {"address2": "", "country": "US", "display_address": ["9403A 63rd Dr", "Rego Park, NY 11374"], "address1": "9403A 63rd Dr", "city": "Rego Park", "zip_code": "11374", "address3": "", "state": "NY"}, "coordinates": {"longitude": -73.865207, "latitude": 40.726527}, "review_count": 41, "image_url": "https://s3-media1.fl.yelpcdn.com/bphoto/cEzBm22cG-c2BAIiAsQkoQ/o.jpg", "price": "$", "rating": 3.0, "name": "Fresh Soft Tacos", "url": "https://www.yelp.com/biz/fresh-soft-tacos-rego-park?adjust_creative=gBcvfFpabk3CnzmXKdYe3w&utm_campaign=yelp_api_v3&utm_medium=api_v3_business_search&utm_source=gBcvfFpabk3CnzmXKdYe3w"}]}