{"region": {"center": {"longitude": -73.99429321289062, "latitude": 40.70544486444615}}, "total": 1496, "businesses": [{"transactions": [], "distance": 10490.47152462, "phone": "+17182350205", "categories": [{"alias": "latin", "title": "Latin American"}, {"alias": "mexican", "title": "Mexican"}], "id": "azteca-maya-brooklyn", "display_phone": "(718) 235-0205", "is_closed": false, "location": {"address2": "", "country": "US", "display_address": ["430 Ridgewood Ave", "Brooklyn, NY 11208"], "address1": "430 Ridgewood Ave", "city": "Brooklyn", "zip_code": "11208", "address3": "", "state": "NY"}, "coordinates": {"longitude": -73.8727523634613, "latitude": 40.6852359647161}, "review_count": 6, "image_url": "https://s3-media3.fl.yelpcdn.com/bphoto/HiGRqqdLUGtucQNl43oxvw/o.jpg", "price": "$", "rating": 4.0, "name": "Azteca Maya", "url": "https://www.yelp.com/biz/azteca-maya-brooklyn?adjust_creative=gBcvfFpabk3CnzmXKdYe3w&utm_campaign=yelp_api_v3&utm_medium=api_v3_business_search&utm_source=gBcvfFpabk3CnzmXKdYe3w"}, {"transactions": ["delivery", "pickup"], "distance": 11220.52930354, "phone": "+17188991200", "categories": [{"alias": "mexican", "title": "Mexican"}, {"alias": "bars", "title": "Bars"}, {"alias": "spanish", "title": "Spanish"}], "id": "molcajete-mexican-restaurant-jackson-heights", "display_phone": "(718) 899-1200", "is_closed": false, "location": {"address2": null, "country": "US", "display_address": ["92-13 Roosevelt Ave", "Jackson Heights, NY 11372"], "address1": "92-13 Roosevelt Ave", "city": "Jackson Heights", "zip_code": "11372", "address3": "", "state": "NY"}, "coordinates": {"longitude": -73.874088, "latitude": 40.7488482}, "review_count": 8, "image_url": "https://s3-media3.fl.yelpcdn.com/bphoto/WEE-idYFdu6ZP_kKt7DiVw/o.jpg", "price": "$$", "rating": 4.5, "name": "Molcajete Mexican Restaurant", "url": "https://www.yelp.com/biz/molcajete-mexican-restaurant-jackson-heights?adjust_creative=gBcvfFpabk3CnzmXKdYe3w&utm_campaign=yelp_api_v3&utm_medium=api_v3_business_search&utm_source=gBcvfFpabk3CnzmXKdYe3w"}, {"transactions": ["delivery", "pickup"], "distance": 10836.73390034, "phone": "+17188374966", "categories": [{"alias": "mexican", "title": "Mexican"}], "id": "new-fresh-tortillas-taco-brooklyn", "display_phone": "(718) 837-4966", "is_closed": false, "location": {"address2": "", "country": "US", "display_address": ["1708 86th St", "Brooklyn, NY 11214"], "address1": "1708 86th St", "city": "Brooklyn", "zip_code": "11214", "address3": "", "state": "NY"}, "coordinates": {"longitude": -74.0048294067383, "latitude": 40.6082344055176}, "review_count": 16, "image_url": "https://s3-media2.fl.yelpcdn.com/bphoto/-EuoyipdFMEdHLPtaBxuXA/o.jpg", "price": "$", "rating": 3.0, "name": "New Fresh Tortillas Taco", "url": "https://www.yelp.com/biz/new-fresh-tortillas-taco-brooklyn?adjust_creative=gBcvfFpabk3CnzmXKdYe3w&utm_campaign=yelp_api_v3&utm_medium=api_v3_business_search&utm_source=gBcvfFpabk3CnzmXKdYe3w"}, {"transactions": [], "distance": 16985.83374756, "phone": "+12127402626", "categories": [{"alias": "mexican", "title": "Mexican"}], "id": "mi-ranchito-new-york", "display_phone": "(212) 740-2626", "is_closed": false, "location": {"address2": "", "country": "US", "display_address": ["1468 St Nicholas Ave", "New York, NY 10033"], "address1": "1468 St Nicholas Ave", "city": "New York", "zip_code": "10033", "address3": "", "state": "NY"}, "coordinates": {"longitude": -73.9325881480936, "latitude": 40.850878189059}, "review_count": 27, "image_url": "https://s3-media3.fl.yelpcdn.com/bphoto/FaClH7LxnRY1w7b5dyf1qg/o.jpg", "price": "$", "rating": 3.5, "name": "Mi Ranchito", "url": "https://www.yelp.com/biz/mi-ranchito-new-york?adjust_creative=gBcvfFpabk3CnzmXKdYe3w&utm_campaign=yelp_api_v3&utm_medium=api_v3_business_search&utm_source=gBcvfFpabk3CnzmXKdYe3w"}, {"transactions": ["delivery", "pickup"], "distance": 12803.56946926, "phone": "+17185051533", "categories": [{"alias": "mexican", "title": "Mexican"}], "id": "los-tres-potrillos-corona-3", "display_phone": "(718) 505-1533", "is_closed": false, "location": {"address2": "", "country": "US", "display_address": ["111-16 Roosevelt Ave", "Corona, NY 11368"], "address1": "111-16 Roosevelt Ave", "city": "Corona", "zip_code": "11368", "address3": "", "state": "NY"}, "coordinates": {"longitude": -73.85508, "latitude": 40.75153}, "review_count": 38, "image_url": "https://s3-media3.fl.yelpcdn.com/bphoto/HCqBLY_mNjx8xd-r_MWk_A/o.jpg", "price": "$$", "rating": 3.0, "name": "Los Tres Potrillos", "url": "https://www.yelp.com/biz/los-tres-potrillos-corona-3?adjust_creative=gBcvfFpabk3CnzmXKdYe3w&utm_campaign=yelp_api_v3&utm_medium=api_v3_business_search&utm_source=gBcvfFpabk3CnzmXKdYe3w"}, {"transactions": [], "distance": 17887.1945041, "phone": "+17189796666", "categories": [{"alias": "mexican", "title": "Mexican"}], "id": "fresh-tortillas-and-taco-staten-island-2", "display_phone": "(718) 979-6666", "is_closed": false, "location": {"address2": "", "country": "US", "display_address": ["304 New Dorp Ln", "Staten Island, NY 10306"], "address1": "304 New Dorp Ln", "city": "Staten Island", "zip_code": "10306", "address3": "", "state": "NY"}, "coordinates": {"longitude": -74.1123855113983, "latitude": 40.5718311667442}, "review_count": 49, "image_url": "https://s3-media2.fl.yelpcdn.com/bphoto/HIkGUXElr8tjta2zciuwIQ/o.jpg", "price": "$", "rating": 3.5, "name": "Fresh Tortillas & Taco", "url": "https://www.yelp.com/biz/fresh-tortillas-and-taco-staten-island-2?adjust_creative=gBcvfFpabk3CnzmXKdYe3w&utm_campaign=yelp_api_v3&utm_medium=api_v3_business_search&utm_source=gBcvfFpabk3CnzmXKdYe3w"}, {"transactions": [], "distance": 11319.320892516, "phone": "+12128313104", "categories": [{"alias": "mexican", "title": "Mexican"}], "id": "el-paso-taco-truck-new-york", "display_phone": "(212) 831-3104", "is_closed": false, "location": {"address2": "", "country": "US", "display_address": ["175-9 E 116th St", "New York, NY 10029"], "address1": "175-9 E 116th St", "city": "New York", "zip_code": "10029", "address3": "", "state": "NY"}, "coordinates": {"longitude": -73.94046, "latitude": 40.79845}, "review_count": 9, "image_url": "https://s3-media3.fl.yelpcdn.com/bphoto/jUrAVU9LJYHSHQ4hM7PRJg/o.jpg", "price": "$", "rating": 4.5, "name": "El Paso Taco Truck", "url": "https://www.yelp.com/biz/el-paso-taco-truck-new-york?adjust_creative=gBcvfFpabk3CnzmXKdYe3w&utm_campaign=yelp_api_v3&utm_medium=api_v3_business_search&utm_source=gBcvfFpabk3CnzmXKdYe3w"}, {"transactions": ["delivery", "pickup"], "distance": 15233.481357799998, "phone": "+17187208226", "categories": [{"alias": "tex-mex", "title": "Tex-Mex"}, {"alias": "mexican", "title": "Mexican"}], "id": "the-crazy-taco-tequila-bar-mariners-harbor", "display_phone": "(718) 720-8226", "is_closed": false, "location": {"address2": "", "country": "US", "display_address": ["238 Morningstar Rd", "Mariners Harbor, NY 10303"], "address1": "238 Morningstar Rd", "city": "Mariners Harbor", "zip_code": "10303", "address3": "", "state": "NY"}, "coordinates": {"longitude": -74.146873, "latitude": 40.632099}, "review_count": 61, "image_url": "https://s3-media4.fl.yelpcdn.com/bphoto/sNN_89PiypSBZzS5kcAffg/o.jpg", "price": "$$", "rating": 2.5, "name": "The Crazy Taco Tequila Bar", "url": "https://www.yelp.com/biz/the-crazy-taco-tequila-bar-mariners-harbor?adjust_creative=gBcvfFpabk3CnzmXKdYe3w&utm_campaign=yelp_api_v3&utm_medium=api_v3_business_search&utm_source=gBcvfFpabk3CnzmXKdYe3w"}, {"transactions": [], "distance": 10918.78931892, "phone": "+17183362306", "categories": [{"alias": "mexican", "title": "Mexican"}], "id": "taqueria-puebla-brooklyn", "display_phone": "(718) 336-2306", "is_closed": false, "location": {"address2": "", "country": "US", "display_address": ["374 Avenue P", "Brooklyn, NY 11204"], "address1": "374 Avenue P", "city": "Brooklyn", "zip_code": "11204", "address3": "", "state": "NY"}, "coordinates": {"longitude": -73.9736557006836, "latitude": 40.608470916748}, "review_count": 9, "image_url": "https://s3-media3.fl.yelpcdn.com/bphoto/nfjInrdlGgWhVa3WlHM7Ng/o.jpg", "price": "$", "rating": 3.5, "name": "Taqueria Puebla", "url": "https://www.yelp.com/biz/taqueria-puebla-brooklyn?adjust_creative=gBcvfFpabk3CnzmXKdYe3w&utm_campaign=yelp_api_v3&utm_medium=api_v3_business_search&utm_source=gBcvfFpabk3CnzmXKdYe3w"}, {"transactions": ["delivery", "pickup"], "distance": 2620.5406255499997, "phone": "+13477725216", "categories": [{"alias": "mexican", "title": "Mexican"}], "id": "tacos-morelos-new-york-2", "display_phone": "(347) 772-5216", "is_closed": false, "location": {"address2": null, "country": "US", "display_address": ["438 E 9th St", "New York, NY 10009"], "address1": "438 E 9th St", "city": "New York", "zip_code": "10009", "address3": "", "state": "NY"}, "coordinates": {"longitude": -73.9832050287211, "latitude": 40.7274619080615}, "review_count": 83, "image_url": "https://s3-media3.fl.yelpcdn.com/bphoto/opfQ2MKFtmAvAU8CmfvHZA/o.jpg", "price": "$$", "rating": 3.5, "name": "Tacos Morelos", "url": "https://www.yelp.com/biz/tacos-morelos-new-york-2?adjust_creative=gBcvfFpabk3CnzmXKdYe3w&utm_campaign=yelp_api_v3&utm_medium=api_v3_business_search&utm_source=gBcvfFpabk3CnzmXKdYe3w"}, {"transactions": [], "distance": 15769.472044799999, "phone": "", "categories": [{"alias": "mexican", "title": "Mexican"}, {"alias": "foodstands", "title": "Food Stands"}], "id": "tamale-guy-manhattan", "display_phone": "", "is_closed": false, "location": {"address2": "", "country": "US", "display_address": ["168TH St And Broadway", "Manhattan, NY 10032"], "address1": "168TH St And Broadway", "city": "Manhattan", "zip_code": "10032", "address3": "", "state": "NY"}, "coordinates": {"longitude": -73.9398202300072, "latitude": 40.8411001414061}, "review_count": 8, "image_url": "https://s3-media3.fl.yelpcdn.com/bphoto/XniPHFuNZvFDWiB6IZVrEg/o.jpg", "price": "$", "rating": 4.5, "name": "Tamale Guy", "url": "https://www.yelp.com/biz/tamale-guy-manhattan?adjust_creative=gBcvfFpabk3CnzmXKdYe3w&utm_campaign=yelp_api_v3&utm_medium=api_v3_business_search&utm_source=gBcvfFpabk3CnzmXKdYe3w"}, {"transactions": ["delivery", "pickup"], "distance": 6040.242158412, "phone": "+17184533088", "categories": [{"alias": "mexican", "title": "Mexican"}], "id": "la-kermesse-de-chietla-brooklyn", "display_phone": "(718) 453-3088", "is_closed": false, "location": {"address2": "", "country": "US", "display_address": ["191 Wilson Ave", "Brooklyn, NY 11237"], "address1": "191 Wilson Ave", "city": "Brooklyn", "zip_code": "11237", "address3": "", "state": "NY"}, "coordinates": {"longitude": -73.923072, "latitude": 40.699478}, "review_count": 4, "image_url": "", "rating": 4.5, "name": "La Kermesse De Chietla", "url": "https://www.yelp.com/biz/la-kermesse-de-chietla-brooklyn?adjust_creative=gBcvfFpabk3CnzmXKdYe3w&utm_campaign=yelp_api_v3&utm_medium=api_v3_business_search&utm_source=gBcvfFpabk3CnzmXKdYe3w"}, {"transactions": [], "distance": 19745.80839538, "phone": "+17182392228", "categories": [{"alias": "mexican", "title": "Mexican"}], "id": "el-acatlan-bronx", "display_phone": "(718) 239-2228", "is_closed": false, "location": {"address2": "", "country": "US", "display_address": ["2132 Cruger Ave", "Bronx, NY 10462"], "address1": "2132 Cruger Ave", "city": "Bronx", "zip_code": "10462", "address3": "", "state": "NY"}, "coordinates": {"longitude": -73.8666415214539, "latitude": 40.8541745692492}, "review_count": 14, "image_url": "https://s3-media1.fl.yelpcdn.com/bphoto/M_vBYT-Bs6t8kcrEbZuQMg/o.jpg", "price": "$", "rating": 3.5, "name": "El Acatlan", "url": "https://www.yelp.com/biz/el-acatlan-bronx?adjust_creative=gBcvfFpabk3CnzmXKdYe3w&utm_campaign=yelp_api_v3&utm_medium=api_v3_business_search&utm_source=gBcvfFpabk3CnzmXKdYe3w"}, {"transactions": [], "distance": 11421.298170021999, "phone": "", "categories": [{"alias": "mexican", "title": "Mexican"}, {"alias": "foodstands", "title": "Food Stands"}], "id": "el-taco-ranchero-manhattan", "display_phone": "", "is_closed": false, "location": {"address2": "", "country": "US", "display_address": ["E 118th St And 3rd Ave", "Manhattan, NY 10035"], "address1": "E 118th St And 3rd Ave", "city": "Manhattan", "zip_code": "10035", "address3": "", "state": "NY"}, "coordinates": {"longitude": -73.9390614933376, "latitude": 40.7992528022211}, "review_count": 4, "image_url": "https://s3-media1.fl.yelpcdn.com/bphoto/7YjshxiE4s1eV7QxltYI6g/o.jpg", "rating": 4.5, "name": "El Taco Ranchero", "url": "https://www.yelp.com/biz/el-taco-ranchero-manhattan?adjust_creative=gBcvfFpabk3CnzmXKdYe3w&utm_campaign=yelp_api_v3&utm_medium=api_v3_business_search&utm_source=gBcvfFpabk3CnzmXKdYe3w"}, {"transactions": [], "distance": 13999.54727158, "phone": "+17188150440", "categories": [{"alias": "mexican", "title": "Mexican"}], "id": "los-potrillos-staten-island", "display_phone": "(718) 815-0440", "is_closed": false, "location": {"address2": "", "country": "US", "display_address": ["150 Port Richmond Ave", "Staten Island, NY 10302"], "address1": "150 Port Richmond Ave", "city": "Staten Island", "zip_code": "10302", "address3": "", "state": "NY"}, "coordinates": {"longitude": -74.1340140932138, "latitude": 40.6374622309794}, "review_count": 6, "image_url": "https://s3-media4.fl.yelpcdn.com/bphoto/zRMb1lFgwhzRmqgkhleZ6g/o.jpg", "price": "$", "rating": 4.0, "name": "Los Potrillos", "url": "https://www.yelp.com/biz/los-potrillos-staten-island?adjust_creative=gBcvfFpabk3CnzmXKdYe3w&utm_campaign=yelp_api_v3&utm_medium=api_v3_business_search&utm_source=gBcvfFpabk3CnzmXKdYe3w"}, {"transactions": [], "distance": 6752.23380836, "phone": "+17184375513", "categories": [{"alias": "bakeries", "title": "Bakeries"}, {"alias": "mexican", "title": "Mexican"}], "id": "las-conchitas-bakery-brooklyn", "display_phone": "(718) 437-5513", "is_closed": false, "location": {"address2": "", "country": "US", "display_address": ["4811 5th Ave", "Brooklyn, NY 11220"], "address1": "4811 5th Ave", "city": "Brooklyn", "zip_code": "11220", "address3": "", "state": "NY"}, "coordinates": {"longitude": -74.0093078613281, "latitude": 40.6457328796387}, "review_count": 5, "image_url": "https://s3-media3.fl.yelpcdn.com/bphoto/nriGpGSbnggs9WOUTmFGCg/o.jpg", "price": "$", "rating": 4.5, "name": "Las Conchitas Bakery", "url": "https://www.yelp.com/biz/las-conchitas-bakery-brooklyn?adjust_creative=gBcvfFpabk3CnzmXKdYe3w&utm_campaign=yelp_api_v3&utm_medium=api_v3_business_search&utm_source=gBcvfFpabk3CnzmXKdYe3w"}, {"transactions": [], "distance": 6260.765190591999, "phone": "+13479873681", "categories": [{"alias": "mexican", "title": "Mexican"}], "id": "rinconcito-familiar-brooklyn", "display_phone": "(347) 987-3681", "is_closed": false, "location": {"address2": null, "country": "US", "display_address": ["4118 5th Ave", "Brooklyn, NY 11232"], "address1": "4118 5th Ave", "city": "Brooklyn", "zip_code": "11232", "address3": "", "state": "NY"}, "coordinates": {"longitude": -74.005753, "latitude": 40.649815}, "review_count": 5, "image_url": "https://s3-media2.fl.yelpcdn.com/bphoto/CjkrU1UtlZ36tdQNLTllAw/o.jpg", "price": "$", "rating": 4.0, "name": "Rinconcito Familiar", "url": "https://www.yelp.com/biz/rinconcito-familiar-brooklyn?adjust_creative=gBcvfFpabk3CnzmXKdYe3w&utm_campaign=yelp_api_v3&utm_medium=api_v3_business_search&utm_source=gBcvfFpabk3CnzmXKdYe3w"}, {"transactions": [], "distance": 15389.384560960001, "phone": "+13477266258", "categories": [{"alias": "mexican", "title": "Mexican"}], "id": "rodriguez-productos-mexicanos-los-bronx", "display_phone": "(347) 726-6258", "is_closed": false, "location": {"address2": null, "country": "US", "display_address": ["190 E 166th St", "Bronx, NY 10456"], "address1": "190 E 166th St", "city": "Bronx", "zip_code": "10456", "address3": null, "state": "NY"}, "coordinates": {"longitude": -73.9186441898346, "latitude": 40.8314837515354}, "review_count": 2, "image_url": "https://s3-media1.fl.yelpcdn.com/bphoto/O-YKqPPj78xZGNdbc4xIXg/o.jpg", "rating": 4.5, "name": "Rodriguez Productos Mexicanos Los", "url": "https://www.yelp.com/biz/rodriguez-productos-mexicanos-los-bronx?adjust_creative=gBcvfFpabk3CnzmXKdYe3w&utm_campaign=yelp_api_v3&utm_medium=api_v3_business_search&utm_source=gBcvfFpabk3CnzmXKdYe3w"}, {"transactions": ["delivery", "pickup"], "distance": 4184.118237979999, "phone": "+17186222727", "categories": [{"alias": "mexican", "title": "Mexican"}], "id": "nacho-macho-taco-crown-heights", "display_phone": "(718) 622-2727", "is_closed": false, "location": {"address2": "", "country": "US", "display_address": ["417 Prospect Pl", "Crown Heights, NY 11238"], "address1": "417 Prospect Pl", "city": "Crown Heights", "zip_code": "11238", "address3": "", "state": "NY"}, "coordinates": {"longitude": -73.9627275318417, "latitude": 40.6764068073189}, "review_count": 161, "image_url": "https://s3-media2.fl.yelpcdn.com/bphoto/EytXMpws7nntU4c1ggsFqA/o.jpg", "price": "$", "rating": 4.5, "name": "Nacho Macho Taco", "url": "https://www.yelp.com/biz/nacho-macho-taco-crown-heights?adjust_creative=gBcvfFpabk3CnzmXKdYe3w&utm_campaign=yelp_api_v3&utm_medium=api_v3_business_search&utm_source=gBcvfFpabk3CnzmXKdYe3w"}, {"transactions": [], "distance": 3879.5590115479995, "phone": "+13479466225", "categories": [{"alias": "mexican", "title": "Mexican"}], "id": "dos-toros-taqueria-new-york-8", "display_phone": "(347) 946-6225", "is_closed": false, "location": {"address2": "", "country": "US", "display_address": ["295 Park Ave S", "New York, NY 10010"], "address1": "295 Park Ave S", "city": "New York", "zip_code": "10010", "address3": "", "state": "NY"}, "coordinates": {"longitude": -73.986221, "latitude": 40.739769}, "review_count": 97, "image_url": "https://s3-media3.fl.yelpcdn.com/bphoto/PasdL35O90CjNG9OCoIpCw/o.jpg", "price": "$$", "rating": 3.5, "name": "Dos Toros Taqueria", "url": "https://www.yelp.com/biz/dos-toros-taqueria-new-york-8?adjust_creative=gBcvfFpabk3CnzmXKdYe3w&utm_campaign=yelp_api_v3&utm_medium=api_v3_business_search&utm_source=gBcvfFpabk3CnzmXKdYe3w"}, {"transactions": [], "distance": 14899.53365176, "phone": "+13478206343", "categories": [{"alias": "mexican", "title": "Mexican"}], "id": "lupitas-restaurant-bronx", "display_phone": "(347) 820-6343", "is_closed": false, "location": {"address2": null, "country": "US", "display_address": ["904 Melrose Ave", "Bronx, NY 10451"], "address1": "904 Melrose Ave", "city": "Bronx", "zip_code": "10451", "address3": "", "state": "NY"}, "coordinates": {"longitude": -73.91343, "latitude": 40.82463}, "review_count": 1, "image_url": "https://s3-media1.fl.yelpcdn.com/bphoto/JVsHUERLfUnNdqKtpAJpPw/o.jpg", "price": "$$", "rating": 5.0, "name": "Lupita's Restaurant", "url": "https://www.yelp.com/biz/lupitas-restaurant-bronx?adjust_creative=gBcvfFpabk3CnzmXKdYe3w&utm_campaign=yelp_api_v3&utm_medium=api_v3_business_search&utm_source=gBcvfFpabk3CnzmXKdYe3w"}, {"transactions": [], "distance": 11086.27896541, "phone": "+17182592606", "categories": [{"alias": "mexican", "title": "Mexican"}], "id": "l-a-autentica-panaderia-brooklyn", "display_phone": "(718) 259-2606", "is_closed": false, "location": {"address2": "", "country": "US", "display_address": ["1878 86th St", "Brooklyn, NY 11214"], "address1": "1878 86th St", "city": "Brooklyn", "zip_code": "11214", "address3": "", "state": "NY"}, "coordinates": {"longitude": -74.000908, "latitude": 40.605869}, "review_count": 3, "image_url": "https://s3-media2.fl.yelpcdn.com/bphoto/5pqTItXcS91RZ-4Ttdy_Dg/o.jpg", "rating": 3.5, "name": "L'a Autentica Panaderia", "url": "https://www.yelp.com/biz/l-a-autentica-panaderia-brooklyn?adjust_creative=gBcvfFpabk3CnzmXKdYe3w&utm_campaign=yelp_api_v3&utm_medium=api_v3_business_search&utm_source=gBcvfFpabk3CnzmXKdYe3w"}, {"transactions": [], "distance": 16729.280811459997, "phone": "+17183281252", "categories": [{"alias": "latin", "title": "Latin American"}, {"alias": "asianfusion", "title": "Asian Fusion"}, {"alias": "mexican", "title": "Mexican"}], "id": "el-pabellon-de-oro-bronx", "display_phone": "(718) 328-1252", "is_closed": false, "location": {"address2": "", "country": "US", "display_address": ["1501 Westchester Ave", "Bronx, NY 10472"], "address1": "1501 Westchester Ave", "city": "Bronx", "zip_code": "10472", "address3": "", "state": "NY"}, "coordinates": {"longitude": -73.8799358904362, "latitude": 40.8285681903362}, "review_count": 28, "image_url": "https://s3-media1.fl.yelpcdn.com/bphoto/Wz3rgfAREGtgxJ-c7TQnsw/o.jpg", "price": "$$", "rating": 4.0, "name": "El Pabellon De Oro", "url": "https://www.yelp.com/biz/el-pabellon-de-oro-bronx?adjust_creative=gBcvfFpabk3CnzmXKdYe3w&utm_campaign=yelp_api_v3&utm_medium=api_v3_business_search&utm_source=gBcvfFpabk3CnzmXKdYe3w"}, {"transactions": [], "distance": 8705.691899464, "phone": "+17187771707", "categories": [{"alias": "mexican", "title": "Mexican"}, {"alias": "lounges", "title": "Lounges"}], "id": "las-margaritas-restaurant-and-lounge-astoria", "display_phone": "(718) 777-1707", "is_closed": false, "location": {"address2": null, "country": "US", "display_address": ["3801 Broadway", "Astoria, NY 11103"], "address1": "3801 Broadway", "city": "Astoria", "zip_code": "11103", "address3": "", "state": "NY"}, "coordinates": {"longitude": -73.919504, "latitude": 40.759462}, "review_count": 198, "image_url": "https://s3-media2.fl.yelpcdn.com/bphoto/DOIGolnEuv9A_wyf8XuXTQ/o.jpg", "price": "$$", "rating": 2.5, "name": "Las Margaritas Restaurant and Lounge", "url": "https://www.yelp.com/biz/las-margaritas-restaurant-and-lounge-astoria?adjust_creative=gBcvfFpabk3CnzmXKdYe3w&utm_campaign=yelp_api_v3&utm_medium=api_v3_business_search&utm_source=gBcvfFpabk3CnzmXKdYe3w"}, {"transactions": [], "distance": 11377.97505909, "phone": "+17185077100", "categories": [{"alias": "tacos", "title": "Tacos"}], "id": "nuevo-tacos-al-suadero-jackson-heights-2", "display_phone": "(718) 507-7100", "is_closed": false, "location": {"address2": "", "country": "US", "display_address": ["94-06 Roosevelt Ave", "Jackson Heights, NY 11372"], "address1": "94-06 Roosevelt Ave", "city": "Jackson Heights", "zip_code": "11372", "address3": "", "state": "NY"}, "coordinates": {"longitude": -73.8720346, "latitude": 40.748872}, "review_count": 19, "image_url": "https://s3-media4.fl.yelpcdn.com/bphoto/jwQ3BCLjwzsuXJcSidrfMQ/o.jpg", "price": "$$", "rating": 3.5, "name": "Nuevo Tacos Al Suadero", "url": "https://www.yelp.com/biz/nuevo-tacos-al-suadero-jackson-heights-2?adjust_creative=gBcvfFpabk3CnzmXKdYe3w&utm_campaign=yelp_api_v3&utm_medium=api_v3_business_search&utm_source=gBcvfFpabk3CnzmXKdYe3w"}, {"transactions": [], "distance": 14884.375278299998, "phone": "+17184508380", "categories": [{"alias": "mexican", "title": "Mexican"}], "id": "margheritas-mexican-cuisine-bronx", "display_phone": "(718) 450-8380", "is_closed": false, "location": {"address2": "", "country": "US", "display_address": ["629 E 161st St", "Bronx, NY 10456"], "address1": "629 E 161st St", "city": "Bronx", "zip_code": "10456", "address3": null, "state": "NY"}, "coordinates": {"longitude": -73.9076204, "latitude": 40.8221017}, "review_count": 3, "image_url": "https://s3-media3.fl.yelpcdn.com/bphoto/H2lreu4SiraQoKO_CPvJfQ/o.jpg", "rating": 4.5, "name": "Margheritas Mexican Cuisine", "url": "https://www.yelp.com/biz/margheritas-mexican-cuisine-bronx?adjust_creative=gBcvfFpabk3CnzmXKdYe3w&utm_campaign=yelp_api_v3&utm_medium=api_v3_business_search&utm_source=gBcvfFpabk3CnzmXKdYe3w"}, {"transactions": [], "distance": 6188.87548999, "phone": "", "categories": [{"alias": "mexican", "title": "Mexican"}], "id": "the-tamale-stand-at-evelyn-mini-market-brooklyn", "display_phone": "", "is_closed": false, "location": {"address2": "", "country": "US", "display_address": ["4011 5th Ave", "Brooklyn, NY 11226"], "address1": "4011 5th Ave", "city": "Brooklyn", "zip_code": "11226", "address3": "", "state": "NY"}, "coordinates": {"longitude": -74.00454, "latitude": 40.65032}, "review_count": 5, "image_url": "https://s3-media2.fl.yelpcdn.com/bphoto/NwRnGZOOIJ2lWyBJuGy-EQ/o.jpg", "price": "$", "rating": 4.0, "name": "The Tamale Stand at Evelyn Mini Market", "url": "https://www.yelp.com/biz/the-tamale-stand-at-evelyn-mini-market-brooklyn?adjust_creative=gBcvfFpabk3CnzmXKdYe3w&utm_campaign=yelp_api_v3&utm_medium=api_v3_business_search&utm_source=gBcvfFpabk3CnzmXKdYe3w"}, {"transactions": [], "distance": 20928.914696379998, "phone": "+17183198383", "categories": [{"alias": "mexican", "title": "Mexican"}, {"alias": "tex-mex", "title": "Tex-Mex"}], "id": "top-tortillas-bronx", "display_phone": "(718) 319-8383", "is_closed": false, "location": {"address2": "", "country": "US", "display_address": ["3038 Buhre Ave", "Bronx, NY 10461"], "address1": "3038 Buhre Ave", "city": "Bronx", "zip_code": "10461", "address3": "", "state": "NY"}, "coordinates": {"longitude": -73.83093, "latitude": 40.84738}, "review_count": 30, "image_url": "https://s3-media4.fl.yelpcdn.com/bphoto/vo9BaEbYDbCKvemvMNAvQQ/o.jpg", "price": "$", "rating": 4.0, "name": "Top Tortillas", "url": "https://www.yelp.com/biz/top-tortillas-bronx?adjust_creative=gBcvfFpabk3CnzmXKdYe3w&utm_campaign=yelp_api_v3&utm_medium=api_v3_business_search&utm_source=gBcvfFpabk3CnzmXKdYe3w"}, {"transactions": [], "distance": 15842.109605699998, "phone": "+12015287493", "categories": [{"alias": "mexican", "title": "Mexican"}], "id": "mariachi-grill-lyndhurst", "display_phone": "(201) 528-7493", "is_closed": false, "location": {"address2": "", "country": "US", "display_address": ["262 Ridge Rd", "Lyndhurst, NJ 07071"], "address1": "262 Ridge Rd", "city": "Lyndhurst", "zip_code": "07071", "address3": "", "state": "NJ"}, "coordinates": {"longitude": -74.121029848639, "latitude": 40.8107163137199}, "review_count": 149, "image_url": "https://s3-media3.fl.yelpcdn.com/bphoto/PkHaEAd2YOjVS4xAHGT2uQ/o.jpg", "price": "$$", "rating": 4.5, "name": "Mariachi Grill", "url": "https://www.yelp.com/biz/mariachi-grill-lyndhurst?adjust_creative=gBcvfFpabk3CnzmXKdYe3w&utm_campaign=yelp_api_v3&utm_medium=api_v3_business_search&utm_source=gBcvfFpabk3CnzmXKdYe3w"}, {"transactions": [], "distance": 10567.211293179998, "phone": "", "categories": [{"alias": "mexican", "title": "Mexican"}, {"alias": "foodstands", "title": "Food Stands"}], "id": "mi-mexico-lindo-tacos-elmhurst", "display_phone": "", "is_closed": false, "location": {"address2": "", "country": "US", "display_address": ["Roosevelt Ave And 84th St", "Elmhurst, NY 11372"], "address1": "Roosevelt Ave And 84th St", "city": "Elmhurst", "zip_code": "11372", "address3": "", "state": "NY"}, "coordinates": {"longitude": -73.8820692675094, "latitude": 40.7478276085227}, "review_count": 18, "image_url": "https://s3-media2.fl.yelpcdn.com/bphoto/-uyothDhqfyzZtQS_5xdqA/o.jpg", "price": "$", "rating": 3.5, "name": "Mi Mexico Lindo Tacos", "url": "https://www.yelp.com/biz/mi-mexico-lindo-tacos-elmhurst?adjust_creative=gBcvfFpabk3CnzmXKdYe3w&utm_campaign=yelp_api_v3&utm_medium=api_v3_business_search&utm_source=gBcvfFpabk3CnzmXKdYe3w"}, {"transactions": ["delivery", "pickup"], "distance": 12205.096639562, "phone": "+17183393350", "categories": [{"alias": "bakeries", "title": "Bakeries"}, {"alias": "mexican", "title": "Mexican"}, {"alias": "delis", "title": "Delis"}], "id": "guerreros-deli-and-bakery-brooklyn", "display_phone": "(718) 339-3350", "is_closed": false, "location": {"address2": "", "country": "US", "display_address": ["809 Ave U", "Brooklyn, NY 11223"], "address1": "809 Ave U", "city": "Brooklyn", "zip_code": "11223", "address3": "", "state": "NY"}, "coordinates": {"longitude": -73.962715, "latitude": 40.598384}, "review_count": 12, "image_url": "https://s3-media2.fl.yelpcdn.com/bphoto/jHJ9-bO_yHx3r4_TxQh1DQ/o.jpg", "price": "$", "rating": 3.5, "name": "Guerreros Deli and Bakery", "url": "https://www.yelp.com/biz/guerreros-deli-and-bakery-brooklyn?adjust_creative=gBcvfFpabk3CnzmXKdYe3w&utm_campaign=yelp_api_v3&utm_medium=api_v3_business_search&utm_source=gBcvfFpabk3CnzmXKdYe3w"}, {"transactions": ["delivery", "pickup"], "distance": 6464.395302659999, "phone": "+13474258830", "categories": [{"alias": "mexican", "title": "Mexican"}], "id": "guadalajara-de-dia-1-brooklyn", "display_phone": "(347) 425-8830", "is_closed": false, "location": {"address2": "", "country": "US", "display_address": ["134 Wyckoff Ave", "Brooklyn, NY 11237"], "address1": "134 Wyckoff Ave", "city": "Brooklyn", "zip_code": "11237", "address3": "", "state": "NY"}, "coordinates": {"longitude": -73.9176712, "latitude": 40.7030411}, "review_count": 13, "image_url": "https://s3-media1.fl.yelpcdn.com/bphoto/x8A1H-s9CmnLm6u8EBRJQQ/o.jpg", "price": "$", "rating": 4.0, "name": "Guadalajara De Dia 1", "url": "https://www.yelp.com/biz/guadalajara-de-dia-1-brooklyn?adjust_creative=gBcvfFpabk3CnzmXKdYe3w&utm_campaign=yelp_api_v3&utm_medium=api_v3_business_search&utm_source=gBcvfFpabk3CnzmXKdYe3w"}, {"transactions": [], "distance": 5290.1664429679995, "phone": "+12125574300", "categories": [{"alias": "tex-mex", "title": "Tex-Mex"}, {"alias": "mexican", "title": "Mexican"}, {"alias": "bars", "title": "Bars"}], "id": "calico-jacks-cantina-new-york", "display_phone": "(212) 557-4300", "is_closed": false, "location": {"address2": "", "country": "US", "display_address": ["800 2nd Ave", "New York, NY 10017"], "address1": "800 2nd Ave", "city": "New York", "zip_code": "10017", "address3": "", "state": "NY"}, "coordinates": {"longitude": -73.971672, "latitude": 40.750053}, "review_count": 379, "image_url": "https://s3-media2.fl.yelpcdn.com/bphoto/JorMu6YkrmV27sMKEbuwcQ/o.jpg", "price": "$$", "rating": 2.0, "name": "Calico Jack's Cantina", "url": "https://www.yelp.com/biz/calico-jacks-cantina-new-york?adjust_creative=gBcvfFpabk3CnzmXKdYe3w&utm_campaign=yelp_api_v3&utm_medium=api_v3_business_search&utm_source=gBcvfFpabk3CnzmXKdYe3w"}, {"transactions": ["delivery", "pickup"], "distance": 18939.57733558, "phone": "+17184508184", "categories": [{"alias": "mexican", "title": "Mexican"}], "id": "rubens-mexican-restaurant-bronx", "display_phone": "(718) 450-8184", "is_closed": false, "location": {"address2": "", "country": "US", "display_address": ["606 E 187th St", "Bronx, NY 10458"], "address1": "606 E 187th St", "city": "Bronx", "zip_code": "10458", "address3": "", "state": "NY"}, "coordinates": {"longitude": -73.8873215, "latitude": 40.8552704}, "review_count": 12, "image_url": "https://s3-media4.fl.yelpcdn.com/bphoto/oLCKTznkR1m8LCmx01Nfbg/o.jpg", "price": "$$", "rating": 4.0, "name": "Ruben's Mexican Restaurant", "url": "https://www.yelp.com/biz/rubens-mexican-restaurant-bronx?adjust_creative=gBcvfFpabk3CnzmXKdYe3w&utm_campaign=yelp_api_v3&utm_medium=api_v3_business_search&utm_source=gBcvfFpabk3CnzmXKdYe3w"}, {"transactions": ["delivery", "pickup"], "distance": 11603.004565137999, "phone": "+17183330647", "categories": [{"alias": "tex-mex", "title": "Tex-Mex"}, {"alias": "mexican", "title": "Mexican"}], "id": "tortillas-king-brooklyn-4", "display_phone": "(718) 333-0647", "is_closed": false, "location": {"address2": null, "country": "US", "display_address": ["2238 86th St", "Brooklyn, NY 11214"], "address1": "2238 86th St", "city": "Brooklyn", "zip_code": "11214", "address3": null, "state": "NY"}, "coordinates": {"longitude": -73.993003, "latitude": 40.601119}, "review_count": 24, "image_url": "https://s3-media1.fl.yelpcdn.com/bphoto/LM_WCb2CpqfcTmu50SiIlQ/o.jpg", "price": "$", "rating": 2.5, "name": "Tortillas King", "url": "https://www.yelp.com/biz/tortillas-king-brooklyn-4?adjust_creative=gBcvfFpabk3CnzmXKdYe3w&utm_campaign=yelp_api_v3&utm_medium=api_v3_business_search&utm_source=gBcvfFpabk3CnzmXKdYe3w"}, {"transactions": [], "distance": 4740.797312548, "phone": "+12014188600", "categories": [{"alias": "mexican", "title": "Mexican"}], "id": "charritos-hoboken-3", "display_phone": "(201) 418-8600", "is_closed": false, "location": {"address2": "", "country": "US", "display_address": ["121 Washington St", "Hoboken, NJ 07030"], "address1": "121 Washington St", "city": "Hoboken", "zip_code": "07030", "address3": "", "state": "NJ"}, "coordinates": {"longitude": -74.030436, "latitude": 40.738116}, "review_count": 366, "image_url": "https://s3-media3.fl.yelpcdn.com/bphoto/9qAxonnZZkcSZluL1WpnWg/o.jpg", "price": "$$", "rating": 3.5, "name": "Charrito's", "url": "https://www.yelp.com/biz/charritos-hoboken-3?adjust_creative=gBcvfFpabk3CnzmXKdYe3w&utm_campaign=yelp_api_v3&utm_medium=api_v3_business_search&utm_source=gBcvfFpabk3CnzmXKdYe3w"}, {"transactions": ["delivery", "pickup"], "distance": 1581.09286432, "phone": "+12123931026", "categories": [{"alias": "mexican", "title": "Mexican"}], "id": "taco-house-new-york-5", "display_phone": "(212) 393-1026", "is_closed": false, "location": {"address2": "", "country": "US", "display_address": ["178 Church St", "New York, NY 10013"], "address1": "178 Church St", "city": "New York", "zip_code": "10013", "address3": "", "state": "NY"}, "coordinates": {"longitude": -74.0073923, "latitude": 40.7156225}, "review_count": 76, "image_url": "https://s3-media2.fl.yelpcdn.com/bphoto/19vr78PqsQVuJ4UyuAwojg/o.jpg", "price": "$", "rating": 2.5, "name": "Taco House", "url": "https://www.yelp.com/biz/taco-house-new-york-5?adjust_creative=gBcvfFpabk3CnzmXKdYe3w&utm_campaign=yelp_api_v3&utm_medium=api_v3_business_search&utm_source=gBcvfFpabk3CnzmXKdYe3w"}, {"transactions": [], "distance": 12154.739425357999, "phone": "+17188990330", "categories": [{"alias": "mexican", "title": "Mexican"}], "id": "alberta-restaurant-mexican-cuisine-corona", "display_phone": "(718) 899-0330", "is_closed": false, "location": {"address2": "", "country": "US", "display_address": ["3781 103rd St", "Corona, NY 11368"], "address1": "3781 103rd St", "city": "Corona", "zip_code": "11368", "address3": "", "state": "NY"}, "coordinates": {"longitude": -73.8631985709071, "latitude": 40.7510404977263}, "review_count": 4, "image_url": "https://s3-media1.fl.yelpcdn.com/bphoto/E7-3DyDMRPthMGPwo5-i8A/o.jpg", "price": "$$", "rating": 5.0, "name": "Alberta Restaurant Mexican Cuisine", "url": "https://www.yelp.com/biz/alberta-restaurant-mexican-cuisine-corona?adjust_creative=gBcvfFpabk3CnzmXKdYe3w&utm_campaign=yelp_api_v3&utm_medium=api_v3_business_search&utm_source=gBcvfFpabk3CnzmXKdYe3w"}, {"transactions": ["delivery", "pickup"], "distance": 9866.21819466, "phone": "+12018687855", "categories": [{"alias": "mexican", "title": "Mexican"}, {"alias": "italian", "title": "Italian"}], "id": "sabor-a-veracruz-west-new-york", "display_phone": "(201) 868-7855", "is_closed": false, "location": {"address2": null, "country": "US", "display_address": ["6415 Bergenline Ave", "West New York, NJ 07093"], "address1": "6415 Bergenline Ave", "city": "West New York", "zip_code": "07093", "address3": "", "state": "NJ"}, "coordinates": {"longitude": -74.0136184692383, "latitude": 40.7929573059082}, "review_count": 84, "image_url": "https://s3-media3.fl.yelpcdn.com/bphoto/-3ZpFfzeprFjqILXJQHyvg/o.jpg", "price": "$", "rating": 4.5, "name": "Sabor A Veracruz", "url": "https://www.yelp.com/biz/sabor-a-veracruz-west-new-york?adjust_creative=gBcvfFpabk3CnzmXKdYe3w&utm_campaign=yelp_api_v3&utm_medium=api_v3_business_search&utm_source=gBcvfFpabk3CnzmXKdYe3w"}, {"transactions": [], "distance": 3292.08763009, "phone": "+12126776300", "categories": [{"alias": "tacos", "title": "Tacos"}, {"alias": "bars", "title": "Bars"}], "id": "camachos-new-york-3", "display_phone": "(212) 677-6300", "is_closed": false, "location": {"address2": "", "country": "US", "display_address": ["118A E 15th St", "New York, NY 10003"], "address1": "118A E 15th St", "city": "New York", "zip_code": "10003", "address3": null, "state": "NY"}, "coordinates": {"longitude": -73.98859, "latitude": 40.73467}, "review_count": 19, "image_url": "https://s3-media4.fl.yelpcdn.com/bphoto/HPy7EvbbeDa4Ba07Lm34yg/o.jpg", "price": "$$", "rating": 3.0, "name": "Camacho's", "url": "https://www.yelp.com/biz/camachos-new-york-3?adjust_creative=gBcvfFpabk3CnzmXKdYe3w&utm_campaign=yelp_api_v3&utm_medium=api_v3_business_search&utm_source=gBcvfFpabk3CnzmXKdYe3w"}, {"transactions": [], "distance": 14053.772373539998, "phone": "+17187690307", "categories": [{"alias": "mexican", "title": "Mexican"}, {"alias": "breakfast_brunch", "title": "Breakfast & Brunch"}], "id": "taqueria-el-buen-gusto-new-york", "display_phone": "(718) 769-0307", "is_closed": false, "location": {"address2": "", "country": "US", "display_address": ["277 Neptune Ave", "New York, NY 11235"], "address1": "277 Neptune Ave", "city": "New York", "zip_code": "11235", "address3": "", "state": "NY"}, "coordinates": {"longitude": -73.9633947674525, "latitude": 40.5812496355697}, "review_count": 9, "image_url": "https://s3-media2.fl.yelpcdn.com/bphoto/V5k6X9zMaLP1OtiF37Rkbw/o.jpg", "rating": 4.0, "name": "Taqueria El Buen Gusto", "url": "https://www.yelp.com/biz/taqueria-el-buen-gusto-new-york?adjust_creative=gBcvfFpabk3CnzmXKdYe3w&utm_campaign=yelp_api_v3&utm_medium=api_v3_business_search&utm_source=gBcvfFpabk3CnzmXKdYe3w"}, {"transactions": ["delivery", "pickup"], "distance": 20790.010951639997, "phone": "+13472819809", "categories": [{"alias": "mexican", "title": "Mexican"}], "id": "mexico-magico-bronx", "display_phone": "(347) 281-9809", "is_closed": false, "location": {"address2": "", "country": "US", "display_address": ["1761 Crosby Ave", "Bronx, NY 10461"], "address1": "1761 Crosby Ave", "city": "Bronx", "zip_code": "10461", "address3": "", "state": "NY"}, "coordinates": {"longitude": -73.83217, "latitude": 40.84663}, "review_count": 60, "image_url": "https://s3-media4.fl.yelpcdn.com/bphoto/gq5jV6HffrQaqGJ4u40CEQ/o.jpg", "price": "$$", "rating": 3.5, "name": "Mexico Magico", "url": "https://www.yelp.com/biz/mexico-magico-bronx?adjust_creative=gBcvfFpabk3CnzmXKdYe3w&utm_campaign=yelp_api_v3&utm_medium=api_v3_business_search&utm_source=gBcvfFpabk3CnzmXKdYe3w"}, {"transactions": [], "distance": 19807.90638862, "phone": "+19174440253", "categories": [{"alias": "mexican", "title": "Mexican"}], "id": "taqueria-lupita-bronx", "display_phone": "(917) 444-0253", "is_closed": false, "location": {"address2": null, "country": "US", "display_address": ["3550 East Tremont Ave", "Bronx, NY 10465"], "address1": "3550 East Tremont Ave", "city": "Bronx", "zip_code": "10465", "address3": "", "state": "NY"}, "coordinates": {"longitude": -73.825966, "latitude": 40.829865}, "review_count": 4, "image_url": "https://s3-media4.fl.yelpcdn.com/bphoto/Vd5q5Mv5UIix2lQu79OKlw/o.jpg", "price": "$", "rating": 4.5, "name": "Taqueria Lupita", "url": "https://www.yelp.com/biz/taqueria-lupita-bronx?adjust_creative=gBcvfFpabk3CnzmXKdYe3w&utm_campaign=yelp_api_v3&utm_medium=api_v3_business_search&utm_source=gBcvfFpabk3CnzmXKdYe3w"}, {"transactions": [], "distance": 11652.2331492, "phone": "+17184240999", "categories": [{"alias": "cocktailbars", "title": "Cocktail Bars"}, {"alias": "mexican", "title": "Mexican"}], "id": "juan-bar-restaurant-corona", "display_phone": "(718) 424-0999", "is_closed": false, "location": {"address2": null, "country": "US", "display_address": ["96-15 Roosevelt Ave", "Corona, NY 11368"], "address1": "96-15 Roosevelt Ave", "city": "Corona", "zip_code": "11368", "address3": "", "state": "NY"}, "coordinates": {"longitude": -73.86879, "latitude": 40.74938}, "review_count": 4, "image_url": "https://s3-media3.fl.yelpcdn.com/bphoto/L0BTzZRG2bJC0NlUIsinwQ/o.jpg", "price": "$$", "rating": 4.5, "name": "Juan Bar Restaurant", "url": "https://www.yelp.com/biz/juan-bar-restaurant-corona?adjust_creative=gBcvfFpabk3CnzmXKdYe3w&utm_campaign=yelp_api_v3&utm_medium=api_v3_business_search&utm_source=gBcvfFpabk3CnzmXKdYe3w"}, {"transactions": [], "distance": 9151.4555831, "phone": "+12125953139", "categories": [{"alias": "bars", "title": "Bars"}, {"alias": "tradamerican", "title": "American (Traditional)"}, {"alias": "mexican", "title": "Mexican"}], "id": "firehouse-new-york", "display_phone": "(212) 595-3139", "is_closed": false, "location": {"address2": "", "country": "US", "display_address": ["522 Columbus Ave", "New York, NY 10024"], "address1": "522 Columbus Ave", "city": "New York", "zip_code": "10024", "address3": "", "state": "NY"}, "coordinates": {"longitude": -73.9727173, "latitude": 40.7860718}, "review_count": 127, "image_url": "https://s3-media3.fl.yelpcdn.com/bphoto/t2CO_G5MXB2I1c32iK7pHQ/o.jpg", "price": "$$", "rating": 3.0, "name": "Firehouse", "url": "https://www.yelp.com/biz/firehouse-new-york?adjust_creative=gBcvfFpabk3CnzmXKdYe3w&utm_campaign=yelp_api_v3&utm_medium=api_v3_business_search&utm_source=gBcvfFpabk3CnzmXKdYe3w"}, {"transactions": [], "distance": 11092.94887504, "phone": "+17187603778", "categories": [{"alias": "mexican", "title": "Mexican"}], "id": "toltecamila-taqueria-elmhurst", "display_phone": "(718) 760-3778", "is_closed": false, "location": {"address2": "", "country": "US", "display_address": ["92-10 Corona Ave", "Elmhurst, NY 11373"], "address1": "92-10 Corona Ave", "city": "Elmhurst", "zip_code": "11373", "address3": "", "state": "NY"}, "coordinates": {"longitude": -73.87199, "latitude": 40.74225}, "review_count": 5, "image_url": "https://s3-media1.fl.yelpcdn.com/bphoto/YDkmG4nOFlVFAHK6eJBICg/o.jpg", "price": "$", "rating": 4.5, "name": "Toltecamila Taqueria", "url": "https://www.yelp.com/biz/toltecamila-taqueria-elmhurst?adjust_creative=gBcvfFpabk3CnzmXKdYe3w&utm_campaign=yelp_api_v3&utm_medium=api_v3_business_search&utm_source=gBcvfFpabk3CnzmXKdYe3w"}, {"transactions": [], "distance": 5773.065808038, "phone": "", "categories": [{"alias": "mexican", "title": "Mexican"}], "id": "oaxaca-taco-de-revolucion-long-island-city-2", "display_phone": "", "is_closed": false, "location": {"address2": "", "country": "US", "display_address": ["5-29 46th Ave", "Long Island City, NY 11101"], "address1": "5-29 46th Ave", "city": "Long Island City", "zip_code": "11101", "address3": "", "state": "NY"}, "coordinates": {"longitude": -73.9542618, "latitude": 40.7475815}, "review_count": 1, "image_url": "https://s3-media3.fl.yelpcdn.com/bphoto/p7ntlWB9LRvWow0uGYu6LA/o.jpg", "rating": 4.0, "name": "Oaxaca Taco De Revolucion", "url": "https://www.yelp.com/biz/oaxaca-taco-de-revolucion-long-island-city-2?adjust_creative=gBcvfFpabk3CnzmXKdYe3w&utm_campaign=yelp_api_v3&utm_medium=api_v3_business_search&utm_source=gBcvfFpabk3CnzmXKdYe3w"}, {"transactions": [], "distance": 13852.15586768, "phone": "", "categories": [{"alias": "mexican", "title": "Mexican"}], "id": "tamales-elm-park", "display_phone": "", "is_closed": false, "location": {"address2": "", "country": "US", "display_address": ["99 Port Richmond Ave", "Elm Park, NY 10302"], "address1": "99 Port Richmond Ave", "city": "Elm Park", "zip_code": "10302", "address3": "", "state": "NY"}, "coordinates": {"longitude": -74.13283, "latitude": 40.63852}, "review_count": 3, "image_url": "https://s3-media3.fl.yelpcdn.com/bphoto/kQp3jtOZxjyRUtgTPu0Lkg/o.jpg", "rating": 3.5, "name": "Tamales", "url": "https://www.yelp.com/biz/tamales-elm-park?adjust_creative=gBcvfFpabk3CnzmXKdYe3w&utm_campaign=yelp_api_v3&utm_medium=api_v3_business_search&utm_source=gBcvfFpabk3CnzmXKdYe3w"}, {"transactions": [], "distance": 15376.7689447, "phone": "+13474889294", "categories": [{"alias": "mexican", "title": "Mexican"}], "id": "el-rinconcito-de-los-sabores-restaurant-and-deli-jamaica", "display_phone": "(347) 488-9294", "is_closed": false, "location": {"address2": null, "country": "US", "display_address": ["139-33 89th Ave", "Jamaica, NY 11435"], "address1": "139-33 89th Ave", "city": "Jamaica", "zip_code": "11435", "address3": "", "state": "NY"}, "coordinates": {"longitude": -73.8119583, "latitude": 40.7030296}, "review_count": 5, "image_url": "https://s3-media2.fl.yelpcdn.com/bphoto/c5YkpNe0yhniwR2MFLbm1A/o.jpg", "rating": 4.0, "name": "El Rinconcito de Los Sabores Restaurant & Deli", "url": "https://www.yelp.com/biz/el-rinconcito-de-los-sabores-restaurant-and-deli-jamaica?adjust_creative=gBcvfFpabk3CnzmXKdYe3w&utm_campaign=yelp_api_v3&utm_medium=api_v3_business_search&utm_source=gBcvfFpabk3CnzmXKdYe3w"}, {"transactions": ["delivery", "pickup"], "distance": 6494.368938292, "phone": "+12129560731", "categories": [{"alias": "mexican", "title": "Mexican"}, {"alias": "bars", "title": "Bars"}], "id": "rancho-tequilieria-new-york", "display_phone": "(212) 956-0731", "is_closed": false, "location": {"address2": "", "country": "US", "display_address": ["741 9th Ave", "New York, NY 10019"], "address1": "741 9th Ave", "city": "New York", "zip_code": "10019", "address3": "", "state": "NY"}, "coordinates": {"longitude": -73.989186, "latitude": 40.7637209}, "review_count": 163, "image_url": "https://s3-media3.fl.yelpcdn.com/bphoto/buUZKAqoUiWOjQ5cqNxsVw/o.jpg", "price": "$$", "rating": 3.5, "name": "Rancho Tequilieria", "url": "https://www.yelp.com/biz/rancho-tequilieria-new-york?adjust_creative=gBcvfFpabk3CnzmXKdYe3w&utm_campaign=yelp_api_v3&utm_medium=api_v3_business_search&utm_source=gBcvfFpabk3CnzmXKdYe3w"}]}