{"region": {"center": {"longitude": -73.99429321289062, "latitude": 40.70544486444615}}, "total": 1496, "businesses": [{"transactions": [], "distance": 4221.133218913999, "phone": "+12129894200", "categories": [{"alias": "japanese", "title": "Japanese"}, {"alias": "mexican", "title": "Mexican"}], "id": "takumi-taco-new-york-11", "display_phone": "(212) 989-4200", "is_closed": false, "location": {"address2": "", "country": "US", "display_address": ["75 9th Ave", "New York, NY 10011"], "address1": "75 9th Ave", "city": "New York", "zip_code": "10011", "address3": "", "state": "NY"}, "coordinates": {"longitude": -74.0061442013275, "latitude": 40.7423295448078}, "review_count": 116, "image_url": "https://s3-media4.fl.yelpcdn.com/bphoto/Bjzi_R3Kal7-MT8xcKr_fA/o.jpg", "price": "$$", "rating": 3.5, "name": "Takumi Taco", "url": "https://www.yelp.com/biz/takumi-taco-new-york-11?adjust_creative=gBcvfFpabk3CnzmXKdYe3w&utm_campaign=yelp_api_v3&utm_medium=api_v3_business_search&utm_source=gBcvfFpabk3CnzmXKdYe3w"}, {"transactions": ["delivery", "pickup"], "distance": 3939.56936894, "phone": "+12124757380", "categories": [{"alias": "mexican", "title": "Mexican"}, {"alias": "tex-mex", "title": "Tex-Mex"}], "id": "fresco-tortilla-new-york", "display_phone": "(212) 475-7380", "is_closed": false, "location": {"address2": "", "country": "US", "display_address": ["36 Lexington Ave", "New York, NY 10010"], "address1": "36 Lexington Ave", "city": "New York", "zip_code": "10010", "address3": "", "state": "NY"}, "coordinates": {"longitude": -73.9844428002834, "latitude": 40.7400231063366}, "review_count": 16, "image_url": "https://s3-media4.fl.yelpcdn.com/bphoto/mUmZUl-abxpd_wk7pbdcNg/o.jpg", "price": "$", "rating": 2.5, "name": "Fresco Tortilla", "url": "https://www.yelp.com/biz/fresco-tortilla-new-york?adjust_creative=gBcvfFpabk3CnzmXKdYe3w&utm_campaign=yelp_api_v3&utm_medium=api_v3_business_search&utm_source=gBcvfFpabk3CnzmXKdYe3w"}, {"transactions": [], "distance": 15436.19704288, "phone": "+19737411106", "categories": [{"alias": "mexican", "title": "Mexican"}], "id": "darios-restaurant-newark", "display_phone": "(973) 741-1106", "is_closed": false, "location": {"address2": "", "country": "US", "display_address": ["20 Academy St", "Newark, NJ 07102"], "address1": "20 Academy St", "city": "Newark", "zip_code": "07102", "address3": "", "state": "NJ"}, "coordinates": {"longitude": -74.1725513, "latitude": 40.7373619}, "review_count": 127, "image_url": "https://s3-media2.fl.yelpcdn.com/bphoto/KcPZT7T2drPUuSPQXbfptQ/o.jpg", "price": "$", "rating": 4.5, "name": "Dario's Restaurant", "url": "https://www.yelp.com/biz/darios-restaurant-newark?adjust_creative=gBcvfFpabk3CnzmXKdYe3w&utm_campaign=yelp_api_v3&utm_medium=api_v3_business_search&utm_source=gBcvfFpabk3CnzmXKdYe3w"}, {"transactions": [], "distance": 7639.258564179999, "phone": "", "categories": [{"alias": "mexican", "title": "Mexican"}, {"alias": "foodstands", "title": "Food Stands"}], "id": "quesadillas-jazz-sunnyside", "display_phone": "", "is_closed": false, "location": {"address2": "", "country": "US", "display_address": ["46th Street & Queens Blvd", "Sunnyside, NY 11104"], "address1": "46th Street & Queens Blvd", "city": "Sunnyside", "zip_code": "11104", "address3": "", "state": "NY"}, "coordinates": {"longitude": -73.9187088, "latitude": 40.7430115}, "review_count": 1, "image_url": "https://s3-media4.fl.yelpcdn.com/bphoto/7V6UM8J0g5wFzTH0hi9BYQ/o.jpg", "rating": 4.0, "name": "Quesadillas Jazz", "url": "https://www.yelp.com/biz/quesadillas-jazz-sunnyside?adjust_creative=gBcvfFpabk3CnzmXKdYe3w&utm_campaign=yelp_api_v3&utm_medium=api_v3_business_search&utm_source=gBcvfFpabk3CnzmXKdYe3w"}, {"transactions": [], "distance": 6073.7249599140005, "phone": "+13479874435", "categories": [{"alias": "mexican", "title": "Mexican"}, {"alias": "seafood", "title": "Seafood"}], "id": "taqueria-restaurante-mi-barrio-2-brooklyn", "display_phone": "(347) 987-4435", "is_closed": false, "location": {"address2": null, "country": "US", "display_address": ["887 5th Ave", "Brooklyn, NY 11232"], "address1": "887 5th Ave", "city": "Brooklyn", "zip_code": "11232", "address3": "", "state": "NY"}, "coordinates": {"longitude": -74.00348, "latitude": 40.65128}, "review_count": 2, "image_url": "https://s3-media4.fl.yelpcdn.com/bphoto/goByjSLZvpWE41mmLR6FIg/o.jpg", "price": "$$", "rating": 3.0, "name": "Taqueria Restaurante Mi Barrio 2", "url": "https://www.yelp.com/biz/taqueria-restaurante-mi-barrio-2-brooklyn?adjust_creative=gBcvfFpabk3CnzmXKdYe3w&utm_campaign=yelp_api_v3&utm_medium=api_v3_business_search&utm_source=gBcvfFpabk3CnzmXKdYe3w"}, {"transactions": [], "distance": 2967.38558235, "phone": "", "categories": [{"alias": "mexican", "title": "Mexican"}, {"alias": "foodtrucks", "title": "Food Trucks"}], "id": "morelos-authentic-mexican-cuisine-park-slope", "display_phone": "", "is_closed": false, "location": {"address2": "", "country": "US", "display_address": ["Park Slope, NY 11217"], "address1": "", "city": "Park Slope", "zip_code": "11217", "address3": "", "state": "NY"}, "coordinates": {"longitude": -73.97806, "latitude": 40.68262}, "review_count": 12, "image_url": "https://s3-media1.fl.yelpcdn.com/bphoto/0HOiFblusuuMduzpFomtYw/o.jpg", "price": "$", "rating": 4.5, "name": "Morelos Authentic Mexican Cuisine", "url": "https://www.yelp.com/biz/morelos-authentic-mexican-cuisine-park-slope?adjust_creative=gBcvfFpabk3CnzmXKdYe3w&utm_campaign=yelp_api_v3&utm_medium=api_v3_business_search&utm_source=gBcvfFpabk3CnzmXKdYe3w"}, {"transactions": [], "distance": 1618.9236196999998, "phone": "+12122262172", "categories": [{"alias": "hotdogs", "title": "Fast Food"}, {"alias": "mexican", "title": "Mexican"}], "id": "chipotle-mexican-grill-new-york-80", "display_phone": "(212) 226-2172", "is_closed": false, "location": {"address2": "", "country": "US", "display_address": ["404 Broadway", "New York, NY 10013"], "address1": "404 Broadway", "city": "New York", "zip_code": "10013", "address3": "", "state": "NY"}, "coordinates": {"longitude": -74.0020446777344, "latitude": 40.7187461853027}, "review_count": 11, "image_url": "https://s3-media2.fl.yelpcdn.com/bphoto/wAT9ttjWXQKT1mraU7civQ/o.jpg", "price": "$$", "rating": 3.5, "name": "Chipotle Mexican Grill", "url": "https://www.yelp.com/biz/chipotle-mexican-grill-new-york-80?adjust_creative=gBcvfFpabk3CnzmXKdYe3w&utm_campaign=yelp_api_v3&utm_medium=api_v3_business_search&utm_source=gBcvfFpabk3CnzmXKdYe3w"}, {"transactions": [], "distance": 4740.16773874, "phone": "+16465802498", "categories": [{"alias": "mexican", "title": "Mexican"}, {"alias": "fooddeliveryservices", "title": "Food Delivery Services"}], "id": "a-la-carte-burritos-new-york", "display_phone": "(646) 580-2498", "is_closed": false, "location": {"address2": null, "country": "US", "display_address": ["New York, NY 10011"], "address1": "", "city": "New York", "zip_code": "10011", "address3": "", "state": "NY"}, "coordinates": {"longitude": -74.0053863525391, "latitude": 40.7441062927246}, "review_count": 2, "image_url": "https://s3-media4.fl.yelpcdn.com/bphoto/S7wRcHVuaZB-yoDEXegj1g/o.jpg", "price": "$", "rating": 5.0, "name": "A La Carte Burritos", "url": "https://www.yelp.com/biz/a-la-carte-burritos-new-york?adjust_creative=gBcvfFpabk3CnzmXKdYe3w&utm_campaign=yelp_api_v3&utm_medium=api_v3_business_search&utm_source=gBcvfFpabk3CnzmXKdYe3w"}, {"transactions": [], "distance": 9051.22830191, "phone": "+17184342315", "categories": [{"alias": "mexican", "title": "Mexican"}, {"alias": "hotdogs", "title": "Fast Food"}], "id": "chipotle-mexican-grill-brooklyn-16", "display_phone": "(718) 434-2315", "is_closed": false, "location": {"address2": "", "country": "US", "display_address": ["2166 Nostrand Ave", "Brooklyn, NY 11210"], "address1": "2166 Nostrand Ave", "city": "Brooklyn", "zip_code": "11210", "address3": null, "state": "NY"}, "coordinates": {"longitude": -73.9479141235352, "latitude": 40.6320037841797}, "review_count": 20, "image_url": "https://s3-media2.fl.yelpcdn.com/bphoto/k_oKFCqRfZUVuOsVFx_RwA/o.jpg", "price": "$$", "rating": 2.5, "name": "Chipotle Mexican Grill", "url": "https://www.yelp.com/biz/chipotle-mexican-grill-brooklyn-16?adjust_creative=gBcvfFpabk3CnzmXKdYe3w&utm_campaign=yelp_api_v3&utm_medium=api_v3_business_search&utm_source=gBcvfFpabk3CnzmXKdYe3w"}, {"transactions": [], "distance": 1962.94820815, "phone": "+12129823222", "categories": [{"alias": "mexican", "title": "Mexican"}, {"alias": "spanish", "title": "Spanish"}, {"alias": "tapas", "title": "Tapas Bars"}], "id": "ariels-latin-bistro-new-york", "display_phone": "(212) 982-3222", "is_closed": false, "location": {"address2": null, "country": "US", "display_address": ["293 E Houston St", "New York, NY 10002"], "address1": "293 E Houston St", "city": "New York", "zip_code": "10002", "address3": "", "state": "NY"}, "coordinates": {"longitude": -73.9840674, "latitude": 40.7213044}, "review_count": 255, "image_url": "https://s3-media2.fl.yelpcdn.com/bphoto/BjDRrKodZ20VfTJto0zCAg/o.jpg", "price": "$$", "rating": 3.0, "name": "Ariel's Latin Bistro", "url": "https://www.yelp.com/biz/ariels-latin-bistro-new-york?adjust_creative=gBcvfFpabk3CnzmXKdYe3w&utm_campaign=yelp_api_v3&utm_medium=api_v3_business_search&utm_source=gBcvfFpabk3CnzmXKdYe3w"}, {"transactions": [], "distance": 9888.65722228, "phone": "+16467320204", "categories": [{"alias": "mexican", "title": "Mexican"}, {"alias": "foodstands", "title": "Food Stands"}, {"alias": "streetvendors", "title": "Street Vendors"}], "id": "quesadilla-sabrosa-taqueria-jackson-heights", "display_phone": "(646) 732-0204", "is_closed": false, "location": {"address2": "", "country": "US", "display_address": ["75th St & Roosevelt Ave", "Jackson Heights, NY 11372"], "address1": "75th St & Roosevelt Ave", "city": "Jackson Heights", "zip_code": "11372", "address3": "", "state": "NY"}, "coordinates": {"longitude": -73.8904877, "latitude": 40.7469482}, "review_count": 8, "image_url": "https://s3-media2.fl.yelpcdn.com/bphoto/GFdycQ_nkRoau8uBQvTdqQ/o.jpg", "price": "$", "rating": 4.0, "name": "Quesadilla Sabrosa Taqueria", "url": "https://www.yelp.com/biz/quesadilla-sabrosa-taqueria-jackson-heights?adjust_creative=gBcvfFpabk3CnzmXKdYe3w&utm_campaign=yelp_api_v3&utm_medium=api_v3_business_search&utm_source=gBcvfFpabk3CnzmXKdYe3w"}, {"transactions": [], "distance": 15270.8904661, "phone": "+13472714642", "categories": [{"alias": "caribbean", "title": "Caribbean"}, {"alias": "latin", "title": "Latin American"}, {"alias": "mexican", "title": "Mexican"}], "id": "restaurante-lechonera-and-pollo-sabroso-new-york", "display_phone": "(347) 271-4642", "is_closed": false, "location": {"address2": "", "country": "US", "display_address": ["3326 3rd Ave 164 St", "New York, NY 10456"], "address1": "3326 3rd Ave 164 St", "city": "New York", "zip_code": "10456", "address3": "", "state": "NY"}, "coordinates": {"longitude": -73.9077866079099, "latitude": 40.826142342656}, "review_count": 17, "image_url": "https://s3-media1.fl.yelpcdn.com/bphoto/6048Wov-tmKUJB0Aow_0DQ/o.jpg", "price": "$$", "rating": 4.0, "name": "Restaurante Lechonera & Pollo Sabroso", "url": "https://www.yelp.com/biz/restaurante-lechonera-and-pollo-sabroso-new-york?adjust_creative=gBcvfFpabk3CnzmXKdYe3w&utm_campaign=yelp_api_v3&utm_medium=api_v3_business_search&utm_source=gBcvfFpabk3CnzmXKdYe3w"}, {"transactions": ["delivery", "pickup"], "distance": 4428.680464542, "phone": "+12017636902", "categories": [{"alias": "mexican", "title": "Mexican"}], "id": "taqueria-downtown-jersey-city-4", "display_phone": "(201) 763-6902", "is_closed": false, "location": {"address2": null, "country": "US", "display_address": ["354 Grove St", "Jersey City, NJ 07302"], "address1": "354 Grove St", "city": "Jersey City", "zip_code": "07302", "address3": null, "state": "NJ"}, "coordinates": {"longitude": -74.0426413714886, "latitude": 40.7210813462734}, "review_count": 30, "image_url": "https://s3-media2.fl.yelpcdn.com/bphoto/8WNg1iuu7TDASDFCqKAmCg/o.jpg", "price": "$$", "rating": 3.5, "name": "Taqueria Downtown", "url": "https://www.yelp.com/biz/taqueria-downtown-jersey-city-4?adjust_creative=gBcvfFpabk3CnzmXKdYe3w&utm_campaign=yelp_api_v3&utm_medium=api_v3_business_search&utm_source=gBcvfFpabk3CnzmXKdYe3w"}, {"transactions": [], "distance": 18514.00990334, "phone": "+19737480191", "categories": [{"alias": "mexican", "title": "Mexican"}], "id": "taqueria-los-g\u00fceros-bloomfield-4", "display_phone": "(973) 748-0191", "is_closed": false, "location": {"address2": "", "country": "US", "display_address": ["176 Bloomfield Ave", "Bloomfield, NJ 07003"], "address1": "176 Bloomfield Ave", "city": "Bloomfield", "zip_code": "07003", "address3": "", "state": "NJ"}, "coordinates": {"longitude": -74.1904374584556, "latitude": 40.7805310229124}, "review_count": 111, "image_url": "https://s3-media1.fl.yelpcdn.com/bphoto/xrsFCQrjX_UJIHsM-gA-ig/o.jpg", "price": "$", "rating": 4.0, "name": "Taqueria Los G\u00fceros", "url": "https://www.yelp.com/biz/taqueria-los-g%C3%BCeros-bloomfield-4?adjust_creative=gBcvfFpabk3CnzmXKdYe3w&utm_campaign=yelp_api_v3&utm_medium=api_v3_business_search&utm_source=gBcvfFpabk3CnzmXKdYe3w"}, {"transactions": [], "distance": 5573.786063858, "phone": "+17184433301", "categories": [{"alias": "mexican", "title": "Mexican"}], "id": "oaxaca-taqueria-bedford-stuyvesant", "display_phone": "(718) 443-3301", "is_closed": false, "location": {"address2": "", "country": "US", "display_address": ["478 Halsey St", "Bedford-Stuyvesant, NY 11233"], "address1": "478 Halsey St", "city": "Bedford-Stuyvesant", "zip_code": "11233", "address3": "", "state": "NY"}, "coordinates": {"longitude": -73.93497, "latitude": 40.68334}, "review_count": 41, "image_url": "https://s3-media1.fl.yelpcdn.com/bphoto/6yfvtQJvoTyarbwKG1QpFw/o.jpg", "price": "$", "rating": 3.0, "name": "Oaxaca Taqueria", "url": "https://www.yelp.com/biz/oaxaca-taqueria-bedford-stuyvesant?adjust_creative=gBcvfFpabk3CnzmXKdYe3w&utm_campaign=yelp_api_v3&utm_medium=api_v3_business_search&utm_source=gBcvfFpabk3CnzmXKdYe3w"}, {"transactions": ["delivery", "pickup"], "distance": 1471.3416216638, "phone": "+12127912438", "categories": [{"alias": "mexican", "title": "Mexican"}, {"alias": "chinese", "title": "Chinese"}], "id": "new-fresco-tortillas-new-york", "display_phone": "(212) 791-2438", "is_closed": false, "location": {"address2": "", "country": "US", "display_address": ["63 Reade St", "New York, NY 10007"], "address1": "63 Reade St", "city": "New York", "zip_code": "10007", "address3": "", "state": "NY"}, "coordinates": {"longitude": -74.0064545, "latitude": 40.7147827}, "review_count": 31, "image_url": "https://s3-media2.fl.yelpcdn.com/bphoto/5h75AXbPjlK2onhrmhEkyg/o.jpg", "price": "$", "rating": 2.0, "name": "New Fresco Tortillas", "url": "https://www.yelp.com/biz/new-fresco-tortillas-new-york?adjust_creative=gBcvfFpabk3CnzmXKdYe3w&utm_campaign=yelp_api_v3&utm_medium=api_v3_business_search&utm_source=gBcvfFpabk3CnzmXKdYe3w"}, {"transactions": [], "distance": 15409.22611382, "phone": "+12127953290", "categories": [{"alias": "mexican", "title": "Mexican"}], "id": "don-panchito-new-york", "display_phone": "(212) 795-3290", "is_closed": false, "location": {"address2": "", "country": "US", "display_address": ["2102 Amsterdam Ave", "New York, NY 10032"], "address1": "2102 Amsterdam Ave", "city": "New York", "zip_code": "10032", "address3": "", "state": "NY"}, "coordinates": {"longitude": -73.939018, "latitude": 40.837535}, "review_count": 1, "image_url": "", "price": "$$", "rating": 5.0, "name": "Don Panchito", "url": "https://www.yelp.com/biz/don-panchito-new-york?adjust_creative=gBcvfFpabk3CnzmXKdYe3w&utm_campaign=yelp_api_v3&utm_medium=api_v3_business_search&utm_source=gBcvfFpabk3CnzmXKdYe3w"}, {"transactions": [], "distance": 8417.502879512, "phone": "+12016010202", "categories": [{"alias": "mexican", "title": "Mexican"}], "id": "el-mole-poblano-rest-union-city", "display_phone": "(201) 601-0202", "is_closed": false, "location": {"address2": null, "country": "US", "display_address": ["4316 New York Ave", "Union City, NJ 07087"], "address1": "4316 New York Ave", "city": "Union City", "zip_code": "07087", "address3": null, "state": "NJ"}, "coordinates": {"longitude": -74.02301, "latitude": 40.77794}, "review_count": 7, "image_url": "https://s3-media3.fl.yelpcdn.com/bphoto/cIisj-AzIXEY93zbmarRoA/o.jpg", "price": "$", "rating": 4.5, "name": "El Mole Poblano Rest", "url": "https://www.yelp.com/biz/el-mole-poblano-rest-union-city?adjust_creative=gBcvfFpabk3CnzmXKdYe3w&utm_campaign=yelp_api_v3&utm_medium=api_v3_business_search&utm_source=gBcvfFpabk3CnzmXKdYe3w"}, {"transactions": [], "distance": 10215.069032836, "phone": "+17188030284", "categories": [{"alias": "colombian", "title": "Colombian"}, {"alias": "mexican", "title": "Mexican"}], "id": "el-rinconcito-de-tito-jackson-heights", "display_phone": "(718) 803-0284", "is_closed": false, "location": {"address2": null, "country": "US", "display_address": ["3761 79th St", "Jackson Heights, NY 11372"], "address1": "3761 79th St", "city": "Jackson Heights", "zip_code": "11372", "address3": null, "state": "NY"}, "coordinates": {"longitude": -73.8866922, "latitude": 40.7482006}, "review_count": 2, "image_url": "https://s3-media1.fl.yelpcdn.com/bphoto/9-Znglgj2kuZxNiriHpNkg/o.jpg", "rating": 4.0, "name": "El Rinconcito De Tito", "url": "https://www.yelp.com/biz/el-rinconcito-de-tito-jackson-heights?adjust_creative=gBcvfFpabk3CnzmXKdYe3w&utm_campaign=yelp_api_v3&utm_medium=api_v3_business_search&utm_source=gBcvfFpabk3CnzmXKdYe3w"}, {"transactions": ["delivery", "pickup"], "distance": 7595.069950195999, "phone": "+13478910579", "categories": [{"alias": "mexican", "title": "Mexican"}, {"alias": "foodtrucks", "title": "Food Trucks"}], "id": "tacos-el-pollo-brooklyn", "display_phone": "(347) 891-0579", "is_closed": false, "location": {"address2": "", "country": "US", "display_address": ["1318 Cortelyou Rd", "Brooklyn, NY 11226"], "address1": "1318 Cortelyou Rd", "city": "Brooklyn", "zip_code": "11226", "address3": null, "state": "NY"}, "coordinates": {"longitude": -73.9653689414263, "latitude": 40.6407576528866}, "review_count": 2, "image_url": "https://s3-media2.fl.yelpcdn.com/bphoto/8deLhon61Ts_C_q0D26EQg/o.jpg", "rating": 5.0, "name": "Tacos El Pollo", "url": "https://www.yelp.com/biz/tacos-el-pollo-brooklyn?adjust_creative=gBcvfFpabk3CnzmXKdYe3w&utm_campaign=yelp_api_v3&utm_medium=api_v3_business_search&utm_source=gBcvfFpabk3CnzmXKdYe3w"}, {"transactions": [], "distance": 7310.854390703999, "phone": "+17182826686", "categories": [{"alias": "chinese", "title": "Chinese"}, {"alias": "mexican", "title": "Mexican"}], "id": "wing-luck-brooklyn", "display_phone": "(718) 282-6686", "is_closed": false, "location": {"address2": "", "country": "US", "display_address": ["3312 Church Ave", "Brooklyn, NY 11203"], "address1": "3312 Church Ave", "city": "Brooklyn", "zip_code": "11203", "address3": "", "state": "NY"}, "coordinates": {"longitude": -73.946182, "latitude": 40.65076}, "review_count": 3, "image_url": "https://s3-media4.fl.yelpcdn.com/bphoto/WRskirk_WE_7LDSrP7ZwcQ/o.jpg", "price": "$", "rating": 3.0, "name": "Wing Luck", "url": "https://www.yelp.com/biz/wing-luck-brooklyn?adjust_creative=gBcvfFpabk3CnzmXKdYe3w&utm_campaign=yelp_api_v3&utm_medium=api_v3_business_search&utm_source=gBcvfFpabk3CnzmXKdYe3w"}, {"transactions": ["delivery", "pickup"], "distance": 2745.5201996759997, "phone": "+12122423520", "categories": [{"alias": "mexican", "title": "Mexican"}], "id": "fresh-tortillas-express-new-york", "display_phone": "(212) 242-3520", "is_closed": false, "location": {"address2": "", "country": "US", "display_address": ["206 Varick St", "New York, NY 10014"], "address1": "206 Varick St", "city": "New York", "zip_code": "10014", "address3": "", "state": "NY"}, "coordinates": {"longitude": -74.005058, "latitude": 40.728748}, "review_count": 53, "image_url": "https://s3-media4.fl.yelpcdn.com/bphoto/_SvSGqmKaf1fT6f3q45cww/o.jpg", "price": "$", "rating": 3.0, "name": "Fresh Tortillas Express", "url": "https://www.yelp.com/biz/fresh-tortillas-express-new-york?adjust_creative=gBcvfFpabk3CnzmXKdYe3w&utm_campaign=yelp_api_v3&utm_medium=api_v3_business_search&utm_source=gBcvfFpabk3CnzmXKdYe3w"}, {"transactions": [], "distance": 11255.994811921999, "phone": "+17184484688", "categories": [{"alias": "bakeries", "title": "Bakeries"}, {"alias": "catering", "title": "Caterers"}, {"alias": "mexican", "title": "Mexican"}], "id": "mexico-azteca-staten-island", "display_phone": "(718) 448-4688", "is_closed": false, "location": {"address2": "", "country": "US", "display_address": ["33 Broad St", "Staten Island, NY 10304"], "address1": "33 Broad St", "city": "Staten Island", "zip_code": "10304", "address3": "", "state": "NY"}, "coordinates": {"longitude": -74.0764389038086, "latitude": 40.6257133483887}, "review_count": 1, "image_url": "https://s3-media2.fl.yelpcdn.com/bphoto/9XOlp5lE6XNA0yLjMUXidA/o.jpg", "price": "$", "rating": 4.0, "name": "Mexico Azteca", "url": "https://www.yelp.com/biz/mexico-azteca-staten-island?adjust_creative=gBcvfFpabk3CnzmXKdYe3w&utm_campaign=yelp_api_v3&utm_medium=api_v3_business_search&utm_source=gBcvfFpabk3CnzmXKdYe3w"}, {"transactions": [], "distance": 5657.110125159999, "phone": "+16467470811", "categories": [{"alias": "mexican", "title": "Mexican"}, {"alias": "foodstands", "title": "Food Stands"}], "id": "takumi-taco-new-york-12", "display_phone": "(646) 747-0811", "is_closed": false, "location": {"address2": "", "country": "US", "display_address": ["230 Park Ave", "New York, NY 10169"], "address1": "230 Park Ave", "city": "New York", "zip_code": "10169", "address3": "", "state": "NY"}, "coordinates": {"longitude": -73.975995182991, "latitude": 40.7543951061432}, "review_count": 33, "image_url": "https://s3-media3.fl.yelpcdn.com/bphoto/67qCeKDD9ZiHFTSnqi5OTA/o.jpg", "price": "$$", "rating": 3.0, "name": "Takumi Taco", "url": "https://www.yelp.com/biz/takumi-taco-new-york-12?adjust_creative=gBcvfFpabk3CnzmXKdYe3w&utm_campaign=yelp_api_v3&utm_medium=api_v3_business_search&utm_source=gBcvfFpabk3CnzmXKdYe3w"}, {"transactions": [], "distance": 13268.5335447, "phone": "", "categories": [{"alias": "foodtrucks", "title": "Food Trucks"}, {"alias": "mexican", "title": "Mexican"}], "id": "136th-and-broadway-taco-cart-new-york", "display_phone": "", "is_closed": false, "location": {"address2": "", "country": "US", "display_address": ["Broadway & W 136th St", "New York, NY 10031"], "address1": "Broadway & W 136th St", "city": "New York", "zip_code": "10031", "address3": "", "state": "NY"}, "coordinates": {"longitude": -73.9540495845744, "latitude": 40.8208131948207}, "review_count": 2, "image_url": "https://s3-media2.fl.yelpcdn.com/bphoto/FLPjsAgPSwbRSdZ6ejuUHg/o.jpg", "rating": 5.0, "name": "136th and Broadway Taco Cart", "url": "https://www.yelp.com/biz/136th-and-broadway-taco-cart-new-york?adjust_creative=gBcvfFpabk3CnzmXKdYe3w&utm_campaign=yelp_api_v3&utm_medium=api_v3_business_search&utm_source=gBcvfFpabk3CnzmXKdYe3w"}, {"transactions": ["delivery", "pickup"], "distance": 6211.122523348, "phone": "+17186331254", "categories": [{"alias": "bakeries", "title": "Bakeries"}, {"alias": "mexican", "title": "Mexican"}], "id": "la-flor-bakery-brooklyn-2", "display_phone": "(718) 633-1254", "is_closed": false, "location": {"address2": "", "country": "US", "display_address": ["4021 5th Ave", "Brooklyn, NY 11232"], "address1": "4021 5th Ave", "city": "Brooklyn", "zip_code": "11232", "address3": "", "state": "NY"}, "coordinates": {"longitude": -74.004722, "latitude": 40.650146}, "review_count": 13, "image_url": "https://s3-media2.fl.yelpcdn.com/bphoto/J8CD2E81O0xCXk4rl5TzDA/o.jpg", "rating": 3.5, "name": "La Flor Bakery", "url": "https://www.yelp.com/biz/la-flor-bakery-brooklyn-2?adjust_creative=gBcvfFpabk3CnzmXKdYe3w&utm_campaign=yelp_api_v3&utm_medium=api_v3_business_search&utm_source=gBcvfFpabk3CnzmXKdYe3w"}, {"transactions": ["delivery", "pickup"], "distance": 9413.567501428, "phone": "+17187267100", "categories": [{"alias": "mexican", "title": "Mexican"}], "id": "frijole-mexican-grill-woodside", "display_phone": "(718) 726-7100", "is_closed": false, "location": {"address2": null, "country": "US", "display_address": ["56-16 31st Ave", "Woodside, NY 11377"], "address1": "56-16 31st Ave", "city": "Woodside", "zip_code": "11377", "address3": "", "state": "NY"}, "coordinates": {"longitude": -73.9053209871054, "latitude": 40.757155045867}, "review_count": 14, "image_url": "https://s3-media3.fl.yelpcdn.com/bphoto/kTfwOc4a1G1SLFCAOl1NVA/o.jpg", "price": "$", "rating": 2.5, "name": "Frijole Mexican Grill", "url": "https://www.yelp.com/biz/frijole-mexican-grill-woodside?adjust_creative=gBcvfFpabk3CnzmXKdYe3w&utm_campaign=yelp_api_v3&utm_medium=api_v3_business_search&utm_source=gBcvfFpabk3CnzmXKdYe3w"}, {"transactions": ["delivery", "pickup"], "distance": 7558.231996662, "phone": "+17186091630", "categories": [{"alias": "pizza", "title": "Pizza"}, {"alias": "mexican", "title": "Mexican"}], "id": "giovanni-pizza-restaurant-woodside-2", "display_phone": "(718) 609-1630", "is_closed": false, "location": {"address2": "", "country": "US", "display_address": ["45-59 47th St", "Woodside, NY 11377"], "address1": "45-59 47th St", "city": "Woodside", "zip_code": "11377", "address3": "", "state": "NY"}, "coordinates": {"longitude": -73.9180011701606, "latitude": 40.7411792167517}, "review_count": 13, "image_url": "https://s3-media3.fl.yelpcdn.com/bphoto/OlRqjlCLqYYKHJi_XNORhg/o.jpg", "price": "$$", "rating": 4.0, "name": "Giovanni Pizza Restaurant", "url": "https://www.yelp.com/biz/giovanni-pizza-restaurant-woodside-2?adjust_creative=gBcvfFpabk3CnzmXKdYe3w&utm_campaign=yelp_api_v3&utm_medium=api_v3_business_search&utm_source=gBcvfFpabk3CnzmXKdYe3w"}, {"transactions": ["pickup", "delivery"], "distance": 13625.64448136, "phone": "+15513130760", "categories": [{"alias": "mexican", "title": "Mexican"}, {"alias": "cocktailbars", "title": "Cocktail Bars"}], "id": "viva-margarita-cliffside-park", "display_phone": "(551) 313-0760", "is_closed": false, "location": {"address2": "", "country": "US", "display_address": ["364 Lawton Ave", "Cliffside Park, NJ 07010"], "address1": "364 Lawton Ave", "city": "Cliffside Park", "zip_code": "07010", "address3": null, "state": "NJ"}, "coordinates": {"longitude": -73.9875635504723, "latitude": 40.8280022442341}, "review_count": 46, "image_url": "https://s3-media2.fl.yelpcdn.com/bphoto/ejdNY7kLMM8cXOaE0uWQSg/o.jpg", "price": "$$", "rating": 4.0, "name": "Viva Margarita", "url": "https://www.yelp.com/biz/viva-margarita-cliffside-park?adjust_creative=gBcvfFpabk3CnzmXKdYe3w&utm_campaign=yelp_api_v3&utm_medium=api_v3_business_search&utm_source=gBcvfFpabk3CnzmXKdYe3w"}, {"transactions": [], "distance": 12392.142502929999, "phone": "+17186061559", "categories": [{"alias": "mexican", "title": "Mexican"}], "id": "mi-cocina-mexican-cuisine-corona-queens", "display_phone": "(718) 606-1559", "is_closed": false, "location": {"address2": "", "country": "US", "display_address": ["107-02 Corona Ave", "Corona Queens, NY 11368"], "address1": "107-02 Corona Ave", "city": "Corona Queens", "zip_code": "11368", "address3": "", "state": "NY"}, "coordinates": {"longitude": -73.8560791, "latitude": 40.7434692}, "review_count": 3, "image_url": "https://s3-media4.fl.yelpcdn.com/bphoto/c6g1MRIrebGddhUPSwOzKA/o.jpg", "rating": 4.0, "name": "Mi Cocina Mexican Cuisine", "url": "https://www.yelp.com/biz/mi-cocina-mexican-cuisine-corona-queens?adjust_creative=gBcvfFpabk3CnzmXKdYe3w&utm_campaign=yelp_api_v3&utm_medium=api_v3_business_search&utm_source=gBcvfFpabk3CnzmXKdYe3w"}, {"transactions": [], "distance": 13404.933156399999, "phone": "+16464631200", "categories": [{"alias": "foodtrucks", "title": "Food Trucks"}, {"alias": "tacos", "title": "Tacos"}], "id": "tacos-al-gusto-new-york-4", "display_phone": "(646) 463-1200", "is_closed": false, "location": {"address2": null, "country": "US", "display_address": ["3394 Broadway", "New York, NY 10031"], "address1": "3394 Broadway", "city": "New York", "zip_code": "10031", "address3": "", "state": "NY"}, "coordinates": {"longitude": -73.9536564052105, "latitude": 40.8217822015285}, "review_count": 1, "image_url": "https://s3-media3.fl.yelpcdn.com/bphoto/uDILQE9HdWsxpVhdOhLq3Q/o.jpg", "rating": 5.0, "name": "Tacos Al Gusto", "url": "https://www.yelp.com/biz/tacos-al-gusto-new-york-4?adjust_creative=gBcvfFpabk3CnzmXKdYe3w&utm_campaign=yelp_api_v3&utm_medium=api_v3_business_search&utm_source=gBcvfFpabk3CnzmXKdYe3w"}, {"transactions": ["delivery", "pickup"], "distance": 4237.426981744, "phone": "", "categories": [{"alias": "newamerican", "title": "American (New)"}, {"alias": "mexican", "title": "Mexican"}], "id": "cafe-chillo-brooklyn", "display_phone": "", "is_closed": false, "location": {"address2": null, "country": "US", "display_address": ["702 Grand St", "Brooklyn, NY 11211"], "address1": "702 Grand St", "city": "Brooklyn", "zip_code": "11211", "address3": "", "state": "NY"}, "coordinates": {"longitude": -73.944611, "latitude": 40.7113}, "review_count": 13, "image_url": "https://s3-media3.fl.yelpcdn.com/bphoto/YinYPTQp__MDVmLWeFdDzg/o.jpg", "price": "$$", "rating": 3.0, "name": "Cafe Chillo", "url": "https://www.yelp.com/biz/cafe-chillo-brooklyn?adjust_creative=gBcvfFpabk3CnzmXKdYe3w&utm_campaign=yelp_api_v3&utm_medium=api_v3_business_search&utm_source=gBcvfFpabk3CnzmXKdYe3w"}, {"transactions": ["delivery", "pickup"], "distance": 3429.5148053799994, "phone": "+17187971889", "categories": [{"alias": "korean", "title": "Korean"}, {"alias": "mexican", "title": "Mexican"}], "id": "kimchi-grill-brooklyn-8", "display_phone": "(718) 797-1889", "is_closed": false, "location": {"address2": "", "country": "US", "display_address": ["478 Smith St", "Brooklyn, NY 11231"], "address1": "478 Smith St", "city": "Brooklyn", "zip_code": "11231", "address3": "", "state": "NY"}, "coordinates": {"longitude": -73.9978033, "latitude": 40.674716}, "review_count": 71, "image_url": "https://s3-media4.fl.yelpcdn.com/bphoto/Gw2sFkp3u9kI_7oodZ_WdQ/o.jpg", "price": "$", "rating": 3.5, "name": "Kimchi Grill", "url": "https://www.yelp.com/biz/kimchi-grill-brooklyn-8?adjust_creative=gBcvfFpabk3CnzmXKdYe3w&utm_campaign=yelp_api_v3&utm_medium=api_v3_business_search&utm_source=gBcvfFpabk3CnzmXKdYe3w"}, {"transactions": [], "distance": 1716.494041484, "phone": "+12129950154", "categories": [{"alias": "mexican", "title": "Mexican"}], "id": "festival-mexicano-new-york", "display_phone": "(212) 995-0154", "is_closed": false, "location": {"address2": "", "country": "US", "display_address": ["120 Rivington St", "New York, NY 10002"], "address1": "120 Rivington St", "city": "New York", "zip_code": "10002", "address3": "", "state": "NY"}, "coordinates": {"longitude": -73.987197, "latitude": 40.719905}, "review_count": 36, "image_url": "https://s3-media2.fl.yelpcdn.com/bphoto/SPC60aQplLl8XgFFeHWO5A/o.jpg", "price": "$$", "rating": 3.0, "name": "Festival Mexicano", "url": "https://www.yelp.com/biz/festival-mexicano-new-york?adjust_creative=gBcvfFpabk3CnzmXKdYe3w&utm_campaign=yelp_api_v3&utm_medium=api_v3_business_search&utm_source=gBcvfFpabk3CnzmXKdYe3w"}, {"transactions": [], "distance": 8466.35793576, "phone": "+12122492222", "categories": [{"alias": "mexican", "title": "Mexican"}], "id": "mexicali-manhattan", "display_phone": "(212) 249-2222", "is_closed": false, "location": {"address2": "", "country": "US", "display_address": ["1571 2nd Ave", "Manhattan, NY 10028"], "address1": "1571 2nd Ave", "city": "Manhattan", "zip_code": "10028", "address3": "", "state": "NY"}, "coordinates": {"longitude": -73.9541625976562, "latitude": 40.7752647399902}, "review_count": 6, "image_url": "", "price": "$$", "rating": 1.5, "name": "MexiCali", "url": "https://www.yelp.com/biz/mexicali-manhattan?adjust_creative=gBcvfFpabk3CnzmXKdYe3w&utm_campaign=yelp_api_v3&utm_medium=api_v3_business_search&utm_source=gBcvfFpabk3CnzmXKdYe3w"}, {"transactions": [], "distance": 2694.331761362, "phone": "+12122603300", "categories": [{"alias": "mexican", "title": "Mexican"}], "id": "burritoville-new-york-9", "display_phone": "(212) 260-3300", "is_closed": false, "location": {"address2": "", "country": "US", "display_address": ["141 2nd Ave", "New York, NY 10003"], "address1": "141 2nd Ave", "city": "New York", "zip_code": "10003", "address3": "", "state": "NY"}, "coordinates": {"longitude": -73.9874899, "latitude": 40.72915}, "review_count": 13, "image_url": "", "price": "$", "rating": 3.0, "name": "Burritoville", "url": "https://www.yelp.com/biz/burritoville-new-york-9?adjust_creative=gBcvfFpabk3CnzmXKdYe3w&utm_campaign=yelp_api_v3&utm_medium=api_v3_business_search&utm_source=gBcvfFpabk3CnzmXKdYe3w"}, {"transactions": [], "distance": 10920.103023161999, "phone": "+17186212113", "categories": [{"alias": "newamerican", "title": "American (New)"}, {"alias": "mexican", "title": "Mexican"}], "id": "jennis-restaurant-brooklyn", "display_phone": "(718) 621-2113", "is_closed": false, "location": {"address2": null, "country": "US", "display_address": ["1810 Mc Donald Ave", "Brooklyn, NY 11223"], "address1": "1810 Mc Donald Ave", "city": "Brooklyn", "zip_code": "11223", "address3": "", "state": "NY"}, "coordinates": {"longitude": -73.973266, "latitude": 40.608535}, "review_count": 1, "image_url": "https://s3-media2.fl.yelpcdn.com/bphoto/U1XXKxSiGrv1Z7EaUo-0Ig/o.jpg", "rating": 4.0, "name": "Jennis Restaurant", "url": "https://www.yelp.com/biz/jennis-restaurant-brooklyn?adjust_creative=gBcvfFpabk3CnzmXKdYe3w&utm_campaign=yelp_api_v3&utm_medium=api_v3_business_search&utm_source=gBcvfFpabk3CnzmXKdYe3w"}, {"transactions": ["delivery", "pickup"], "distance": 5092.289399532, "phone": "+12017980052", "categories": [{"alias": "mexican", "title": "Mexican"}, {"alias": "bars", "title": "Bars"}], "id": "east-la-hoboken", "display_phone": "(201) 798-0052", "is_closed": false, "location": {"address2": "", "country": "US", "display_address": ["508 Washington St", "Hoboken, NJ 07030"], "address1": "508 Washington St", "city": "Hoboken", "zip_code": "07030", "address3": "", "state": "NJ"}, "coordinates": {"longitude": -74.02966, "latitude": 40.74258}, "review_count": 265, "image_url": "https://s3-media2.fl.yelpcdn.com/bphoto/512tz8VHzOuvQQ1IkuJQBw/o.jpg", "price": "$$", "rating": 3.0, "name": "East LA", "url": "https://www.yelp.com/biz/east-la-hoboken?adjust_creative=gBcvfFpabk3CnzmXKdYe3w&utm_campaign=yelp_api_v3&utm_medium=api_v3_business_search&utm_source=gBcvfFpabk3CnzmXKdYe3w"}, {"transactions": [], "distance": 1582.6784665549999, "phone": "+12123440941", "categories": [{"alias": "mexican", "title": "Mexican"}, {"alias": "hotdogs", "title": "Fast Food"}], "id": "chipotle-mexican-grill-new-york-30", "display_phone": "(212) 344-0941", "is_closed": false, "location": {"address2": null, "country": "US", "display_address": ["2 Broadway", "New York, NY 10004"], "address1": "2 Broadway", "city": "New York", "zip_code": "10004", "address3": "", "state": "NY"}, "coordinates": {"longitude": -74.013003687106, "latitude": 40.7042316742746}, "review_count": 124, "image_url": "https://s3-media2.fl.yelpcdn.com/bphoto/A9tTgzLwCvy_bmWbrOWX8w/o.jpg", "price": "$", "rating": 3.5, "name": "Chipotle Mexican Grill", "url": "https://www.yelp.com/biz/chipotle-mexican-grill-new-york-30?adjust_creative=gBcvfFpabk3CnzmXKdYe3w&utm_campaign=yelp_api_v3&utm_medium=api_v3_business_search&utm_source=gBcvfFpabk3CnzmXKdYe3w"}, {"transactions": ["delivery", "pickup"], "distance": 7858.224398976, "phone": "+17182679536", "categories": [{"alias": "mexican", "title": "Mexican"}], "id": "fresco-tortillas-astoria-4", "display_phone": "(718) 267-9536", "is_closed": false, "location": {"address2": null, "country": "US", "display_address": ["3112 36th Ave", "Astoria, NY 11106"], "address1": "3112 36th Ave", "city": "Astoria", "zip_code": "11106", "address3": null, "state": "NY"}, "coordinates": {"longitude": -73.92941, "latitude": 40.75618}, "review_count": 33, "image_url": "https://s3-media4.fl.yelpcdn.com/bphoto/NuN2ahfXhjVLozmE8MI1jg/o.jpg", "price": "$", "rating": 3.0, "name": "Fresco Tortillas", "url": "https://www.yelp.com/biz/fresco-tortillas-astoria-4?adjust_creative=gBcvfFpabk3CnzmXKdYe3w&utm_campaign=yelp_api_v3&utm_medium=api_v3_business_search&utm_source=gBcvfFpabk3CnzmXKdYe3w"}, {"transactions": [], "distance": 9106.25405052, "phone": "+17188981306", "categories": [{"alias": "mexican", "title": "Mexican"}, {"alias": "sandwiches", "title": "Sandwiches"}, {"alias": "delis", "title": "Delis"}], "id": "gourmet-deli-65-queens", "display_phone": "(718) 898-1306", "is_closed": false, "location": {"address2": null, "country": "US", "display_address": ["6540 Woodside Ave", "Queens, NY 11377"], "address1": "6540 Woodside Ave", "city": "Queens", "zip_code": "11377", "address3": "", "state": "NY"}, "coordinates": {"longitude": -73.8986053514038, "latitude": 40.7434954570452}, "review_count": 2, "image_url": "https://s3-media4.fl.yelpcdn.com/bphoto/7ZMjyhpMp3WqnQ6OpFFVgQ/o.jpg", "rating": 5.0, "name": "Gourmet Deli 65", "url": "https://www.yelp.com/biz/gourmet-deli-65-queens?adjust_creative=gBcvfFpabk3CnzmXKdYe3w&utm_campaign=yelp_api_v3&utm_medium=api_v3_business_search&utm_source=gBcvfFpabk3CnzmXKdYe3w"}, {"transactions": [], "distance": 4903.480826062, "phone": "+12122792829", "categories": [{"alias": "mexican", "title": "Mexican"}], "id": "desert-moon-mexican-food-new-york", "display_phone": "(212) 279-2829", "is_closed": false, "location": {"address2": "", "country": "US", "display_address": ["Manhattan Mall", "1275 Broadway", "New York, NY 10001"], "address1": "Manhattan Mall", "city": "New York", "zip_code": "10001", "address3": "1275 Broadway", "state": "NY"}, "coordinates": {"longitude": -73.989257, "latitude": 40.749149}, "review_count": 1, "image_url": "", "rating": 3.0, "name": "Desert Moon Mexican Food", "url": "https://www.yelp.com/biz/desert-moon-mexican-food-new-york?adjust_creative=gBcvfFpabk3CnzmXKdYe3w&utm_campaign=yelp_api_v3&utm_medium=api_v3_business_search&utm_source=gBcvfFpabk3CnzmXKdYe3w"}, {"transactions": [], "distance": 1021.801830932, "phone": "+16468835453", "categories": [{"alias": "mexican", "title": "Mexican"}, {"alias": "bars", "title": "Bars"}], "id": "jajaja-new-york", "display_phone": "(646) 883-5453", "is_closed": false, "location": {"address2": "", "country": "US", "display_address": ["162 E Broadway", "New York, NY 10002"], "address1": "162 E Broadway", "city": "New York", "zip_code": "10002", "address3": null, "state": "NY"}, "coordinates": {"longitude": -73.9904247969389, "latitude": 40.7141530317142}, "review_count": 18, "image_url": "https://s3-media1.fl.yelpcdn.com/bphoto/4aD7WTYZ7EXbOQFcycxUzw/o.jpg", "price": "$$", "rating": 5.0, "name": "Jajaja", "url": "https://www.yelp.com/biz/jajaja-new-york?adjust_creative=gBcvfFpabk3CnzmXKdYe3w&utm_campaign=yelp_api_v3&utm_medium=api_v3_business_search&utm_source=gBcvfFpabk3CnzmXKdYe3w"}, {"transactions": ["delivery", "pickup"], "distance": 6083.5469228679995, "phone": "+17184174328", "categories": [{"alias": "mexican", "title": "Mexican"}], "id": "taquiera-el-paisa-ii-brooklyn", "display_phone": "(718) 417-4328", "is_closed": false, "location": {"address2": null, "country": "US", "display_address": ["324 Suydam St", "Brooklyn, NY 11237"], "address1": "324 Suydam St", "city": "Brooklyn", "zip_code": "11237", "address3": null, "state": "NY"}, "coordinates": {"longitude": -73.92218, "latitude": 40.703278}, "review_count": 1, "image_url": "", "rating": 4.0, "name": "Taquiera El Paisa II", "url": "https://www.yelp.com/biz/taquiera-el-paisa-ii-brooklyn?adjust_creative=gBcvfFpabk3CnzmXKdYe3w&utm_campaign=yelp_api_v3&utm_medium=api_v3_business_search&utm_source=gBcvfFpabk3CnzmXKdYe3w"}, {"transactions": ["delivery", "pickup"], "distance": 8669.78092577, "phone": "+17187771252", "categories": [{"alias": "pizza", "title": "Pizza"}, {"alias": "mexican", "title": "Mexican"}], "id": "cantinas-restaurant-astoria", "display_phone": "(718) 777-1252", "is_closed": false, "location": {"address2": "", "country": "US", "display_address": ["37-07 Broadway", "Astoria, NY 11103"], "address1": "37-07 Broadway", "city": "Astoria", "zip_code": "11103", "address3": "", "state": "NY"}, "coordinates": {"longitude": -73.920246, "latitude": 40.759578}, "review_count": 5, "image_url": "https://s3-media3.fl.yelpcdn.com/bphoto/4SbfDVcvOhMc0qUA48OEPA/o.jpg", "price": "$", "rating": 2.5, "name": "Cantina's Restaurant", "url": "https://www.yelp.com/biz/cantinas-restaurant-astoria?adjust_creative=gBcvfFpabk3CnzmXKdYe3w&utm_campaign=yelp_api_v3&utm_medium=api_v3_business_search&utm_source=gBcvfFpabk3CnzmXKdYe3w"}, {"transactions": [], "distance": 8865.9184336, "phone": "", "categories": [{"alias": "foodtrucks", "title": "Food Trucks"}, {"alias": "streetvendors", "title": "Street Vendors"}, {"alias": "mexican", "title": "Mexican"}], "id": "tamale-lady-woodside", "display_phone": "", "is_closed": false, "location": {"address2": "", "country": "US", "display_address": ["61 St & Roosevelt Ave", "Woodside, NY 11377"], "address1": "61 St & Roosevelt Ave", "city": "Woodside", "zip_code": "11377", "address3": "", "state": "NY"}, "coordinates": {"longitude": -73.903394166448, "latitude": 40.7455917517942}, "review_count": 1, "image_url": "", "price": "$", "rating": 5.0, "name": "Tamale Lady", "url": "https://www.yelp.com/biz/tamale-lady-woodside?adjust_creative=gBcvfFpabk3CnzmXKdYe3w&utm_campaign=yelp_api_v3&utm_medium=api_v3_business_search&utm_source=gBcvfFpabk3CnzmXKdYe3w"}, {"transactions": [], "distance": 6969.18732442, "phone": "+17188510403", "categories": [{"alias": "mexican", "title": "Mexican"}, {"alias": "chinese", "title": "Chinese"}], "id": "403-restaurant-brooklyn", "display_phone": "(718) 851-0403", "is_closed": false, "location": {"address2": "", "country": "US", "display_address": ["403 Church Ave", "Brooklyn, NY 11218"], "address1": "403 Church Ave", "city": "Brooklyn", "zip_code": "11218", "address3": "", "state": "NY"}, "coordinates": {"longitude": -73.9764, "latitude": 40.64422}, "review_count": 16, "image_url": "https://s3-media1.fl.yelpcdn.com/bphoto/aHes-6mFMaiKz97jyET6UQ/o.jpg", "price": "$", "rating": 3.5, "name": "403 Restaurant", "url": "https://www.yelp.com/biz/403-restaurant-brooklyn?adjust_creative=gBcvfFpabk3CnzmXKdYe3w&utm_campaign=yelp_api_v3&utm_medium=api_v3_business_search&utm_source=gBcvfFpabk3CnzmXKdYe3w"}, {"transactions": [], "distance": 9391.717653181999, "phone": "+12018683155", "categories": [{"alias": "mexican", "title": "Mexican"}, {"alias": "bakeries", "title": "Bakeries"}, {"alias": "breakfast_brunch", "title": "Breakfast & Brunch"}], "id": "xochimilco-mexican-restaurant-and-bakery-west-new-york", "display_phone": "(201) 868-3155", "is_closed": false, "location": {"address2": "", "country": "US", "display_address": ["321-323 61st St", "West New York, NJ 07093"], "address1": "321-323 61st St", "city": "West New York", "zip_code": "07093", "address3": "", "state": "NJ"}, "coordinates": {"longitude": -74.01255, "latitude": 40.78872}, "review_count": 10, "image_url": "https://s3-media2.fl.yelpcdn.com/bphoto/YdxCgwhEaZBjFTOtsFN18g/o.jpg", "price": "$", "rating": 4.5, "name": "Xochimilco Mexican Restaurant & Bakery", "url": "https://www.yelp.com/biz/xochimilco-mexican-restaurant-and-bakery-west-new-york?adjust_creative=gBcvfFpabk3CnzmXKdYe3w&utm_campaign=yelp_api_v3&utm_medium=api_v3_business_search&utm_source=gBcvfFpabk3CnzmXKdYe3w"}, {"transactions": [], "distance": 9281.79442036, "phone": "", "categories": [{"alias": "mexican", "title": "Mexican"}, {"alias": "foodtrucks", "title": "Food Trucks"}], "id": "los-cuatro-vientos-woodside", "display_phone": "", "is_closed": false, "location": {"address2": "", "country": "US", "display_address": ["Roosevelt Ave & 67th St", "Woodside, NY 11377"], "address1": "Roosevelt Ave & 67th St", "city": "Woodside", "zip_code": "11377", "address3": "", "state": "NY"}, "coordinates": {"longitude": -73.8981018, "latitude": 40.7461395}, "review_count": 3, "image_url": "", "rating": 4.5, "name": "Los Cuatro Vientos", "url": "https://www.yelp.com/biz/los-cuatro-vientos-woodside?adjust_creative=gBcvfFpabk3CnzmXKdYe3w&utm_campaign=yelp_api_v3&utm_medium=api_v3_business_search&utm_source=gBcvfFpabk3CnzmXKdYe3w"}, {"transactions": [], "distance": 21673.11535522, "phone": "+19735675111", "categories": [{"alias": "cocktailbars", "title": "Cocktail Bars"}, {"alias": "mexican", "title": "Mexican"}], "id": "clifton-city-tavern-mexican-cantina-clifton", "display_phone": "(973) 567-5111", "is_closed": false, "location": {"address2": null, "country": "US", "display_address": ["709 Van Houten Ave", "Clifton, NJ 07013"], "address1": "709 Van Houten Ave", "city": "Clifton", "zip_code": "07013", "address3": "", "state": "NJ"}, "coordinates": {"longitude": -74.1512453673643, "latitude": 40.859817957703}, "review_count": 229, "image_url": "https://s3-media2.fl.yelpcdn.com/bphoto/JuR2GAyhnxcn26aP4QHoXQ/o.jpg", "price": "$$", "rating": 4.0, "name": "Clifton City Tavern Mexican Cantina", "url": "https://www.yelp.com/biz/clifton-city-tavern-mexican-cantina-clifton?adjust_creative=gBcvfFpabk3CnzmXKdYe3w&utm_campaign=yelp_api_v3&utm_medium=api_v3_business_search&utm_source=gBcvfFpabk3CnzmXKdYe3w"}]}