{"region": {"center": {"longitude": -73.99429321289062, "latitude": 40.70544486444615}}, "total": 1496, "businesses": [{"transactions": ["delivery", "pickup"], "distance": 12300.52519074, "phone": "+17186762700", "categories": [{"alias": "mexican", "title": "Mexican"}], "id": "el-mexicano-restaurant-and-coffee-new-york", "display_phone": "(718) 676-2700", "is_closed": false, "location": {"address2": "", "country": "US", "display_address": ["2102 E 15th St", "New York, NY 11229"], "address1": "2102 E 15th St", "city": "New York", "zip_code": "11229", "address3": "", "state": "NY"}, "coordinates": {"longitude": -73.95653, "latitude": 40.59858}, "review_count": 128, "image_url": "https://s3-media1.fl.yelpcdn.com/bphoto/xx65uF7qAbG_ohTx_6ajTQ/o.jpg", "price": "$", "rating": 4.0, "name": "El Mexicano Restaurant & Coffee", "url": "https://www.yelp.com/biz/el-mexicano-restaurant-and-coffee-new-york?adjust_creative=gBcvfFpabk3CnzmXKdYe3w&utm_campaign=yelp_api_v3&utm_medium=api_v3_business_search&utm_source=gBcvfFpabk3CnzmXKdYe3w"}, {"transactions": ["delivery", "pickup"], "distance": 5863.364105164, "phone": "+16467073916", "categories": [{"alias": "mexican", "title": "Mexican"}], "id": "taqueria-tehuitzingo-new-york", "display_phone": "(646) 707-3916", "is_closed": false, "location": {"address2": "", "country": "US", "display_address": ["578 9th Ave", "New York, NY 10036"], "address1": "578 9th Ave", "city": "New York", "zip_code": "10036", "address3": "", "state": "NY"}, "coordinates": {"longitude": -73.9928447, "latitude": 40.7581646}, "review_count": 252, "image_url": "https://s3-media1.fl.yelpcdn.com/bphoto/U9UMqZAxtP8HdqbsdZzzHQ/o.jpg", "price": "$", "rating": 4.0, "name": "Taqueria Tehuitzingo", "url": "https://www.yelp.com/biz/taqueria-tehuitzingo-new-york?adjust_creative=gBcvfFpabk3CnzmXKdYe3w&utm_campaign=yelp_api_v3&utm_medium=api_v3_business_search&utm_source=gBcvfFpabk3CnzmXKdYe3w"}, {"transactions": ["delivery", "pickup"], "distance": 7445.14962942, "phone": "+17187294838", "categories": [{"alias": "mexican", "title": "Mexican"}, {"alias": "breakfast_brunch", "title": "Breakfast & Brunch"}], "id": "the-haab-woodside-2", "display_phone": "(718) 729-4838", "is_closed": false, "location": {"address2": "", "country": "US", "display_address": ["4722 48th Ave", "Woodside, NY 11377"], "address1": "4722 48th Ave", "city": "Woodside", "zip_code": "11377", "address3": "", "state": "NY"}, "coordinates": {"longitude": -73.9182275, "latitude": 40.7390211}, "review_count": 147, "image_url": "https://s3-media3.fl.yelpcdn.com/bphoto/goDOVIzwZF_6LlXo8iTHRQ/o.jpg", "price": "$$", "rating": 4.5, "name": "The Haab", "url": "https://www.yelp.com/biz/the-haab-woodside-2?adjust_creative=gBcvfFpabk3CnzmXKdYe3w&utm_campaign=yelp_api_v3&utm_medium=api_v3_business_search&utm_source=gBcvfFpabk3CnzmXKdYe3w"}, {"transactions": [], "distance": 2308.298409958, "phone": "+17186435400", "categories": [{"alias": "mexican", "title": "Mexican"}], "id": "alma-restaurant-brooklyn", "display_phone": "(718) 643-5400", "is_closed": false, "location": {"address2": "", "country": "US", "display_address": ["187 Columbia St", "Brooklyn, NY 11231"], "address1": "187 Columbia St", "city": "Brooklyn", "zip_code": "11231", "address3": "", "state": "NY"}, "coordinates": {"longitude": -74.0021676, "latitude": 40.6855617}, "review_count": 390, "image_url": "https://s3-media1.fl.yelpcdn.com/bphoto/DeNDO-XndzwY7efSsvreow/o.jpg", "price": "$$", "rating": 3.5, "name": "Alma Restaurant", "url": "https://www.yelp.com/biz/alma-restaurant-brooklyn?adjust_creative=gBcvfFpabk3CnzmXKdYe3w&utm_campaign=yelp_api_v3&utm_medium=api_v3_business_search&utm_source=gBcvfFpabk3CnzmXKdYe3w"}, {"transactions": ["delivery", "pickup"], "distance": 8450.929675981999, "phone": "+17187775648", "categories": [{"alias": "mexican", "title": "Mexican"}], "id": "mi-espiguita-taqueria-astoria", "display_phone": "(718) 777-5648", "is_closed": false, "location": {"address2": "", "country": "US", "display_address": ["32-44 31st St", "Astoria, NY 11106"], "address1": "32-44 31st St", "city": "Astoria", "zip_code": "11106", "address3": "", "state": "NY"}, "coordinates": {"longitude": -73.9261436462402, "latitude": 40.7612033639422}, "review_count": 73, "image_url": "https://s3-media3.fl.yelpcdn.com/bphoto/_bPuQuX1kffpLZHC_xyjbQ/o.jpg", "price": "$", "rating": 4.5, "name": "Mi Espiguita Taqueria", "url": "https://www.yelp.com/biz/mi-espiguita-taqueria-astoria?adjust_creative=gBcvfFpabk3CnzmXKdYe3w&utm_campaign=yelp_api_v3&utm_medium=api_v3_business_search&utm_source=gBcvfFpabk3CnzmXKdYe3w"}, {"transactions": ["delivery", "pickup"], "distance": 2212.636987282, "phone": "+16466929268", "categories": [{"alias": "mexican", "title": "Mexican"}], "id": "el-diablito-taqueria-new-york", "display_phone": "(646) 692-9268", "is_closed": false, "location": {"address2": null, "country": "US", "display_address": ["60 E 3rd St", "New York, NY 10003"], "address1": "60 E 3rd St", "city": "New York", "zip_code": "10003", "address3": "", "state": "NY"}, "coordinates": {"longitude": -73.9891663, "latitude": 40.725029}, "review_count": 189, "image_url": "https://s3-media3.fl.yelpcdn.com/bphoto/t2U-4KcPXd5Z_gDpcpauSg/o.jpg", "price": "$", "rating": 4.0, "name": "El Diablito Taqueria", "url": "https://www.yelp.com/biz/el-diablito-taqueria-new-york?adjust_creative=gBcvfFpabk3CnzmXKdYe3w&utm_campaign=yelp_api_v3&utm_medium=api_v3_business_search&utm_source=gBcvfFpabk3CnzmXKdYe3w"}, {"transactions": ["delivery", "pickup"], "distance": 8484.84603368, "phone": "+17182387630", "categories": [{"alias": "mexican", "title": "Mexican"}], "id": "las-margaritas-brooklyn-2", "display_phone": "(718) 238-7630", "is_closed": false, "location": {"address2": "", "country": "US", "display_address": ["7206 3rd Ave", "Brooklyn, NY 11209"], "address1": "7206 3rd Ave", "city": "Brooklyn", "zip_code": "11209", "address3": "", "state": "NY"}, "coordinates": {"longitude": -74.0273285, "latitude": 40.6333694}, "review_count": 83, "image_url": "https://s3-media1.fl.yelpcdn.com/bphoto/Cn8T2uL1UNa9DFvGwFa27g/o.jpg", "price": "$$", "rating": 4.0, "name": "Las Margaritas", "url": "https://www.yelp.com/biz/las-margaritas-brooklyn-2?adjust_creative=gBcvfFpabk3CnzmXKdYe3w&utm_campaign=yelp_api_v3&utm_medium=api_v3_business_search&utm_source=gBcvfFpabk3CnzmXKdYe3w"}, {"transactions": ["delivery", "pickup"], "distance": 8764.683705569998, "phone": "+12127245151", "categories": [{"alias": "mexican", "title": "Mexican"}, {"alias": "newamerican", "title": "American (New)"}], "id": "the-great-burrito-new-york-2", "display_phone": "(212) 724-5151", "is_closed": false, "location": {"address2": "", "country": "US", "display_address": ["405 Amsterdam Ave", "New York, NY 10024"], "address1": "405 Amsterdam Ave", "city": "New York", "zip_code": "10024", "address3": "", "state": "NY"}, "coordinates": {"longitude": -73.9779739, "latitude": 40.7833443}, "review_count": 221, "image_url": "https://s3-media3.fl.yelpcdn.com/bphoto/fj_NEKVdrGQMBwdFQbfXdw/o.jpg", "price": "$$", "rating": 4.0, "name": "The Great Burrito", "url": "https://www.yelp.com/biz/the-great-burrito-new-york-2?adjust_creative=gBcvfFpabk3CnzmXKdYe3w&utm_campaign=yelp_api_v3&utm_medium=api_v3_business_search&utm_source=gBcvfFpabk3CnzmXKdYe3w"}, {"transactions": ["delivery", "pickup"], "distance": 6686.376396879999, "phone": "+17183668700", "categories": [{"alias": "mexican", "title": "Mexican"}], "id": "la-mesita-restaurant-brooklyn", "display_phone": "(718) 366-8700", "is_closed": false, "location": {"address2": null, "country": "US", "display_address": ["1513 Myrtle Ave", "Brooklyn, NY 11237"], "address1": "1513 Myrtle Ave", "city": "Brooklyn", "zip_code": "11237", "address3": null, "state": "NY"}, "coordinates": {"longitude": -73.9152222, "latitude": 40.6992569}, "review_count": 54, "image_url": "https://s3-media3.fl.yelpcdn.com/bphoto/C_gFkf96pvub-eYco7Mqmg/o.jpg", "price": "$", "rating": 4.5, "name": "La Mesita Restaurant", "url": "https://www.yelp.com/biz/la-mesita-restaurant-brooklyn?adjust_creative=gBcvfFpabk3CnzmXKdYe3w&utm_campaign=yelp_api_v3&utm_medium=api_v3_business_search&utm_source=gBcvfFpabk3CnzmXKdYe3w"}, {"transactions": ["delivery", "pickup"], "distance": 10032.249940044, "phone": "+16469187478", "categories": [{"alias": "tex-mex", "title": "Tex-Mex"}, {"alias": "mexican", "title": "Mexican"}], "id": "burritos-y-mas-ny-tex-mex-new-york", "display_phone": "(646) 918-7478", "is_closed": false, "location": {"address2": null, "country": "US", "display_address": ["1571 Lexington Ave", "New York, NY 10029"], "address1": "1571 Lexington Ave", "city": "New York", "zip_code": "10029", "address3": "", "state": "NY"}, "coordinates": {"longitude": -73.9486259859039, "latitude": 40.7887686998247}, "review_count": 52, "image_url": "https://s3-media2.fl.yelpcdn.com/bphoto/dVTjO-rEmsYMjVGU6HHilA/o.jpg", "price": "$$", "rating": 4.5, "name": "Burritos y Mas NY Tex-Mex", "url": "https://www.yelp.com/biz/burritos-y-mas-ny-tex-mex-new-york?adjust_creative=gBcvfFpabk3CnzmXKdYe3w&utm_campaign=yelp_api_v3&utm_medium=api_v3_business_search&utm_source=gBcvfFpabk3CnzmXKdYe3w"}, {"transactions": ["delivery", "pickup"], "distance": 8497.0577056, "phone": "+17182046736", "categories": [{"alias": "mexican", "title": "Mexican"}], "id": "los-portales-astoria-2", "display_phone": "(718) 204-6736", "is_closed": false, "location": {"address2": "", "country": "US", "display_address": ["2508 Broadway", "Astoria, NY 11105"], "address1": "2508 Broadway", "city": "Astoria", "zip_code": "11105", "address3": "", "state": "NY"}, "coordinates": {"longitude": -73.9282260153443, "latitude": 40.7631768211379}, "review_count": 166, "image_url": "https://s3-media2.fl.yelpcdn.com/bphoto/87qRtoYLM5XFbkngUornAA/o.jpg", "price": "$", "rating": 4.0, "name": "Los Portales", "url": "https://www.yelp.com/biz/los-portales-astoria-2?adjust_creative=gBcvfFpabk3CnzmXKdYe3w&utm_campaign=yelp_api_v3&utm_medium=api_v3_business_search&utm_source=gBcvfFpabk3CnzmXKdYe3w"}, {"transactions": [], "distance": 6080.43091876, "phone": "+12127572957", "categories": [{"alias": "mexican", "title": "Mexican"}], "id": "oaxaca-taqueria-new-york-5", "display_phone": "(212) 757-2957", "is_closed": false, "location": {"address2": "", "country": "US", "display_address": ["405 W 44th St", "New York, NY 10036"], "address1": "405 W 44th St", "city": "New York", "zip_code": "10036", "address3": "", "state": "NY"}, "coordinates": {"longitude": -73.992057800293, "latitude": 40.7601356506348}, "review_count": 56, "image_url": "https://s3-media2.fl.yelpcdn.com/bphoto/ytVK2x6Jj_HWy2nOqdjOrA/o.jpg", "price": "$", "rating": 4.0, "name": "Oaxaca Taqueria", "url": "https://www.yelp.com/biz/oaxaca-taqueria-new-york-5?adjust_creative=gBcvfFpabk3CnzmXKdYe3w&utm_campaign=yelp_api_v3&utm_medium=api_v3_business_search&utm_source=gBcvfFpabk3CnzmXKdYe3w"}, {"transactions": [], "distance": 4729.7533777319995, "phone": "+16463778752", "categories": [{"alias": "korean", "title": "Korean"}, {"alias": "cocktailbars", "title": "Cocktail Bars"}, {"alias": "mexican", "title": "Mexican"}], "id": "the-maze-new-york-3", "display_phone": "(646) 377-8752", "is_closed": false, "location": {"address2": "Fl 3", "country": "US", "display_address": ["32 W 32nd St", "Fl 3", "New York, NY 10001"], "address1": "32 W 32nd St", "city": "New York", "zip_code": "10001", "address3": "", "state": "NY"}, "coordinates": {"longitude": -73.98724, "latitude": 40.7476399}, "review_count": 129, "image_url": "https://s3-media1.fl.yelpcdn.com/bphoto/PNGpQ54DiOKnpprsMiz0iw/o.jpg", "price": "$$", "rating": 4.0, "name": "The Maze", "url": "https://www.yelp.com/biz/the-maze-new-york-3?adjust_creative=gBcvfFpabk3CnzmXKdYe3w&utm_campaign=yelp_api_v3&utm_medium=api_v3_business_search&utm_source=gBcvfFpabk3CnzmXKdYe3w"}, {"transactions": ["delivery", "pickup"], "distance": 9184.265841416, "phone": "+17189424990", "categories": [{"alias": "mexican", "title": "Mexican"}], "id": "taquitos-mexico-brooklyn", "display_phone": "(718) 942-4990", "is_closed": false, "location": {"address2": "", "country": "US", "display_address": ["6720 14th Ave", "Brooklyn, NY 11219"], "address1": "6720 14th Ave", "city": "Brooklyn", "zip_code": "11219", "address3": "", "state": "NY"}, "coordinates": {"longitude": -74.0011579838332, "latitude": 40.6230108591414}, "review_count": 121, "image_url": "https://s3-media3.fl.yelpcdn.com/bphoto/0qSITBExvBrmxbsU1Q-L9g/o.jpg", "price": "$", "rating": 4.0, "name": "Taquitos Mexico", "url": "https://www.yelp.com/biz/taquitos-mexico-brooklyn?adjust_creative=gBcvfFpabk3CnzmXKdYe3w&utm_campaign=yelp_api_v3&utm_medium=api_v3_business_search&utm_source=gBcvfFpabk3CnzmXKdYe3w"}, {"transactions": [], "distance": 329.1197986938, "phone": "+17188522700", "categories": [{"alias": "mexican", "title": "Mexican"}, {"alias": "breakfast_brunch", "title": "Breakfast & Brunch"}, {"alias": "cocktailbars", "title": "Cocktail Bars"}], "id": "gran-electrica-brooklyn-3", "display_phone": "(718) 852-2700", "is_closed": false, "location": {"address2": "", "country": "US", "display_address": ["5 Front St", "Brooklyn, NY 11201"], "address1": "5 Front St", "city": "Brooklyn", "zip_code": "11201", "address3": "", "state": "NY"}, "coordinates": {"longitude": -73.99314, "latitude": 40.7027}, "review_count": 329, "image_url": "https://s3-media1.fl.yelpcdn.com/bphoto/ABvdSNs8cl_g9FzIlaAvOg/o.jpg", "price": "$$", "rating": 3.5, "name": "Gran Electrica", "url": "https://www.yelp.com/biz/gran-electrica-brooklyn-3?adjust_creative=gBcvfFpabk3CnzmXKdYe3w&utm_campaign=yelp_api_v3&utm_medium=api_v3_business_search&utm_source=gBcvfFpabk3CnzmXKdYe3w"}, {"transactions": ["pickup"], "distance": 2405.125960398, "phone": "+12122530277", "categories": [{"alias": "coffee", "title": "Coffee & Tea"}, {"alias": "mexican", "title": "Mexican"}, {"alias": "sandwiches", "title": "Sandwiches"}], "id": "miscelanea-ny-new-york", "display_phone": "(212) 253-0277", "is_closed": false, "location": {"address2": null, "country": "US", "display_address": ["63 E 4th St", "New York, NY 10003"], "address1": "63 E 4th St", "city": "New York", "zip_code": "10003", "address3": "", "state": "NY"}, "coordinates": {"longitude": -73.99075, "latitude": 40.72686}, "review_count": 124, "image_url": "https://s3-media3.fl.yelpcdn.com/bphoto/av_RTkMth29aCc5i2SZ94A/o.jpg", "price": "$", "rating": 5.0, "name": "Miscelanea NY", "url": "https://www.yelp.com/biz/miscelanea-ny-new-york?adjust_creative=gBcvfFpabk3CnzmXKdYe3w&utm_campaign=yelp_api_v3&utm_medium=api_v3_business_search&utm_source=gBcvfFpabk3CnzmXKdYe3w"}, {"transactions": ["delivery", "pickup"], "distance": 1353.52172761, "phone": "+12122691177", "categories": [{"alias": "mexican", "title": "Mexican"}, {"alias": "bars", "title": "Bars"}], "id": "mad-dog-and-beans-new-york-2", "display_phone": "(212) 269-1177", "is_closed": false, "location": {"address2": "", "country": "US", "display_address": ["83 Pearl St", "New York, NY 10004"], "address1": "83 Pearl St", "city": "New York", "zip_code": "10004", "address3": "", "state": "NY"}, "coordinates": {"longitude": -74.010261, "latitude": 40.704168}, "review_count": 564, "image_url": "https://s3-media3.fl.yelpcdn.com/bphoto/wO4HrqNbhHeyZAq-kYguGw/o.jpg", "price": "$$", "rating": 3.5, "name": "Mad Dog & Beans", "url": "https://www.yelp.com/biz/mad-dog-and-beans-new-york-2?adjust_creative=gBcvfFpabk3CnzmXKdYe3w&utm_campaign=yelp_api_v3&utm_medium=api_v3_business_search&utm_source=gBcvfFpabk3CnzmXKdYe3w"}, {"transactions": [], "distance": 9691.000819358, "phone": "+17186808226", "categories": [{"alias": "mexican", "title": "Mexican"}, {"alias": "tex-mex", "title": "Tex-Mex"}], "id": "ho-brah-brooklyn", "display_phone": "(718) 680-8226", "is_closed": false, "location": {"address2": "", "country": "US", "display_address": ["8618 3rd Ave", "Brooklyn, NY 11209"], "address1": "8618 3rd Ave", "city": "Brooklyn", "zip_code": "11209", "address3": "", "state": "NY"}, "coordinates": {"longitude": -74.0315475463867, "latitude": 40.6230049133301}, "review_count": 594, "image_url": "https://s3-media3.fl.yelpcdn.com/bphoto/dfR2j9X9otCOwvY3GdAB2g/o.jpg", "price": "$$", "rating": 4.0, "name": "Ho' Brah", "url": "https://www.yelp.com/biz/ho-brah-brooklyn?adjust_creative=gBcvfFpabk3CnzmXKdYe3w&utm_campaign=yelp_api_v3&utm_medium=api_v3_business_search&utm_source=gBcvfFpabk3CnzmXKdYe3w"}, {"transactions": [], "distance": 8495.03717923, "phone": "+12128614505", "categories": [{"alias": "mexican", "title": "Mexican"}, {"alias": "newamerican", "title": "American (New)"}], "id": "toloache-new-york-7", "display_phone": "(212) 861-4505", "is_closed": false, "location": {"address2": "", "country": "US", "display_address": ["166 E 82nd St", "New York, NY 10028"], "address1": "166 E 82nd St", "city": "New York", "zip_code": "10028", "address3": "", "state": "NY"}, "coordinates": {"longitude": -73.956772, "latitude": 40.776356}, "review_count": 284, "image_url": "https://s3-media1.fl.yelpcdn.com/bphoto/UcL8DdRW7hV-HJm1bj_lcA/o.jpg", "price": "$$$", "rating": 4.0, "name": "Toloache", "url": "https://www.yelp.com/biz/toloache-new-york-7?adjust_creative=gBcvfFpabk3CnzmXKdYe3w&utm_campaign=yelp_api_v3&utm_medium=api_v3_business_search&utm_source=gBcvfFpabk3CnzmXKdYe3w"}, {"transactions": [], "distance": 10955.619547621998, "phone": "+12123165400", "categories": [{"alias": "mexican", "title": "Mexican"}, {"alias": "breakfast_brunch", "title": "Breakfast & Brunch"}], "id": "panchos-new-york-2", "display_phone": "(212) 316-5400", "is_closed": false, "location": {"address2": "", "country": "US", "display_address": ["964 Amsterdam Ave", "New York, NY 10025"], "address1": "964 Amsterdam Ave", "city": "New York", "zip_code": "10025", "address3": "", "state": "NY"}, "coordinates": {"longitude": -73.9653397, "latitude": 40.8014984}, "review_count": 26, "image_url": "https://s3-media4.fl.yelpcdn.com/bphoto/5uj39afT1cKskGljj1_h3A/o.jpg", "price": "$", "rating": 4.5, "name": "Panchos", "url": "https://www.yelp.com/biz/panchos-new-york-2?adjust_creative=gBcvfFpabk3CnzmXKdYe3w&utm_campaign=yelp_api_v3&utm_medium=api_v3_business_search&utm_source=gBcvfFpabk3CnzmXKdYe3w"}, {"transactions": ["delivery", "pickup"], "distance": 1681.351205772, "phone": "+12122608226", "categories": [{"alias": "mexican", "title": "Mexican"}], "id": "essex-taqueria-new-york", "display_phone": "(212) 260-8226", "is_closed": false, "location": {"address2": "", "country": "US", "display_address": ["123 Essex St", "New York, NY 10002"], "address1": "123 Essex St", "city": "New York", "zip_code": "10002", "address3": "", "state": "NY"}, "coordinates": {"longitude": -73.9877989, "latitude": 40.7197418}, "review_count": 163, "image_url": "https://s3-media2.fl.yelpcdn.com/bphoto/Qd9o5Idv0uHcIxkaWbA95Q/o.jpg", "price": "$", "rating": 4.0, "name": "Essex Taqueria", "url": "https://www.yelp.com/biz/essex-taqueria-new-york?adjust_creative=gBcvfFpabk3CnzmXKdYe3w&utm_campaign=yelp_api_v3&utm_medium=api_v3_business_search&utm_source=gBcvfFpabk3CnzmXKdYe3w"}, {"transactions": [], "distance": 2680.6459340019996, "phone": "+17188552490", "categories": [{"alias": "mexican", "title": "Mexican"}], "id": "bar-san-miguel-new-york", "display_phone": "(718) 855-2490", "is_closed": false, "location": {"address2": "", "country": "US", "display_address": ["307 Smith St", "New York, NY 11231"], "address1": "307 Smith St", "city": "New York", "zip_code": "11231", "address3": "", "state": "NY"}, "coordinates": {"longitude": -73.9938279, "latitude": 40.68134}, "review_count": 85, "image_url": "https://s3-media2.fl.yelpcdn.com/bphoto/dsNqY9bQO6WdGO0TcyL1RA/o.jpg", "price": "$$", "rating": 4.0, "name": "Bar San Miguel", "url": "https://www.yelp.com/biz/bar-san-miguel-new-york?adjust_creative=gBcvfFpabk3CnzmXKdYe3w&utm_campaign=yelp_api_v3&utm_medium=api_v3_business_search&utm_source=gBcvfFpabk3CnzmXKdYe3w"}, {"transactions": ["delivery", "pickup"], "distance": 8537.24775342, "phone": "+17182551349", "categories": [{"alias": "mexican", "title": "Mexican"}], "id": "homemade-taqueria-long-island-city", "display_phone": "(718) 255-1349", "is_closed": false, "location": {"address2": "", "country": "US", "display_address": ["45-09 34th Ave", "Long Island City, NY 11101"], "address1": "45-09 34th Ave", "city": "Long Island City", "zip_code": "11101", "address3": "", "state": "NY"}, "coordinates": {"longitude": -73.9165629007979, "latitude": 40.7546939084048}, "review_count": 211, "image_url": "https://s3-media2.fl.yelpcdn.com/bphoto/ufdqnt8x86wQEDUM2XBbGA/o.jpg", "price": "$", "rating": 4.0, "name": "Homemade Taqueria", "url": "https://www.yelp.com/biz/homemade-taqueria-long-island-city?adjust_creative=gBcvfFpabk3CnzmXKdYe3w&utm_campaign=yelp_api_v3&utm_medium=api_v3_business_search&utm_source=gBcvfFpabk3CnzmXKdYe3w"}, {"transactions": [], "distance": 2941.6282565839997, "phone": "+16469645984", "categories": [{"alias": "mexican", "title": "Mexican"}, {"alias": "juicebars", "title": "Juice Bars & Smoothies"}, {"alias": "sandwiches", "title": "Sandwiches"}], "id": "tacombi-bleecker-street-new-york", "display_phone": "(646) 964-5984", "is_closed": false, "location": {"address2": "", "country": "US", "display_address": ["255 Bleecker St", "New York, NY 10014"], "address1": "255 Bleecker St", "city": "New York", "zip_code": "10014", "address3": "", "state": "NY"}, "coordinates": {"longitude": -74.00272, "latitude": 40.73112}, "review_count": 147, "image_url": "https://s3-media2.fl.yelpcdn.com/bphoto/eMoclY6UF2dblvLyxBZxkw/o.jpg", "price": "$$", "rating": 4.0, "name": "Tacombi - Bleecker Street", "url": "https://www.yelp.com/biz/tacombi-bleecker-street-new-york?adjust_creative=gBcvfFpabk3CnzmXKdYe3w&utm_campaign=yelp_api_v3&utm_medium=api_v3_business_search&utm_source=gBcvfFpabk3CnzmXKdYe3w"}, {"transactions": ["pickup"], "distance": 2189.5868932639996, "phone": "+16469644528", "categories": [{"alias": "mexican", "title": "Mexican"}, {"alias": "breakfast_brunch", "title": "Breakfast & Brunch"}], "id": "villa-cemita-new-york-2", "display_phone": "(646) 964-4528", "is_closed": false, "location": {"address2": "", "country": "US", "display_address": ["50 Ave A", "New York, NY 10009"], "address1": "50 Ave A", "city": "New York", "zip_code": "10009", "address3": "", "state": "NY"}, "coordinates": {"longitude": -73.98478, "latitude": 40.72383}, "review_count": 116, "image_url": "https://s3-media3.fl.yelpcdn.com/bphoto/El5N1obxafY8yWcH82MHEw/o.jpg", "price": "$$", "rating": 4.0, "name": "Villa Cemita", "url": "https://www.yelp.com/biz/villa-cemita-new-york-2?adjust_creative=gBcvfFpabk3CnzmXKdYe3w&utm_campaign=yelp_api_v3&utm_medium=api_v3_business_search&utm_source=gBcvfFpabk3CnzmXKdYe3w"}, {"transactions": ["delivery", "pickup"], "distance": 5809.18229445, "phone": "+17183864464", "categories": [{"alias": "mexican", "title": "Mexican"}], "id": "taqueria-sofia-brooklyn", "display_phone": "(718) 386-4464", "is_closed": false, "location": {"address2": "", "country": "US", "display_address": ["187 Suydam St", "Brooklyn, NY 11221"], "address1": "187 Suydam St", "city": "Brooklyn", "zip_code": "11221", "address3": "", "state": "NY"}, "coordinates": {"longitude": -73.9257427, "latitude": 40.7000869}, "review_count": 78, "image_url": "https://s3-media1.fl.yelpcdn.com/bphoto/rVsS1kqhPjMRkY1C6Vw3Mg/o.jpg", "price": "$", "rating": 4.0, "name": "Taqueria Sofia", "url": "https://www.yelp.com/biz/taqueria-sofia-brooklyn?adjust_creative=gBcvfFpabk3CnzmXKdYe3w&utm_campaign=yelp_api_v3&utm_medium=api_v3_business_search&utm_source=gBcvfFpabk3CnzmXKdYe3w"}, {"transactions": ["delivery", "pickup"], "distance": 8962.543207199999, "phone": "+17187790771", "categories": [{"alias": "mexican", "title": "Mexican"}, {"alias": "salad", "title": "Salad"}, {"alias": "italian", "title": "Italian"}], "id": "homemade-taqueria-maspeth", "display_phone": "(718) 779-0771", "is_closed": false, "location": {"address2": null, "country": "US", "display_address": ["71-03 Grand Ave", "Maspeth, NY 11378"], "address1": "71-03 Grand Ave", "city": "Maspeth", "zip_code": "11378", "address3": "", "state": "NY"}, "coordinates": {"longitude": -73.8922018, "latitude": 40.7279565}, "review_count": 188, "image_url": "https://s3-media3.fl.yelpcdn.com/bphoto/7KbqLdf_6QRK-WLdhMLh_w/o.jpg", "price": "$", "rating": 4.5, "name": "Homemade Taqueria", "url": "https://www.yelp.com/biz/homemade-taqueria-maspeth?adjust_creative=gBcvfFpabk3CnzmXKdYe3w&utm_campaign=yelp_api_v3&utm_medium=api_v3_business_search&utm_source=gBcvfFpabk3CnzmXKdYe3w"}, {"transactions": ["delivery", "pickup"], "distance": 4279.126751418, "phone": "+17183024573", "categories": [{"alias": "mexican", "title": "Mexican"}], "id": "new-mexico-place-brooklyn", "display_phone": "(718) 302-4573", "is_closed": false, "location": {"address2": "", "country": "US", "display_address": ["189 Graham Ave", "Brooklyn, NY 11226"], "address1": "189 Graham Ave", "city": "Brooklyn", "zip_code": "11226", "address3": "", "state": "NY"}, "coordinates": {"longitude": -73.94371, "latitude": 40.7085}, "review_count": 154, "image_url": "https://s3-media2.fl.yelpcdn.com/bphoto/iKRcoV0DiqIkFc3hH3Q43w/o.jpg", "price": "$", "rating": 3.5, "name": "New Mexico Place", "url": "https://www.yelp.com/biz/new-mexico-place-brooklyn?adjust_creative=gBcvfFpabk3CnzmXKdYe3w&utm_campaign=yelp_api_v3&utm_medium=api_v3_business_search&utm_source=gBcvfFpabk3CnzmXKdYe3w"}, {"transactions": ["delivery", "pickup"], "distance": 5729.5381499919995, "phone": "+17184693333", "categories": [{"alias": "mexican", "title": "Mexican"}, {"alias": "burgers", "title": "Burgers"}, {"alias": "cocktailbars", "title": "Cocktail Bars"}], "id": "burger-mexicano-brooklyn", "display_phone": "(718) 469-3333", "is_closed": false, "location": {"address2": "", "country": "US", "display_address": ["545 Flatbush Ave", "Brooklyn, NY 11225"], "address1": "545 Flatbush Ave", "city": "Brooklyn", "zip_code": "11225", "address3": "", "state": "NY"}, "coordinates": {"longitude": -73.9604851, "latitude": 40.66049}, "review_count": 96, "image_url": "https://s3-media1.fl.yelpcdn.com/bphoto/h39MVMIAewKTQygk4d5BaQ/o.jpg", "price": "$$", "rating": 4.0, "name": "Burger Mexicano", "url": "https://www.yelp.com/biz/burger-mexicano-brooklyn?adjust_creative=gBcvfFpabk3CnzmXKdYe3w&utm_campaign=yelp_api_v3&utm_medium=api_v3_business_search&utm_source=gBcvfFpabk3CnzmXKdYe3w"}, {"transactions": ["delivery", "pickup"], "distance": 816.7946066259999, "phone": "+16463987499", "categories": [{"alias": "mexican", "title": "Mexican"}], "id": "el-luchador-new-york-2", "display_phone": "(646) 398-7499", "is_closed": false, "location": {"address2": "", "country": "US", "display_address": ["87 South St", "New York, NY 10038"], "address1": "87 South St", "city": "New York", "zip_code": "10038", "address3": "", "state": "NY"}, "coordinates": {"longitude": -74.0041122, "latitude": 40.7058182}, "review_count": 307, "image_url": "https://s3-media3.fl.yelpcdn.com/bphoto/4vkm6wYxfTjhpPOaGFzn1w/o.jpg", "price": "$", "rating": 3.5, "name": "El Luchador", "url": "https://www.yelp.com/biz/el-luchador-new-york-2?adjust_creative=gBcvfFpabk3CnzmXKdYe3w&utm_campaign=yelp_api_v3&utm_medium=api_v3_business_search&utm_source=gBcvfFpabk3CnzmXKdYe3w"}, {"transactions": [], "distance": 3899.326534768, "phone": "+19173247423", "categories": [{"alias": "mexican", "title": "Mexican"}], "id": "zona-rosa-brooklyn-2", "display_phone": "(917) 324-7423", "is_closed": false, "location": {"address2": "", "country": "US", "display_address": ["571 Lorimer St", "Brooklyn, NY 11211"], "address1": "571 Lorimer St", "city": "Brooklyn", "zip_code": "11211", "address3": "", "state": "NY"}, "coordinates": {"longitude": -73.9494076703442, "latitude": 40.7139388888686}, "review_count": 275, "image_url": "https://s3-media3.fl.yelpcdn.com/bphoto/8HX-rTWGfqzyB2nuTHDQ4A/o.jpg", "price": "$$", "rating": 3.5, "name": "Zona Rosa", "url": "https://www.yelp.com/biz/zona-rosa-brooklyn-2?adjust_creative=gBcvfFpabk3CnzmXKdYe3w&utm_campaign=yelp_api_v3&utm_medium=api_v3_business_search&utm_source=gBcvfFpabk3CnzmXKdYe3w"}, {"transactions": ["delivery", "pickup"], "distance": 3327.9852462619997, "phone": "+17184070109", "categories": [{"alias": "mexican", "title": "Mexican"}], "id": "mexico-2000-brooklyn", "display_phone": "(718) 407-0109", "is_closed": false, "location": {"address2": "", "country": "US", "display_address": ["369 Broadway", "Brooklyn, NY 11211"], "address1": "369 Broadway", "city": "Brooklyn", "zip_code": "11211", "address3": "", "state": "NY"}, "coordinates": {"longitude": -73.954925, "latitude": 40.707653}, "review_count": 62, "image_url": "https://s3-media3.fl.yelpcdn.com/bphoto/3wG-3Hu4d_y8ONMrx7dcDw/o.jpg", "price": "$$", "rating": 4.0, "name": "Mexico 2000", "url": "https://www.yelp.com/biz/mexico-2000-brooklyn?adjust_creative=gBcvfFpabk3CnzmXKdYe3w&utm_campaign=yelp_api_v3&utm_medium=api_v3_business_search&utm_source=gBcvfFpabk3CnzmXKdYe3w"}, {"transactions": [], "distance": 5606.61547332, "phone": "+13473943844", "categories": [{"alias": "mexican", "title": "Mexican"}], "id": "dos-toros-taqueria-new-york-22", "display_phone": "(347) 394-3844", "is_closed": false, "location": {"address2": "", "country": "US", "display_address": ["465 Lexington Ave", "New York, NY 10017"], "address1": "465 Lexington Ave", "city": "New York", "zip_code": "10017", "address3": "", "state": "NY"}, "coordinates": {"longitude": -73.974182, "latitude": 40.753517}, "review_count": 112, "image_url": "https://s3-media4.fl.yelpcdn.com/bphoto/wFCq8VCM-ktcWn3uoIINIQ/o.jpg", "price": "$$", "rating": 4.0, "name": "Dos Toros Taqueria", "url": "https://www.yelp.com/biz/dos-toros-taqueria-new-york-22?adjust_creative=gBcvfFpabk3CnzmXKdYe3w&utm_campaign=yelp_api_v3&utm_medium=api_v3_business_search&utm_source=gBcvfFpabk3CnzmXKdYe3w"}, {"transactions": ["delivery", "pickup"], "distance": 1444.706771076, "phone": "+17182468226", "categories": [{"alias": "bars", "title": "Bars"}, {"alias": "mexican", "title": "Mexican"}], "id": "roccos-tacos-and-tequila-bar-brooklyn", "display_phone": "(718) 246-8226", "is_closed": false, "location": {"address2": null, "country": "US", "display_address": ["339 Adams St", "Brooklyn, NY 11201"], "address1": "339 Adams St", "city": "Brooklyn", "zip_code": "11201", "address3": "", "state": "NY"}, "coordinates": {"longitude": -73.9885798943981, "latitude": 40.69319596606}, "review_count": 733, "image_url": "https://s3-media2.fl.yelpcdn.com/bphoto/tzbtfaJNgGo7bRT3xngzOw/o.jpg", "price": "$$", "rating": 3.5, "name": "Rocco's Tacos & Tequila Bar", "url": "https://www.yelp.com/biz/roccos-tacos-and-tequila-bar-brooklyn?adjust_creative=gBcvfFpabk3CnzmXKdYe3w&utm_campaign=yelp_api_v3&utm_medium=api_v3_business_search&utm_source=gBcvfFpabk3CnzmXKdYe3w"}, {"transactions": [], "distance": 4174.609774458, "phone": "+17183830808", "categories": [{"alias": "mexican", "title": "Mexican"}], "id": "vamos-al-tequila-brooklyn", "display_phone": "(718) 383-0808", "is_closed": false, "location": {"address2": "", "country": "US", "display_address": ["162 Franklin St", "Brooklyn, NY 11222"], "address1": "162 Franklin St", "city": "Brooklyn", "zip_code": "11222", "address3": "", "state": "NY"}, "coordinates": {"longitude": -73.9576, "latitude": 40.73079}, "review_count": 221, "image_url": "https://s3-media4.fl.yelpcdn.com/bphoto/XcmqqvHwKG_oMvtvhclnNg/o.jpg", "price": "$$", "rating": 3.5, "name": "Vamos Al Tequila", "url": "https://www.yelp.com/biz/vamos-al-tequila-brooklyn?adjust_creative=gBcvfFpabk3CnzmXKdYe3w&utm_campaign=yelp_api_v3&utm_medium=api_v3_business_search&utm_source=gBcvfFpabk3CnzmXKdYe3w"}, {"transactions": ["delivery", "pickup"], "distance": 10454.471071622, "phone": "+17184580104", "categories": [{"alias": "mexican", "title": "Mexican"}], "id": "juquila-mexican-cuisine-elmhurst-2", "display_phone": "(718) 458-0104", "is_closed": false, "location": {"address2": "", "country": "US", "display_address": ["40-12 83rd St", "Elmhurst, NY 11373"], "address1": "40-12 83rd St", "city": "Elmhurst", "zip_code": "11373", "address3": "", "state": "NY"}, "coordinates": {"longitude": -73.88318, "latitude": 40.74727}, "review_count": 72, "image_url": "https://s3-media2.fl.yelpcdn.com/bphoto/2j7rO3pW859J0VN4DI1Gog/o.jpg", "price": "$$", "rating": 4.0, "name": "Juquila Mexican Cuisine", "url": "https://www.yelp.com/biz/juquila-mexican-cuisine-elmhurst-2?adjust_creative=gBcvfFpabk3CnzmXKdYe3w&utm_campaign=yelp_api_v3&utm_medium=api_v3_business_search&utm_source=gBcvfFpabk3CnzmXKdYe3w"}, {"transactions": [], "distance": 4080.210718078, "phone": "+17184998226", "categories": [{"alias": "mexican", "title": "Mexican"}], "id": "fatty-daddy-taco-brooklyn", "display_phone": "(718) 499-8226", "is_closed": false, "location": {"address2": "", "country": "US", "display_address": ["310 9th St", "Brooklyn, NY 11215"], "address1": "310 9th St", "city": "Brooklyn", "zip_code": "11215", "address3": "", "state": "NY"}, "coordinates": {"longitude": -73.9864531159401, "latitude": 40.6692368749235}, "review_count": 266, "image_url": "https://s3-media1.fl.yelpcdn.com/bphoto/KBKiNmsV81MXO24XzMakbQ/o.jpg", "price": "$", "rating": 4.0, "name": "Fatty Daddy Taco", "url": "https://www.yelp.com/biz/fatty-daddy-taco-brooklyn?adjust_creative=gBcvfFpabk3CnzmXKdYe3w&utm_campaign=yelp_api_v3&utm_medium=api_v3_business_search&utm_source=gBcvfFpabk3CnzmXKdYe3w"}, {"transactions": ["delivery", "pickup"], "distance": 4199.026198136, "phone": "+13477632129", "categories": [{"alias": "mexican", "title": "Mexican"}], "id": "calexico-brooklyn-6", "display_phone": "(347) 763-2129", "is_closed": false, "location": {"address2": "", "country": "US", "display_address": ["645 Manhattan Ave", "Brooklyn, NY 11222"], "address1": "645 Manhattan Ave", "city": "Brooklyn", "zip_code": "11222", "address3": "", "state": "NY"}, "coordinates": {"longitude": -73.95132, "latitude": 40.72416}, "review_count": 569, "image_url": "https://s3-media4.fl.yelpcdn.com/bphoto/PN285R6cwSac1qvKLi4wYw/o.jpg", "price": "$$", "rating": 3.5, "name": "Calexico", "url": "https://www.yelp.com/biz/calexico-brooklyn-6?adjust_creative=gBcvfFpabk3CnzmXKdYe3w&utm_campaign=yelp_api_v3&utm_medium=api_v3_business_search&utm_source=gBcvfFpabk3CnzmXKdYe3w"}, {"transactions": ["delivery", "pickup"], "distance": 7034.43479604, "phone": "+17184563698", "categories": [{"alias": "mexican", "title": "Mexican"}], "id": "guadalajara-de-dia-2-ridgewood-2", "display_phone": "(718) 456-3698", "is_closed": false, "location": {"address2": "", "country": "US", "display_address": ["566 Seneca Ave", "Ridgewood, NY 11385"], "address1": "566 Seneca Ave", "city": "Ridgewood", "zip_code": "11385", "address3": "", "state": "NY"}, "coordinates": {"longitude": -73.9109420776367, "latitude": 40.7044639587402}, "review_count": 53, "image_url": "https://s3-media3.fl.yelpcdn.com/bphoto/gtqyfFf2ZK8e4QL6AbH-vQ/o.jpg", "price": "$", "rating": 4.0, "name": "Guadalajara De Dia 2", "url": "https://www.yelp.com/biz/guadalajara-de-dia-2-ridgewood-2?adjust_creative=gBcvfFpabk3CnzmXKdYe3w&utm_campaign=yelp_api_v3&utm_medium=api_v3_business_search&utm_source=gBcvfFpabk3CnzmXKdYe3w"}, {"transactions": ["pickup", "delivery"], "distance": 6753.120071898, "phone": "+13474058977", "categories": [{"alias": "tex-mex", "title": "Tex-Mex"}, {"alias": "mexican", "title": "Mexican"}], "id": "mallenche-mexican-grill-brooklyn-2", "display_phone": "(347) 405-8977", "is_closed": false, "location": {"address2": "", "country": "US", "display_address": ["1621 Church Ave", "Brooklyn, NY 11226"], "address1": "1621 Church Ave", "city": "Brooklyn", "zip_code": "11226", "address3": "", "state": "NY"}, "coordinates": {"longitude": -73.96427, "latitude": 40.64911}, "review_count": 62, "image_url": "https://s3-media4.fl.yelpcdn.com/bphoto/5CdfpaPuDrucSqYD7MvevA/o.jpg", "price": "$", "rating": 4.0, "name": "Mallenche Mexican Grill", "url": "https://www.yelp.com/biz/mallenche-mexican-grill-brooklyn-2?adjust_creative=gBcvfFpabk3CnzmXKdYe3w&utm_campaign=yelp_api_v3&utm_medium=api_v3_business_search&utm_source=gBcvfFpabk3CnzmXKdYe3w"}, {"transactions": [], "distance": 2036.181546718, "phone": "+17188021661", "categories": [{"alias": "mexican", "title": "Mexican"}, {"alias": "delis", "title": "Delis"}, {"alias": "sandwiches", "title": "Sandwiches"}], "id": "fast-and-fresh-burrito-deli-brooklyn", "display_phone": "(718) 802-1661", "is_closed": false, "location": {"address2": "", "country": "US", "display_address": ["84 Hoyt St", "Brooklyn, NY 11201"], "address1": "84 Hoyt St", "city": "Brooklyn", "zip_code": "11201", "address3": "", "state": "NY"}, "coordinates": {"longitude": -73.98694, "latitude": 40.68806}, "review_count": 135, "image_url": "https://s3-media1.fl.yelpcdn.com/bphoto/hunWhYUka26ys3eNMyM9KA/o.jpg", "price": "$", "rating": 4.0, "name": "Fast and Fresh Burrito Deli", "url": "https://www.yelp.com/biz/fast-and-fresh-burrito-deli-brooklyn?adjust_creative=gBcvfFpabk3CnzmXKdYe3w&utm_campaign=yelp_api_v3&utm_medium=api_v3_business_search&utm_source=gBcvfFpabk3CnzmXKdYe3w"}, {"transactions": ["delivery", "pickup"], "distance": 10637.980893142, "phone": "+12122223151", "categories": [{"alias": "mexican", "title": "Mexican"}], "id": "casa-mexicana-new-york-2", "display_phone": "(212) 222-3151", "is_closed": false, "location": {"address2": null, "country": "US", "display_address": ["894 Amsterdam Ave", "New York, NY 10025"], "address1": "894 Amsterdam Ave", "city": "New York", "zip_code": "10025", "address3": "", "state": "NY"}, "coordinates": {"longitude": -73.9668629318476, "latitude": 40.7989452034235}, "review_count": 132, "image_url": "https://s3-media1.fl.yelpcdn.com/bphoto/wexe0ajrNbNX3eBI0xM2Gw/o.jpg", "price": "$$", "rating": 4.0, "name": "Casa Mexicana", "url": "https://www.yelp.com/biz/casa-mexicana-new-york-2?adjust_creative=gBcvfFpabk3CnzmXKdYe3w&utm_campaign=yelp_api_v3&utm_medium=api_v3_business_search&utm_source=gBcvfFpabk3CnzmXKdYe3w"}, {"transactions": [], "distance": 2694.331761362, "phone": "+16466784018", "categories": [{"alias": "tacos", "title": "Tacos"}], "id": "ottos-tacos-new-york", "display_phone": "(646) 678-4018", "is_closed": false, "location": {"address2": null, "country": "US", "display_address": ["141 2nd Ave", "New York, NY 10003"], "address1": "141 2nd Ave", "city": "New York", "zip_code": "10003", "address3": "", "state": "NY"}, "coordinates": {"longitude": -73.9876, "latitude": 40.72918}, "review_count": 592, "image_url": "https://s3-media3.fl.yelpcdn.com/bphoto/I5hLdsn8mC9n4uXRMPikFQ/o.jpg", "price": "$", "rating": 4.0, "name": "Otto's Tacos", "url": "https://www.yelp.com/biz/ottos-tacos-new-york?adjust_creative=gBcvfFpabk3CnzmXKdYe3w&utm_campaign=yelp_api_v3&utm_medium=api_v3_business_search&utm_source=gBcvfFpabk3CnzmXKdYe3w"}, {"transactions": ["delivery", "pickup"], "distance": 4102.193497808, "phone": "+13479554519", "categories": [{"alias": "mexican", "title": "Mexican"}, {"alias": "breakfast_brunch", "title": "Breakfast & Brunch"}, {"alias": "bars", "title": "Bars"}], "id": "citrico-brooklyn", "display_phone": "(347) 955-4519", "is_closed": false, "location": {"address2": "", "country": "US", "display_address": ["681 Washington Ave", "Brooklyn, NY 11238"], "address1": "681 Washington Ave", "city": "Brooklyn", "zip_code": "11238", "address3": "", "state": "NY"}, "coordinates": {"longitude": -73.9635269343853, "latitude": 40.6768899410963}, "review_count": 158, "image_url": "https://s3-media4.fl.yelpcdn.com/bphoto/lSKH-DPkfwPUNv4XWFeheA/o.jpg", "price": "$$", "rating": 4.0, "name": "Citrico", "url": "https://www.yelp.com/biz/citrico-brooklyn?adjust_creative=gBcvfFpabk3CnzmXKdYe3w&utm_campaign=yelp_api_v3&utm_medium=api_v3_business_search&utm_source=gBcvfFpabk3CnzmXKdYe3w"}, {"transactions": [], "distance": 9184.934361252, "phone": "+17187775366", "categories": [{"alias": "mexican", "title": "Mexican"}], "id": "el-grill-restaurant-and-bar-astoria", "display_phone": "(718) 777-5366", "is_closed": false, "location": {"address2": "", "country": "US", "display_address": ["3011 30th Ave", "Astoria, NY 11102"], "address1": "3011 30th Ave", "city": "Astoria", "zip_code": "11102", "address3": "", "state": "NY"}, "coordinates": {"longitude": -73.9218648523092, "latitude": 40.7671808396101}, "review_count": 168, "image_url": "https://s3-media3.fl.yelpcdn.com/bphoto/GkwwzLyXt4gstU8jSRNXQQ/o.jpg", "price": "$", "rating": 4.0, "name": "El Grill Restaurant and Bar", "url": "https://www.yelp.com/biz/el-grill-restaurant-and-bar-astoria?adjust_creative=gBcvfFpabk3CnzmXKdYe3w&utm_campaign=yelp_api_v3&utm_medium=api_v3_business_search&utm_source=gBcvfFpabk3CnzmXKdYe3w"}, {"transactions": ["delivery", "pickup"], "distance": 10701.7247584, "phone": "+16463516574", "categories": [{"alias": "latin", "title": "Latin American"}, {"alias": "mexican", "title": "Mexican"}], "id": "cascalote-latin-bistro-new-york", "display_phone": "(646) 351-6574", "is_closed": false, "location": {"address2": null, "country": "US", "display_address": ["2126 2nd Ave", "New York, NY 10029"], "address1": "2126 2nd Ave", "city": "New York", "zip_code": "10029", "address3": "", "state": "NY"}, "coordinates": {"longitude": -73.94059, "latitude": 40.79267}, "review_count": 220, "image_url": "https://s3-media3.fl.yelpcdn.com/bphoto/l1qPZNpd-6E8OrLWNnwOtA/o.jpg", "price": "$$", "rating": 4.5, "name": "Cascalote Latin Bistro", "url": "https://www.yelp.com/biz/cascalote-latin-bistro-new-york?adjust_creative=gBcvfFpabk3CnzmXKdYe3w&utm_campaign=yelp_api_v3&utm_medium=api_v3_business_search&utm_source=gBcvfFpabk3CnzmXKdYe3w"}, {"transactions": ["delivery"], "distance": 2066.838508114, "phone": "+19177270179", "categories": [{"alias": "mexican", "title": "Mexican"}, {"alias": "coffee", "title": "Coffee & Tea"}], "id": "tacombi-nolita-fonda-nolita-new-york", "display_phone": "(917) 727-0179", "is_closed": false, "location": {"address2": "", "country": "US", "display_address": ["267 Elizabeth St", "New York, NY 10012"], "address1": "267 Elizabeth St", "city": "New York", "zip_code": "10012", "address3": "", "state": "NY"}, "coordinates": {"longitude": -73.9939028, "latitude": 40.7240304}, "review_count": 851, "image_url": "https://s3-media1.fl.yelpcdn.com/bphoto/FTUBh5ogPIA_AwIrgqg0qQ/o.jpg", "price": "$$", "rating": 3.5, "name": "Tacombi Nolita - Fonda Nolita", "url": "https://www.yelp.com/biz/tacombi-nolita-fonda-nolita-new-york?adjust_creative=gBcvfFpabk3CnzmXKdYe3w&utm_campaign=yelp_api_v3&utm_medium=api_v3_business_search&utm_source=gBcvfFpabk3CnzmXKdYe3w"}, {"transactions": [], "distance": 3776.6698819979997, "phone": "+19176524779", "categories": [{"alias": "filipino", "title": "Filipino"}, {"alias": "breakfast_brunch", "title": "Breakfast & Brunch"}, {"alias": "tacos", "title": "Tacos"}], "id": "swell-dive-brooklyn", "display_phone": "(917) 652-4779", "is_closed": false, "location": {"address2": "", "country": "US", "display_address": ["1013 Bedford Ave", "Brooklyn, NY 11205"], "address1": "1013 Bedford Ave", "city": "Brooklyn", "zip_code": "11205", "address3": null, "state": "NY"}, "coordinates": {"longitude": -73.9549609646201, "latitude": 40.689183858613}, "review_count": 25, "image_url": "https://s3-media2.fl.yelpcdn.com/bphoto/sRRe01ggqNcczvqny-LJEA/o.jpg", "price": "$", "rating": 4.0, "name": "Swell Dive", "url": "https://www.yelp.com/biz/swell-dive-brooklyn?adjust_creative=gBcvfFpabk3CnzmXKdYe3w&utm_campaign=yelp_api_v3&utm_medium=api_v3_business_search&utm_source=gBcvfFpabk3CnzmXKdYe3w"}, {"transactions": ["delivery", "pickup"], "distance": 2551.76628532, "phone": "+12124777090", "categories": [{"alias": "tacos", "title": "Tacos"}, {"alias": "beerbar", "title": "Beer Bar"}], "id": "five-tacos-new-york", "display_phone": "(212) 477-7090", "is_closed": false, "location": {"address2": null, "country": "US", "display_address": ["119 St Marks Pl", "New York, NY 10009"], "address1": "119 St Marks Pl", "city": "New York", "zip_code": "10009", "address3": "", "state": "NY"}, "coordinates": {"longitude": -73.9838414145019, "latitude": 40.7269815187785}, "review_count": 260, "image_url": "https://s3-media4.fl.yelpcdn.com/bphoto/YyVi8t6EK2YmvxGESrRGNg/o.jpg", "price": "$", "rating": 4.0, "name": "Five Tacos", "url": "https://www.yelp.com/biz/five-tacos-new-york?adjust_creative=gBcvfFpabk3CnzmXKdYe3w&utm_campaign=yelp_api_v3&utm_medium=api_v3_business_search&utm_source=gBcvfFpabk3CnzmXKdYe3w"}, {"transactions": ["delivery", "pickup"], "distance": 4159.0415021, "phone": "+12128899090", "categories": [{"alias": "mexican", "title": "Mexican"}], "id": "tacos-grand-central-new-york-6", "display_phone": "(212) 889-9090", "is_closed": false, "location": {"address2": null, "country": "US", "display_address": ["134 E 27th St", "New York, NY 10016"], "address1": "134 E 27th St", "city": "New York", "zip_code": "10016", "address3": "", "state": "NY"}, "coordinates": {"longitude": -73.9823354903991, "latitude": 40.7417320336149}, "review_count": 24, "image_url": "https://s3-media3.fl.yelpcdn.com/bphoto/xX3nAjnU7N0YOb4cX_4LlQ/o.jpg", "price": "$", "rating": 4.5, "name": "Tacos Grand Central", "url": "https://www.yelp.com/biz/tacos-grand-central-new-york-6?adjust_creative=gBcvfFpabk3CnzmXKdYe3w&utm_campaign=yelp_api_v3&utm_medium=api_v3_business_search&utm_source=gBcvfFpabk3CnzmXKdYe3w"}]}