{"region": {"center": {"longitude": -73.99429321289062, "latitude": 40.70544486444615}}, "total": 40, "businesses": [{"transactions": ["delivery", "pickup"], "distance": 1532.4635984739998, "phone": "+13472765103", "categories": [{"alias": "hotdogs", "title": "Fast Food"}, {"alias": "tacos", "title": "Tacos"}, {"alias": "indpak", "title": "Indian"}], "id": "goa-taco-new-york", "display_phone": "(347) 276-5103", "is_closed": false, "location": {"address2": null, "country": "US", "display_address": ["79 Delancey St", "New York, NY 10002"], "address1": "79 Delancey St", "city": "New York", "zip_code": "10002", "address3": "", "state": "NY"}, "coordinates": {"longitude": -73.99003, "latitude": 40.71887}, "review_count": 354, "image_url": "https://s3-media1.fl.yelpcdn.com/bphoto/e0wfnyBWhd__pXOOzheH3Q/o.jpg", "price": "$", "rating": 4.5, "name": "goa taco", "url": "https://www.yelp.com/biz/goa-taco-new-york?adjust_creative=gBcvfFpabk3CnzmXKdYe3w&utm_campaign=yelp_api_v3&utm_medium=api_v3_business_search&utm_source=gBcvfFpabk3CnzmXKdYe3w"}, {"transactions": ["delivery", "pickup"], "distance": 4168.223108668, "phone": "+12122423491", "categories": [{"alias": "mexican", "title": "Mexican"}], "id": "tacombi-flatiron-cafe-el-presidente-new-york-2", "display_phone": "(212) 242-3491", "is_closed": false, "location": {"address2": "", "country": "US", "display_address": ["30 W 24th St", "New York, NY 10010"], "address1": "30 W 24th St", "city": "New York", "zip_code": "10010", "address3": "", "state": "NY"}, "coordinates": {"longitude": -73.9911656, "latitude": 40.7428563}, "review_count": 391, "image_url": "https://s3-media2.fl.yelpcdn.com/bphoto/o668AnTRGYPLxWWvLw6NhQ/o.jpg", "price": "$$", "rating": 3.5, "name": "Tacombi Flatiron - Cafe El Presidente", "url": "https://www.yelp.com/biz/tacombi-flatiron-cafe-el-presidente-new-york-2?adjust_creative=gBcvfFpabk3CnzmXKdYe3w&utm_campaign=yelp_api_v3&utm_medium=api_v3_business_search&utm_source=gBcvfFpabk3CnzmXKdYe3w"}, {"transactions": [], "distance": 1043.1376077017999, "phone": "+12122273099", "categories": [{"alias": "mexican", "title": "Mexican"}], "id": "pulqueria-new-york", "display_phone": "(212) 227-3099", "is_closed": false, "location": {"address2": "", "country": "US", "display_address": ["11 Doyers St", "New York, NY 10013"], "address1": "11 Doyers St", "city": "New York", "zip_code": "10013", "address3": "", "state": "NY"}, "coordinates": {"longitude": -73.99819, "latitude": 40.71448}, "review_count": 383, "image_url": "https://s3-media3.fl.yelpcdn.com/bphoto/3nt48mLkjqTvm1MbB6f8vg/o.jpg", "price": "$$", "rating": 3.5, "name": "Pulqueria", "url": "https://www.yelp.com/biz/pulqueria-new-york?adjust_creative=gBcvfFpabk3CnzmXKdYe3w&utm_campaign=yelp_api_v3&utm_medium=api_v3_business_search&utm_source=gBcvfFpabk3CnzmXKdYe3w"}, {"transactions": [], "distance": 9976.206444817999, "phone": "+17184241977", "categories": [{"alias": "mexican", "title": "Mexican"}], "id": "taqueria-coatzingo-jackson-heights", "display_phone": "(718) 424-1977", "is_closed": false, "location": {"address2": null, "country": "US", "display_address": ["7605 Roosevelt Ave", "Jackson Heights, NY 11372"], "address1": "7605 Roosevelt Ave", "city": "Jackson Heights", "zip_code": "11372", "address3": "", "state": "NY"}, "coordinates": {"longitude": -73.8895068500844, "latitude": 40.7471912668812}, "review_count": 322, "image_url": "https://s3-media1.fl.yelpcdn.com/bphoto/dfAJVSDn8E3J38Uu-3G3Ww/o.jpg", "price": "$", "rating": 4.0, "name": "Taqueria Coatzingo", "url": "https://www.yelp.com/biz/taqueria-coatzingo-jackson-heights?adjust_creative=gBcvfFpabk3CnzmXKdYe3w&utm_campaign=yelp_api_v3&utm_medium=api_v3_business_search&utm_source=gBcvfFpabk3CnzmXKdYe3w"}, {"transactions": [], "distance": 3762.336939024, "phone": "+12122067559", "categories": [{"alias": "mexican", "title": "Mexican"}, {"alias": "bars", "title": "Bars"}], "id": "mole-new-york-3", "display_phone": "(212) 206-7559", "is_closed": false, "location": {"address2": "", "country": "US", "display_address": ["57 Jane St", "New York, NY 10014"], "address1": "57 Jane St", "city": "New York", "zip_code": "10014", "address3": "", "state": "NY"}, "coordinates": {"longitude": -74.00524, "latitude": 40.73822}, "review_count": 368, "image_url": "https://s3-media3.fl.yelpcdn.com/bphoto/rqnNMh4SMS18liaDxnaKZA/o.jpg", "price": "$$$", "rating": 3.5, "name": "Mole", "url": "https://www.yelp.com/biz/mole-new-york-3?adjust_creative=gBcvfFpabk3CnzmXKdYe3w&utm_campaign=yelp_api_v3&utm_medium=api_v3_business_search&utm_source=gBcvfFpabk3CnzmXKdYe3w"}, {"transactions": ["delivery", "pickup"], "distance": 2017.373833874, "phone": "+12122748225", "categories": [{"alias": "mexican", "title": "Mexican"}, {"alias": "bars", "title": "Bars"}], "id": "papatzul-new-york", "display_phone": "(212) 274-8225", "is_closed": false, "location": {"address2": null, "country": "US", "display_address": ["55 Grand St", "New York, NY 10013"], "address1": "55 Grand St", "city": "New York", "zip_code": "10013", "address3": "", "state": "NY"}, "coordinates": {"longitude": -74.003677, "latitude": 40.722148}, "review_count": 323, "image_url": "https://s3-media3.fl.yelpcdn.com/bphoto/uvZL8PULVAglkTILsI7t3Q/o.jpg", "price": "$$", "rating": 3.5, "name": "Papatzul", "url": "https://www.yelp.com/biz/papatzul-new-york?adjust_creative=gBcvfFpabk3CnzmXKdYe3w&utm_campaign=yelp_api_v3&utm_medium=api_v3_business_search&utm_source=gBcvfFpabk3CnzmXKdYe3w"}, {"transactions": ["pickup"], "distance": 2294.805703398, "phone": "+12125980300", "categories": [{"alias": "mexican", "title": "Mexican"}, {"alias": "desserts", "title": "Desserts"}, {"alias": "bars", "title": "Bars"}], "id": "the-black-ant-new-york-2", "display_phone": "(212) 598-0300", "is_closed": false, "location": {"address2": "", "country": "US", "display_address": ["60 2nd Ave", "New York, NY 10003"], "address1": "60 2nd Ave", "city": "New York", "zip_code": "10003", "address3": "", "state": "NY"}, "coordinates": {"longitude": -73.98952, "latitude": 40.72578}, "review_count": 331, "image_url": "https://s3-media2.fl.yelpcdn.com/bphoto/8NlwZ-BynuyxCrIOsgF92A/o.jpg", "price": "$$", "rating": 4.0, "name": "The Black Ant", "url": "https://www.yelp.com/biz/the-black-ant-new-york-2?adjust_creative=gBcvfFpabk3CnzmXKdYe3w&utm_campaign=yelp_api_v3&utm_medium=api_v3_business_search&utm_source=gBcvfFpabk3CnzmXKdYe3w"}, {"transactions": ["delivery", "pickup"], "distance": 10595.55096591, "phone": "+12128283644", "categories": [{"alias": "mexican", "title": "Mexican"}, {"alias": "latin", "title": "Latin American"}], "id": "caf\u00e9-ollin-new-york-3", "display_phone": "(212) 828-3644", "is_closed": false, "location": {"address2": "", "country": "US", "display_address": ["339 E 108th St", "New York, NY 10029"], "address1": "339 E 108th St", "city": "New York", "zip_code": "10029", "address3": "", "state": "NY"}, "coordinates": {"longitude": -73.9395386, "latitude": 40.7912288}, "review_count": 332, "image_url": "https://s3-media4.fl.yelpcdn.com/bphoto/cJw05-s8V635iz9nsgDEIg/o.jpg", "price": "$$", "rating": 4.0, "name": "Caf\u00e9 Ollin", "url": "https://www.yelp.com/biz/caf%C3%A9-ollin-new-york-3?adjust_creative=gBcvfFpabk3CnzmXKdYe3w&utm_campaign=yelp_api_v3&utm_medium=api_v3_business_search&utm_source=gBcvfFpabk3CnzmXKdYe3w"}, {"transactions": [], "distance": 4654.920677072, "phone": "+12126796812", "categories": [{"alias": "mexican", "title": "Mexican"}, {"alias": "desserts", "title": "Desserts"}, {"alias": "vegetarian", "title": "Vegetarian"}], "id": "el-parador-cafe-new-york", "display_phone": "(212) 679-6812", "is_closed": false, "location": {"address2": "", "country": "US", "display_address": ["325 E 34th St", "New York, NY 10016"], "address1": "325 E 34th St", "city": "New York", "zip_code": "10016", "address3": "", "state": "NY"}, "coordinates": {"longitude": -73.9746399, "latitude": 40.74457}, "review_count": 339, "image_url": "https://s3-media4.fl.yelpcdn.com/bphoto/qslZYFV5zNX9vK-MI7rpgQ/o.jpg", "price": "$$", "rating": 4.0, "name": "El Parador Cafe", "url": "https://www.yelp.com/biz/el-parador-cafe-new-york?adjust_creative=gBcvfFpabk3CnzmXKdYe3w&utm_campaign=yelp_api_v3&utm_medium=api_v3_business_search&utm_source=gBcvfFpabk3CnzmXKdYe3w"}, {"transactions": [], "distance": 329.1197986938, "phone": "+17188522700", "categories": [{"alias": "mexican", "title": "Mexican"}, {"alias": "breakfast_brunch", "title": "Breakfast & Brunch"}, {"alias": "cocktailbars", "title": "Cocktail Bars"}], "id": "gran-electrica-brooklyn-3", "display_phone": "(718) 852-2700", "is_closed": false, "location": {"address2": "", "country": "US", "display_address": ["5 Front St", "Brooklyn, NY 11201"], "address1": "5 Front St", "city": "Brooklyn", "zip_code": "11201", "address3": "", "state": "NY"}, "coordinates": {"longitude": -73.99314, "latitude": 40.7027}, "review_count": 329, "image_url": "https://s3-media1.fl.yelpcdn.com/bphoto/ABvdSNs8cl_g9FzIlaAvOg/o.jpg", "price": "$$", "rating": 3.5, "name": "Gran Electrica", "url": "https://www.yelp.com/biz/gran-electrica-brooklyn-3?adjust_creative=gBcvfFpabk3CnzmXKdYe3w&utm_campaign=yelp_api_v3&utm_medium=api_v3_business_search&utm_source=gBcvfFpabk3CnzmXKdYe3w"}, {"transactions": ["pickup"], "distance": 3349.101879204, "phone": "+19176393262", "categories": [{"alias": "filipino", "title": "Filipino"}, {"alias": "asianfusion", "title": "Asian Fusion"}, {"alias": "mexican", "title": "Mexican"}], "id": "2nd-city-new-york", "display_phone": "(917) 639-3262", "is_closed": false, "location": {"address2": "", "country": "US", "display_address": ["525 Hudson St", "New York, NY 10014"], "address1": "525 Hudson St", "city": "New York", "zip_code": "10014", "address3": "", "state": "NY"}, "coordinates": {"longitude": -74.00642, "latitude": 40.73405}, "review_count": 316, "image_url": "https://s3-media1.fl.yelpcdn.com/bphoto/vC5CPk_eMleJHS1YBRt1uw/o.jpg", "price": "$$", "rating": 4.5, "name": "2nd City", "url": "https://www.yelp.com/biz/2nd-city-new-york?adjust_creative=gBcvfFpabk3CnzmXKdYe3w&utm_campaign=yelp_api_v3&utm_medium=api_v3_business_search&utm_source=gBcvfFpabk3CnzmXKdYe3w"}, {"transactions": [], "distance": 4075.55618493, "phone": "+17184840310", "categories": [{"alias": "mexican", "title": "Mexican"}], "id": "taqueria-de-los-muertos-brooklyn", "display_phone": "(718) 484-0310", "is_closed": false, "location": {"address2": "", "country": "US", "display_address": ["663 Washington Ave", "Brooklyn, NY 11238"], "address1": "663 Washington Ave", "city": "Brooklyn", "zip_code": "11238", "address3": "", "state": "NY"}, "coordinates": {"longitude": -73.963395, "latitude": 40.677257}, "review_count": 304, "image_url": "https://s3-media3.fl.yelpcdn.com/bphoto/zvTCTyaLETmDcaLWUkWxdA/o.jpg", "price": "$", "rating": 4.0, "name": "Taqueria De Los Muertos", "url": "https://www.yelp.com/biz/taqueria-de-los-muertos-brooklyn?adjust_creative=gBcvfFpabk3CnzmXKdYe3w&utm_campaign=yelp_api_v3&utm_medium=api_v3_business_search&utm_source=gBcvfFpabk3CnzmXKdYe3w"}, {"transactions": ["delivery", "pickup"], "distance": 7771.027139096, "phone": "+12127342447", "categories": [{"alias": "mexican", "title": "Mexican"}, {"alias": "bars", "title": "Bars"}], "id": "two-lizards-mexican-bar-and-grill-new-york", "display_phone": "(212) 734-2447", "is_closed": false, "location": {"address2": "", "country": "US", "display_address": ["1365 1st Ave", "New York, NY 10021"], "address1": "1365 1st Ave", "city": "New York", "zip_code": "10021", "address3": "", "state": "NY"}, "coordinates": {"longitude": -73.955524, "latitude": 40.768857}, "review_count": 340, "image_url": "https://s3-media4.fl.yelpcdn.com/bphoto/5eVd3kPTTmadIArYOW8-Gw/o.jpg", "price": "$$", "rating": 4.0, "name": "Two Lizards Mexican Bar & Grill", "url": "https://www.yelp.com/biz/two-lizards-mexican-bar-and-grill-new-york?adjust_creative=gBcvfFpabk3CnzmXKdYe3w&utm_campaign=yelp_api_v3&utm_medium=api_v3_business_search&utm_source=gBcvfFpabk3CnzmXKdYe3w"}, {"transactions": ["delivery", "pickup"], "distance": 2625.463274742, "phone": "+12124200600", "categories": [{"alias": "mexican", "title": "Mexican"}], "id": "toloache-new-york-4", "display_phone": "(212) 420-0600", "is_closed": false, "location": {"address2": null, "country": "US", "display_address": ["205 Thompson St", "New York, NY 10012"], "address1": "205 Thompson St", "city": "New York", "zip_code": "10012", "address3": "", "state": "NY"}, "coordinates": {"longitude": -73.9996414, "latitude": 40.7286606}, "review_count": 306, "image_url": "https://s3-media1.fl.yelpcdn.com/bphoto/Vx8x129I_50JTDlsHyV-Hw/o.jpg", "price": "$$", "rating": 4.0, "name": "Toloache", "url": "https://www.yelp.com/biz/toloache-new-york-4?adjust_creative=gBcvfFpabk3CnzmXKdYe3w&utm_campaign=yelp_api_v3&utm_medium=api_v3_business_search&utm_source=gBcvfFpabk3CnzmXKdYe3w"}, {"transactions": [], "distance": 2188.1149908999996, "phone": "+12123350114", "categories": [{"alias": "mexican", "title": "Mexican"}], "id": "rosies-new-york-2", "display_phone": "(212) 335-0114", "is_closed": false, "location": {"address2": null, "country": "US", "display_address": ["29 E Second St", "New York, NY 10003"], "address1": "29 E Second St", "city": "New York", "zip_code": "10003", "address3": "", "state": "NY"}, "coordinates": {"longitude": -73.9907913208008, "latitude": 40.7249298095703}, "review_count": 323, "image_url": "https://s3-media2.fl.yelpcdn.com/bphoto/omDyaLZ4k8QXYooKW_aOQg/o.jpg", "price": "$$", "rating": 4.0, "name": "Rosie's", "url": "https://www.yelp.com/biz/rosies-new-york-2?adjust_creative=gBcvfFpabk3CnzmXKdYe3w&utm_campaign=yelp_api_v3&utm_medium=api_v3_business_search&utm_source=gBcvfFpabk3CnzmXKdYe3w"}, {"transactions": ["delivery", "pickup"], "distance": 2642.837548448, "phone": "+17186430000", "categories": [{"alias": "mexican", "title": "Mexican"}], "id": "pequena-brooklyn", "display_phone": "(718) 643-0000", "is_closed": false, "location": {"address2": null, "country": "US", "display_address": ["86 S Portland Ave", "Brooklyn, NY 11217"], "address1": "86 S Portland Ave", "city": "Brooklyn", "zip_code": "11217", "address3": "", "state": "NY"}, "coordinates": {"longitude": -73.9747352, "latitude": 40.6868452}, "review_count": 279, "image_url": "https://s3-media3.fl.yelpcdn.com/bphoto/gpM8cLqIw70yVCR-89CSOg/o.jpg", "price": "$$", "rating": 3.5, "name": "Pequena", "url": "https://www.yelp.com/biz/pequena-brooklyn?adjust_creative=gBcvfFpabk3CnzmXKdYe3w&utm_campaign=yelp_api_v3&utm_medium=api_v3_business_search&utm_source=gBcvfFpabk3CnzmXKdYe3w"}, {"transactions": ["delivery", "pickup"], "distance": 816.7946066259999, "phone": "+16463987499", "categories": [{"alias": "mexican", "title": "Mexican"}], "id": "el-luchador-new-york-2", "display_phone": "(646) 398-7499", "is_closed": false, "location": {"address2": "", "country": "US", "display_address": ["87 South St", "New York, NY 10038"], "address1": "87 South St", "city": "New York", "zip_code": "10038", "address3": "", "state": "NY"}, "coordinates": {"longitude": -74.0041122, "latitude": 40.7058182}, "review_count": 307, "image_url": "https://s3-media3.fl.yelpcdn.com/bphoto/4vkm6wYxfTjhpPOaGFzn1w/o.jpg", "price": "$", "rating": 3.5, "name": "El Luchador", "url": "https://www.yelp.com/biz/el-luchador-new-york-2?adjust_creative=gBcvfFpabk3CnzmXKdYe3w&utm_campaign=yelp_api_v3&utm_medium=api_v3_business_search&utm_source=gBcvfFpabk3CnzmXKdYe3w"}, {"transactions": ["delivery", "pickup"], "distance": 6312.15898069, "phone": "+12122652229", "categories": [{"alias": "bars", "title": "Bars"}, {"alias": "mexican", "title": "Mexican"}], "id": "casa-agave-new-york-2", "display_phone": "(212) 265-2229", "is_closed": false, "location": {"address2": null, "country": "US", "display_address": ["693 9th Ave", "New York, NY 10036"], "address1": "693 9th Ave", "city": "New York", "zip_code": "10036", "address3": null, "state": "NY"}, "coordinates": {"longitude": -73.990313728836, "latitude": 40.7621289160565}, "review_count": 310, "image_url": "https://s3-media3.fl.yelpcdn.com/bphoto/vVgRrUBs39ij8mqqnJcdwA/o.jpg", "price": "$$", "rating": 4.0, "name": "Casa Agave", "url": "https://www.yelp.com/biz/casa-agave-new-york-2?adjust_creative=gBcvfFpabk3CnzmXKdYe3w&utm_campaign=yelp_api_v3&utm_medium=api_v3_business_search&utm_source=gBcvfFpabk3CnzmXKdYe3w"}, {"transactions": [], "distance": 2442.32392329, "phone": "+17184880777", "categories": [{"alias": "mexican", "title": "Mexican"}, {"alias": "french", "title": "French"}], "id": "jolie-cantina-brooklyn", "display_phone": "(718) 488-0777", "is_closed": false, "location": {"address2": "", "country": "US", "display_address": ["241 Smith St", "Brooklyn, NY 11231"], "address1": "241 Smith St", "city": "Brooklyn", "zip_code": "11231", "address3": "", "state": "NY"}, "coordinates": {"longitude": -73.992288, "latitude": 40.683532}, "review_count": 291, "image_url": "https://s3-media2.fl.yelpcdn.com/bphoto/t5jh1pgy_8oFx4Hk-unIGg/o.jpg", "price": "$$", "rating": 4.0, "name": "Jolie Cantina", "url": "https://www.yelp.com/biz/jolie-cantina-brooklyn?adjust_creative=gBcvfFpabk3CnzmXKdYe3w&utm_campaign=yelp_api_v3&utm_medium=api_v3_business_search&utm_source=gBcvfFpabk3CnzmXKdYe3w"}, {"transactions": ["delivery", "pickup"], "distance": 3236.694630092, "phone": "+17182303760", "categories": [{"alias": "latin", "title": "Latin American"}, {"alias": "mexican", "title": "Mexican"}, {"alias": "breakfast_brunch", "title": "Breakfast & Brunch"}], "id": "miti-miti-brooklyn-2", "display_phone": "(718) 230-3760", "is_closed": false, "location": {"address2": "", "country": "US", "display_address": ["138 5th Ave", "Brooklyn, NY 11217"], "address1": "138 5th Ave", "city": "Brooklyn", "zip_code": "11217", "address3": "", "state": "NY"}, "coordinates": {"longitude": -73.9791861, "latitude": 40.6786853}, "review_count": 291, "image_url": "https://s3-media2.fl.yelpcdn.com/bphoto/nPl6-kvNCXzXPvs5ma-4QA/o.jpg", "price": "$$", "rating": 4.0, "name": "Miti Miti", "url": "https://www.yelp.com/biz/miti-miti-brooklyn-2?adjust_creative=gBcvfFpabk3CnzmXKdYe3w&utm_campaign=yelp_api_v3&utm_medium=api_v3_business_search&utm_source=gBcvfFpabk3CnzmXKdYe3w"}, {"transactions": [], "distance": 8495.03717923, "phone": "+12128614505", "categories": [{"alias": "mexican", "title": "Mexican"}, {"alias": "newamerican", "title": "American (New)"}], "id": "toloache-new-york-7", "display_phone": "(212) 861-4505", "is_closed": false, "location": {"address2": "", "country": "US", "display_address": ["166 E 82nd St", "New York, NY 10028"], "address1": "166 E 82nd St", "city": "New York", "zip_code": "10028", "address3": "", "state": "NY"}, "coordinates": {"longitude": -73.956772, "latitude": 40.776356}, "review_count": 284, "image_url": "https://s3-media1.fl.yelpcdn.com/bphoto/UcL8DdRW7hV-HJm1bj_lcA/o.jpg", "price": "$$$", "rating": 4.0, "name": "Toloache", "url": "https://www.yelp.com/biz/toloache-new-york-7?adjust_creative=gBcvfFpabk3CnzmXKdYe3w&utm_campaign=yelp_api_v3&utm_medium=api_v3_business_search&utm_source=gBcvfFpabk3CnzmXKdYe3w"}, {"transactions": [], "distance": 3899.326534768, "phone": "+19173247423", "categories": [{"alias": "mexican", "title": "Mexican"}], "id": "zona-rosa-brooklyn-2", "display_phone": "(917) 324-7423", "is_closed": false, "location": {"address2": "", "country": "US", "display_address": ["571 Lorimer St", "Brooklyn, NY 11211"], "address1": "571 Lorimer St", "city": "Brooklyn", "zip_code": "11211", "address3": "", "state": "NY"}, "coordinates": {"longitude": -73.9494076703442, "latitude": 40.7139388888686}, "review_count": 275, "image_url": "https://s3-media3.fl.yelpcdn.com/bphoto/8HX-rTWGfqzyB2nuTHDQ4A/o.jpg", "price": "$$", "rating": 3.5, "name": "Zona Rosa", "url": "https://www.yelp.com/biz/zona-rosa-brooklyn-2?adjust_creative=gBcvfFpabk3CnzmXKdYe3w&utm_campaign=yelp_api_v3&utm_medium=api_v3_business_search&utm_source=gBcvfFpabk3CnzmXKdYe3w"}, {"transactions": [], "distance": 8127.577864501999, "phone": "+13474639263", "categories": [{"alias": "mexican", "title": "Mexican"}], "id": "taqueria-kermes-ridgewood", "display_phone": "(347) 463-9263", "is_closed": false, "location": {"address2": null, "country": "US", "display_address": ["66-36 Fresh Pond Rd", "Ridgewood, NY 11385"], "address1": "66-36 Fresh Pond Rd", "city": "Ridgewood", "zip_code": "11385", "address3": "", "state": "NY"}, "coordinates": {"longitude": -73.89798, "latitude": 40.70785}, "review_count": 287, "image_url": "https://s3-media3.fl.yelpcdn.com/bphoto/EChfejVMzs6onV0MCCx00w/o.jpg", "price": "$$", "rating": 4.5, "name": "Taqueria Kermes", "url": "https://www.yelp.com/biz/taqueria-kermes-ridgewood?adjust_creative=gBcvfFpabk3CnzmXKdYe3w&utm_campaign=yelp_api_v3&utm_medium=api_v3_business_search&utm_source=gBcvfFpabk3CnzmXKdYe3w"}, {"transactions": ["delivery", "pickup"], "distance": 3752.117630024, "phone": "+17186386292", "categories": [{"alias": "mexican", "title": "Mexican"}, {"alias": "salad", "title": "Salad"}], "id": "maya-taqueria-brooklyn", "display_phone": "(718) 638-6292", "is_closed": false, "location": {"address2": "", "country": "US", "display_address": ["637 Vanderbilt Ave", "Brooklyn, NY 11238"], "address1": "637 Vanderbilt Ave", "city": "Brooklyn", "zip_code": "11238", "address3": "", "state": "NY"}, "coordinates": {"longitude": -73.96844, "latitude": 40.67799}, "review_count": 291, "image_url": "https://s3-media3.fl.yelpcdn.com/bphoto/gPAlRVxsnsXn1jAh7c4ArA/o.jpg", "price": "$", "rating": 3.5, "name": "Maya Taqueria", "url": "https://www.yelp.com/biz/maya-taqueria-brooklyn?adjust_creative=gBcvfFpabk3CnzmXKdYe3w&utm_campaign=yelp_api_v3&utm_medium=api_v3_business_search&utm_source=gBcvfFpabk3CnzmXKdYe3w"}, {"transactions": ["delivery", "pickup"], "distance": 2551.76628532, "phone": "+12124777090", "categories": [{"alias": "tacos", "title": "Tacos"}, {"alias": "beerbar", "title": "Beer Bar"}], "id": "five-tacos-new-york", "display_phone": "(212) 477-7090", "is_closed": false, "location": {"address2": null, "country": "US", "display_address": ["119 St Marks Pl", "New York, NY 10009"], "address1": "119 St Marks Pl", "city": "New York", "zip_code": "10009", "address3": "", "state": "NY"}, "coordinates": {"longitude": -73.9838414145019, "latitude": 40.7269815187785}, "review_count": 260, "image_url": "https://s3-media4.fl.yelpcdn.com/bphoto/YyVi8t6EK2YmvxGESrRGNg/o.jpg", "price": "$", "rating": 4.0, "name": "Five Tacos", "url": "https://www.yelp.com/biz/five-tacos-new-york?adjust_creative=gBcvfFpabk3CnzmXKdYe3w&utm_campaign=yelp_api_v3&utm_medium=api_v3_business_search&utm_source=gBcvfFpabk3CnzmXKdYe3w"}, {"transactions": ["delivery", "pickup"], "distance": 2599.2068926419997, "phone": "+17183848282", "categories": [{"alias": "mexican", "title": "Mexican"}], "id": "carino-brooklyn-5", "display_phone": "(718) 384-8282", "is_closed": false, "location": {"address2": "", "country": "US", "display_address": ["82 S 4th St", "Brooklyn, NY 11211"], "address1": "82 S 4th St", "city": "Brooklyn", "zip_code": "11211", "address3": "", "state": "NY"}, "coordinates": {"longitude": -73.9648625, "latitude": 40.7124139}, "review_count": 272, "image_url": "https://s3-media1.fl.yelpcdn.com/bphoto/T1jmnsu-czR4olsYU-Iw7A/o.jpg", "price": "$$", "rating": 4.0, "name": "Carino", "url": "https://www.yelp.com/biz/carino-brooklyn-5?adjust_creative=gBcvfFpabk3CnzmXKdYe3w&utm_campaign=yelp_api_v3&utm_medium=api_v3_business_search&utm_source=gBcvfFpabk3CnzmXKdYe3w"}, {"transactions": ["delivery", "pickup"], "distance": 3612.3728441999997, "phone": "+13472547644", "categories": [{"alias": "mexican", "title": "Mexican"}], "id": "calexico-brooklyn-5", "display_phone": "(347) 254-7644", "is_closed": false, "location": {"address2": "", "country": "US", "display_address": ["278B 5th Ave", "Brooklyn, NY 11215"], "address1": "278B 5th Ave", "city": "Brooklyn", "zip_code": "11215", "address3": "", "state": "NY"}, "coordinates": {"longitude": -73.9822726759751, "latitude": 40.674264453218}, "review_count": 275, "image_url": "https://s3-media3.fl.yelpcdn.com/bphoto/Ll4FljRpkwSdUymI686pnQ/o.jpg", "price": "$$", "rating": 3.5, "name": "Calexico", "url": "https://www.yelp.com/biz/calexico-brooklyn-5?adjust_creative=gBcvfFpabk3CnzmXKdYe3w&utm_campaign=yelp_api_v3&utm_medium=api_v3_business_search&utm_source=gBcvfFpabk3CnzmXKdYe3w"}, {"transactions": ["delivery", "pickup"], "distance": 2201.4853876199995, "phone": "+12129661326", "categories": [{"alias": "mexican", "title": "Mexican"}], "id": "lupes-new-york-60", "display_phone": "(212) 966-1326", "is_closed": false, "location": {"address2": null, "country": "US", "display_address": ["110 Ave Of The Americas", "New York, NY 10013"], "address1": "110 Ave Of The Americas", "city": "New York", "zip_code": "10013", "address3": null, "state": "NY"}, "coordinates": {"longitude": -74.0045776, "latitude": 40.72369}, "review_count": 272, "image_url": "https://s3-media4.fl.yelpcdn.com/bphoto/q00rAeP2JDnL0NUeE2HNkA/o.jpg", "price": "$$", "rating": 3.5, "name": "Lupe's", "url": "https://www.yelp.com/biz/lupes-new-york-60?adjust_creative=gBcvfFpabk3CnzmXKdYe3w&utm_campaign=yelp_api_v3&utm_medium=api_v3_business_search&utm_source=gBcvfFpabk3CnzmXKdYe3w"}, {"transactions": ["delivery", "pickup"], "distance": 9357.669973339998, "phone": "+17187771655", "categories": [{"alias": "mexican", "title": "Mexican"}], "id": "de-mole-astoria-astoria", "display_phone": "(718) 777-1655", "is_closed": false, "location": {"address2": "", "country": "US", "display_address": ["4220 30th Ave", "Astoria, NY 11103"], "address1": "4220 30th Ave", "city": "Astoria", "zip_code": "11103", "address3": "", "state": "NY"}, "coordinates": {"longitude": -73.9129028, "latitude": 40.7625999}, "review_count": 268, "image_url": "https://s3-media1.fl.yelpcdn.com/bphoto/OMslYtfMxVnk0MRbHPOwng/o.jpg", "price": "$$", "rating": 4.0, "name": "De Mole Astoria", "url": "https://www.yelp.com/biz/de-mole-astoria-astoria?adjust_creative=gBcvfFpabk3CnzmXKdYe3w&utm_campaign=yelp_api_v3&utm_medium=api_v3_business_search&utm_source=gBcvfFpabk3CnzmXKdYe3w"}, {"transactions": ["delivery", "pickup"], "distance": 2597.641648558, "phone": "+16469645614", "categories": [{"alias": "mexican", "title": "Mexican"}], "id": "taqueria-st-marks-place-new-york", "display_phone": "(646) 964-5614", "is_closed": false, "location": {"address2": "", "country": "US", "display_address": ["79 St Marks Pl", "New York, NY 10003"], "address1": "79 St Marks Pl", "city": "New York", "zip_code": "10003", "address3": "", "state": "NY"}, "coordinates": {"longitude": -73.9856138085992, "latitude": 40.7278587780221}, "review_count": 251, "image_url": "https://s3-media4.fl.yelpcdn.com/bphoto/lwZYPBDlvrgK8eaKZzZpSw/o.jpg", "price": "$$", "rating": 4.0, "name": "Taqueria St. Marks Place", "url": "https://www.yelp.com/biz/taqueria-st-marks-place-new-york?adjust_creative=gBcvfFpabk3CnzmXKdYe3w&utm_campaign=yelp_api_v3&utm_medium=api_v3_business_search&utm_source=gBcvfFpabk3CnzmXKdYe3w"}, {"transactions": ["delivery", "pickup"], "distance": 5863.364105164, "phone": "+16467073916", "categories": [{"alias": "mexican", "title": "Mexican"}], "id": "taqueria-tehuitzingo-new-york", "display_phone": "(646) 707-3916", "is_closed": false, "location": {"address2": "", "country": "US", "display_address": ["578 9th Ave", "New York, NY 10036"], "address1": "578 9th Ave", "city": "New York", "zip_code": "10036", "address3": "", "state": "NY"}, "coordinates": {"longitude": -73.9928447, "latitude": 40.7581646}, "review_count": 252, "image_url": "https://s3-media1.fl.yelpcdn.com/bphoto/U9UMqZAxtP8HdqbsdZzzHQ/o.jpg", "price": "$", "rating": 4.0, "name": "Taqueria Tehuitzingo", "url": "https://www.yelp.com/biz/taqueria-tehuitzingo-new-york?adjust_creative=gBcvfFpabk3CnzmXKdYe3w&utm_campaign=yelp_api_v3&utm_medium=api_v3_business_search&utm_source=gBcvfFpabk3CnzmXKdYe3w"}, {"transactions": ["delivery", "pickup"], "distance": 1849.6749731839998, "phone": "+12122544188", "categories": [{"alias": "mexican", "title": "Mexican"}, {"alias": "latin", "title": "Latin American"}, {"alias": "breakfast_brunch", "title": "Breakfast & Brunch"}], "id": "el-sombrero-new-york", "display_phone": "(212) 254-4188", "is_closed": false, "location": {"address2": "", "country": "US", "display_address": ["108 Stanton St", "New York, NY 10002"], "address1": "108 Stanton St", "city": "New York", "zip_code": "10002", "address3": "", "state": "NY"}, "coordinates": {"longitude": -73.9875, "latitude": 40.72124}, "review_count": 257, "image_url": "https://s3-media1.fl.yelpcdn.com/bphoto/7kzdwxeJOAGnnWvXmGPjJQ/o.jpg", "price": "$$", "rating": 3.5, "name": "El Sombrero", "url": "https://www.yelp.com/biz/el-sombrero-new-york?adjust_creative=gBcvfFpabk3CnzmXKdYe3w&utm_campaign=yelp_api_v3&utm_medium=api_v3_business_search&utm_source=gBcvfFpabk3CnzmXKdYe3w"}, {"transactions": [], "distance": 4080.210718078, "phone": "+17184998226", "categories": [{"alias": "mexican", "title": "Mexican"}], "id": "fatty-daddy-taco-brooklyn", "display_phone": "(718) 499-8226", "is_closed": false, "location": {"address2": "", "country": "US", "display_address": ["310 9th St", "Brooklyn, NY 11215"], "address1": "310 9th St", "city": "Brooklyn", "zip_code": "11215", "address3": "", "state": "NY"}, "coordinates": {"longitude": -73.9864531159401, "latitude": 40.6692368749235}, "review_count": 266, "image_url": "https://s3-media1.fl.yelpcdn.com/bphoto/KBKiNmsV81MXO24XzMakbQ/o.jpg", "price": "$", "rating": 4.0, "name": "Fatty Daddy Taco", "url": "https://www.yelp.com/biz/fatty-daddy-taco-brooklyn?adjust_creative=gBcvfFpabk3CnzmXKdYe3w&utm_campaign=yelp_api_v3&utm_medium=api_v3_business_search&utm_source=gBcvfFpabk3CnzmXKdYe3w"}, {"transactions": ["delivery", "pickup"], "distance": 3704.96702577, "phone": "+17184866979", "categories": [{"alias": "mexican", "title": "Mexican"}, {"alias": "french", "title": "French"}, {"alias": "salad", "title": "Salad"}], "id": "santos-anne-brooklyn-2", "display_phone": "(718) 486-6979", "is_closed": false, "location": {"address2": "", "country": "US", "display_address": ["366 Union Ave", "Brooklyn, NY 11211"], "address1": "366 Union Ave", "city": "Brooklyn", "zip_code": "11211", "address3": "", "state": "NY"}, "coordinates": {"longitude": -73.9510455988026, "latitude": 40.7113837497199}, "review_count": 237, "image_url": "https://s3-media3.fl.yelpcdn.com/bphoto/d_JzapIcQtNCrLI3cgK14A/o.jpg", "price": "$$", "rating": 4.0, "name": "Santos Anne", "url": "https://www.yelp.com/biz/santos-anne-brooklyn-2?adjust_creative=gBcvfFpabk3CnzmXKdYe3w&utm_campaign=yelp_api_v3&utm_medium=api_v3_business_search&utm_source=gBcvfFpabk3CnzmXKdYe3w"}, {"transactions": [], "distance": 7928.822282359999, "phone": "+19178326876", "categories": [{"alias": "mexican", "title": "Mexican"}, {"alias": "wine_bars", "title": "Wine Bars"}, {"alias": "breakfast_brunch", "title": "Breakfast & Brunch"}], "id": "chela-and-garnacha-astoria", "display_phone": "(917) 832-6876", "is_closed": false, "location": {"address2": "", "country": "US", "display_address": ["33-09 36th Ave", "Astoria, NY 11106"], "address1": "33-09 36th Ave", "city": "Astoria", "zip_code": "11106", "address3": "", "state": "NY"}, "coordinates": {"longitude": -73.927811292412, "latitude": 40.7557171543477}, "review_count": 225, "image_url": "https://s3-media1.fl.yelpcdn.com/bphoto/ChVbA1_xqLHFXL4Iyh84NA/o.jpg", "price": "$$", "rating": 4.5, "name": "Chela & Garnacha", "url": "https://www.yelp.com/biz/chela-and-garnacha-astoria?adjust_creative=gBcvfFpabk3CnzmXKdYe3w&utm_campaign=yelp_api_v3&utm_medium=api_v3_business_search&utm_source=gBcvfFpabk3CnzmXKdYe3w"}, {"transactions": [], "distance": 2828.585318172, "phone": "+17183990084", "categories": [{"alias": "mexican", "title": "Mexican"}], "id": "castros-restaurant-brooklyn", "display_phone": "(718) 399-0084", "is_closed": false, "location": {"address2": "", "country": "US", "display_address": ["511 Myrtle Ave", "Brooklyn, NY 11205"], "address1": "511 Myrtle Ave", "city": "Brooklyn", "zip_code": "11205", "address3": "", "state": "NY"}, "coordinates": {"longitude": -73.964424, "latitude": 40.693855}, "review_count": 232, "image_url": "https://s3-media3.fl.yelpcdn.com/bphoto/oeuo5EpzjuiUwhnnAIQzFQ/o.jpg", "price": "$", "rating": 3.5, "name": "Castro's Restaurant", "url": "https://www.yelp.com/biz/castros-restaurant-brooklyn?adjust_creative=gBcvfFpabk3CnzmXKdYe3w&utm_campaign=yelp_api_v3&utm_medium=api_v3_business_search&utm_source=gBcvfFpabk3CnzmXKdYe3w"}, {"transactions": ["delivery", "pickup"], "distance": 8764.683705569998, "phone": "+12127245151", "categories": [{"alias": "mexican", "title": "Mexican"}, {"alias": "newamerican", "title": "American (New)"}], "id": "the-great-burrito-new-york-2", "display_phone": "(212) 724-5151", "is_closed": false, "location": {"address2": "", "country": "US", "display_address": ["405 Amsterdam Ave", "New York, NY 10024"], "address1": "405 Amsterdam Ave", "city": "New York", "zip_code": "10024", "address3": "", "state": "NY"}, "coordinates": {"longitude": -73.9779739, "latitude": 40.7833443}, "review_count": 221, "image_url": "https://s3-media3.fl.yelpcdn.com/bphoto/fj_NEKVdrGQMBwdFQbfXdw/o.jpg", "price": "$$", "rating": 4.0, "name": "The Great Burrito", "url": "https://www.yelp.com/biz/the-great-burrito-new-york-2?adjust_creative=gBcvfFpabk3CnzmXKdYe3w&utm_campaign=yelp_api_v3&utm_medium=api_v3_business_search&utm_source=gBcvfFpabk3CnzmXKdYe3w"}, {"transactions": ["delivery", "pickup"], "distance": 8537.24775342, "phone": "+17182551349", "categories": [{"alias": "mexican", "title": "Mexican"}], "id": "homemade-taqueria-long-island-city", "display_phone": "(718) 255-1349", "is_closed": false, "location": {"address2": "", "country": "US", "display_address": ["45-09 34th Ave", "Long Island City, NY 11101"], "address1": "45-09 34th Ave", "city": "Long Island City", "zip_code": "11101", "address3": "", "state": "NY"}, "coordinates": {"longitude": -73.9165629007979, "latitude": 40.7546939084048}, "review_count": 211, "image_url": "https://s3-media2.fl.yelpcdn.com/bphoto/ufdqnt8x86wQEDUM2XBbGA/o.jpg", "price": "$", "rating": 4.0, "name": "Homemade Taqueria", "url": "https://www.yelp.com/biz/homemade-taqueria-long-island-city?adjust_creative=gBcvfFpabk3CnzmXKdYe3w&utm_campaign=yelp_api_v3&utm_medium=api_v3_business_search&utm_source=gBcvfFpabk3CnzmXKdYe3w"}, {"transactions": [], "distance": 2304.735170264, "phone": "+12122541757", "categories": [{"alias": "mexican", "title": "Mexican"}], "id": "downtown-bakery-new-york", "display_phone": "(212) 254-1757", "is_closed": false, "location": {"address2": "", "country": "US", "display_address": ["69 1st Ave", "New York, NY 10003"], "address1": "69 1st Ave", "city": "New York", "zip_code": "10003", "address3": "", "state": "NY"}, "coordinates": {"longitude": -73.987258, "latitude": 40.725479}, "review_count": 213, "image_url": "https://s3-media3.fl.yelpcdn.com/bphoto/p9gjxTUIwilel7eptIbO_A/o.jpg", "price": "$", "rating": 4.0, "name": "Downtown Bakery", "url": "https://www.yelp.com/biz/downtown-bakery-new-york?adjust_creative=gBcvfFpabk3CnzmXKdYe3w&utm_campaign=yelp_api_v3&utm_medium=api_v3_business_search&utm_source=gBcvfFpabk3CnzmXKdYe3w"}, {"transactions": [], "distance": 4796.5353550419995, "phone": "+17183498429", "categories": [{"alias": "mexican", "title": "Mexican"}, {"alias": "sandwiches", "title": "Sandwiches"}], "id": "acapulco-brooklyn-2", "display_phone": "(718) 349-8429", "is_closed": false, "location": {"address2": "Ste 2-L", "country": "US", "display_address": ["1116 Manhattan Ave", "Ste 2-L", "Brooklyn, NY 11222"], "address1": "1116 Manhattan Ave", "city": "Brooklyn", "zip_code": "11222", "address3": "", "state": "NY"}, "coordinates": {"longitude": -73.9550018310547, "latitude": 40.7367172241211}, "review_count": 223, "image_url": "https://s3-media1.fl.yelpcdn.com/bphoto/a-Lx7rVzUk9nGttL309t4A/o.jpg", "price": "$", "rating": 4.0, "name": "Acapulco", "url": "https://www.yelp.com/biz/acapulco-brooklyn-2?adjust_creative=gBcvfFpabk3CnzmXKdYe3w&utm_campaign=yelp_api_v3&utm_medium=api_v3_business_search&utm_source=gBcvfFpabk3CnzmXKdYe3w"}, {"transactions": ["delivery", "pickup"], "distance": 10701.7247584, "phone": "+16463516574", "categories": [{"alias": "latin", "title": "Latin American"}, {"alias": "mexican", "title": "Mexican"}], "id": "cascalote-latin-bistro-new-york", "display_phone": "(646) 351-6574", "is_closed": false, "location": {"address2": null, "country": "US", "display_address": ["2126 2nd Ave", "New York, NY 10029"], "address1": "2126 2nd Ave", "city": "New York", "zip_code": "10029", "address3": "", "state": "NY"}, "coordinates": {"longitude": -73.94059, "latitude": 40.79267}, "review_count": 220, "image_url": "https://s3-media3.fl.yelpcdn.com/bphoto/l1qPZNpd-6E8OrLWNnwOtA/o.jpg", "price": "$$", "rating": 4.5, "name": "Cascalote Latin Bistro", "url": "https://www.yelp.com/biz/cascalote-latin-bistro-new-york?adjust_creative=gBcvfFpabk3CnzmXKdYe3w&utm_campaign=yelp_api_v3&utm_medium=api_v3_business_search&utm_source=gBcvfFpabk3CnzmXKdYe3w"}, {"transactions": [], "distance": 4174.609774458, "phone": "+17183830808", "categories": [{"alias": "mexican", "title": "Mexican"}], "id": "vamos-al-tequila-brooklyn", "display_phone": "(718) 383-0808", "is_closed": false, "location": {"address2": "", "country": "US", "display_address": ["162 Franklin St", "Brooklyn, NY 11222"], "address1": "162 Franklin St", "city": "Brooklyn", "zip_code": "11222", "address3": "", "state": "NY"}, "coordinates": {"longitude": -73.9576, "latitude": 40.73079}, "review_count": 221, "image_url": "https://s3-media4.fl.yelpcdn.com/bphoto/XcmqqvHwKG_oMvtvhclnNg/o.jpg", "price": "$$", "rating": 3.5, "name": "Vamos Al Tequila", "url": "https://www.yelp.com/biz/vamos-al-tequila-brooklyn?adjust_creative=gBcvfFpabk3CnzmXKdYe3w&utm_campaign=yelp_api_v3&utm_medium=api_v3_business_search&utm_source=gBcvfFpabk3CnzmXKdYe3w"}, {"transactions": ["delivery", "pickup"], "distance": 8381.95609946, "phone": "+12127178226", "categories": [{"alias": "mexican", "title": "Mexican"}, {"alias": "cocktailbars", "title": "Cocktail Bars"}], "id": "cascabel-taqueria-new-york-4", "display_phone": "(212) 717-8226", "is_closed": false, "location": {"address2": "", "country": "US", "display_address": ["1556 2nd Ave", "New York, NY 10028"], "address1": "1556 2nd Ave", "city": "New York", "zip_code": "10028", "address3": "", "state": "NY"}, "coordinates": {"longitude": -73.9539916, "latitude": 40.7743636}, "review_count": 222, "image_url": "https://s3-media2.fl.yelpcdn.com/bphoto/JBtiCisVxNsXOxwitBffyg/o.jpg", "price": "$$", "rating": 3.5, "name": "Cascabel Taqueria", "url": "https://www.yelp.com/biz/cascabel-taqueria-new-york-4?adjust_creative=gBcvfFpabk3CnzmXKdYe3w&utm_campaign=yelp_api_v3&utm_medium=api_v3_business_search&utm_source=gBcvfFpabk3CnzmXKdYe3w"}, {"transactions": ["delivery", "pickup"], "distance": 8308.34810654, "phone": "+17184069431", "categories": [{"alias": "mexican", "title": "Mexican"}], "id": "maizal-restaurant-and-tequila-bar-astoria-2", "display_phone": "(718) 406-9431", "is_closed": false, "location": {"address2": null, "country": "US", "display_address": ["3207 34th Ave", "Astoria, NY 11106"], "address1": "3207 34th Ave", "city": "Astoria", "zip_code": "11106", "address3": null, "state": "NY"}, "coordinates": {"longitude": -73.9260174, "latitude": 40.759352}, "review_count": 206, "image_url": "https://s3-media4.fl.yelpcdn.com/bphoto/-IkQe9DWwyHZFaXo_YfJgA/o.jpg", "price": "$$", "rating": 4.0, "name": "Maizal Restaurant & Tequila Bar", "url": "https://www.yelp.com/biz/maizal-restaurant-and-tequila-bar-astoria-2?adjust_creative=gBcvfFpabk3CnzmXKdYe3w&utm_campaign=yelp_api_v3&utm_medium=api_v3_business_search&utm_source=gBcvfFpabk3CnzmXKdYe3w"}, {"transactions": [], "distance": 4160.018854282, "phone": "+12122430022", "categories": [{"alias": "pizza", "title": "Pizza"}, {"alias": "mexican", "title": "Mexican"}], "id": "great-burrito-new-york", "display_phone": "(212) 243-0022", "is_closed": false, "location": {"address2": "", "country": "US", "display_address": ["100 W 23rd St", "New York, NY 10011"], "address1": "100 W 23rd St", "city": "New York", "zip_code": "10011", "address3": "", "state": "NY"}, "coordinates": {"longitude": -73.9930115, "latitude": 40.7428322}, "review_count": 189, "image_url": "https://s3-media3.fl.yelpcdn.com/bphoto/HKPi2_cANS8iFQL6wm3piQ/o.jpg", "price": "$", "rating": 4.0, "name": "Great Burrito", "url": "https://www.yelp.com/biz/great-burrito-new-york?adjust_creative=gBcvfFpabk3CnzmXKdYe3w&utm_campaign=yelp_api_v3&utm_medium=api_v3_business_search&utm_source=gBcvfFpabk3CnzmXKdYe3w"}, {"transactions": ["pickup"], "distance": 8215.00799588, "phone": "+17184268023", "categories": [{"alias": "mexican", "title": "Mexican"}, {"alias": "desserts", "title": "Desserts"}, {"alias": "breakfast_brunch", "title": "Breakfast & Brunch"}], "id": "la-flor-woodside-3", "display_phone": "(718) 426-8023", "is_closed": false, "location": {"address2": null, "country": "US", "display_address": ["53-02 Roosevelt Ave", "Woodside, NY 11377"], "address1": "53-02 Roosevelt Ave", "city": "Woodside", "zip_code": "11377", "address3": "", "state": "NY"}, "coordinates": {"longitude": -73.91141, "latitude": 40.74434}, "review_count": 193, "image_url": "https://s3-media3.fl.yelpcdn.com/bphoto/whfM3bCoIlszhiX12KYKcQ/o.jpg", "price": "$$", "rating": 4.0, "name": "La Flor", "url": "https://www.yelp.com/biz/la-flor-woodside-3?adjust_creative=gBcvfFpabk3CnzmXKdYe3w&utm_campaign=yelp_api_v3&utm_medium=api_v3_business_search&utm_source=gBcvfFpabk3CnzmXKdYe3w"}, {"transactions": [], "distance": 6108.73840469, "phone": "+17185766001", "categories": [{"alias": "mexican", "title": "Mexican"}], "id": "amaranto-mexican-restaurant-brooklyn", "display_phone": "(718) 576-6001", "is_closed": false, "location": {"address2": "", "country": "US", "display_address": ["887 Hart St", "Brooklyn, NY 11237"], "address1": "887 Hart St", "city": "Brooklyn", "zip_code": "11237", "address3": "", "state": "NY"}, "coordinates": {"longitude": -73.921892, "latitude": 40.703111}, "review_count": 197, "image_url": "https://s3-media4.fl.yelpcdn.com/bphoto/VvXWECqDDvZEcrMtDfC29A/o.jpg", "price": "$$", "rating": 4.5, "name": "Amaranto Mexican Restaurant", "url": "https://www.yelp.com/biz/amaranto-mexican-restaurant-brooklyn?adjust_creative=gBcvfFpabk3CnzmXKdYe3w&utm_campaign=yelp_api_v3&utm_medium=api_v3_business_search&utm_source=gBcvfFpabk3CnzmXKdYe3w"}, {"transactions": ["delivery", "pickup"], "distance": 7554.324519141999, "phone": "+17182699946", "categories": [{"alias": "mexican", "title": "Mexican"}], "id": "taqueria-santa-fe-woodside-2", "display_phone": "(718) 269-9946", "is_closed": false, "location": {"address2": null, "country": "US", "display_address": ["4708 47th Ave", "Woodside, NY 11377"], "address1": "4708 47th Ave", "city": "Woodside", "zip_code": "11377", "address3": "", "state": "NY"}, "coordinates": {"longitude": -73.9178771972656, "latitude": 40.7407646179199}, "review_count": 204, "image_url": "https://s3-media3.fl.yelpcdn.com/bphoto/Fimz__Xwr7w4jzQY1oWz-w/o.jpg", "price": "$", "rating": 4.5, "name": "Taqueria Santa Fe", "url": "https://www.yelp.com/biz/taqueria-santa-fe-woodside-2?adjust_creative=gBcvfFpabk3CnzmXKdYe3w&utm_campaign=yelp_api_v3&utm_medium=api_v3_business_search&utm_source=gBcvfFpabk3CnzmXKdYe3w"}, {"transactions": [], "distance": 4246.022144816, "phone": "+17183693211", "categories": [{"alias": "convenience", "title": "Convenience Stores"}, {"alias": "mexican", "title": "Mexican"}], "id": "reyes-deli-and-grocery-brooklyn", "display_phone": "(718) 369-3211", "is_closed": false, "location": {"address2": "", "country": "US", "display_address": ["532 4th Ave", "Brooklyn, NY 11215"], "address1": "532 4th Ave", "city": "Brooklyn", "zip_code": "11215", "address3": "", "state": "NY"}, "coordinates": {"longitude": -73.9916152954102, "latitude": 40.667308807373}, "review_count": 169, "image_url": "https://s3-media3.fl.yelpcdn.com/bphoto/2mFC4U1G-S20GI2RhdKF-g/o.jpg", "price": "$", "rating": 4.5, "name": "Reyes Deli & Grocery", "url": "https://www.yelp.com/biz/reyes-deli-and-grocery-brooklyn?adjust_creative=gBcvfFpabk3CnzmXKdYe3w&utm_campaign=yelp_api_v3&utm_medium=api_v3_business_search&utm_source=gBcvfFpabk3CnzmXKdYe3w"}, {"transactions": [], "distance": 6696.20865961, "phone": "+12122454500", "categories": [{"alias": "mexican", "title": "Mexican"}, {"alias": "latin", "title": "Latin American"}, {"alias": "tapas", "title": "Tapas Bars"}], "id": "tacuba-hells-kitchen-cantina-mexicana-new-york", "display_phone": "(212) 245-4500", "is_closed": false, "location": {"address2": "", "country": "US", "display_address": ["802 9th Ave", "New York, NY 10019"], "address1": "802 9th Ave", "city": "New York", "zip_code": "10019", "address3": "", "state": "NY"}, "coordinates": {"longitude": -73.98719, "latitude": 40.765422}, "review_count": 225, "image_url": "https://s3-media3.fl.yelpcdn.com/bphoto/7IwehQxJ9nHSvdwyhoAm4A/o.jpg", "price": "$$", "rating": 4.0, "name": "Tacuba Hell's Kitchen Cantina Mexicana", "url": "https://www.yelp.com/biz/tacuba-hells-kitchen-cantina-mexicana-new-york?adjust_creative=gBcvfFpabk3CnzmXKdYe3w&utm_campaign=yelp_api_v3&utm_medium=api_v3_business_search&utm_source=gBcvfFpabk3CnzmXKdYe3w"}]}