{"total": 24836, "region": {"center": {"longitude": -71.07124328613281, "latitude": 42.34784169448538}}, "businesses": [{"rating": 3.5, "is_closed": false, "distance": 782.6176645951999, "name": "Penang", "id": "penang-boston", "image_url": "https://s3-media2.fl.yelpcdn.com/bphoto/PzeGx5Vyje-fRDHzgEAM4g/o.jpg", "url": "https://www.yelp.com/biz/penang-boston?adjust_creative=gBcvfFpabk3CnzmXKdYe3w&utm_campaign=yelp_api_v3&utm_medium=api_v3_business_search&utm_source=gBcvfFpabk3CnzmXKdYe3w", "phone": "+16174516373", "coordinates": {"longitude": -71.0629915757408, "latitude": 42.3513510985963}, "categories": [{"alias": "malaysian", "title": "Malaysian"}, {"alias": "chinese", "title": "Chinese"}], "review_count": 733, "location": {"city": "Boston", "address1": "685 Washington St", "address3": "", "address2": "", "zip_code": "02111", "country": "US", "display_address": ["685 Washington St", "Boston, MA 02111"], "state": "MA"}, "price": "$$", "transactions": ["delivery"], "display_phone": "(617) 451-6373"}, {"rating": 3.5, "is_closed": false, "distance": 712.8222946955999, "name": "Chinatown Cafe", "id": "chinatown-cafe-boston", "image_url": "https://s3-media3.fl.yelpcdn.com/bphoto/9h2Blp3TMnm4ypKWao-btg/o.jpg", "url": "https://www.yelp.com/biz/chinatown-cafe-boston?adjust_creative=gBcvfFpabk3CnzmXKdYe3w&utm_campaign=yelp_api_v3&utm_medium=api_v3_business_search&utm_source=gBcvfFpabk3CnzmXKdYe3w", "phone": "+16176959888", "coordinates": {"longitude": -71.06207, "latitude": 42.3475899}, "categories": [{"alias": "chinese", "title": "Chinese"}], "review_count": 121, "location": {"city": "Boston", "address1": "262 Harrison Ave", "address3": "", "address2": "", "zip_code": "02111", "country": "US", "display_address": ["262 Harrison Ave", "Boston, MA 02111"], "state": "MA"}, "price": "$", "transactions": [], "display_phone": "(617) 695-9888"}, {"rating": 3.5, "is_closed": false, "distance": 806.1297679403999, "name": "Pho Pasteur", "id": "pho-pasteur-boston", "image_url": "https://s3-media1.fl.yelpcdn.com/bphoto/U1PgH8uoa4aqFC4DHV93jA/o.jpg", "url": "https://www.yelp.com/biz/pho-pasteur-boston?adjust_creative=gBcvfFpabk3CnzmXKdYe3w&utm_campaign=yelp_api_v3&utm_medium=api_v3_business_search&utm_source=gBcvfFpabk3CnzmXKdYe3w", "phone": "+16174827467", "coordinates": {"longitude": -71.0627084970474, "latitude": 42.3514122780359}, "categories": [{"alias": "vietnamese", "title": "Vietnamese"}], "review_count": 945, "location": {"city": "Boston", "address1": "682 Washington St", "address3": "", "address2": "", "zip_code": "02111", "country": "US", "display_address": ["682 Washington St", "Boston, MA 02111"], "state": "MA"}, "price": "$", "transactions": ["delivery"], "display_phone": "(617) 482-7467"}, {"rating": 4.0, "is_closed": false, "distance": 1967.4817189299997, "name": "Haymarket Pizza", "id": "haymarket-pizza-boston", "image_url": "https://s3-media4.fl.yelpcdn.com/bphoto/rHqfQzIXY3FUwc3a48po1w/o.jpg", "url": "https://www.yelp.com/biz/haymarket-pizza-boston?adjust_creative=gBcvfFpabk3CnzmXKdYe3w&utm_campaign=yelp_api_v3&utm_medium=api_v3_business_search&utm_source=gBcvfFpabk3CnzmXKdYe3w", "phone": "+16177238585", "coordinates": {"longitude": -71.0563858598471, "latitude": 42.3616404086351}, "categories": [{"alias": "pizza", "title": "Pizza"}], "review_count": 96, "location": {"city": "Boston", "address1": "106 Blackstone St", "address3": "", "address2": "", "zip_code": "02109", "country": "US", "display_address": ["106 Blackstone St", "Boston, MA 02109"], "state": "MA"}, "price": "$", "transactions": [], "display_phone": "(617) 723-8585"}, {"rating": 3.5, "is_closed": false, "distance": 2260.7042716, "name": "Ristorante Saraceno", "id": "ristorante-saraceno-boston", "image_url": "https://s3-media1.fl.yelpcdn.com/bphoto/B2zaNNsTyvP7hMnhS7yV-Q/o.jpg", "url": "https://www.yelp.com/biz/ristorante-saraceno-boston?adjust_creative=gBcvfFpabk3CnzmXKdYe3w&utm_campaign=yelp_api_v3&utm_medium=api_v3_business_search&utm_source=gBcvfFpabk3CnzmXKdYe3w", "phone": "+16172275888", "coordinates": {"longitude": -71.05455, "latitude": 42.36398}, "categories": [{"alias": "italian", "title": "Italian"}, {"alias": "seafood", "title": "Seafood"}], "review_count": 351, "location": {"city": "Boston", "address1": "286 Hanover St", "address3": "", "address2": "", "zip_code": "02113", "country": "US", "display_address": ["286 Hanover St", "Boston, MA 02113"], "state": "MA"}, "price": "$$", "transactions": [], "display_phone": "(617) 227-5888"}, {"rating": 4.5, "is_closed": false, "distance": 1347.5176502181998, "name": "Boston News Cafe", "id": "boston-news-cafe-boston-2", "image_url": "https://s3-media4.fl.yelpcdn.com/bphoto/BHjkTX6rUIs_gsbmDD96yA/o.jpg", "url": "https://www.yelp.com/biz/boston-news-cafe-boston-2?adjust_creative=gBcvfFpabk3CnzmXKdYe3w&utm_campaign=yelp_api_v3&utm_medium=api_v3_business_search&utm_source=gBcvfFpabk3CnzmXKdYe3w", "phone": "+16174231149", "coordinates": {"longitude": -71.0580597, "latitude": 42.3551598}, "categories": [{"alias": "cafes", "title": "Cafes"}], "review_count": 19, "location": {"city": "Boston", "address1": "80 Arch St", "address3": "", "address2": "", "zip_code": "02110", "country": "US", "display_address": ["80 Arch St", "Boston, MA 02110"], "state": "MA"}, "price": "$", "transactions": ["delivery", "pickup"], "display_phone": "(617) 423-1149"}, {"rating": 4.0, "is_closed": false, "distance": 1989.698818564, "name": "Porters Bar & Grill", "id": "porters-bar-and-grill-boston", "image_url": "https://s3-media3.fl.yelpcdn.com/bphoto/DUQf-chZyeD_Juxdh8PW4Q/o.jpg", "url": "https://www.yelp.com/biz/porters-bar-and-grill-boston?adjust_creative=gBcvfFpabk3CnzmXKdYe3w&utm_campaign=yelp_api_v3&utm_medium=api_v3_business_search&utm_source=gBcvfFpabk3CnzmXKdYe3w", "phone": "+16177427678", "coordinates": {"longitude": -71.061702, "latitude": 42.3642896}, "categories": [{"alias": "bars", "title": "Bars"}, {"alias": "tradamerican", "title": "American (Traditional)"}, {"alias": "newamerican", "title": "American (New)"}], "review_count": 158, "location": {"city": "Boston", "address1": "173 Portland St", "address3": "", "address2": "", "zip_code": "02114", "country": "US", "display_address": ["173 Portland St", "Boston, MA 02114"], "state": "MA"}, "price": "$$", "transactions": [], "display_phone": "(617) 742-7678"}, {"rating": 4.0, "is_closed": false, "distance": 2088.86779777, "name": "State Street Provisions", "id": "state-street-provisions-boston", "image_url": "https://s3-media2.fl.yelpcdn.com/bphoto/mIPu9jhkRx2PAUAN-S0Dtw/o.jpg", "url": "https://www.yelp.com/biz/state-street-provisions-boston?adjust_creative=gBcvfFpabk3CnzmXKdYe3w&utm_campaign=yelp_api_v3&utm_medium=api_v3_business_search&utm_source=gBcvfFpabk3CnzmXKdYe3w", "phone": "+16178638363", "coordinates": {"longitude": -71.0513283, "latitude": 42.3595754}, "categories": [{"alias": "newamerican", "title": "American (New)"}], "review_count": 165, "location": {"city": "Boston", "address1": "255 State St", "address3": "Long Wharf", "address2": "", "zip_code": "02109", "country": "US", "display_address": ["255 State St", "Long Wharf", "Boston, MA 02109"], "state": "MA"}, "price": "$$", "transactions": [], "display_phone": "(617) 863-8363"}, {"rating": 4.0, "is_closed": false, "distance": 2533.658152574, "name": "Bon Me", "id": "bon-me-boston", "image_url": "https://s3-media2.fl.yelpcdn.com/bphoto/wTyJBhEJI6q71y_dQYNg3g/o.jpg", "url": "https://www.yelp.com/biz/bon-me-boston?adjust_creative=gBcvfFpabk3CnzmXKdYe3w&utm_campaign=yelp_api_v3&utm_medium=api_v3_business_search&utm_source=gBcvfFpabk3CnzmXKdYe3w", "phone": "+16176528462", "coordinates": {"longitude": -71.0443572998047, "latitude": 42.347484588623}, "categories": [{"alias": "vietnamese", "title": "Vietnamese"}, {"alias": "foodtrucks", "title": "Food Trucks"}, {"alias": "sandwiches", "title": "Sandwiches"}], "review_count": 229, "location": {"city": "Boston", "address1": "", "address3": "", "address2": "", "zip_code": "02210", "country": "US", "display_address": ["Boston, MA 02210"], "state": "MA"}, "price": "$", "transactions": [], "display_phone": "(617) 652-8462"}, {"rating": 3.5, "is_closed": false, "distance": 994.3807694739999, "name": "Tapeo", "id": "tapeo-boston", "image_url": "https://s3-media1.fl.yelpcdn.com/bphoto/E8-0vbCxOvBkKxpDmxCKeQ/o.jpg", "url": "https://www.yelp.com/biz/tapeo-boston?adjust_creative=gBcvfFpabk3CnzmXKdYe3w&utm_campaign=yelp_api_v3&utm_medium=api_v3_business_search&utm_source=gBcvfFpabk3CnzmXKdYe3w", "phone": "+16172674799", "coordinates": {"longitude": -71.0831909179688, "latitude": 42.3491668701172}, "categories": [{"alias": "tapas", "title": "Tapas Bars"}, {"alias": "spanish", "title": "Spanish"}, {"alias": "basque", "title": "Basque"}], "review_count": 693, "location": {"city": "Boston", "address1": "266 Newbury St", "address3": "", "address2": "", "zip_code": "02116", "country": "US", "display_address": ["266 Newbury St", "Boston, MA 02116"], "state": "MA"}, "price": "$$", "transactions": ["pickup"], "display_phone": "(617) 267-4799"}, {"rating": 4.5, "is_closed": false, "distance": 2143.3431520999998, "name": "Tikkaway Fresh Indian Grill", "id": "tikkaway-fresh-indian-grill-boston", "image_url": "https://s3-media1.fl.yelpcdn.com/bphoto/mfCWdTyJQopSEO8FSpyU8g/o.jpg", "url": "https://www.yelp.com/biz/tikkaway-fresh-indian-grill-boston?adjust_creative=gBcvfFpabk3CnzmXKdYe3w&utm_campaign=yelp_api_v3&utm_medium=api_v3_business_search&utm_source=gBcvfFpabk3CnzmXKdYe3w", "phone": "+16179363933", "coordinates": {"longitude": -71.0462572274013, "latitude": 42.350888388135}, "categories": [{"alias": "indpak", "title": "Indian"}, {"alias": "vegan", "title": "Vegan"}, {"alias": "gluten_free", "title": "Gluten-Free"}], "review_count": 25, "location": {"city": "Boston", "address1": "55 Boston Wharf Rd", "address3": null, "address2": "", "zip_code": "02210", "country": "US", "display_address": ["55 Boston Wharf Rd", "Boston, MA 02210"], "state": "MA"}, "price": "$", "transactions": [], "display_phone": "(617) 936-3933"}, {"rating": 4.0, "is_closed": false, "distance": 1704.906471616, "name": "Do\u00f1a Habana", "id": "do\u00f1a-habana-boston", "image_url": "https://s3-media1.fl.yelpcdn.com/bphoto/i1-S2hBvCxZEsEn2buf57A/o.jpg", "url": "https://www.yelp.com/biz/do%C3%B1a-habana-boston?adjust_creative=gBcvfFpabk3CnzmXKdYe3w&utm_campaign=yelp_api_v3&utm_medium=api_v3_business_search&utm_source=gBcvfFpabk3CnzmXKdYe3w", "phone": "+16177080796", "coordinates": {"longitude": -71.0731128, "latitude": 42.3325728}, "categories": [{"alias": "cuban", "title": "Cuban"}], "review_count": 85, "location": {"city": "Boston", "address1": "811 Massachusetts Ave", "address3": "", "address2": "", "zip_code": "02118", "country": "US", "display_address": ["811 Massachusetts Ave", "Boston, MA 02118"], "state": "MA"}, "price": "$$", "transactions": [], "display_phone": "(617) 708-0796"}, {"rating": 3.5, "is_closed": false, "distance": 2219.82140291, "name": "Quattro", "id": "quattro-boston", "image_url": "https://s3-media2.fl.yelpcdn.com/bphoto/HmSmH3x6UCb4ix-OKHF6pw/o.jpg", "url": "https://www.yelp.com/biz/quattro-boston?adjust_creative=gBcvfFpabk3CnzmXKdYe3w&utm_campaign=yelp_api_v3&utm_medium=api_v3_business_search&utm_source=gBcvfFpabk3CnzmXKdYe3w", "phone": "+16177200444", "coordinates": {"longitude": -71.054888, "latitude": 42.3636293}, "categories": [{"alias": "pizza", "title": "Pizza"}, {"alias": "italian", "title": "Italian"}], "review_count": 255, "location": {"city": "Boston", "address1": "264 Hanover St", "address3": "", "address2": "", "zip_code": "02113", "country": "US", "display_address": ["264 Hanover St", "Boston, MA 02113"], "state": "MA"}, "price": "$$", "transactions": [], "display_phone": "(617) 720-0444"}, {"rating": 3.5, "is_closed": false, "distance": 1105.878982887, "name": "Casa Romero", "id": "casa-romero-boston", "image_url": "https://s3-media2.fl.yelpcdn.com/bphoto/za34y9tS0BWfxHQ93_WUmg/o.jpg", "url": "https://www.yelp.com/biz/casa-romero-boston?adjust_creative=gBcvfFpabk3CnzmXKdYe3w&utm_campaign=yelp_api_v3&utm_medium=api_v3_business_search&utm_source=gBcvfFpabk3CnzmXKdYe3w", "phone": "+16175364341", "coordinates": {"longitude": -71.0845260620117, "latitude": 42.3494453430176}, "categories": [{"alias": "mexican", "title": "Mexican"}], "review_count": 411, "location": {"city": "Boston", "address1": "30 Gloucester St", "address3": "", "address2": "", "zip_code": "02115", "country": "US", "display_address": ["30 Gloucester St", "Boston, MA 02115"], "state": "MA"}, "price": "$$", "transactions": ["delivery"], "display_phone": "(617) 536-4341"}, {"rating": 4.0, "is_closed": false, "distance": 2159.93061948, "name": "Parla", "id": "parla-boston", "image_url": "https://s3-media3.fl.yelpcdn.com/bphoto/BF3q83U7zq_xO6U2-gubwQ/o.jpg", "url": "https://www.yelp.com/biz/parla-boston?adjust_creative=gBcvfFpabk3CnzmXKdYe3w&utm_campaign=yelp_api_v3&utm_medium=api_v3_business_search&utm_source=gBcvfFpabk3CnzmXKdYe3w", "phone": "+16173672824", "coordinates": {"longitude": -71.0552327, "latitude": 42.3632455}, "categories": [{"alias": "italian", "title": "Italian"}, {"alias": "tapasmallplates", "title": "Tapas/Small Plates"}, {"alias": "cocktailbars", "title": "Cocktail Bars"}], "review_count": 152, "location": {"city": "Boston", "address1": "230 Hanover St", "address3": "", "address2": null, "zip_code": "02113", "country": "US", "display_address": ["230 Hanover St", "Boston, MA 02113"], "state": "MA"}, "price": "$$", "transactions": [], "display_phone": "(617) 367-2824"}, {"rating": 3.5, "is_closed": false, "distance": 873.0921200775999, "name": "Shake Shack", "id": "shake-shack-boston", "image_url": "https://s3-media1.fl.yelpcdn.com/bphoto/h6Z4wxEcP4HkswyQhzGDRQ/o.jpg", "url": "https://www.yelp.com/biz/shake-shack-boston?adjust_creative=gBcvfFpabk3CnzmXKdYe3w&utm_campaign=yelp_api_v3&utm_medium=api_v3_business_search&utm_source=gBcvfFpabk3CnzmXKdYe3w", "phone": "+16179335050", "coordinates": {"longitude": -71.0816727, "latitude": 42.3496666}, "categories": [{"alias": "burgers", "title": "Burgers"}, {"alias": "hotdogs", "title": "Fast Food"}, {"alias": "hotdog", "title": "Hot Dogs"}], "review_count": 246, "location": {"city": "Boston", "address1": "234 Newbury St", "address3": "", "address2": "", "zip_code": "02116", "country": "US", "display_address": ["234 Newbury St", "Boston, MA 02116"], "state": "MA"}, "price": "$$", "transactions": [], "display_phone": "(617) 933-5050"}, {"rating": 4.0, "is_closed": false, "distance": 1537.373372946, "name": "Temptations Cafe", "id": "temptations-cafe-boston", "image_url": "https://s3-media1.fl.yelpcdn.com/bphoto/mvll0cfJqP8ZZrqCap_Ytg/o.jpg", "url": "https://www.yelp.com/biz/temptations-cafe-boston?adjust_creative=gBcvfFpabk3CnzmXKdYe3w&utm_campaign=yelp_api_v3&utm_medium=api_v3_business_search&utm_source=gBcvfFpabk3CnzmXKdYe3w", "phone": "+16172666080", "coordinates": {"longitude": -71.0875931299024, "latitude": 42.341126235729}, "categories": [{"alias": "coffee", "title": "Coffee & Tea"}, {"alias": "sandwiches", "title": "Sandwiches"}, {"alias": "breakfast_brunch", "title": "Breakfast & Brunch"}], "review_count": 112, "location": {"city": "Boston", "address1": "313 Huntington Ave", "address3": "", "address2": null, "zip_code": "02115", "country": "US", "display_address": ["313 Huntington Ave", "Boston, MA 02115"], "state": "MA"}, "price": "$", "transactions": ["delivery"], "display_phone": "(617) 266-6080"}, {"rating": 3.5, "is_closed": false, "distance": 532.4066868199999, "name": "Bristol Restaurant and Bar", "id": "bristol-restaurant-and-bar-boston", "image_url": "https://s3-media2.fl.yelpcdn.com/bphoto/9JPqNEEBc9T06t40ukx12g/o.jpg", "url": "https://www.yelp.com/biz/bristol-restaurant-and-bar-boston?adjust_creative=gBcvfFpabk3CnzmXKdYe3w&utm_campaign=yelp_api_v3&utm_medium=api_v3_business_search&utm_source=gBcvfFpabk3CnzmXKdYe3w", "phone": "+18573055620", "coordinates": {"longitude": -71.06831, "latitude": 42.3520899}, "categories": [{"alias": "newamerican", "title": "American (New)"}, {"alias": "desserts", "title": "Desserts"}, {"alias": "breakfast_brunch", "title": "Breakfast & Brunch"}], "review_count": 238, "location": {"city": "Boston", "address1": "200 Boylston St", "address3": "Four Seasons Hotel Boston", "address2": "", "zip_code": "02116", "country": "US", "display_address": ["200 Boylston St", "Four Seasons Hotel Boston", "Boston, MA 02116"], "state": "MA"}, "price": "$$$", "transactions": [], "display_phone": "(857) 305-5620"}, {"rating": 4.0, "is_closed": false, "distance": 2310.051624954, "name": "Pellino's Ristorante", "id": "pellinos-ristorante-boston", "image_url": "https://s3-media1.fl.yelpcdn.com/bphoto/Evjn8kPKLb0Q1GVKZaShHg/o.jpg", "url": "https://www.yelp.com/biz/pellinos-ristorante-boston?adjust_creative=gBcvfFpabk3CnzmXKdYe3w&utm_campaign=yelp_api_v3&utm_medium=api_v3_business_search&utm_source=gBcvfFpabk3CnzmXKdYe3w", "phone": "+16172277300", "coordinates": {"longitude": -71.053627, "latitude": 42.364029}, "categories": [{"alias": "bars", "title": "Bars"}, {"alias": "italian", "title": "Italian"}], "review_count": 187, "location": {"city": "Boston", "address1": "2 Prince St", "address3": "", "address2": "", "zip_code": "02109", "country": "US", "display_address": ["2 Prince St", "Boston, MA 02109"], "state": "MA"}, "price": "$$", "transactions": [], "display_phone": "(617) 227-7300"}, {"rating": 3.5, "is_closed": false, "distance": 220.4314929208, "name": "Smith & Wollensky", "id": "smith-and-wollensky-boston", "image_url": "https://s3-media1.fl.yelpcdn.com/bphoto/AXAo6WT-rJWN5jWl0-NGsA/o.jpg", "url": "https://www.yelp.com/biz/smith-and-wollensky-boston?adjust_creative=gBcvfFpabk3CnzmXKdYe3w&utm_campaign=yelp_api_v3&utm_medium=api_v3_business_search&utm_source=gBcvfFpabk3CnzmXKdYe3w", "phone": "+16174231112", "coordinates": {"longitude": -71.0699564, "latitude": 42.3497946}, "categories": [{"alias": "steak", "title": "Steakhouses"}, {"alias": "seafood", "title": "Seafood"}], "review_count": 390, "location": {"city": "Boston", "address1": "101 Arlington St", "address3": "", "address2": "", "zip_code": "02116", "country": "US", "display_address": ["101 Arlington St", "Boston, MA 02116"], "state": "MA"}, "price": "$$$$", "transactions": [], "display_phone": "(617) 423-1112"}, {"rating": 3.5, "is_closed": false, "distance": 702.1040742022, "name": "City Table", "id": "city-table-boston", "image_url": "https://s3-media1.fl.yelpcdn.com/bphoto/LH9_dEGxe3w1R39PwPYxpA/o.jpg", "url": "https://www.yelp.com/biz/city-table-boston?adjust_creative=gBcvfFpabk3CnzmXKdYe3w&utm_campaign=yelp_api_v3&utm_medium=api_v3_business_search&utm_source=gBcvfFpabk3CnzmXKdYe3w", "phone": "+16179334800", "coordinates": {"longitude": -71.0796328, "latitude": 42.3490257}, "categories": [{"alias": "bars", "title": "Bars"}, {"alias": "newamerican", "title": "American (New)"}, {"alias": "breakfast_brunch", "title": "Breakfast & Brunch"}], "review_count": 225, "location": {"city": "Boston", "address1": "65 Exeter St", "address3": "", "address2": "", "zip_code": "02116", "country": "US", "display_address": ["65 Exeter St", "Boston, MA 02116"], "state": "MA"}, "price": "$$", "transactions": [], "display_phone": "(617) 933-4800"}, {"rating": 3.5, "is_closed": false, "distance": 911.4440280298, "name": "Top of the Hub", "id": "top-of-the-hub-boston", "image_url": "https://s3-media3.fl.yelpcdn.com/bphoto/ziTFuWUAGq5oiqjYokmNvQ/o.jpg", "url": "https://www.yelp.com/biz/top-of-the-hub-boston?adjust_creative=gBcvfFpabk3CnzmXKdYe3w&utm_campaign=yelp_api_v3&utm_medium=api_v3_business_search&utm_source=gBcvfFpabk3CnzmXKdYe3w", "phone": "+16175361775", "coordinates": {"longitude": -71.0822875410004, "latitude": 42.3485661293609}, "categories": [{"alias": "tradamerican", "title": "American (Traditional)"}, {"alias": "wine_bars", "title": "Wine Bars"}, {"alias": "breakfast_brunch", "title": "Breakfast & Brunch"}], "review_count": 1735, "location": {"city": "Boston", "address1": "800 Boylston St", "address3": "", "address2": "Ste 52", "zip_code": "02199", "country": "US", "display_address": ["800 Boylston St", "Ste 52", "Boston, MA 02199"], "state": "MA"}, "price": "$$$", "transactions": [], "display_phone": "(617) 536-1775"}, {"rating": 4.0, "is_closed": false, "distance": 997.8950852319999, "name": "The Boston Common Frog Pond", "id": "the-boston-common-frog-pond-boston", "image_url": "https://s3-media4.fl.yelpcdn.com/bphoto/sayVALPX76CpXX_zWWQE-Q/o.jpg", "url": "https://www.yelp.com/biz/the-boston-common-frog-pond-boston?adjust_creative=gBcvfFpabk3CnzmXKdYe3w&utm_campaign=yelp_api_v3&utm_medium=api_v3_business_search&utm_source=gBcvfFpabk3CnzmXKdYe3w", "phone": "+16176352120", "coordinates": {"longitude": -71.0659217834473, "latitude": 42.3559117668085}, "categories": [{"alias": "skatingrinks", "title": "Skating Rinks"}, {"alias": "playgrounds", "title": "Playgrounds"}, {"alias": "parks", "title": "Parks"}], "review_count": 87, "location": {"city": "Boston", "address1": "Beacon St", "address3": "", "address2": "", "zip_code": "02108", "country": "US", "display_address": ["Beacon St", "Boston, MA 02108"], "state": "MA"}, "transactions": [], "display_phone": "(617) 635-2120"}, {"rating": 3.5, "is_closed": false, "distance": 1292.038582717, "name": "Equator", "id": "equator-boston", "image_url": "https://s3-media4.fl.yelpcdn.com/bphoto/4zRphQNg974x-MwdDu6B4Q/o.jpg", "url": "https://www.yelp.com/biz/equator-boston?adjust_creative=gBcvfFpabk3CnzmXKdYe3w&utm_campaign=yelp_api_v3&utm_medium=api_v3_business_search&utm_source=gBcvfFpabk3CnzmXKdYe3w", "phone": "+16175366386", "coordinates": {"longitude": -71.076735183847, "latitude": 42.33695636718}, "categories": [{"alias": "thai", "title": "Thai"}], "review_count": 153, "location": {"city": "Boston", "address1": "1721 Washington St", "address3": "", "address2": "", "zip_code": "02118", "country": "US", "display_address": ["1721 Washington St", "Boston, MA 02118"], "state": "MA"}, "price": "$$", "transactions": ["delivery", "pickup"], "display_phone": "(617) 536-6386"}, {"rating": 3.5, "is_closed": false, "distance": 2269.357049044, "name": "Trattoria Il Panino", "id": "trattoria-il-panino-boston-3", "image_url": "https://s3-media2.fl.yelpcdn.com/bphoto/XFMVAsEnwd2G3RbYnjDY-Q/o.jpg", "url": "https://www.yelp.com/biz/trattoria-il-panino-boston-3?adjust_creative=gBcvfFpabk3CnzmXKdYe3w&utm_campaign=yelp_api_v3&utm_medium=api_v3_business_search&utm_source=gBcvfFpabk3CnzmXKdYe3w", "phone": "+16177201336", "coordinates": {"longitude": -71.0545270889997, "latitude": 42.3638492077589}, "categories": [{"alias": "italian", "title": "Italian"}, {"alias": "wine_bars", "title": "Wine Bars"}], "review_count": 198, "location": {"city": "Boston", "address1": "278 Hanover St", "address3": "", "address2": "", "zip_code": "02113", "country": "US", "display_address": ["278 Hanover St", "Boston, MA 02113"], "state": "MA"}, "price": "$$", "transactions": [], "display_phone": "(617) 720-1336"}, {"rating": 3.5, "is_closed": false, "distance": 1130.98058307, "name": "South Street Diner", "id": "south-street-diner-boston", "image_url": "https://s3-media3.fl.yelpcdn.com/bphoto/qlOY9Jv_iOqgEeiaykEU4Q/o.jpg", "url": "https://www.yelp.com/biz/south-street-diner-boston?adjust_creative=gBcvfFpabk3CnzmXKdYe3w&utm_campaign=yelp_api_v3&utm_medium=api_v3_business_search&utm_source=gBcvfFpabk3CnzmXKdYe3w", "phone": "+16173500028", "coordinates": {"longitude": -71.0577515004882, "latitude": 42.3498603961442}, "categories": [{"alias": "diners", "title": "Diners"}, {"alias": "breakfast_brunch", "title": "Breakfast & Brunch"}], "review_count": 525, "location": {"city": "Boston", "address1": "178 Kneeland St", "address3": "", "address2": "", "zip_code": "02111", "country": "US", "display_address": ["178 Kneeland St", "Boston, MA 02111"], "state": "MA"}, "price": "$", "transactions": [], "display_phone": "(617) 350-0028"}, {"rating": 4.0, "is_closed": false, "distance": 4530.578079718, "name": "Angela's Cafe - Eagle Hill", "id": "angelas-cafe-eagle-hill-boston", "image_url": "https://s3-media1.fl.yelpcdn.com/bphoto/Dn8cp_txj54YjmGJn_Iivw/o.jpg", "url": "https://www.yelp.com/biz/angelas-cafe-eagle-hill-boston?adjust_creative=gBcvfFpabk3CnzmXKdYe3w&utm_campaign=yelp_api_v3&utm_medium=api_v3_business_search&utm_source=gBcvfFpabk3CnzmXKdYe3w", "phone": "+16175674972", "coordinates": {"longitude": -71.035, "latitude": 42.37853}, "categories": [{"alias": "mexican", "title": "Mexican"}], "review_count": 319, "location": {"city": "Boston", "address1": "131 Lexington St", "address3": "", "address2": "", "zip_code": "02128", "country": "US", "display_address": ["131 Lexington St", "Boston, MA 02128"], "state": "MA"}, "price": "$$", "transactions": [], "display_phone": "(617) 567-4972"}, {"rating": 4.0, "is_closed": false, "distance": 1790.650819344, "name": "Battery Park Bar & Patio", "id": "battery-park-bar-and-patio-boston-2", "image_url": "https://s3-media4.fl.yelpcdn.com/bphoto/cv5lWursQeSPS_Zf5Qz8gQ/o.jpg", "url": "https://www.yelp.com/biz/battery-park-bar-and-patio-boston-2?adjust_creative=gBcvfFpabk3CnzmXKdYe3w&utm_campaign=yelp_api_v3&utm_medium=api_v3_business_search&utm_source=gBcvfFpabk3CnzmXKdYe3w", "phone": "+16173507275", "coordinates": {"longitude": -71.054102, "latitude": 42.357783}, "categories": [{"alias": "tradamerican", "title": "American (Traditional)"}, {"alias": "lounges", "title": "Lounges"}, {"alias": "sportsbars", "title": "Sports Bars"}], "review_count": 200, "location": {"city": "Boston", "address1": "33 Batterymarch St", "address3": "", "address2": null, "zip_code": "02110", "country": "US", "display_address": ["33 Batterymarch St", "Boston, MA 02110"], "state": "MA"}, "price": "$$", "transactions": [], "display_phone": "(617) 350-7275"}, {"rating": 3.5, "is_closed": false, "distance": 1741.6573598559999, "name": "Bastille Kitchen", "id": "bastille-kitchen-boston", "image_url": "https://s3-media2.fl.yelpcdn.com/bphoto/bPAxJxkNyI_k79tmRdHhgA/o.jpg", "url": "https://www.yelp.com/biz/bastille-kitchen-boston?adjust_creative=gBcvfFpabk3CnzmXKdYe3w&utm_campaign=yelp_api_v3&utm_medium=api_v3_business_search&utm_source=gBcvfFpabk3CnzmXKdYe3w", "phone": "+16175568000", "coordinates": {"longitude": -71.0501609, "latitude": 42.349462}, "categories": [{"alias": "bars", "title": "Bars"}, {"alias": "french", "title": "French"}], "review_count": 191, "location": {"city": "Boston", "address1": "49 Melcher St", "address3": "", "address2": "", "zip_code": "02210", "country": "US", "display_address": ["49 Melcher St", "Boston, MA 02210"], "state": "MA"}, "price": "$$$", "transactions": [], "display_phone": "(617) 556-8000"}, {"rating": 3.5, "is_closed": false, "distance": 1414.778357898, "name": "Emmet's Irish Pub & Restaurant", "id": "emmets-irish-pub-and-restaurant-boston", "image_url": "https://s3-media3.fl.yelpcdn.com/bphoto/LSNYnV_CzyLJS71SEx_UsA/o.jpg", "url": "https://www.yelp.com/biz/emmets-irish-pub-and-restaurant-boston?adjust_creative=gBcvfFpabk3CnzmXKdYe3w&utm_campaign=yelp_api_v3&utm_medium=api_v3_business_search&utm_source=gBcvfFpabk3CnzmXKdYe3w", "phone": "+16177428565", "coordinates": {"longitude": -71.0612726, "latitude": 42.3582161}, "categories": [{"alias": "pubs", "title": "Pubs"}, {"alias": "irish", "title": "Irish"}, {"alias": "burgers", "title": "Burgers"}], "review_count": 208, "location": {"city": "Boston", "address1": "6 Beacon St", "address3": "", "address2": "", "zip_code": "02108", "country": "US", "display_address": ["6 Beacon St", "Boston, MA 02108"], "state": "MA"}, "price": "$$", "transactions": [], "display_phone": "(617) 742-8565"}, {"rating": 3.5, "is_closed": false, "distance": 443.38923121319993, "name": "Legal Sea Foods", "id": "legal-sea-foods-boston-39", "image_url": "https://s3-media3.fl.yelpcdn.com/bphoto/kiH4an4hmb8DXXwZYEb81w/o.jpg", "url": "https://www.yelp.com/biz/legal-sea-foods-boston-39?adjust_creative=gBcvfFpabk3CnzmXKdYe3w&utm_campaign=yelp_api_v3&utm_medium=api_v3_business_search&utm_source=gBcvfFpabk3CnzmXKdYe3w", "phone": "+16174264444", "coordinates": {"longitude": -71.0679728, "latitude": 42.3510123}, "categories": [{"alias": "seafood", "title": "Seafood"}, {"alias": "gluten_free", "title": "Gluten-Free"}], "review_count": 484, "location": {"city": "Boston", "address1": "26 Park Plz", "address3": "", "address2": "", "zip_code": "02116", "country": "US", "display_address": ["26 Park Plz", "Boston, MA 02116"], "state": "MA"}, "price": "$$$", "transactions": [], "display_phone": "(617) 426-4444"}, {"rating": 4.0, "is_closed": false, "distance": 1709.1535198759998, "name": "Clover", "id": "clover-boston-4", "image_url": "https://s3-media2.fl.yelpcdn.com/bphoto/cdaUbpeFnIuegVyV80Q2fQ/o.jpg", "url": "https://www.yelp.com/biz/clover-boston-4?adjust_creative=gBcvfFpabk3CnzmXKdYe3w&utm_campaign=yelp_api_v3&utm_medium=api_v3_business_search&utm_source=gBcvfFpabk3CnzmXKdYe3w", "phone": "", "coordinates": {"longitude": -71.0589909553528, "latitude": 42.3602642696616}, "categories": [{"alias": "vegetarian", "title": "Vegetarian"}, {"alias": "foodtrucks", "title": "Food Trucks"}], "review_count": 48, "location": {"city": "Boston", "address1": "City Hall Plz", "address3": "", "address2": "", "zip_code": "02108", "country": "US", "display_address": ["City Hall Plz", "Boston, MA 02108"], "state": "MA"}, "price": "$", "transactions": [], "display_phone": ""}, {"rating": 4.0, "is_closed": false, "distance": 1870.628579984, "name": "Chicken Lou's", "id": "chicken-lous-boston", "image_url": "https://s3-media4.fl.yelpcdn.com/bphoto/E5XAG43yMCftEXfWlPxmqQ/o.jpg", "url": "https://www.yelp.com/biz/chicken-lous-boston?adjust_creative=gBcvfFpabk3CnzmXKdYe3w&utm_campaign=yelp_api_v3&utm_medium=api_v3_business_search&utm_source=gBcvfFpabk3CnzmXKdYe3w", "phone": "+16178597017", "coordinates": {"longitude": -71.0898874, "latitude": 42.3381946}, "categories": [{"alias": "hotdogs", "title": "Fast Food"}, {"alias": "sandwiches", "title": "Sandwiches"}], "review_count": 98, "location": {"city": "Boston", "address1": "50 Forsyth St", "address3": "", "address2": "", "zip_code": "02115", "country": "US", "display_address": ["50 Forsyth St", "Boston, MA 02115"], "state": "MA"}, "price": "$", "transactions": ["delivery", "pickup"], "display_phone": "(617) 859-7017"}, {"rating": 4.0, "is_closed": false, "distance": 1442.444280437, "name": "Thirst Juice Co", "id": "thirst-juice-co-boston", "image_url": "https://s3-media3.fl.yelpcdn.com/bphoto/yjKu8hrKGDaSkJzhNhSzSg/o.jpg", "url": "https://www.yelp.com/biz/thirst-juice-co-boston?adjust_creative=gBcvfFpabk3CnzmXKdYe3w&utm_campaign=yelp_api_v3&utm_medium=api_v3_business_search&utm_source=gBcvfFpabk3CnzmXKdYe3w", "phone": "+18572334535", "coordinates": {"longitude": -71.0596765379106, "latitude": 42.3576000206532}, "categories": [{"alias": "vegetarian", "title": "Vegetarian"}, {"alias": "juicebars", "title": "Juice Bars & Smoothies"}], "review_count": 55, "location": {"city": "Boston", "address1": "44 School St", "address3": "", "address2": null, "zip_code": "02108", "country": "US", "display_address": ["44 School St", "Boston, MA 02108"], "state": "MA"}, "price": "$", "transactions": ["delivery", "pickup"], "display_phone": "(857) 233-4535"}, {"rating": 3.5, "is_closed": false, "distance": 1280.41987212, "name": "Seiyo", "id": "seiyo-boston", "image_url": "https://s3-media1.fl.yelpcdn.com/bphoto/3HAvuM6d3E3yejnbOHeVWg/o.jpg", "url": "https://www.yelp.com/biz/seiyo-boston?adjust_creative=gBcvfFpabk3CnzmXKdYe3w&utm_campaign=yelp_api_v3&utm_medium=api_v3_business_search&utm_source=gBcvfFpabk3CnzmXKdYe3w", "phone": "+16174472183", "coordinates": {"longitude": -71.0769424438477, "latitude": 42.3369369506836}, "categories": [{"alias": "sushi", "title": "Sushi Bars"}, {"alias": "japanese", "title": "Japanese"}], "review_count": 193, "location": {"city": "Boston", "address1": "1721 Washington St", "address3": "", "address2": null, "zip_code": "02118", "country": "US", "display_address": ["1721 Washington St", "Boston, MA 02118"], "state": "MA"}, "price": "$$", "transactions": ["delivery"], "display_phone": "(617) 447-2183"}, {"rating": 3.5, "is_closed": false, "distance": 1004.5328080619998, "name": "Back Bay Social Club", "id": "back-bay-social-club-boston", "image_url": "https://s3-media2.fl.yelpcdn.com/bphoto/1SE_LmRXAghlcMRz9af3sw/o.jpg", "url": "https://www.yelp.com/biz/back-bay-social-club-boston?adjust_creative=gBcvfFpabk3CnzmXKdYe3w&utm_campaign=yelp_api_v3&utm_medium=api_v3_business_search&utm_source=gBcvfFpabk3CnzmXKdYe3w", "phone": "+16172473200", "coordinates": {"longitude": -71.0834503, "latitude": 42.3487206}, "categories": [{"alias": "newamerican", "title": "American (New)"}], "review_count": 492, "location": {"city": "Boston", "address1": "867 Boylston St", "address3": "", "address2": "", "zip_code": "02116", "country": "US", "display_address": ["867 Boylston St", "Boston, MA 02116"], "state": "MA"}, "price": "$$", "transactions": [], "display_phone": "(617) 247-3200"}, {"rating": 3.5, "is_closed": false, "distance": 1393.5602721623998, "name": "King and I", "id": "king-and-i-boston-2", "image_url": "https://s3-media2.fl.yelpcdn.com/bphoto/6-zYpNWxmhbolC_wkNzejw/o.jpg", "url": "https://www.yelp.com/biz/king-and-i-boston-2?adjust_creative=gBcvfFpabk3CnzmXKdYe3w&utm_campaign=yelp_api_v3&utm_medium=api_v3_business_search&utm_source=gBcvfFpabk3CnzmXKdYe3w", "phone": "+16172273320", "coordinates": {"longitude": -71.0705642700195, "latitude": 42.3603591918945}, "categories": [{"alias": "thai", "title": "Thai"}], "review_count": 278, "location": {"city": "Boston", "address1": "145 Charles St", "address3": "", "address2": null, "zip_code": "02114", "country": "US", "display_address": ["145 Charles St", "Boston, MA 02114"], "state": "MA"}, "price": "$$", "transactions": [], "display_phone": "(617) 227-3320"}, {"rating": 3.5, "is_closed": false, "distance": 136.560867568, "name": "Back Bay Harry's", "id": "back-bay-harrys-boston", "image_url": "https://s3-media2.fl.yelpcdn.com/bphoto/PglpaXgqjiLfUc9Up6Zhfg/o.jpg", "url": "https://www.yelp.com/biz/back-bay-harrys-boston?adjust_creative=gBcvfFpabk3CnzmXKdYe3w&utm_campaign=yelp_api_v3&utm_medium=api_v3_business_search&utm_source=gBcvfFpabk3CnzmXKdYe3w", "phone": "+16174246711", "coordinates": {"longitude": -71.0720904, "latitude": 42.3489003}, "categories": [{"alias": "newamerican", "title": "American (New)"}, {"alias": "bars", "title": "Bars"}], "review_count": 161, "location": {"city": "Boston", "address1": "142 Berkeley St", "address3": "", "address2": "", "zip_code": "02116", "country": "US", "display_address": ["142 Berkeley St", "Boston, MA 02116"], "state": "MA"}, "price": "$$", "transactions": [], "display_phone": "(617) 424-6711"}, {"rating": 4.0, "is_closed": false, "distance": 1606.0738444699998, "name": "Uptown Cafe", "id": "uptown-cafe-boston", "image_url": "https://s3-media2.fl.yelpcdn.com/bphoto/QUZ-WYLRIYHC53EvTmMlXw/o.jpg", "url": "https://www.yelp.com/biz/uptown-cafe-boston?adjust_creative=gBcvfFpabk3CnzmXKdYe3w&utm_campaign=yelp_api_v3&utm_medium=api_v3_business_search&utm_source=gBcvfFpabk3CnzmXKdYe3w", "phone": "+16172271181", "coordinates": {"longitude": -71.0635452, "latitude": 42.3610458}, "categories": [{"alias": "italian", "title": "Italian"}, {"alias": "sandwiches", "title": "Sandwiches"}, {"alias": "pizza", "title": "Pizza"}], "review_count": 65, "location": {"city": "Boston", "address1": "120 Cambridge St", "address3": "", "address2": "", "zip_code": "02114", "country": "US", "display_address": ["120 Cambridge St", "Boston, MA 02114"], "state": "MA"}, "price": "$", "transactions": [], "display_phone": "(617) 227-1181"}, {"rating": 4.0, "is_closed": false, "distance": 847.2326977819998, "name": "Piattini Gelateria and Caf\u00e9", "id": "piattini-gelateria-and-caf\u00e9-boston-2", "image_url": "https://s3-media4.fl.yelpcdn.com/bphoto/etfw_xM4pSX-ci15ohIDAg/o.jpg", "url": "https://www.yelp.com/biz/piattini-gelateria-and-caf%C3%A9-boston-2?adjust_creative=gBcvfFpabk3CnzmXKdYe3w&utm_campaign=yelp_api_v3&utm_medium=api_v3_business_search&utm_source=gBcvfFpabk3CnzmXKdYe3w", "phone": "+16175367500", "coordinates": {"longitude": -71.0812225341797, "latitude": 42.3496932983398}, "categories": [{"alias": "italian", "title": "Italian"}], "review_count": 35, "location": {"city": "Boston", "address1": "226 Newbury St", "address3": "", "address2": null, "zip_code": "02116", "country": "US", "display_address": ["226 Newbury St", "Boston, MA 02116"], "state": "MA"}, "price": "$$", "transactions": [], "display_phone": "(617) 536-7500"}, {"rating": 4.0, "is_closed": false, "distance": 941.4871710564, "name": "Sakura Sunakku", "id": "sakura-sunakku-boston", "image_url": "https://s3-media1.fl.yelpcdn.com/bphoto/3NNq7OLYNbSY7Jbwbc7hAg/o.jpg", "url": "https://www.yelp.com/biz/sakura-sunakku-boston?adjust_creative=gBcvfFpabk3CnzmXKdYe3w&utm_campaign=yelp_api_v3&utm_medium=api_v3_business_search&utm_source=gBcvfFpabk3CnzmXKdYe3w", "phone": "+17818883897", "coordinates": {"longitude": -71.06095, "latitude": 42.35161}, "categories": [{"alias": "creperies", "title": "Creperies"}, {"alias": "shavedice", "title": "Shaved Ice"}, {"alias": "ramen", "title": "Ramen"}], "review_count": 58, "location": {"city": "Boston", "address1": "42 Beach St", "address3": "", "address2": "Ste 101", "zip_code": "02111", "country": "US", "display_address": ["42 Beach St", "Ste 101", "Boston, MA 02111"], "state": "MA"}, "price": "$", "transactions": [], "display_phone": "(781) 888-3897"}, {"rating": 4.0, "is_closed": false, "distance": 924.4188972579999, "name": "Prudential Tower", "id": "prudential-tower-boston", "image_url": "https://s3-media2.fl.yelpcdn.com/bphoto/2HTUWzoL_Zj1cf9DLET9cg/o.jpg", "url": "https://www.yelp.com/biz/prudential-tower-boston?adjust_creative=gBcvfFpabk3CnzmXKdYe3w&utm_campaign=yelp_api_v3&utm_medium=api_v3_business_search&utm_source=gBcvfFpabk3CnzmXKdYe3w", "phone": "+16172363100", "coordinates": {"longitude": -71.08135, "latitude": 42.34751}, "categories": [{"alias": "landmarks", "title": "Landmarks & Historical Buildings"}], "review_count": 46, "location": {"city": "Boston", "address1": "800 Boylston St", "address3": "", "address2": "", "zip_code": "02199", "country": "US", "display_address": ["800 Boylston St", "Boston, MA 02199"], "state": "MA"}, "transactions": [], "display_phone": "(617) 236-3100"}, {"rating": 4.0, "is_closed": false, "distance": 3990.28530503, "name": "Paradise Rock Club", "id": "paradise-rock-club-boston", "image_url": "https://s3-media2.fl.yelpcdn.com/bphoto/WKPyHgMMaP8oBYm4RDNigw/o.jpg", "url": "https://www.yelp.com/biz/paradise-rock-club-boston?adjust_creative=gBcvfFpabk3CnzmXKdYe3w&utm_campaign=yelp_api_v3&utm_medium=api_v3_business_search&utm_source=gBcvfFpabk3CnzmXKdYe3w", "phone": "+16175628800", "coordinates": {"longitude": -71.1192632, "latitude": 42.35177}, "categories": [{"alias": "bars", "title": "Bars"}, {"alias": "musicvenues", "title": "Music Venues"}], "review_count": 349, "location": {"city": "Boston", "address1": "967 Commonwealth Ave", "address3": "", "address2": "", "zip_code": "02215", "country": "US", "display_address": ["967 Commonwealth Ave", "Boston, MA 02215"], "state": "MA"}, "price": "$$", "transactions": [], "display_phone": "(617) 562-8800"}, {"rating": 4.5, "is_closed": false, "distance": 1201.3772989539998, "name": "Capital One Caf\u00e9", "id": "capital-one-caf\u00e9-boston-5", "image_url": "https://s3-media2.fl.yelpcdn.com/bphoto/WRQ-9LluyivReFiQZFUujw/o.jpg", "url": "https://www.yelp.com/biz/capital-one-caf%C3%A9-boston-5?adjust_creative=gBcvfFpabk3CnzmXKdYe3w&utm_campaign=yelp_api_v3&utm_medium=api_v3_business_search&utm_source=gBcvfFpabk3CnzmXKdYe3w", "phone": "+16174820152", "coordinates": {"longitude": -71.062045, "latitude": 42.356238}, "categories": [{"alias": "banks", "title": "Banks & Credit Unions"}, {"alias": "coffee", "title": "Coffee & Tea"}, {"alias": "internetcafe", "title": "Internet Cafes"}], "review_count": 28, "location": {"city": "Boston", "address1": "129 Tremont St", "address3": "", "address2": null, "zip_code": "02108", "country": "US", "display_address": ["129 Tremont St", "Boston, MA 02108"], "state": "MA"}, "price": "$", "transactions": [], "display_phone": "(617) 482-0152"}, {"rating": 3.5, "is_closed": false, "distance": 2149.26713264, "name": "Tresca", "id": "tresca-boston", "image_url": "https://s3-media1.fl.yelpcdn.com/bphoto/wNuMCSp1sT9A-Jz11GaFJg/o.jpg", "url": "https://www.yelp.com/biz/tresca-boston?adjust_creative=gBcvfFpabk3CnzmXKdYe3w&utm_campaign=yelp_api_v3&utm_medium=api_v3_business_search&utm_source=gBcvfFpabk3CnzmXKdYe3w", "phone": "+16177428240", "coordinates": {"longitude": -71.0549946, "latitude": 42.3630402}, "categories": [{"alias": "italian", "title": "Italian"}, {"alias": "mediterranean", "title": "Mediterranean"}], "review_count": 216, "location": {"city": "Boston", "address1": "233 Hanover St", "address3": "", "address2": null, "zip_code": "02113", "country": "US", "display_address": ["233 Hanover St", "Boston, MA 02113"], "state": "MA"}, "price": "$$$", "transactions": ["delivery"], "display_phone": "(617) 742-8240"}, {"rating": 3.5, "is_closed": false, "distance": 1266.066007726, "name": "Caff\u00e9bene", "id": "caff\u00e9bene-boston-2", "image_url": "https://s3-media4.fl.yelpcdn.com/bphoto/6RXPolymIBCYaWzWkF_TDQ/o.jpg", "url": "https://www.yelp.com/biz/caff%C3%A9bene-boston-2?adjust_creative=gBcvfFpabk3CnzmXKdYe3w&utm_campaign=yelp_api_v3&utm_medium=api_v3_business_search&utm_source=gBcvfFpabk3CnzmXKdYe3w", "phone": "+16179826688", "coordinates": {"longitude": -71.0844606, "latitude": 42.3422516}, "categories": [{"alias": "gelato", "title": "Gelato"}, {"alias": "coffee", "title": "Coffee & Tea"}, {"alias": "cafes", "title": "Cafes"}], "review_count": 157, "location": {"city": "Boston", "address1": "333 Massachusetts Ave", "address3": null, "address2": null, "zip_code": "02115", "country": "US", "display_address": ["333 Massachusetts Ave", "Boston, MA 02115"], "state": "MA"}, "price": "$", "transactions": [], "display_phone": "(617) 982-6688"}, {"rating": 3.5, "is_closed": false, "distance": 2367.3903170119997, "name": "Ducali Pizzeria & Bar", "id": "ducali-pizzeria-and-bar-boston", "image_url": "https://s3-media4.fl.yelpcdn.com/bphoto/TDm7NfVuR49xvlQhGiY8kA/o.jpg", "url": "https://www.yelp.com/biz/ducali-pizzeria-and-bar-boston?adjust_creative=gBcvfFpabk3CnzmXKdYe3w&utm_campaign=yelp_api_v3&utm_medium=api_v3_business_search&utm_source=gBcvfFpabk3CnzmXKdYe3w", "phone": "+16177424144", "coordinates": {"longitude": -71.0582408, "latitude": 42.3669544}, "categories": [{"alias": "pizza", "title": "Pizza"}, {"alias": "bars", "title": "Bars"}], "review_count": 218, "location": {"city": "Boston", "address1": "289 Causeway St", "address3": "", "address2": "", "zip_code": "02114", "country": "US", "display_address": ["289 Causeway St", "Boston, MA 02114"], "state": "MA"}, "price": "$$", "transactions": [], "display_phone": "(617) 742-4144"}, {"rating": 4.0, "is_closed": false, "distance": 1743.309991102, "name": "Oliver's Street Cafe", "id": "olivers-street-cafe-boston", "image_url": "https://s3-media3.fl.yelpcdn.com/bphoto/8qkRrfmwzN6CkYBrFQbL1g/o.jpg", "url": "https://www.yelp.com/biz/olivers-street-cafe-boston?adjust_creative=gBcvfFpabk3CnzmXKdYe3w&utm_campaign=yelp_api_v3&utm_medium=api_v3_business_search&utm_source=gBcvfFpabk3CnzmXKdYe3w", "phone": "+16173305355", "coordinates": {"longitude": -71.05397, "latitude": 42.35695}, "categories": [{"alias": "italian", "title": "Italian"}, {"alias": "delis", "title": "Delis"}, {"alias": "sandwiches", "title": "Sandwiches"}], "review_count": 25, "location": {"city": "Boston", "address1": "260 Franklin St", "address3": "", "address2": null, "zip_code": "02110", "country": "US", "display_address": ["260 Franklin St", "Boston, MA 02110"], "state": "MA"}, "price": "$", "transactions": ["delivery", "pickup"], "display_phone": "(617) 330-5355"}, {"rating": 3.5, "is_closed": false, "distance": 463.641680762, "name": "Finagle A Bagel", "id": "finagle-a-bagel-boston-6", "image_url": "https://s3-media1.fl.yelpcdn.com/bphoto/bmcrzW-DSmZUw947Jrra5w/o.jpg", "url": "https://www.yelp.com/biz/finagle-a-bagel-boston-6?adjust_creative=gBcvfFpabk3CnzmXKdYe3w&utm_campaign=yelp_api_v3&utm_medium=api_v3_business_search&utm_source=gBcvfFpabk3CnzmXKdYe3w", "phone": "+16172662500", "coordinates": {"longitude": -71.0755692, "latitude": 42.3508492}, "categories": [{"alias": "bagels", "title": "Bagels"}, {"alias": "bakeries", "title": "Bakeries"}, {"alias": "coffee", "title": "Coffee & Tea"}], "review_count": 116, "location": {"city": "Boston", "address1": "535 Boylston St", "address3": "", "address2": "", "zip_code": "02116", "country": "US", "display_address": ["535 Boylston St", "Boston, MA 02116"], "state": "MA"}, "price": "$", "transactions": [], "display_phone": "(617) 266-2500"}, {"rating": 3.5, "is_closed": false, "distance": 1015.728342706, "name": "Hot Pot Buffet", "id": "hot-pot-buffet-boston", "image_url": "https://s3-media2.fl.yelpcdn.com/bphoto/QiI-HdjrpDvi58HkfXDfRA/o.jpg", "url": "https://www.yelp.com/biz/hot-pot-buffet-boston?adjust_creative=gBcvfFpabk3CnzmXKdYe3w&utm_campaign=yelp_api_v3&utm_medium=api_v3_business_search&utm_source=gBcvfFpabk3CnzmXKdYe3w", "phone": "+16173380808", "coordinates": {"longitude": -71.059814453125, "latitude": 42.3513488769531}, "categories": [{"alias": "chinese", "title": "Chinese"}, {"alias": "buffets", "title": "Buffets"}, {"alias": "hotpot", "title": "Hot Pot"}], "review_count": 437, "location": {"city": "Boston", "address1": "70 Beach St", "address3": "", "address2": "", "zip_code": "02111", "country": "US", "display_address": ["70 Beach St", "Boston, MA 02111"], "state": "MA"}, "price": "$$", "transactions": [], "display_phone": "(617) 338-0808"}]}