{"region": {"center": {"latitude": 42.34784169448538, "longitude": -71.07124328613281}}, "businesses": [{"transactions": [], "distance": 950.3019124779998, "price": "$", "display_phone": "(617) 482-8888", "phone": "+16174828888", "url": "https://www.yelp.com/biz/dumpling-king-boston?adjust_creative=gBcvfFpabk3CnzmXKdYe3w&utm_campaign=yelp_api_v3&utm_medium=api_v3_business_search&utm_source=gBcvfFpabk3CnzmXKdYe3w", "name": "Dumpling King", "location": {"display_address": ["40-44 Harrison Ave", "Boston, MA 02111"], "country": "US", "state": "MA", "address3": "", "address2": "", "address1": "40-44 Harrison Ave", "city": "Boston", "zip_code": "02111"}, "is_closed": false, "review_count": 44, "coordinates": {"latitude": 42.35161, "longitude": -71.06094}, "id": "dumpling-king-boston", "image_url": "https://s3-media1.fl.yelpcdn.com/bphoto/fMbLR5-dptANoO7X183TTg/o.jpg", "categories": [{"alias": "dimsum", "title": "Dim Sum"}, {"alias": "importedfood", "title": "Imported Food"}], "rating": 4.0}, {"transactions": [], "distance": 1414.778357898, "price": "$$", "display_phone": "(617) 742-0306", "phone": "+16177420306", "url": "https://www.yelp.com/biz/6b-lounge-boston?adjust_creative=gBcvfFpabk3CnzmXKdYe3w&utm_campaign=yelp_api_v3&utm_medium=api_v3_business_search&utm_source=gBcvfFpabk3CnzmXKdYe3w", "name": "6B Lounge", "location": {"display_address": ["6B Beacon St", "Boston, MA 02108"], "country": "US", "state": "MA", "address3": "", "address2": null, "address1": "6B Beacon St", "city": "Boston", "zip_code": "02108"}, "is_closed": false, "review_count": 152, "coordinates": {"latitude": 42.358, "longitude": -71.06159}, "id": "6b-lounge-boston", "image_url": "https://s3-media4.fl.yelpcdn.com/bphoto/mhohqCVjj9g9q9luyU7rPA/o.jpg", "categories": [{"alias": "lounges", "title": "Lounges"}, {"alias": "tapasmallplates", "title": "Tapas/Small Plates"}], "rating": 3.5}, {"transactions": ["delivery", "pickup"], "distance": 1142.508768292, "price": "$", "display_phone": "(617) 303-7000", "phone": "+16173037000", "url": "https://www.yelp.com/biz/sa-pa-boston-2?adjust_creative=gBcvfFpabk3CnzmXKdYe3w&utm_campaign=yelp_api_v3&utm_medium=api_v3_business_search&utm_source=gBcvfFpabk3CnzmXKdYe3w", "name": "SA PA", "location": {"display_address": ["92 Bedford St", "Boston, MA 02111"], "country": "US", "state": "MA", "address3": "", "address2": "", "address1": "92 Bedford St", "city": "Boston", "zip_code": "02111"}, "is_closed": false, "review_count": 102, "coordinates": {"latitude": 42.3533617, "longitude": -71.0595138}, "id": "sa-pa-boston-2", "image_url": "https://s3-media4.fl.yelpcdn.com/bphoto/spgGxjYWUENxNFrVa0zgXg/o.jpg", "categories": [{"alias": "vietnamese", "title": "Vietnamese"}], "rating": 3.5}, {"transactions": [], "distance": 1970.7934187820001, "price": "$$$$", "display_phone": "(866) 307-2469", "phone": "+18663072469", "url": "https://www.yelp.com/biz/odyssey-cruises-boston-boston?adjust_creative=gBcvfFpabk3CnzmXKdYe3w&utm_campaign=yelp_api_v3&utm_medium=api_v3_business_search&utm_source=gBcvfFpabk3CnzmXKdYe3w", "name": "Odyssey Cruises Boston", "location": {"display_address": ["60 Rowes Wharf", "Boston, MA 02110"], "country": "US", "state": "MA", "address3": "", "address2": "", "address1": "60 Rowes Wharf", "city": "Boston", "zip_code": "02110"}, "is_closed": false, "review_count": 88, "coordinates": {"latitude": 42.356356, "longitude": -71.050207}, "id": "odyssey-cruises-boston-boston", "image_url": "https://s3-media4.fl.yelpcdn.com/bphoto/nBLzQcNjVHQe-lID30n7IA/o.jpg", "categories": [{"alias": "venues", "title": "Venues & Event Spaces"}, {"alias": "boatcharters", "title": "Boat Charters"}, {"alias": "newamerican", "title": "American (New)"}], "rating": 3.5}, {"transactions": [], "distance": 1227.7760271769998, "price": "$", "display_phone": "", "phone": "", "url": "https://www.yelp.com/biz/caff%C3%A8-nero-boston-22?adjust_creative=gBcvfFpabk3CnzmXKdYe3w&utm_campaign=yelp_api_v3&utm_medium=api_v3_business_search&utm_source=gBcvfFpabk3CnzmXKdYe3w", "name": "Caff\u00e8 Nero", "location": {"display_address": ["10 Summer St", "Boston, MA 02110"], "country": "US", "state": "MA", "address3": null, "address2": "", "address1": "10 Summer St", "city": "Boston", "zip_code": "02110"}, "is_closed": false, "review_count": 12, "coordinates": {"latitude": 42.3551068886136, "longitude": -71.0599896626328}, "id": "caff\u00e8-nero-boston-22", "image_url": "https://s3-media4.fl.yelpcdn.com/bphoto/dC-w3Y-TFxGrOm9uue5rPg/o.jpg", "categories": [{"alias": "cafes", "title": "Cafes"}], "rating": 4.5}, {"transactions": [], "distance": 2817.68799423, "display_phone": "", "phone": "", "url": "https://www.yelp.com/biz/the-riverway-boston?adjust_creative=gBcvfFpabk3CnzmXKdYe3w&utm_campaign=yelp_api_v3&utm_medium=api_v3_business_search&utm_source=gBcvfFpabk3CnzmXKdYe3w", "name": "The Riverway", "location": {"display_address": ["Boston, MA 02215"], "country": "US", "state": "MA", "address3": "", "address2": "", "address1": "", "city": "Boston", "zip_code": "02215"}, "is_closed": false, "review_count": 9, "coordinates": {"latitude": 42.3443125397065, "longitude": -71.1051973700523}, "id": "the-riverway-boston", "image_url": "https://s3-media3.fl.yelpcdn.com/bphoto/UyICwQg-049-S2z_rag05A/o.jpg", "categories": [{"alias": "parks", "title": "Parks"}], "rating": 4.5}, {"transactions": ["delivery"], "distance": 3767.746252632, "price": "$$", "display_phone": "(617) 731-8646", "phone": "+16177318646", "url": "https://www.yelp.com/biz/sunset-cantina-boston?adjust_creative=gBcvfFpabk3CnzmXKdYe3w&utm_campaign=yelp_api_v3&utm_medium=api_v3_business_search&utm_source=gBcvfFpabk3CnzmXKdYe3w", "name": "Sunset Cantina", "location": {"display_address": ["916 Commonwealth Ave", "Boston, MA 02215"], "country": "US", "state": "MA", "address3": "", "address2": "", "address1": "916 Commonwealth Ave", "city": "Boston", "zip_code": "02215"}, "is_closed": false, "review_count": 500, "coordinates": {"latitude": 42.35085, "longitude": -71.117}, "id": "sunset-cantina-boston", "image_url": "https://s3-media2.fl.yelpcdn.com/bphoto/pQHmq3qO66G1UatcvyxKWQ/o.jpg", "categories": [{"alias": "mexican", "title": "Mexican"}, {"alias": "bars", "title": "Bars"}], "rating": 3.5}, {"transactions": [], "distance": 1743.501341628, "price": "$", "display_phone": "(617) 951-1440", "phone": "+16179511440", "url": "https://www.yelp.com/biz/flat-black-coffee-company-boston-4?adjust_creative=gBcvfFpabk3CnzmXKdYe3w&utm_campaign=yelp_api_v3&utm_medium=api_v3_business_search&utm_source=gBcvfFpabk3CnzmXKdYe3w", "name": "Flat Black Coffee Company", "location": {"display_address": ["260 Franklin St", "Boston, MA 02110"], "country": "US", "state": "MA", "address3": "", "address2": "", "address1": "260 Franklin St", "city": "Boston", "zip_code": "02110"}, "is_closed": false, "review_count": 21, "coordinates": {"latitude": 42.3569564819336, "longitude": -71.0539779663086}, "id": "flat-black-coffee-company-boston-4", "image_url": "https://s3-media3.fl.yelpcdn.com/bphoto/G3Gguq0X4Kvxr1N_JTuyvQ/o.jpg", "categories": [{"alias": "cafes", "title": "Cafes"}], "rating": 4.0}, {"transactions": ["delivery", "pickup"], "distance": 4952.7049039720005, "price": "$$", "display_phone": "(617) 254-1839", "phone": "+16172541839", "url": "https://www.yelp.com/biz/mala-restaurant-boston?adjust_creative=gBcvfFpabk3CnzmXKdYe3w&utm_campaign=yelp_api_v3&utm_medium=api_v3_business_search&utm_source=gBcvfFpabk3CnzmXKdYe3w", "name": "Mala Restaurant", "location": {"display_address": ["129 Brighton Ave", "Boston, MA 02134"], "country": "US", "state": "MA", "address3": "", "address2": "", "address1": "129 Brighton Ave", "city": "Boston", "zip_code": "02134"}, "is_closed": false, "review_count": 98, "coordinates": {"latitude": 42.3530145, "longitude": -71.1310181}, "id": "mala-restaurant-boston", "image_url": "https://s3-media2.fl.yelpcdn.com/bphoto/DxkWdB_7j0P7r9dSPJMFQA/o.jpg", "categories": [{"alias": "chinese", "title": "Chinese"}, {"alias": "soup", "title": "Soup"}], "rating": 4.0}, {"transactions": [], "distance": 899.69187096, "price": "$$", "display_phone": "(617) 227-9605", "phone": "+16172279605", "url": "https://www.yelp.com/biz/cheers-boston?adjust_creative=gBcvfFpabk3CnzmXKdYe3w&utm_campaign=yelp_api_v3&utm_medium=api_v3_business_search&utm_source=gBcvfFpabk3CnzmXKdYe3w", "name": "Cheers", "location": {"display_address": ["84 Beacon St", "Boston, MA 02108"], "country": "US", "state": "MA", "address3": "", "address2": "", "address1": "84 Beacon St", "city": "Boston", "zip_code": "02108"}, "is_closed": false, "review_count": 608, "coordinates": {"latitude": 42.355936044299, "longitude": -71.0711767808}, "id": "cheers-boston", "image_url": "https://s3-media2.fl.yelpcdn.com/bphoto/QGtZEYUm8vvXn7uI8hEmig/o.jpg", "categories": [{"alias": "tradamerican", "title": "American (Traditional)"}, {"alias": "pubs", "title": "Pubs"}, {"alias": "burgers", "title": "Burgers"}], "rating": 3.0}, {"transactions": [], "distance": 4673.288557294, "price": "$$", "display_phone": "(617) 561-7277", "phone": "+16175617277", "url": "https://www.yelp.com/biz/oliveiras-steak-house-boston-2?adjust_creative=gBcvfFpabk3CnzmXKdYe3w&utm_campaign=yelp_api_v3&utm_medium=api_v3_business_search&utm_source=gBcvfFpabk3CnzmXKdYe3w", "name": "Oliveira's Steak House", "location": {"display_address": ["297 Chelsea St", "Boston, MA 02128"], "country": "US", "state": "MA", "address3": "", "address2": "", "address1": "297 Chelsea St", "city": "Boston", "zip_code": "02128"}, "is_closed": false, "review_count": 80, "coordinates": {"latitude": 42.3769684, "longitude": -71.0301895}, "id": "oliveiras-steak-house-boston-2", "image_url": "https://s3-media4.fl.yelpcdn.com/bphoto/yD1KmPWcee30A8kryJQebA/o.jpg", "categories": [{"alias": "brazilian", "title": "Brazilian"}, {"alias": "steak", "title": "Steakhouses"}], "rating": 4.0}, {"transactions": [], "distance": 5387.938032251999, "price": "$", "display_phone": "(617) 506-0010", "phone": "+16175060010", "url": "https://www.yelp.com/biz/coco-leaf-boston?adjust_creative=gBcvfFpabk3CnzmXKdYe3w&utm_campaign=yelp_api_v3&utm_medium=api_v3_business_search&utm_source=gBcvfFpabk3CnzmXKdYe3w", "name": "Coco Leaf", "location": {"display_address": ["1480 Dorchester Ave", "Boston, MA 02122"], "country": "US", "state": "MA", "address3": "", "address2": null, "address1": "1480 Dorchester Ave", "city": "Boston", "zip_code": "02122"}, "is_closed": false, "review_count": 66, "coordinates": {"latitude": 42.30007, "longitude": -71.05991}, "id": "coco-leaf-boston", "image_url": "https://s3-media3.fl.yelpcdn.com/bphoto/7Z1AeK0fpbcZnQV6mLpttA/o.jpg", "categories": [{"alias": "desserts", "title": "Desserts"}, {"alias": "bakeries", "title": "Bakeries"}, {"alias": "coffee", "title": "Coffee & Tea"}], "rating": 4.5}, {"transactions": ["delivery"], "distance": 864.24857147, "price": "$$", "display_phone": "(617) 542-2504", "phone": "+16175422504", "url": "https://www.yelp.com/biz/east-ocean-city-boston?adjust_creative=gBcvfFpabk3CnzmXKdYe3w&utm_campaign=yelp_api_v3&utm_medium=api_v3_business_search&utm_source=gBcvfFpabk3CnzmXKdYe3w", "name": "East Ocean City", "location": {"display_address": ["27 Beach St", "Boston, MA 02111"], "country": "US", "state": "MA", "address3": "", "address2": "", "address1": "27 Beach St", "city": "Boston", "zip_code": "02111"}, "is_closed": false, "review_count": 174, "coordinates": {"latitude": 42.3513252, "longitude": -71.0615663}, "id": "east-ocean-city-boston", "image_url": "https://s3-media1.fl.yelpcdn.com/bphoto/4uIXlQXI3zALGEqK5z4bVA/o.jpg", "categories": [{"alias": "chinese", "title": "Chinese"}, {"alias": "seafood", "title": "Seafood"}], "rating": 3.0}, {"transactions": [], "distance": 1282.0316744102, "price": "$$", "display_phone": "(617) 867-9999", "phone": "+16178679999", "url": "https://www.yelp.com/biz/ginger-exchange-symphony-boston?adjust_creative=gBcvfFpabk3CnzmXKdYe3w&utm_campaign=yelp_api_v3&utm_medium=api_v3_business_search&utm_source=gBcvfFpabk3CnzmXKdYe3w", "name": "Ginger Exchange Symphony", "location": {"display_address": ["250 Huntington Ave", "Boston, MA 02115"], "country": "US", "state": "MA", "address3": "", "address2": "", "address1": "250 Huntington Ave", "city": "Boston", "zip_code": "02115"}, "is_closed": false, "review_count": 112, "coordinates": {"latitude": 42.3425576005496, "longitude": -71.0851083822138}, "id": "ginger-exchange-symphony-boston", "image_url": "https://s3-media2.fl.yelpcdn.com/bphoto/TBh04L4VIYxcn0mP784_Dg/o.jpg", "categories": [{"alias": "sushi", "title": "Sushi Bars"}, {"alias": "asianfusion", "title": "Asian Fusion"}, {"alias": "japanese", "title": "Japanese"}], "rating": 3.5}, {"transactions": [], "distance": 4147.720278002, "price": "$$", "display_phone": "(857) 203-9462", "phone": "+18572039462", "url": "https://www.yelp.com/biz/the-frogmore-boston-2?adjust_creative=gBcvfFpabk3CnzmXKdYe3w&utm_campaign=yelp_api_v3&utm_medium=api_v3_business_search&utm_source=gBcvfFpabk3CnzmXKdYe3w", "name": "The Frogmore", "location": {"display_address": ["365 Centre St", "Boston, MA 02130"], "country": "US", "state": "MA", "address3": "", "address2": "", "address1": "365 Centre St", "city": "Boston", "zip_code": "02130"}, "is_closed": false, "review_count": 111, "coordinates": {"latitude": 42.3225067822998, "longitude": -71.1082798987627}, "id": "the-frogmore-boston-2", "image_url": "https://s3-media4.fl.yelpcdn.com/bphoto/jwfxMep8mcYTOxz6ZisEnQ/o.jpg", "categories": [{"alias": "tradamerican", "title": "American (Traditional)"}, {"alias": "bars", "title": "Bars"}], "rating": 4.0}, {"transactions": [], "distance": 2308.70686045, "price": "$", "display_phone": "(617) 523-5063", "phone": "+16175235063", "url": "https://www.yelp.com/biz/caffe-dello-sport-boston?adjust_creative=gBcvfFpabk3CnzmXKdYe3w&utm_campaign=yelp_api_v3&utm_medium=api_v3_business_search&utm_source=gBcvfFpabk3CnzmXKdYe3w", "name": "Caffe Dello Sport", "location": {"display_address": ["308 Hanover St", "Boston, MA 02113"], "country": "US", "state": "MA", "address3": "", "address2": null, "address1": "308 Hanover St", "city": "Boston", "zip_code": "02113"}, "is_closed": false, "review_count": 94, "coordinates": {"latitude": 42.364302, "longitude": -71.0541317}, "id": "caffe-dello-sport-boston", "image_url": "https://s3-media4.fl.yelpcdn.com/bphoto/ma4na_lsVL0qRfbIOPXIag/o.jpg", "categories": [{"alias": "coffee", "title": "Coffee & Tea"}, {"alias": "desserts", "title": "Desserts"}], "rating": 3.5}, {"transactions": [], "distance": 1960.3957949099997, "price": "$$$", "display_phone": "(617) 439-7000", "phone": "+16174397000", "url": "https://www.yelp.com/biz/rowes-wharf-bar-boston-harbor-hotel-boston?adjust_creative=gBcvfFpabk3CnzmXKdYe3w&utm_campaign=yelp_api_v3&utm_medium=api_v3_business_search&utm_source=gBcvfFpabk3CnzmXKdYe3w", "name": "Rowes Wharf Bar - Boston Harbor Hotel", "location": {"display_address": ["70 Rowes Wharf", "Boston, MA 02110"], "country": "US", "state": "MA", "address3": "", "address2": "", "address1": "70 Rowes Wharf", "city": "Boston", "zip_code": "02110"}, "is_closed": false, "review_count": 26, "coordinates": {"latitude": 42.3562236, "longitude": -71.0502554}, "id": "rowes-wharf-bar-boston-harbor-hotel-boston", "image_url": "https://s3-media1.fl.yelpcdn.com/bphoto/LRRNTXH_6d5-DOJVihpEBw/o.jpg", "categories": [{"alias": "tradamerican", "title": "American (Traditional)"}], "rating": 3.5}, {"transactions": [], "distance": 1220.7532697519998, "display_phone": "(617) 477-8636", "phone": "+16174778636", "url": "https://www.yelp.com/biz/disappearing-inc-boston-4?adjust_creative=gBcvfFpabk3CnzmXKdYe3w&utm_campaign=yelp_api_v3&utm_medium=api_v3_business_search&utm_source=gBcvfFpabk3CnzmXKdYe3w", "name": "Disappearing inc.", "location": {"display_address": ["128A Tremont St", "Ste 5F", "Boston, MA 02108"], "country": "US", "state": "MA", "address3": "", "address2": "Ste 5F", "address1": "128A Tremont St", "city": "Boston", "zip_code": "02108"}, "is_closed": false, "review_count": 52, "coordinates": {"latitude": 42.3564012, "longitude": -71.0619355}, "id": "disappearing-inc-boston-4", "image_url": "https://s3-media1.fl.yelpcdn.com/bphoto/LjGQtkLQ3zGbjS4PhMAVoQ/o.jpg", "categories": [{"alias": "tattooremoval", "title": "Tattoo Removal"}], "rating": 5.0}, {"transactions": [], "distance": 956.3889191599999, "price": "$", "display_phone": "(617) 426-1110", "phone": "+16174261110", "url": "https://www.yelp.com/biz/quic-pic-bbq-boston?adjust_creative=gBcvfFpabk3CnzmXKdYe3w&utm_campaign=yelp_api_v3&utm_medium=api_v3_business_search&utm_source=gBcvfFpabk3CnzmXKdYe3w", "name": "Quic Pic BBQ", "location": {"display_address": ["50 Beach St", "Boston, MA 02111"], "country": "US", "state": "MA", "address3": "", "address2": "", "address1": "50 Beach St", "city": "Boston", "zip_code": "02111"}, "is_closed": false, "review_count": 112, "coordinates": {"latitude": 42.3515299, "longitude": -71.06073}, "id": "quic-pic-bbq-boston", "image_url": "https://s3-media2.fl.yelpcdn.com/bphoto/lDjK8AmAxSa3lFf3Y-eCXA/o.jpg", "categories": [{"alias": "chinese", "title": "Chinese"}, {"alias": "bbq", "title": "Barbeque"}], "rating": 3.5}, {"transactions": [], "distance": 815.0221278301999, "display_phone": "(857) 285-2085", "phone": "+18572852085", "url": "https://www.yelp.com/biz/trapology-boston-boston?adjust_creative=gBcvfFpabk3CnzmXKdYe3w&utm_campaign=yelp_api_v3&utm_medium=api_v3_business_search&utm_source=gBcvfFpabk3CnzmXKdYe3w", "name": "Trapology Boston", "location": {"display_address": ["177 Tremont St", "Fl 2", "Boston, MA 02111"], "country": "US", "state": "MA", "address3": "", "address2": "Fl 2", "address1": "177 Tremont St", "city": "Boston", "zip_code": "02111"}, "is_closed": false, "review_count": 68, "coordinates": {"latitude": 42.3530140969684, "longitude": -71.0642164429917}, "id": "trapology-boston-boston", "image_url": "https://s3-media4.fl.yelpcdn.com/bphoto/s7_-qt74gCR7NSpNu3PfdQ/o.jpg", "categories": [{"alias": "escapegames", "title": "Escape Games"}], "rating": 5.0}, {"transactions": ["delivery"], "distance": 1861.0055314539998, "price": "$$", "display_phone": "(617) 482-1900", "phone": "+16174821900", "url": "https://www.yelp.com/biz/vintage-restaurant-and-lounge-boston?adjust_creative=gBcvfFpabk3CnzmXKdYe3w&utm_campaign=yelp_api_v3&utm_medium=api_v3_business_search&utm_source=gBcvfFpabk3CnzmXKdYe3w", "name": "Vintage Restaurant and Lounge", "location": {"display_address": ["72 Broad St", "Boston, MA 02110"], "country": "US", "state": "MA", "address3": "", "address2": null, "address1": "72 Broad St", "city": "Boston", "zip_code": "02110"}, "is_closed": false, "review_count": 121, "coordinates": {"latitude": 42.3577, "longitude": -71.05302}, "id": "vintage-restaurant-and-lounge-boston", "image_url": "https://s3-media1.fl.yelpcdn.com/bphoto/pFrglmQrIyb5ekX5yoeJcw/o.jpg", "categories": [{"alias": "lounges", "title": "Lounges"}, {"alias": "newamerican", "title": "American (New)"}], "rating": 3.5}, {"transactions": ["pickup"], "distance": 1984.409722654, "price": "$$", "display_phone": "(617) 227-9100", "phone": "+16172279100", "url": "https://www.yelp.com/biz/causeway-restaurant-and-bar-boston-3?adjust_creative=gBcvfFpabk3CnzmXKdYe3w&utm_campaign=yelp_api_v3&utm_medium=api_v3_business_search&utm_source=gBcvfFpabk3CnzmXKdYe3w", "name": "Causeway Restaurant & Bar", "location": {"display_address": ["65 Causeway St", "Boston, MA 02114"], "country": "US", "state": "MA", "address3": "", "address2": "", "address1": "65 Causeway St", "city": "Boston", "zip_code": "02114"}, "is_closed": false, "review_count": 98, "coordinates": {"latitude": 42.3645493372538, "longitude": -71.0627413541079}, "id": "causeway-restaurant-and-bar-boston-3", "image_url": "https://s3-media3.fl.yelpcdn.com/bphoto/beN9YIs0ul55Bki04_3k2g/o.jpg", "categories": [{"alias": "bbq", "title": "Barbeque"}, {"alias": "bars", "title": "Bars"}, {"alias": "sandwiches", "title": "Sandwiches"}], "rating": 3.5}, {"transactions": ["delivery", "pickup"], "distance": 1349.2626093, "price": "$", "display_phone": "(617) 269-2000", "phone": "+16172692000", "url": "https://www.yelp.com/biz/teriyaki-house-boston?adjust_creative=gBcvfFpabk3CnzmXKdYe3w&utm_campaign=yelp_api_v3&utm_medium=api_v3_business_search&utm_source=gBcvfFpabk3CnzmXKdYe3w", "name": "Teriyaki House", "location": {"display_address": ["32 W Broadway", "Boston, MA 02127"], "country": "US", "state": "MA", "address3": "", "address2": "", "address1": "32 W Broadway", "city": "Boston", "zip_code": "02127"}, "is_closed": false, "review_count": 242, "coordinates": {"latitude": 42.3427099, "longitude": -71.05637}, "id": "teriyaki-house-boston", "image_url": "https://s3-media2.fl.yelpcdn.com/bphoto/iobzpskz7v-Y-oxisoBR8g/o.jpg", "categories": [{"alias": "japanese", "title": "Japanese"}, {"alias": "sushi", "title": "Sushi Bars"}], "rating": 3.0}, {"transactions": [], "distance": 662.506215222, "price": "$$", "display_phone": "(617) 338-6060", "phone": "+16173386060", "url": "https://www.yelp.com/biz/cathedral-station-boston?adjust_creative=gBcvfFpabk3CnzmXKdYe3w&utm_campaign=yelp_api_v3&utm_medium=api_v3_business_search&utm_source=gBcvfFpabk3CnzmXKdYe3w", "name": "Cathedral Station", "location": {"display_address": ["1222 Washington St", "Boston, MA 02118"], "country": "US", "state": "MA", "address3": "", "address2": "", "address1": "1222 Washington St", "city": "Boston", "zip_code": "02118"}, "is_closed": false, "review_count": 36, "coordinates": {"latitude": 42.3428190425811, "longitude": -71.066907314402}, "id": "cathedral-station-boston", "image_url": "https://s3-media4.fl.yelpcdn.com/bphoto/qvpJiElVFesRlmzH0tGBQg/o.jpg", "categories": [{"alias": "sportsbars", "title": "Sports Bars"}, {"alias": "gaybars", "title": "Gay Bars"}, {"alias": "pubs", "title": "Pubs"}], "rating": 3.5}, {"transactions": ["delivery", "pickup"], "distance": 1833.319250764, "price": "$$", "display_phone": "(617) 936-4383", "phone": "+16179364383", "url": "https://www.yelp.com/biz/warehouse-bar-and-grille-boston-3?adjust_creative=gBcvfFpabk3CnzmXKdYe3w&utm_campaign=yelp_api_v3&utm_medium=api_v3_business_search&utm_source=gBcvfFpabk3CnzmXKdYe3w", "name": "Warehouse Bar & Grille", "location": {"display_address": ["40 Broad St", "Boston, MA 02109"], "country": "US", "state": "MA", "address3": "", "address2": "", "address1": "40 Broad St", "city": "Boston", "zip_code": "02109"}, "is_closed": false, "review_count": 101, "coordinates": {"latitude": 42.3583964, "longitude": -71.0541019}, "id": "warehouse-bar-and-grille-boston-3", "image_url": "https://s3-media2.fl.yelpcdn.com/bphoto/e26YIPMXslHi7uEkWllbaw/o.jpg", "categories": [{"alias": "sportsbars", "title": "Sports Bars"}, {"alias": "tradamerican", "title": "American (Traditional)"}], "rating": 3.5}, {"transactions": [], "distance": 1252.661010196, "price": "$", "display_phone": "(617) 482-2223", "phone": "+16174822223", "url": "https://www.yelp.com/biz/falafel-king-boston-3?adjust_creative=gBcvfFpabk3CnzmXKdYe3w&utm_campaign=yelp_api_v3&utm_medium=api_v3_business_search&utm_source=gBcvfFpabk3CnzmXKdYe3w", "name": "Falafel King", "location": {"display_address": ["62 Summer St", "Boston, MA 02110"], "country": "US", "state": "MA", "address3": "", "address2": "", "address1": "62 Summer St", "city": "Boston", "zip_code": "02110"}, "is_closed": false, "review_count": 50, "coordinates": {"latitude": 42.3542272, "longitude": -71.0586884}, "id": "falafel-king-boston-3", "image_url": "https://s3-media4.fl.yelpcdn.com/bphoto/siI0jxPhtrTAxV9GYJlBfg/o.jpg", "categories": [{"alias": "falafel", "title": "Falafel"}, {"alias": "mideastern", "title": "Middle Eastern"}], "rating": 3.5}, {"transactions": [], "distance": 2895.975465068, "display_phone": "", "phone": "", "url": "https://www.yelp.com/biz/south-boston-bark-park-boston?adjust_creative=gBcvfFpabk3CnzmXKdYe3w&utm_campaign=yelp_api_v3&utm_medium=api_v3_business_search&utm_source=gBcvfFpabk3CnzmXKdYe3w", "name": "South Boston Bark Park", "location": {"display_address": ["1280 Columbia Rd", "Boston, MA 02127"], "country": "US", "state": "MA", "address3": "", "address2": "", "address1": "1280 Columbia Rd", "city": "Boston", "zip_code": "02127"}, "is_closed": false, "review_count": 10, "coordinates": {"latitude": 42.3300474861074, "longitude": -71.0455156898888}, "id": "south-boston-bark-park-boston", "image_url": "https://s3-media1.fl.yelpcdn.com/bphoto/0by50MahR22vO5gaNv_VnA/o.jpg", "categories": [{"alias": "dog_parks", "title": "Dog Parks"}], "rating": 4.5}, {"transactions": [], "distance": 1829.900529802, "price": "$$", "display_phone": "(617) 227-7800", "phone": "+16172277800", "url": "https://www.yelp.com/biz/clarkes-at-faneuil-hall-boston-3?adjust_creative=gBcvfFpabk3CnzmXKdYe3w&utm_campaign=yelp_api_v3&utm_medium=api_v3_business_search&utm_source=gBcvfFpabk3CnzmXKdYe3w", "name": "Clarke's at Faneuil Hall", "location": {"display_address": ["21 Merchants Row", "Boston, MA 02109"], "country": "US", "state": "MA", "address3": "", "address2": "", "address1": "21 Merchants Row", "city": "Boston", "zip_code": "02109"}, "is_closed": false, "review_count": 158, "coordinates": {"latitude": 42.3594208, "longitude": -71.055397}, "id": "clarkes-at-faneuil-hall-boston-3", "image_url": "https://s3-media4.fl.yelpcdn.com/bphoto/JxblPhgvAp9VzDUkv2iUHQ/o.jpg", "categories": [{"alias": "tradamerican", "title": "American (Traditional)"}, {"alias": "seafood", "title": "Seafood"}, {"alias": "bars", "title": "Bars"}], "rating": 3.5}, {"transactions": [], "distance": 5295.2142988119995, "price": "$", "display_phone": "(617) 436-9100", "phone": "+16174369100", "url": "https://www.yelp.com/biz/dot-cafe-boston?adjust_creative=gBcvfFpabk3CnzmXKdYe3w&utm_campaign=yelp_api_v3&utm_medium=api_v3_business_search&utm_source=gBcvfFpabk3CnzmXKdYe3w", "name": "Dot Cafe", "location": {"display_address": ["1459 Dorchester Ave", "Boston, MA 02122"], "country": "US", "state": "MA", "address3": "", "address2": null, "address1": "1459 Dorchester Ave", "city": "Boston", "zip_code": "02122"}, "is_closed": false, "review_count": 14, "coordinates": {"latitude": 42.3009796, "longitude": -71.0602036}, "id": "dot-cafe-boston", "image_url": "https://s3-media1.fl.yelpcdn.com/bphoto/w1ccSa-hAWiaEbquRqRHEA/o.jpg", "categories": [{"alias": "coffee", "title": "Coffee & Tea"}, {"alias": "breakfast_brunch", "title": "Breakfast & Brunch"}, {"alias": "bakeries", "title": "Bakeries"}], "rating": 4.5}, {"transactions": ["delivery", "pickup"], "distance": 1601.670287895, "price": "$", "display_phone": "(617) 722-9755", "phone": "+16177229755", "url": "https://www.yelp.com/biz/boston-shawarma-restaurant-boston?adjust_creative=gBcvfFpabk3CnzmXKdYe3w&utm_campaign=yelp_api_v3&utm_medium=api_v3_business_search&utm_source=gBcvfFpabk3CnzmXKdYe3w", "name": "Boston Shawarma Restaurant", "location": {"display_address": ["226 Washington St", "Boston, MA 02115"], "country": "US", "state": "MA", "address3": "", "address2": "", "address1": "226 Washington St", "city": "Boston", "zip_code": "02115"}, "is_closed": false, "review_count": 46, "coordinates": {"latitude": 42.3584923714163, "longitude": -71.0581178399371}, "id": "boston-shawarma-restaurant-boston", "image_url": "https://s3-media4.fl.yelpcdn.com/bphoto/vzbpenFdwNTffFX9-KIUiQ/o.jpg", "categories": [{"alias": "mideastern", "title": "Middle Eastern"}], "rating": 3.5}, {"transactions": [], "distance": 560.3681968367999, "price": "$", "display_phone": "", "phone": "", "url": "https://www.yelp.com/biz/big-daddys-hot-dog-stand-boston?adjust_creative=gBcvfFpabk3CnzmXKdYe3w&utm_campaign=yelp_api_v3&utm_medium=api_v3_business_search&utm_source=gBcvfFpabk3CnzmXKdYe3w", "name": "Big Daddy's Hot Dog Stand", "location": {"display_address": ["Bolyston & Darthmouth", "Boston, MA 02116"], "country": "US", "state": "MA", "address3": "", "address2": "", "address1": "Bolyston & Darthmouth", "city": "Boston", "zip_code": "02116"}, "is_closed": false, "review_count": 8, "coordinates": {"latitude": 42.350080087781, "longitude": -71.0773500055075}, "id": "big-daddys-hot-dog-stand-boston", "image_url": "https://s3-media2.fl.yelpcdn.com/bphoto/i1CPFiYdfi3dLl-sjoKH3g/o.jpg", "categories": [{"alias": "hotdog", "title": "Hot Dogs"}], "rating": 5.0}, {"transactions": [], "distance": 1934.7364779499999, "price": "$$", "display_phone": "(617) 227-2038", "phone": "+16172272038", "url": "https://www.yelp.com/biz/durgin-park-boston?adjust_creative=gBcvfFpabk3CnzmXKdYe3w&utm_campaign=yelp_api_v3&utm_medium=api_v3_business_search&utm_source=gBcvfFpabk3CnzmXKdYe3w", "name": "Durgin-Park", "location": {"display_address": ["340 Faneuil Hall", "Boston, MA 02109"], "country": "US", "state": "MA", "address3": "", "address2": "", "address1": "340 Faneuil Hall", "city": "Boston", "zip_code": "02109"}, "is_closed": false, "review_count": 442, "coordinates": {"latitude": 42.3604673407354, "longitude": -71.0550384250855}, "id": "durgin-park-boston", "image_url": "https://s3-media2.fl.yelpcdn.com/bphoto/T8LGLZiZK3AWdaGrvvny4w/o.jpg", "categories": [{"alias": "seafood", "title": "Seafood"}, {"alias": "steak", "title": "Steakhouses"}, {"alias": "tradamerican", "title": "American (Traditional)"}], "rating": 3.0}, {"transactions": [], "distance": 5067.57508702, "price": "$", "display_phone": "(617) 874-4047", "phone": "+16178744047", "url": "https://www.yelp.com/biz/potbelly-sandwich-shop-boston-4?adjust_creative=gBcvfFpabk3CnzmXKdYe3w&utm_campaign=yelp_api_v3&utm_medium=api_v3_business_search&utm_source=gBcvfFpabk3CnzmXKdYe3w", "name": "Potbelly Sandwich Shop", "location": {"display_address": ["1 Harborside Dr", "Terminal C", "Boston, MA 02128"], "country": "US", "state": "MA", "address3": "Terminal C", "address2": "", "address1": "1 Harborside Dr", "city": "Boston", "zip_code": "02128"}, "is_closed": false, "review_count": 76, "coordinates": {"latitude": 42.3674763983283, "longitude": -71.0155869495498}, "id": "potbelly-sandwich-shop-boston-4", "image_url": "https://s3-media2.fl.yelpcdn.com/bphoto/prL8cGVBSD1ijf0TEzB1tA/o.jpg", "categories": [{"alias": "sandwiches", "title": "Sandwiches"}], "rating": 4.0}, {"transactions": [], "distance": 1364.652244918, "price": "$$", "display_phone": "(617) 426-0111", "phone": "+16174260111", "url": "https://www.yelp.com/biz/beantown-pub-boston?adjust_creative=gBcvfFpabk3CnzmXKdYe3w&utm_campaign=yelp_api_v3&utm_medium=api_v3_business_search&utm_source=gBcvfFpabk3CnzmXKdYe3w", "name": "Beantown Pub", "location": {"display_address": ["100 Tremont St", "Boston, MA 02108"], "country": "US", "state": "MA", "address3": "", "address2": null, "address1": "100 Tremont St", "city": "Boston", "zip_code": "02108"}, "is_closed": false, "review_count": 492, "coordinates": {"latitude": 42.357451481565, "longitude": -71.060911746876}, "id": "beantown-pub-boston", "image_url": "https://s3-media1.fl.yelpcdn.com/bphoto/kkdnVcKaA23h3HZ8IaWfTg/o.jpg", "categories": [{"alias": "pubs", "title": "Pubs"}, {"alias": "tradamerican", "title": "American (Traditional)"}, {"alias": "breakfast_brunch", "title": "Breakfast & Brunch"}], "rating": 3.0}, {"transactions": ["delivery", "pickup"], "distance": 1345.283033348, "price": "$$", "display_phone": "(617) 266-8888", "phone": "+16172668888", "url": "https://www.yelp.com/biz/dumpling-palace-boston?adjust_creative=gBcvfFpabk3CnzmXKdYe3w&utm_campaign=yelp_api_v3&utm_medium=api_v3_business_search&utm_source=gBcvfFpabk3CnzmXKdYe3w", "name": "Dumpling Palace", "location": {"display_address": ["179 Massachusetts Ave", "Boston, MA 02115"], "country": "US", "state": "MA", "address3": "", "address2": "", "address1": "179 Massachusetts Ave", "city": "Boston", "zip_code": "02115"}, "is_closed": false, "review_count": 224, "coordinates": {"latitude": 42.345703125, "longitude": -71.0873413085938}, "id": "dumpling-palace-boston", "image_url": "https://s3-media3.fl.yelpcdn.com/bphoto/2_xPoksiU0ZfnuiNps4fyg/o.jpg", "categories": [{"alias": "taiwanese", "title": "Taiwanese"}, {"alias": "chinese", "title": "Chinese"}], "rating": 3.0}, {"transactions": [], "distance": 2222.022497228, "price": "$$", "display_phone": "(857) 308-3058", "phone": "+18573083058", "url": "https://www.yelp.com/biz/dudley-dough-boston?adjust_creative=gBcvfFpabk3CnzmXKdYe3w&utm_campaign=yelp_api_v3&utm_medium=api_v3_business_search&utm_source=gBcvfFpabk3CnzmXKdYe3w", "name": "Dudley Dough", "location": {"display_address": ["2302 Washington St", "Boston, MA 02119"], "country": "US", "state": "MA", "address3": "", "address2": null, "address1": "2302 Washington St", "city": "Boston", "zip_code": "02119"}, "is_closed": false, "review_count": 19, "coordinates": {"latitude": 42.3302147594847, "longitude": -71.0839737206697}, "id": "dudley-dough-boston", "image_url": "https://s3-media1.fl.yelpcdn.com/bphoto/MgNv0j_cDKCBs6swrKc_1Q/o.jpg", "categories": [{"alias": "pizza", "title": "Pizza"}, {"alias": "newamerican", "title": "American (New)"}, {"alias": "coffee", "title": "Coffee & Tea"}], "rating": 4.5}, {"transactions": [], "distance": 527.0841488248, "price": "$$", "display_phone": "(617) 867-0491", "phone": "+16178670491", "url": "https://www.yelp.com/biz/starbucks-boston-42?adjust_creative=gBcvfFpabk3CnzmXKdYe3w&utm_campaign=yelp_api_v3&utm_medium=api_v3_business_search&utm_source=gBcvfFpabk3CnzmXKdYe3w", "name": "Starbucks", "location": {"display_address": ["10 Huntington Ave", "Westin Hotel Copley", "Boston, MA 02116"], "country": "US", "state": "MA", "address3": "Westin Hotel Copley", "address2": "", "address1": "10 Huntington Ave", "city": "Boston", "zip_code": "02116"}, "is_closed": false, "review_count": 28, "coordinates": {"latitude": 42.3483926834799, "longitude": -71.0776175092274}, "id": "starbucks-boston-42", "image_url": "https://s3-media3.fl.yelpcdn.com/bphoto/GWKBC8GQ8_3Yo30fuPNgjQ/o.jpg", "categories": [{"alias": "coffee", "title": "Coffee & Tea"}], "rating": 3.5}, {"transactions": [], "distance": 558.2778251108, "display_phone": "(617) 536-5400", "phone": "+16175365400", "url": "https://www.yelp.com/biz/boston-public-library-boston?adjust_creative=gBcvfFpabk3CnzmXKdYe3w&utm_campaign=yelp_api_v3&utm_medium=api_v3_business_search&utm_source=gBcvfFpabk3CnzmXKdYe3w", "name": "Boston Public Library", "location": {"display_address": ["700 Boylston St", "Boston, MA 02116"], "country": "US", "state": "MA", "address3": "", "address2": "", "address1": "700 Boylston St", "city": "Boston", "zip_code": "02116"}, "is_closed": false, "review_count": 419, "coordinates": {"latitude": 42.3496179007241, "longitude": -71.0775961148307}, "id": "boston-public-library-boston", "image_url": "https://s3-media3.fl.yelpcdn.com/bphoto/qzu3KKzcCW3p-Laj3gfsPw/o.jpg", "categories": [{"alias": "libraries", "title": "Libraries"}], "rating": 4.5}, {"transactions": ["delivery", "pickup"], "distance": 1501.330191971, "price": "$", "display_phone": "(617) 426-0593", "phone": "+16174260593", "url": "https://www.yelp.com/biz/cosi-boston-2?adjust_creative=gBcvfFpabk3CnzmXKdYe3w&utm_campaign=yelp_api_v3&utm_medium=api_v3_business_search&utm_source=gBcvfFpabk3CnzmXKdYe3w", "name": "Cosi", "location": {"display_address": ["14 Milk St", "Boston, MA 02108"], "country": "US", "state": "MA", "address3": "", "address2": "", "address1": "14 Milk St", "city": "Boston", "zip_code": "02108"}, "is_closed": false, "review_count": 69, "coordinates": {"latitude": 42.3568698, "longitude": -71.0579144}, "id": "cosi-boston-2", "image_url": "https://s3-media1.fl.yelpcdn.com/bphoto/Hs882gg79E51UGt8Zb8_NA/o.jpg", "categories": [{"alias": "sandwiches", "title": "Sandwiches"}, {"alias": "salad", "title": "Salad"}], "rating": 3.5}, {"transactions": ["delivery"], "distance": 2880.886615096, "price": "$$", "display_phone": "(617) 262-0909", "phone": "+16172620909", "url": "https://www.yelp.com/biz/sol-azteca-boston?adjust_creative=gBcvfFpabk3CnzmXKdYe3w&utm_campaign=yelp_api_v3&utm_medium=api_v3_business_search&utm_source=gBcvfFpabk3CnzmXKdYe3w", "name": "Sol Azteca", "location": {"display_address": ["914 Beacon St", "Ste A", "Boston, MA 02215"], "country": "US", "state": "MA", "address3": "", "address2": "Ste A", "address1": "914 Beacon St", "city": "Boston", "zip_code": "02215"}, "is_closed": false, "review_count": 303, "coordinates": {"latitude": 42.3466987609863, "longitude": -71.1062850952148}, "id": "sol-azteca-boston", "image_url": "https://s3-media2.fl.yelpcdn.com/bphoto/rNR1pguPsP8_-odHhFLYIQ/o.jpg", "categories": [{"alias": "mexican", "title": "Mexican"}], "rating": 3.5}, {"transactions": ["delivery", "pickup"], "distance": 997.6818476819999, "price": "$$", "display_phone": "(617) 542-1763", "phone": "+16175421763", "url": "https://www.yelp.com/biz/china-king-boston?adjust_creative=gBcvfFpabk3CnzmXKdYe3w&utm_campaign=yelp_api_v3&utm_medium=api_v3_business_search&utm_source=gBcvfFpabk3CnzmXKdYe3w", "name": "China King", "location": {"display_address": ["60 Beach St", "Boston, MA 02111"], "country": "US", "state": "MA", "address3": "", "address2": "", "address1": "60 Beach St", "city": "Boston", "zip_code": "02111"}, "is_closed": false, "review_count": 93, "coordinates": {"latitude": 42.3514404296875, "longitude": -71.0601654052734}, "id": "china-king-boston", "image_url": "https://s3-media1.fl.yelpcdn.com/bphoto/IGpp94YPBYu1lVHGYq45LA/o.jpg", "categories": [{"alias": "chinese", "title": "Chinese"}, {"alias": "seafood", "title": "Seafood"}, {"alias": "soup", "title": "Soup"}], "rating": 3.5}, {"transactions": [], "distance": 1881.233486848, "display_phone": "(617) 306-0788", "phone": "+16173060788", "url": "https://www.yelp.com/biz/m-and-m-ribs-boston-2?adjust_creative=gBcvfFpabk3CnzmXKdYe3w&utm_campaign=yelp_api_v3&utm_medium=api_v3_business_search&utm_source=gBcvfFpabk3CnzmXKdYe3w", "name": "M & M Ribs", "location": {"display_address": ["155 Southampton St", "Boston, MA 02118"], "country": "US", "state": "MA", "address3": "", "address2": "", "address1": "155 Southampton St", "city": "Boston", "zip_code": "02118"}, "is_closed": false, "review_count": 10, "coordinates": {"latitude": 42.33117, "longitude": -71.06737}, "id": "m-and-m-ribs-boston-2", "image_url": "https://s3-media4.fl.yelpcdn.com/bphoto/JNCVNwl-5QkT3iJvFkBdzw/o.jpg", "categories": [{"alias": "bbq", "title": "Barbeque"}], "rating": 4.5}, {"transactions": [], "distance": 715.5577220803999, "price": "$$$", "display_phone": "(617) 266-1122", "phone": "+16172661122", "url": "https://www.yelp.com/biz/buttermilk-and-bourbon-boston-2?adjust_creative=gBcvfFpabk3CnzmXKdYe3w&utm_campaign=yelp_api_v3&utm_medium=api_v3_business_search&utm_source=gBcvfFpabk3CnzmXKdYe3w", "name": "Buttermilk & Bourbon", "location": {"display_address": ["160 Commonwealth Ave", "Boston, MA 02116"], "country": "US", "state": "MA", "address3": null, "address2": "", "address1": "160 Commonwealth Ave", "city": "Boston", "zip_code": "02116"}, "is_closed": false, "review_count": 48, "coordinates": {"latitude": 42.3512840270996, "longitude": -71.0786514282227}, "id": "buttermilk-and-bourbon-boston-2", "image_url": "https://s3-media1.fl.yelpcdn.com/bphoto/QiCvepY9RbG8RzkeHPdQEg/o.jpg", "categories": [{"alias": "southern", "title": "Southern"}, {"alias": "cocktailbars", "title": "Cocktail Bars"}, {"alias": "tapas", "title": "Tapas Bars"}], "rating": 3.5}, {"transactions": ["delivery"], "distance": 1378.947207468, "price": "$$", "display_phone": "(617) 236-5511", "phone": "+16172365511", "url": "https://www.yelp.com/biz/moby-dick-boston?adjust_creative=gBcvfFpabk3CnzmXKdYe3w&utm_campaign=yelp_api_v3&utm_medium=api_v3_business_search&utm_source=gBcvfFpabk3CnzmXKdYe3w", "name": "Moby Dick", "location": {"display_address": ["269 Huntington Ave", "Boston, MA 02115"], "country": "US", "state": "MA", "address3": "", "address2": "", "address1": "269 Huntington Ave", "city": "Boston", "zip_code": "02115"}, "is_closed": false, "review_count": 118, "coordinates": {"latitude": 42.3421300202608, "longitude": -71.0859256982803}, "id": "moby-dick-boston", "image_url": "https://s3-media4.fl.yelpcdn.com/bphoto/3cyq07--SUhrRrZYYENEWw/o.jpg", "categories": [{"alias": "mideastern", "title": "Middle Eastern"}, {"alias": "persian", "title": "Persian/Iranian"}], "rating": 3.5}, {"transactions": ["delivery", "pickup"], "distance": 530.1260428257999, "price": "$$", "display_phone": "(617) 262-4530", "phone": "+16172624530", "url": "https://www.yelp.com/biz/snappy-sushi-boston?adjust_creative=gBcvfFpabk3CnzmXKdYe3w&utm_campaign=yelp_api_v3&utm_medium=api_v3_business_search&utm_source=gBcvfFpabk3CnzmXKdYe3w", "name": "Snappy Sushi", "location": {"display_address": ["108 Newbury St", "Boston, MA 02116"], "country": "US", "state": "MA", "address3": "", "address2": "", "address1": "108 Newbury St", "city": "Boston", "zip_code": "02116"}, "is_closed": false, "review_count": 420, "coordinates": {"latitude": 42.3513588309288, "longitude": -71.0757514089346}, "id": "snappy-sushi-boston", "image_url": "https://s3-media2.fl.yelpcdn.com/bphoto/98sOtN85fGMPeFy9gxi42Q/o.jpg", "categories": [{"alias": "sushi", "title": "Sushi Bars"}, {"alias": "japanese", "title": "Japanese"}], "rating": 3.0}, {"transactions": [], "distance": 1938.54015304, "price": "$", "display_phone": "(617) 227-2226", "phone": "+16172272226", "url": "https://www.yelp.com/biz/hong-kong-at-faneuil-hall-boston?adjust_creative=gBcvfFpabk3CnzmXKdYe3w&utm_campaign=yelp_api_v3&utm_medium=api_v3_business_search&utm_source=gBcvfFpabk3CnzmXKdYe3w", "name": "Hong Kong At Faneuil Hall", "location": {"display_address": ["65 Chatham St", "Boston, MA 02109"], "country": "US", "state": "MA", "address3": "", "address2": "", "address1": "65 Chatham St", "city": "Boston", "zip_code": "02109"}, "is_closed": false, "review_count": 327, "coordinates": {"latitude": 42.359669120182, "longitude": -71.053907939597}, "id": "hong-kong-at-faneuil-hall-boston", "image_url": "https://s3-media4.fl.yelpcdn.com/bphoto/pA9kxTHcpicXr8jK1h_P8Q/o.jpg", "categories": [{"alias": "lounges", "title": "Lounges"}, {"alias": "chinese", "title": "Chinese"}, {"alias": "danceclubs", "title": "Dance Clubs"}], "rating": 3.0}, {"transactions": [], "distance": 623.8182770778, "price": "$$", "display_phone": "(617) 742-2739", "phone": "+16177422739", "url": "https://www.yelp.com/biz/rock-bottom-restaurant-and-brewery-boston-2?adjust_creative=gBcvfFpabk3CnzmXKdYe3w&utm_campaign=yelp_api_v3&utm_medium=api_v3_business_search&utm_source=gBcvfFpabk3CnzmXKdYe3w", "name": "Rock Bottom Restaurant & Brewery", "location": {"display_address": ["115 Stuart St", "Boston, MA 02116"], "country": "US", "state": "MA", "address3": "", "address2": "", "address1": "115 Stuart St", "city": "Boston", "zip_code": "02116"}, "is_closed": false, "review_count": 470, "coordinates": {"latitude": 42.3512269, "longitude": -71.0653529}, "id": "rock-bottom-restaurant-and-brewery-boston-2", "image_url": "https://s3-media2.fl.yelpcdn.com/bphoto/hHQn7CQwOUVUXzOSwfl8Jg/o.jpg", "categories": [{"alias": "tradamerican", "title": "American (Traditional)"}], "rating": 3.0}, {"transactions": [], "distance": 1496.050832568, "price": "$$", "display_phone": "(617) 663-3269", "phone": "+16176633269", "url": "https://www.yelp.com/biz/starbucks-boston-50?adjust_creative=gBcvfFpabk3CnzmXKdYe3w&utm_campaign=yelp_api_v3&utm_medium=api_v3_business_search&utm_source=gBcvfFpabk3CnzmXKdYe3w", "name": "Starbucks", "location": {"display_address": ["211 Congress St", "Boston, MA 02210"], "country": "US", "state": "MA", "address3": "", "address2": "", "address1": "211 Congress St", "city": "Boston", "zip_code": "02210"}, "is_closed": false, "review_count": 35, "coordinates": {"latitude": 42.3547255, "longitude": -71.0549425}, "id": "starbucks-boston-50", "image_url": "https://s3-media4.fl.yelpcdn.com/bphoto/AVDfFF1OaqiNDqeg-Z2xEQ/o.jpg", "categories": [{"alias": "coffee", "title": "Coffee & Tea"}], "rating": 3.5}, {"transactions": [], "distance": 5036.998431689999, "price": "$$", "display_phone": "(617) 568-2800", "phone": "+16175682800", "url": "https://www.yelp.com/biz/legal-sea-foods-boston-49?adjust_creative=gBcvfFpabk3CnzmXKdYe3w&utm_campaign=yelp_api_v3&utm_medium=api_v3_business_search&utm_source=gBcvfFpabk3CnzmXKdYe3w", "name": "Legal Sea Foods", "location": {"display_address": ["1 Harborside Dr", "Terminal C", "Boston, MA 02128"], "country": "US", "state": "MA", "address3": "Terminal C", "address2": "", "address1": "1 Harborside Dr", "city": "Boston", "zip_code": "02128"}, "is_closed": false, "review_count": 290, "coordinates": {"latitude": 42.3669410889598, "longitude": -71.0156518220901}, "id": "legal-sea-foods-boston-49", "image_url": "https://s3-media4.fl.yelpcdn.com/bphoto/cALrg0n1P2vmsCwiNvKHmg/o.jpg", "categories": [{"alias": "seafood", "title": "Seafood"}, {"alias": "italian", "title": "Italian"}], "rating": 3.5}, {"transactions": ["delivery"], "distance": 1356.8107357679999, "price": "$", "display_phone": "(617) 236-5480", "phone": "+16172365480", "url": "https://www.yelp.com/biz/b-good-boston-3?adjust_creative=gBcvfFpabk3CnzmXKdYe3w&utm_campaign=yelp_api_v3&utm_medium=api_v3_business_search&utm_source=gBcvfFpabk3CnzmXKdYe3w", "name": "B. Good", "location": {"display_address": ["137 Massachusetts Ave", "Boston, MA 02115"], "country": "US", "state": "MA", "address3": "", "address2": "", "address1": "137 Massachusetts Ave", "city": "Boston", "zip_code": "02115"}, "is_closed": false, "review_count": 114, "coordinates": {"latitude": 42.346862079069, "longitude": -71.087698403397}, "id": "b-good-boston-3", "image_url": "https://s3-media2.fl.yelpcdn.com/bphoto/VyxRla9WErumf1rYfdFOMA/o.jpg", "categories": [{"alias": "burgers", "title": "Burgers"}, {"alias": "hotdogs", "title": "Fast Food"}], "rating": 3.5}], "total": 24839}