{"total": 24837, "region": {"center": {"longitude": -71.07124328613281, "latitude": 42.34784169448538}}, "businesses": [{"rating": 4.0, "is_closed": false, "distance": 1480.6207381424, "name": "King's Chapel", "id": "kings-chapel-boston", "image_url": "https://s3-media2.fl.yelpcdn.com/bphoto/V7WvNR7ElQ-Ax81YNAJAtA/o.jpg", "url": "https://www.yelp.com/biz/kings-chapel-boston?adjust_creative=gBcvfFpabk3CnzmXKdYe3w&utm_campaign=yelp_api_v3&utm_medium=api_v3_business_search&utm_source=gBcvfFpabk3CnzmXKdYe3w", "phone": "+16175231749", "coordinates": {"longitude": -71.059903700675, "latitude": 42.358193230275}, "categories": [{"alias": "churches", "title": "Churches"}, {"alias": "landmarks", "title": "Landmarks & Historical Buildings"}], "review_count": 26, "location": {"city": "Boston", "address1": "58 Tremont St", "address3": "", "address2": "", "zip_code": "02108", "country": "US", "display_address": ["58 Tremont St", "Boston, MA 02108"], "state": "MA"}, "transactions": [], "display_phone": "(617) 523-1749"}, {"rating": 3.5, "is_closed": false, "distance": 2209.4075247039996, "name": "Cask'n Flagon", "id": "caskn-flagon-boston-2", "image_url": "https://s3-media4.fl.yelpcdn.com/bphoto/JIPyEsw_RHmcbQVet0avPg/o.jpg", "url": "https://www.yelp.com/biz/caskn-flagon-boston-2?adjust_creative=gBcvfFpabk3CnzmXKdYe3w&utm_campaign=yelp_api_v3&utm_medium=api_v3_business_search&utm_source=gBcvfFpabk3CnzmXKdYe3w", "phone": "+16175364840", "coordinates": {"longitude": -71.09794, "latitude": 42.34738}, "categories": [{"alias": "sportsbars", "title": "Sports Bars"}, {"alias": "tradamerican", "title": "American (Traditional)"}], "review_count": 445, "location": {"city": "Boston", "address1": "62 Brookline Ave", "address3": "", "address2": "", "zip_code": "02215", "country": "US", "display_address": ["62 Brookline Ave", "Boston, MA 02215"], "state": "MA"}, "price": "$$", "transactions": [], "display_phone": "(617) 536-4840"}, {"rating": 3.5, "is_closed": false, "distance": 3302.894509124, "name": "Cafe Mamtaz", "id": "cafe-mamtaz-boston-2", "image_url": "https://s3-media1.fl.yelpcdn.com/bphoto/Opsbgkasf8BItvW7pUvAHQ/o.jpg", "url": "https://www.yelp.com/biz/cafe-mamtaz-boston-2?adjust_creative=gBcvfFpabk3CnzmXKdYe3w&utm_campaign=yelp_api_v3&utm_medium=api_v3_business_search&utm_source=gBcvfFpabk3CnzmXKdYe3w", "phone": "+16174644800", "coordinates": {"longitude": -71.0355283, "latitude": 42.3342442}, "categories": [{"alias": "indpak", "title": "Indian"}], "review_count": 85, "location": {"city": "Boston", "address1": "87 L St", "address3": "", "address2": "", "zip_code": "02127", "country": "US", "display_address": ["87 L St", "Boston, MA 02127"], "state": "MA"}, "price": "$$", "transactions": ["delivery", "pickup"], "display_phone": "(617) 464-4800"}, {"rating": 5.0, "is_closed": false, "distance": 1426.65737924, "name": "Homsy Jewelers", "id": "homsy-jewelers-boston", "image_url": "https://s3-media4.fl.yelpcdn.com/bphoto/k3Sdtc6qJnz5LSWneJ0X6A/o.jpg", "url": "https://www.yelp.com/biz/homsy-jewelers-boston?adjust_creative=gBcvfFpabk3CnzmXKdYe3w&utm_campaign=yelp_api_v3&utm_medium=api_v3_business_search&utm_source=gBcvfFpabk3CnzmXKdYe3w", "phone": "+16175231918", "coordinates": {"longitude": -71.0589007, "latitude": 42.3568636}, "categories": [{"alias": "jewelry", "title": "Jewelry"}, {"alias": "watches", "title": "Watches"}], "review_count": 95, "location": {"city": "Boston", "address1": "333 Washington St", "address3": "", "address2": "Ste 215", "zip_code": "02108", "country": "US", "display_address": ["333 Washington St", "Ste 215", "Boston, MA 02108"], "state": "MA"}, "price": "$$", "transactions": [], "display_phone": "(617) 523-1918"}, {"rating": 4.0, "is_closed": false, "distance": 1335.502189031, "name": "Chutney's", "id": "chutneys-boston-4", "image_url": "https://s3-media3.fl.yelpcdn.com/bphoto/pSedPBOTHWxYOU5gosP6gw/o.jpg", "url": "https://www.yelp.com/biz/chutneys-boston-4?adjust_creative=gBcvfFpabk3CnzmXKdYe3w&utm_campaign=yelp_api_v3&utm_medium=api_v3_business_search&utm_source=gBcvfFpabk3CnzmXKdYe3w", "phone": "+18572638887", "coordinates": {"longitude": -71.0872406626151, "latitude": 42.3457361251967}, "categories": [{"alias": "indpak", "title": "Indian"}, {"alias": "hotdogs", "title": "Fast Food"}, {"alias": "vegetarian", "title": "Vegetarian"}], "review_count": 59, "location": {"city": "Boston", "address1": "334 Massachusetts Ave", "address3": "", "address2": "", "zip_code": "02115", "country": "US", "display_address": ["334 Massachusetts Ave", "Boston, MA 02115"], "state": "MA"}, "price": "$", "transactions": ["pickup"], "display_phone": "(857) 263-8887"}, {"rating": 3.0, "is_closed": false, "distance": 1977.77586224, "name": "Barking Crab", "id": "barking-crab-boston-2", "image_url": "https://s3-media4.fl.yelpcdn.com/bphoto/wFjZejM_YQTslG_LMbVYpw/o.jpg", "url": "https://www.yelp.com/biz/barking-crab-boston-2?adjust_creative=gBcvfFpabk3CnzmXKdYe3w&utm_campaign=yelp_api_v3&utm_medium=api_v3_business_search&utm_source=gBcvfFpabk3CnzmXKdYe3w", "phone": "+16174262722", "coordinates": {"longitude": -71.048629, "latitude": 42.35393}, "categories": [{"alias": "seafood", "title": "Seafood"}], "review_count": 1557, "location": {"city": "Boston", "address1": "88 Sleeper St", "address3": "", "address2": "", "zip_code": "02210", "country": "US", "display_address": ["88 Sleeper St", "Boston, MA 02210"], "state": "MA"}, "price": "$$", "transactions": ["delivery"], "display_phone": "(617) 426-2722"}, {"rating": 3.0, "is_closed": false, "distance": 487.2641687378, "name": "Yamato II", "id": "yamato-ii-boston-3", "image_url": "https://s3-media3.fl.yelpcdn.com/bphoto/bNMayGsFBbr--_7oBVr2bg/o.jpg", "url": "https://www.yelp.com/biz/yamato-ii-boston-3?adjust_creative=gBcvfFpabk3CnzmXKdYe3w&utm_campaign=yelp_api_v3&utm_medium=api_v3_business_search&utm_source=gBcvfFpabk3CnzmXKdYe3w", "phone": "+18572504473", "coordinates": {"longitude": -71.0757835136241, "latitude": 42.3506620793193}, "categories": [{"alias": "japanese", "title": "Japanese"}, {"alias": "sushi", "title": "Sushi Bars"}], "review_count": 201, "location": {"city": "Boston", "address1": "545 Boylston St", "address3": "", "address2": "", "zip_code": "02116", "country": "US", "display_address": ["545 Boylston St", "Boston, MA 02116"], "state": "MA"}, "price": "$$", "transactions": [], "display_phone": "(857) 250-4473"}, {"rating": 4.0, "is_closed": false, "distance": 1091.322261186, "name": "Hidden Kitchen", "id": "hidden-kitchen-boston", "image_url": "https://s3-media3.fl.yelpcdn.com/bphoto/t3wQFjeO-XY9qgzbPQR4Hw/o.jpg", "url": "https://www.yelp.com/biz/hidden-kitchen-boston?adjust_creative=gBcvfFpabk3CnzmXKdYe3w&utm_campaign=yelp_api_v3&utm_medium=api_v3_business_search&utm_source=gBcvfFpabk3CnzmXKdYe3w", "phone": "+16174261544", "coordinates": {"longitude": -71.0668106, "latitude": 42.3384056}, "categories": [{"alias": "delis", "title": "Delis"}, {"alias": "salad", "title": "Salad"}, {"alias": "sandwiches", "title": "Sandwiches"}], "review_count": 24, "location": {"city": "Boston", "address1": "535 Albany St", "address3": "", "address2": "", "zip_code": "02118", "country": "US", "display_address": ["535 Albany St", "Boston, MA 02118"], "state": "MA"}, "price": "$", "transactions": [], "display_phone": "(617) 426-1544"}, {"rating": 3.5, "is_closed": false, "distance": 1527.3963178962, "name": "Potbelly Sandwich Shop", "id": "potbelly-sandwich-shop-boston", "image_url": "https://s3-media1.fl.yelpcdn.com/bphoto/khoA9US-HYWXHYq_CsoR3w/o.jpg", "url": "https://www.yelp.com/biz/potbelly-sandwich-shop-boston?adjust_creative=gBcvfFpabk3CnzmXKdYe3w&utm_campaign=yelp_api_v3&utm_medium=api_v3_business_search&utm_source=gBcvfFpabk3CnzmXKdYe3w", "phone": "+16179330140", "coordinates": {"longitude": -71.0581693377554, "latitude": 42.3576058382877}, "categories": [{"alias": "sandwiches", "title": "Sandwiches"}, {"alias": "hotdogs", "title": "Fast Food"}, {"alias": "delis", "title": "Delis"}], "review_count": 72, "location": {"city": "Boston", "address1": "263 Washington St", "address3": "", "address2": "", "zip_code": "02109", "country": "US", "display_address": ["263 Washington St", "Boston, MA 02109"], "state": "MA"}, "price": "$", "transactions": ["pickup", "delivery"], "display_phone": "(617) 933-0140"}, {"rating": 3.5, "is_closed": false, "distance": 762.075839621, "name": "Foodie's Urban Market", "id": "foodies-urban-market-boston", "image_url": "https://s3-media4.fl.yelpcdn.com/bphoto/iDTIewK35hQHv2xbO9OxsA/o.jpg", "url": "https://www.yelp.com/biz/foodies-urban-market-boston?adjust_creative=gBcvfFpabk3CnzmXKdYe3w&utm_campaign=yelp_api_v3&utm_medium=api_v3_business_search&utm_source=gBcvfFpabk3CnzmXKdYe3w", "phone": "+16172669911", "coordinates": {"longitude": -71.0706589564366, "latitude": 42.3410025682851}, "categories": [{"alias": "grocery", "title": "Grocery"}, {"alias": "delis", "title": "Delis"}], "review_count": 133, "location": {"city": "Boston", "address1": "1421 Washington St", "address3": "", "address2": "", "zip_code": "02118", "country": "US", "display_address": ["1421 Washington St", "Boston, MA 02118"], "state": "MA"}, "price": "$$$", "transactions": ["delivery"], "display_phone": "(617) 266-9911"}, {"rating": 3.5, "is_closed": false, "distance": 1641.243234292, "name": "Nebo Cucina & Enoteca", "id": "nebo-cucina-and-enoteca-boston", "image_url": "https://s3-media1.fl.yelpcdn.com/bphoto/bqzhFmWLLqxdtn5GoM7n6w/o.jpg", "url": "https://www.yelp.com/biz/nebo-cucina-and-enoteca-boston?adjust_creative=gBcvfFpabk3CnzmXKdYe3w&utm_campaign=yelp_api_v3&utm_medium=api_v3_business_search&utm_source=gBcvfFpabk3CnzmXKdYe3w", "phone": "+16177236326", "coordinates": {"longitude": -71.0529921895493, "latitude": 42.3538387463177}, "categories": [{"alias": "italian", "title": "Italian"}, {"alias": "gluten_free", "title": "Gluten-Free"}, {"alias": "pizza", "title": "Pizza"}], "review_count": 263, "location": {"city": "Boston", "address1": "520 Atlantic Ave", "address3": "", "address2": "", "zip_code": "02210", "country": "US", "display_address": ["520 Atlantic Ave", "Boston, MA 02210"], "state": "MA"}, "price": "$$$", "transactions": [], "display_phone": "(617) 723-6326"}, {"rating": 3.5, "is_closed": false, "distance": 415.3504245962, "name": "Freshii", "id": "freshii-boston-6", "image_url": "https://s3-media3.fl.yelpcdn.com/bphoto/0ZxbnVVO67Z2n8VISJ0xbA/o.jpg", "url": "https://www.yelp.com/biz/freshii-boston-6?adjust_creative=gBcvfFpabk3CnzmXKdYe3w&utm_campaign=yelp_api_v3&utm_medium=api_v3_business_search&utm_source=gBcvfFpabk3CnzmXKdYe3w", "phone": "+18572770200", "coordinates": {"longitude": -71.0762052877662, "latitude": 42.3485634224461}, "categories": [{"alias": "salad", "title": "Salad"}, {"alias": "juicebars", "title": "Juice Bars & Smoothies"}, {"alias": "vegetarian", "title": "Vegetarian"}], "review_count": 56, "location": {"city": "Boston", "address1": "185 Dartmouth St", "address3": "", "address2": null, "zip_code": "02116", "country": "US", "display_address": ["185 Dartmouth St", "Boston, MA 02116"], "state": "MA"}, "price": "$$", "transactions": ["pickup"], "display_phone": "(857) 277-0200"}, {"rating": 3.5, "is_closed": false, "distance": 1728.269260396, "name": "Sushiteq Sushi & Tequila Experience", "id": "sushiteq-sushi-and-tequila-experience-boston-2", "image_url": "https://s3-media1.fl.yelpcdn.com/bphoto/I8fDlMncBJYbypsicfWJzQ/o.jpg", "url": "https://www.yelp.com/biz/sushiteq-sushi-and-tequila-experience-boston-2?adjust_creative=gBcvfFpabk3CnzmXKdYe3w&utm_campaign=yelp_api_v3&utm_medium=api_v3_business_search&utm_source=gBcvfFpabk3CnzmXKdYe3w", "phone": "+16177471000", "coordinates": {"longitude": -71.051914, "latitude": 42.353961}, "categories": [{"alias": "sushi", "title": "Sushi Bars"}, {"alias": "japanese", "title": "Japanese"}, {"alias": "cocktailbars", "title": "Cocktail Bars"}], "review_count": 85, "location": {"city": "Boston", "address1": "510 Atlantic Ave", "address3": "InterContinental Boston", "address2": "", "zip_code": "02210", "country": "US", "display_address": ["510 Atlantic Ave", "InterContinental Boston", "Boston, MA 02210"], "state": "MA"}, "price": "$$$", "transactions": [], "display_phone": "(617) 747-1000"}, {"rating": 3.5, "is_closed": false, "distance": 3627.2463644799996, "name": "OTTO Pizza", "id": "otto-pizza-boston", "image_url": "https://s3-media3.fl.yelpcdn.com/bphoto/78IbGv5rBgxNH9h5GxdubA/o.jpg", "url": "https://www.yelp.com/biz/otto-pizza-boston?adjust_creative=gBcvfFpabk3CnzmXKdYe3w&utm_campaign=yelp_api_v3&utm_medium=api_v3_business_search&utm_source=gBcvfFpabk3CnzmXKdYe3w", "phone": "+16172320447", "coordinates": {"longitude": -71.11526, "latitude": 42.35044}, "categories": [{"alias": "pizza", "title": "Pizza"}], "review_count": 178, "location": {"city": "Boston", "address1": "888 Commonwealth Ave", "address3": "", "address2": "", "zip_code": "02215", "country": "US", "display_address": ["888 Commonwealth Ave", "Boston, MA 02215"], "state": "MA"}, "price": "$$", "transactions": ["delivery", "pickup"], "display_phone": "(617) 232-0447"}, {"rating": 3.5, "is_closed": false, "distance": 1402.4806506615998, "name": "Sat\u00e9 Grill-on-Wheels", "id": "sat\u00e9-grill-on-wheels-boston-2", "image_url": "https://s3-media2.fl.yelpcdn.com/bphoto/-BFWT1flxVH89OD2B-lOsw/o.jpg", "url": "https://www.yelp.com/biz/sat%C3%A9-grill-on-wheels-boston-2?adjust_creative=gBcvfFpabk3CnzmXKdYe3w&utm_campaign=yelp_api_v3&utm_medium=api_v3_business_search&utm_source=gBcvfFpabk3CnzmXKdYe3w", "phone": "+16718070706", "coordinates": {"longitude": -71.0556435585022, "latitude": 42.3529544298535}, "categories": [{"alias": "asianfusion", "title": "Asian Fusion"}, {"alias": "foodstands", "title": "Food Stands"}], "review_count": 74, "location": {"city": "Boston", "address1": "Dewey Sq", "address3": "", "address2": "", "zip_code": "02116", "country": "US", "display_address": ["Dewey Sq", "Boston, MA 02116"], "state": "MA"}, "price": "$", "transactions": [], "display_phone": "(671) 807-0706"}, {"rating": 4.0, "is_closed": false, "distance": 1766.023250258, "name": "Bon Me - Fort Point", "id": "bon-me-fort-point-boston", "image_url": "https://s3-media3.fl.yelpcdn.com/bphoto/uP0H8xYtp317NnggkKX8pQ/o.jpg", "url": "https://www.yelp.com/biz/bon-me-fort-point-boston?adjust_creative=gBcvfFpabk3CnzmXKdYe3w&utm_campaign=yelp_api_v3&utm_medium=api_v3_business_search&utm_source=gBcvfFpabk3CnzmXKdYe3w", "phone": "+18573504035", "coordinates": {"longitude": -71.0502777, "latitude": 42.3510895}, "categories": [{"alias": "asianfusion", "title": "Asian Fusion"}], "review_count": 40, "location": {"city": "Boston", "address1": "313 Congress St", "address3": "", "address2": "", "zip_code": "02210", "country": "US", "display_address": ["313 Congress St", "Boston, MA 02210"], "state": "MA"}, "price": "$", "transactions": [], "display_phone": "(857) 350-4035"}, {"rating": 3.0, "is_closed": false, "distance": 1962.987315112, "name": "Wagamama", "id": "wagamama-boston", "image_url": "https://s3-media1.fl.yelpcdn.com/bphoto/W5wkgnVn7nPmQCVEgoonDg/o.jpg", "url": "https://www.yelp.com/biz/wagamama-boston?adjust_creative=gBcvfFpabk3CnzmXKdYe3w&utm_campaign=yelp_api_v3&utm_medium=api_v3_business_search&utm_source=gBcvfFpabk3CnzmXKdYe3w", "phone": "+16177429242", "coordinates": {"longitude": -71.0541444965554, "latitude": 42.3601740515266}, "categories": [{"alias": "japanese", "title": "Japanese"}], "review_count": 517, "location": {"city": "Boston", "address1": "1 S Market St", "address3": "Quincy Market Bldg", "address2": "", "zip_code": "02109", "country": "US", "display_address": ["1 S Market St", "Quincy Market Bldg", "Boston, MA 02109"], "state": "MA"}, "price": "$$", "transactions": ["delivery", "pickup"], "display_phone": "(617) 742-9242"}, {"rating": 3.0, "is_closed": false, "distance": 833.1406730059999, "name": "Bar Boulud - Boston", "id": "bar-boulud-boston-boston", "image_url": "https://s3-media3.fl.yelpcdn.com/bphoto/_SLddMexSyerXz22Q2RGBg/o.jpg", "url": "https://www.yelp.com/biz/bar-boulud-boston-boston?adjust_creative=gBcvfFpabk3CnzmXKdYe3w&utm_campaign=yelp_api_v3&utm_medium=api_v3_business_search&utm_source=gBcvfFpabk3CnzmXKdYe3w", "phone": "+16175358800", "coordinates": {"longitude": -71.0813006, "latitude": 42.3487981}, "categories": [{"alias": "burgers", "title": "Burgers"}, {"alias": "french", "title": "French"}, {"alias": "wine_bars", "title": "Wine Bars"}], "review_count": 234, "location": {"city": "Boston", "address1": "776 Boylston St", "address3": "Mandarin Oriental Hotel", "address2": "", "zip_code": "02199", "country": "US", "display_address": ["776 Boylston St", "Mandarin Oriental Hotel", "Boston, MA 02199"], "state": "MA"}, "price": "$$$", "transactions": [], "display_phone": "(617) 535-8800"}, {"rating": 3.5, "is_closed": false, "distance": 1594.851594782, "name": "The Red Hat", "id": "the-red-hat-boston", "image_url": "https://s3-media4.fl.yelpcdn.com/bphoto/yS8stoGfrftxQzfMptUypQ/o.jpg", "url": "https://www.yelp.com/biz/the-red-hat-boston?adjust_creative=gBcvfFpabk3CnzmXKdYe3w&utm_campaign=yelp_api_v3&utm_medium=api_v3_business_search&utm_source=gBcvfFpabk3CnzmXKdYe3w", "phone": "+16175232175", "coordinates": {"longitude": -71.06318, "latitude": 42.36099}, "categories": [{"alias": "divebars", "title": "Dive Bars"}, {"alias": "tradamerican", "title": "American (Traditional)"}], "review_count": 199, "location": {"city": "Boston", "address1": "9 Bowdoin St", "address3": "", "address2": "", "zip_code": "02114", "country": "US", "display_address": ["9 Bowdoin St", "Boston, MA 02114"], "state": "MA"}, "price": "$$", "transactions": [], "display_phone": "(617) 523-2175"}, {"rating": 3.5, "is_closed": false, "distance": 1218.362273314, "name": "Trattoria Andiamo", "id": "trattoria-andiamo-boston", "image_url": "https://s3-media1.fl.yelpcdn.com/bphoto/87Pg9PuCEGr2WEA_6aOlMQ/o.jpg", "url": "https://www.yelp.com/biz/trattoria-andiamo-boston?adjust_creative=gBcvfFpabk3CnzmXKdYe3w&utm_campaign=yelp_api_v3&utm_medium=api_v3_business_search&utm_source=gBcvfFpabk3CnzmXKdYe3w", "phone": "+16176953775", "coordinates": {"longitude": -71.0571382, "latitude": 42.3510478}, "categories": [{"alias": "delis", "title": "Delis"}, {"alias": "sandwiches", "title": "Sandwiches"}, {"alias": "salad", "title": "Salad"}], "review_count": 54, "location": {"city": "Boston", "address1": "104 South St", "address3": "", "address2": "", "zip_code": "02111", "country": "US", "display_address": ["104 South St", "Boston, MA 02111"], "state": "MA"}, "price": "$", "transactions": ["delivery"], "display_phone": "(617) 695-3775"}, {"rating": 4.0, "is_closed": false, "distance": 4984.130003349999, "name": "Seoul Soulongtang", "id": "seoul-soulongtang-boston", "image_url": "https://s3-media3.fl.yelpcdn.com/bphoto/0ZuWQ3hWa3x9LF3Ut3PQIg/o.jpg", "url": "https://www.yelp.com/biz/seoul-soulongtang-boston?adjust_creative=gBcvfFpabk3CnzmXKdYe3w&utm_campaign=yelp_api_v3&utm_medium=api_v3_business_search&utm_source=gBcvfFpabk3CnzmXKdYe3w", "phone": "+16175056771", "coordinates": {"longitude": -71.1318040723493, "latitude": 42.350251529608}, "categories": [{"alias": "korean", "title": "Korean"}, {"alias": "soup", "title": "Soup"}], "review_count": 272, "location": {"city": "Boston", "address1": "1245 Commonwealth Ave", "address3": "", "address2": "", "zip_code": "02134", "country": "US", "display_address": ["1245 Commonwealth Ave", "Boston, MA 02134"], "state": "MA"}, "price": "$$", "transactions": [], "display_phone": "(617) 505-6771"}, {"rating": 3.5, "is_closed": false, "distance": 328.81561734039997, "name": "B Good", "id": "b-good-boston", "image_url": "https://s3-media1.fl.yelpcdn.com/bphoto/_-ZgEy81jjzOcoyYOiRzzg/o.jpg", "url": "https://www.yelp.com/biz/b-good-boston?adjust_creative=gBcvfFpabk3CnzmXKdYe3w&utm_campaign=yelp_api_v3&utm_medium=api_v3_business_search&utm_source=gBcvfFpabk3CnzmXKdYe3w", "phone": "+16174245252", "coordinates": {"longitude": -71.07542, "latitude": 42.34683}, "categories": [{"alias": "tradamerican", "title": "American (Traditional)"}, {"alias": "burgers", "title": "Burgers"}, {"alias": "salad", "title": "Salad"}], "review_count": 272, "location": {"city": "Boston", "address1": "131 Dartmouth St", "address3": "", "address2": "", "zip_code": "02116", "country": "US", "display_address": ["131 Dartmouth St", "Boston, MA 02116"], "state": "MA"}, "price": "$", "transactions": ["delivery"], "display_phone": "(617) 424-5252"}, {"rating": 3.5, "is_closed": false, "distance": 2055.91977995, "name": "Machine", "id": "machine-boston", "image_url": "https://s3-media1.fl.yelpcdn.com/bphoto/9sqHL3T9kptj2igMspu6jA/o.jpg", "url": "https://www.yelp.com/biz/machine-boston?adjust_creative=gBcvfFpabk3CnzmXKdYe3w&utm_campaign=yelp_api_v3&utm_medium=api_v3_business_search&utm_source=gBcvfFpabk3CnzmXKdYe3w", "phone": "+16175361950", "coordinates": {"longitude": -71.095988695131, "latitude": 42.3449890412098}, "categories": [{"alias": "gaybars", "title": "Gay Bars"}], "review_count": 118, "location": {"city": "Boston", "address1": "1256 Boylston St", "address3": "", "address2": "", "zip_code": "02215", "country": "US", "display_address": ["1256 Boylston St", "Boston, MA 02215"], "state": "MA"}, "price": "$$", "transactions": [], "display_phone": "(617) 536-1950"}, {"rating": 4.5, "is_closed": false, "distance": 2145.4220975119997, "name": "South Boston Lithuanian Club", "id": "south-boston-lithuanian-club-boston", "image_url": "https://s3-media1.fl.yelpcdn.com/bphoto/nVtGnKG4fNDJcvUDWHS1hw/o.jpg", "url": "https://www.yelp.com/biz/south-boston-lithuanian-club-boston?adjust_creative=gBcvfFpabk3CnzmXKdYe3w&utm_campaign=yelp_api_v3&utm_medium=api_v3_business_search&utm_source=gBcvfFpabk3CnzmXKdYe3w", "phone": "+16172689058", "coordinates": {"longitude": -71.04891, "latitude": 42.3379}, "categories": [{"alias": "polish", "title": "Polish"}, {"alias": "ukrainian", "title": "Ukrainian"}, {"alias": "importedfood", "title": "Imported Food"}], "review_count": 14, "location": {"city": "Boston", "address1": "368 W Broadway", "address3": "", "address2": "", "zip_code": "02127", "country": "US", "display_address": ["368 W Broadway", "Boston, MA 02127"], "state": "MA"}, "price": "$", "transactions": [], "display_phone": "(617) 268-9058"}, {"rating": 3.5, "is_closed": false, "distance": 1909.618382032, "name": "The Oyster Bar", "id": "the-oyster-bar-boston", "image_url": "https://s3-media1.fl.yelpcdn.com/bphoto/MzGEs9z1asCP7abYKn8tMQ/o.jpg", "url": "https://www.yelp.com/biz/the-oyster-bar-boston?adjust_creative=gBcvfFpabk3CnzmXKdYe3w&utm_campaign=yelp_api_v3&utm_medium=api_v3_business_search&utm_source=gBcvfFpabk3CnzmXKdYe3w", "phone": "+16177421530", "coordinates": {"longitude": -71.0550201, "latitude": 42.3601417}, "categories": [{"alias": "seafood", "title": "Seafood"}, {"alias": "soup", "title": "Soup"}, {"alias": "bars", "title": "Bars"}], "review_count": 56, "location": {"city": "Boston", "address1": "1 Faneuil Hall Sq", "address3": "", "address2": "Ste 200", "zip_code": "02109", "country": "US", "display_address": ["1 Faneuil Hall Sq", "Ste 200", "Boston, MA 02109"], "state": "MA"}, "price": "$$", "transactions": [], "display_phone": "(617) 742-1530"}, {"rating": 3.0, "is_closed": false, "distance": 1187.51428326, "name": "Kings Boston - Back Bay", "id": "kings-boston-back-bay-boston", "image_url": "https://s3-media4.fl.yelpcdn.com/bphoto/NtIERSaNzBjqGDwrNdREOQ/o.jpg", "url": "https://www.yelp.com/biz/kings-boston-back-bay-boston?adjust_creative=gBcvfFpabk3CnzmXKdYe3w&utm_campaign=yelp_api_v3&utm_medium=api_v3_business_search&utm_source=gBcvfFpabk3CnzmXKdYe3w", "phone": "+16172662695", "coordinates": {"longitude": -71.0856552124023, "latitude": 42.3470687866211}, "categories": [{"alias": "bowling", "title": "Bowling"}, {"alias": "sportsbars", "title": "Sports Bars"}, {"alias": "tradamerican", "title": "American (Traditional)"}], "review_count": 388, "location": {"city": "Boston", "address1": "50 Dalton St", "address3": "", "address2": "", "zip_code": "02115", "country": "US", "display_address": ["50 Dalton St", "Boston, MA 02115"], "state": "MA"}, "price": "$$", "transactions": [], "display_phone": "(617) 266-2695"}, {"rating": 5.0, "is_closed": false, "distance": 646.2450415269999, "name": "Boston Massage Studio", "id": "boston-massage-studio-boston", "image_url": "https://s3-media4.fl.yelpcdn.com/bphoto/d9noIKHnAbGNc0fuJMlxpw/o.jpg", "url": "https://www.yelp.com/biz/boston-massage-studio-boston?adjust_creative=gBcvfFpabk3CnzmXKdYe3w&utm_campaign=yelp_api_v3&utm_medium=api_v3_business_search&utm_source=gBcvfFpabk3CnzmXKdYe3w", "phone": "+15085964563", "coordinates": {"longitude": -71.07849, "latitude": 42.35007}, "categories": [{"alias": "massage", "title": "Massage"}, {"alias": "massage_therapy", "title": "Massage Therapy"}], "review_count": 51, "location": {"city": "Boston", "address1": "651 Boylston St", "address3": "", "address2": "Ste 2", "zip_code": "02116", "country": "US", "display_address": ["651 Boylston St", "Ste 2", "Boston, MA 02116"], "state": "MA"}, "price": "$$", "transactions": [], "display_phone": "(508) 596-4563"}, {"rating": 4.5, "is_closed": false, "distance": 6774.768913578, "name": "New Saigon", "id": "new-saigon-boston", "image_url": "https://s3-media3.fl.yelpcdn.com/bphoto/HJYhU1nB8SQ4cxipEChsxA/o.jpg", "url": "https://www.yelp.com/biz/new-saigon-boston?adjust_creative=gBcvfFpabk3CnzmXKdYe3w&utm_campaign=yelp_api_v3&utm_medium=api_v3_business_search&utm_source=gBcvfFpabk3CnzmXKdYe3w", "phone": "+16175616500", "coordinates": {"longitude": -71.0073229, "latitude": 42.3863369}, "categories": [{"alias": "vietnamese", "title": "Vietnamese"}], "review_count": 85, "location": {"city": "Boston", "address1": "985 Bennington St", "address3": "", "address2": "", "zip_code": "02128", "country": "US", "display_address": ["985 Bennington St", "Boston, MA 02128"], "state": "MA"}, "price": "$", "transactions": [], "display_phone": "(617) 561-6500"}, {"rating": 3.5, "is_closed": false, "distance": 608.3580879942, "name": "Minibar", "id": "minibar-boston", "image_url": "https://s3-media3.fl.yelpcdn.com/bphoto/m_doIWwamlw4usoa3XUiAw/o.jpg", "url": "https://www.yelp.com/biz/minibar-boston?adjust_creative=gBcvfFpabk3CnzmXKdYe3w&utm_campaign=yelp_api_v3&utm_medium=api_v3_business_search&utm_source=gBcvfFpabk3CnzmXKdYe3w", "phone": "+16174248500", "coordinates": {"longitude": -71.07862, "latitude": 42.34836}, "categories": [{"alias": "lounges", "title": "Lounges"}], "review_count": 133, "location": {"city": "Boston", "address1": "51 Huntington Ave", "address3": "", "address2": "", "zip_code": "02116", "country": "US", "display_address": ["51 Huntington Ave", "Boston, MA 02116"], "state": "MA"}, "price": "$$$", "transactions": [], "display_phone": "(617) 424-8500"}, {"rating": 4.0, "is_closed": false, "distance": 869.9537622369999, "name": "Bao Bao Bakery & Cafe", "id": "bao-bao-bakery-and-cafe-boston-3", "image_url": "https://s3-media1.fl.yelpcdn.com/bphoto/CHhOag9sLaRfDKOKaCGYDg/o.jpg", "url": "https://www.yelp.com/biz/bao-bao-bakery-and-cafe-boston-3?adjust_creative=gBcvfFpabk3CnzmXKdYe3w&utm_campaign=yelp_api_v3&utm_medium=api_v3_business_search&utm_source=gBcvfFpabk3CnzmXKdYe3w", "phone": "+16179888191", "coordinates": {"longitude": -71.0616, "latitude": 42.35107}, "categories": [{"alias": "bakeries", "title": "Bakeries"}, {"alias": "cafes", "title": "Cafes"}], "review_count": 20, "location": {"city": "Boston", "address1": "77 Harrison Ave", "address3": null, "address2": "", "zip_code": "02111", "country": "US", "display_address": ["77 Harrison Ave", "Boston, MA 02111"], "state": "MA"}, "price": "$", "transactions": [], "display_phone": "(617) 988-8191"}, {"rating": 4.0, "is_closed": false, "distance": 3612.633074478, "name": "La Sultana Bakery", "id": "la-sultana-bakery-boston", "image_url": "https://s3-media4.fl.yelpcdn.com/bphoto/MWg6Oc2JpPjCLzvSbqeJqQ/o.jpg", "url": "https://www.yelp.com/biz/la-sultana-bakery-boston?adjust_creative=gBcvfFpabk3CnzmXKdYe3w&utm_campaign=yelp_api_v3&utm_medium=api_v3_business_search&utm_source=gBcvfFpabk3CnzmXKdYe3w", "phone": "+16175689999", "coordinates": {"longitude": -71.03923, "latitude": 42.3701}, "categories": [{"alias": "bakeries", "title": "Bakeries"}, {"alias": "colombian", "title": "Colombian"}], "review_count": 34, "location": {"city": "Boston", "address1": "40 Maverick Sq", "address3": "", "address2": "", "zip_code": "02128", "country": "US", "display_address": ["40 Maverick Sq", "Boston, MA 02128"], "state": "MA"}, "price": "$", "transactions": [], "display_phone": "(617) 568-9999"}, {"rating": 4.5, "is_closed": false, "distance": 6858.0334293, "name": "Dates & Olives", "id": "dates-and-olives-boston-2", "image_url": "https://s3-media3.fl.yelpcdn.com/bphoto/2ZK4WcWSxn3Cu8nUNsO2KA/o.jpg", "url": "https://www.yelp.com/biz/dates-and-olives-boston-2?adjust_creative=gBcvfFpabk3CnzmXKdYe3w&utm_campaign=yelp_api_v3&utm_medium=api_v3_business_search&utm_source=gBcvfFpabk3CnzmXKdYe3w", "phone": "+16175150010", "coordinates": {"longitude": -71.1541985, "latitude": 42.3417807}, "categories": [{"alias": "mediterranean", "title": "Mediterranean"}], "review_count": 106, "location": {"city": "Boston", "address1": "160 Chestnut Hill Ave", "address3": "", "address2": "", "zip_code": "02135", "country": "US", "display_address": ["160 Chestnut Hill Ave", "Boston, MA 02135"], "state": "MA"}, "price": "$", "transactions": ["delivery"], "display_phone": "(617) 515-0010"}, {"rating": 3.5, "is_closed": false, "distance": 2107.764828984, "name": "Mother Anna's Restaurant", "id": "mother-annas-restaurant-boston", "image_url": "https://s3-media2.fl.yelpcdn.com/bphoto/Kc2XZcOo6UQNMAgUeZ8xmw/o.jpg", "url": "https://www.yelp.com/biz/mother-annas-restaurant-boston?adjust_creative=gBcvfFpabk3CnzmXKdYe3w&utm_campaign=yelp_api_v3&utm_medium=api_v3_business_search&utm_source=gBcvfFpabk3CnzmXKdYe3w", "phone": "+16175238496", "coordinates": {"longitude": -71.0556381940842, "latitude": 42.3626207560301}, "categories": [{"alias": "italian", "title": "Italian"}], "review_count": 234, "location": {"city": "Boston", "address1": "211 Hanover St", "address3": "", "address2": "", "zip_code": "02113", "country": "US", "display_address": ["211 Hanover St", "Boston, MA 02113"], "state": "MA"}, "price": "$$", "transactions": [], "display_phone": "(617) 523-8496"}, {"rating": 3.0, "is_closed": false, "distance": 121.52346175843999, "name": "Club Cafe", "id": "club-cafe-boston", "image_url": "https://s3-media3.fl.yelpcdn.com/bphoto/2a6wdHX18rMsbdco6Tt3VA/o.jpg", "url": "https://www.yelp.com/biz/club-cafe-boston?adjust_creative=gBcvfFpabk3CnzmXKdYe3w&utm_campaign=yelp_api_v3&utm_medium=api_v3_business_search&utm_source=gBcvfFpabk3CnzmXKdYe3w", "phone": "+16175360966", "coordinates": {"longitude": -71.0724468, "latitude": 42.3482771}, "categories": [{"alias": "pubs", "title": "Pubs"}, {"alias": "italian", "title": "Italian"}, {"alias": "danceclubs", "title": "Dance Clubs"}], "review_count": 285, "location": {"city": "Boston", "address1": "209 Columbus Ave", "address3": "", "address2": "", "zip_code": "02116", "country": "US", "display_address": ["209 Columbus Ave", "Boston, MA 02116"], "state": "MA"}, "price": "$$", "transactions": [], "display_phone": "(617) 536-0966"}, {"rating": 3.5, "is_closed": false, "distance": 2354.76536658, "name": "Massimino's", "id": "massiminos-boston", "image_url": "https://s3-media1.fl.yelpcdn.com/bphoto/7_VFJkbdf_9tx_86x9rivw/o.jpg", "url": "https://www.yelp.com/biz/massiminos-boston?adjust_creative=gBcvfFpabk3CnzmXKdYe3w&utm_campaign=yelp_api_v3&utm_medium=api_v3_business_search&utm_source=gBcvfFpabk3CnzmXKdYe3w", "phone": "+16175235959", "coordinates": {"longitude": -71.05786, "latitude": 42.36654}, "categories": [{"alias": "italian", "title": "Italian"}], "review_count": 235, "location": {"city": "Boston", "address1": "207 Endicott St", "address3": "", "address2": "", "zip_code": "02113", "country": "US", "display_address": ["207 Endicott St", "Boston, MA 02113"], "state": "MA"}, "price": "$$", "transactions": ["delivery"], "display_phone": "(617) 523-5959"}, {"rating": 3.0, "is_closed": false, "distance": 861.4953608782, "name": "wagamama", "id": "wagamama-boston-2", "image_url": "https://s3-media4.fl.yelpcdn.com/bphoto/9PtucYFIDVSSk22s4TLAzQ/o.jpg", "url": "https://www.yelp.com/biz/wagamama-boston-2?adjust_creative=gBcvfFpabk3CnzmXKdYe3w&utm_campaign=yelp_api_v3&utm_medium=api_v3_business_search&utm_source=gBcvfFpabk3CnzmXKdYe3w", "phone": "+16177782344", "coordinates": {"longitude": -71.081713031144, "latitude": 42.3474241039426}, "categories": [{"alias": "asianfusion", "title": "Asian Fusion"}, {"alias": "japanese", "title": "Japanese"}], "review_count": 424, "location": {"city": "Boston", "address1": "800 Boylston St", "address3": "", "address2": "", "zip_code": "02199", "country": "US", "display_address": ["800 Boylston St", "Boston, MA 02199"], "state": "MA"}, "price": "$$", "transactions": ["delivery"], "display_phone": "(617) 778-2344"}, {"rating": 3.0, "is_closed": false, "distance": 980.360199394, "name": "Salvatores Theater District", "id": "salvatores-theater-district-boston", "image_url": "https://s3-media1.fl.yelpcdn.com/bphoto/52fBHT9kQWCBg2y0p3HRJA/o.jpg", "url": "https://www.yelp.com/biz/salvatores-theater-district-boston?adjust_creative=gBcvfFpabk3CnzmXKdYe3w&utm_campaign=yelp_api_v3&utm_medium=api_v3_business_search&utm_source=gBcvfFpabk3CnzmXKdYe3w", "phone": "+16175425555", "coordinates": {"longitude": -71.0623251, "latitude": 42.3536994}, "categories": [{"alias": "italian", "title": "Italian"}], "review_count": 145, "location": {"city": "Boston", "address1": "545 Washington St", "address3": "", "address2": "", "zip_code": "02111", "country": "US", "display_address": ["545 Washington St", "Boston, MA 02111"], "state": "MA"}, "price": "$$", "transactions": ["pickup"], "display_phone": "(617) 542-5555"}, {"rating": 3.5, "is_closed": false, "distance": 1594.000092988, "name": "Conor Larkins Grill & Tap", "id": "conor-larkins-grill-and-tap-boston", "image_url": "https://s3-media4.fl.yelpcdn.com/bphoto/QpXOhkjFV43CEkbjW4L9eA/o.jpg", "url": "https://www.yelp.com/biz/conor-larkins-grill-and-tap-boston?adjust_creative=gBcvfFpabk3CnzmXKdYe3w&utm_campaign=yelp_api_v3&utm_medium=api_v3_business_search&utm_source=gBcvfFpabk3CnzmXKdYe3w", "phone": "+16178670084", "coordinates": {"longitude": -71.0881103, "latitude": 42.3408864}, "categories": [{"alias": "pubs", "title": "Pubs"}, {"alias": "tradamerican", "title": "American (Traditional)"}, {"alias": "irish", "title": "Irish"}], "review_count": 95, "location": {"city": "Boston", "address1": "329 Huntington Ave", "address3": "", "address2": "", "zip_code": "02115", "country": "US", "display_address": ["329 Huntington Ave", "Boston, MA 02115"], "state": "MA"}, "price": "$$", "transactions": ["delivery", "pickup"], "display_phone": "(617) 867-0084"}, {"rating": 3.5, "is_closed": false, "distance": 1197.9183927722, "name": "Black Seed Cafe & Grill", "id": "black-seed-cafe-and-grill-boston-2", "image_url": "https://s3-media2.fl.yelpcdn.com/bphoto/UyuY4xR0x51IvzpwQOyx4A/o.jpg", "url": "https://www.yelp.com/biz/black-seed-cafe-and-grill-boston-2?adjust_creative=gBcvfFpabk3CnzmXKdYe3w&utm_campaign=yelp_api_v3&utm_medium=api_v3_business_search&utm_source=gBcvfFpabk3CnzmXKdYe3w", "phone": "+16173380024", "coordinates": {"longitude": -71.062278, "latitude": 42.35634}, "categories": [{"alias": "mideastern", "title": "Middle Eastern"}, {"alias": "halal", "title": "Halal"}, {"alias": "falafel", "title": "Falafel"}], "review_count": 185, "location": {"city": "Boston", "address1": "131 Tremont St", "address3": "", "address2": "", "zip_code": "02111", "country": "US", "display_address": ["131 Tremont St", "Boston, MA 02111"], "state": "MA"}, "price": "$", "transactions": ["delivery", "pickup"], "display_phone": "(617) 338-0024"}, {"rating": 4.5, "is_closed": false, "distance": 2366.3510052399997, "name": "Long Wharf", "id": "long-wharf-boston", "image_url": "https://s3-media3.fl.yelpcdn.com/bphoto/8iBlk3_xFskXH4P7tGqUuw/o.jpg", "url": "https://www.yelp.com/biz/long-wharf-boston?adjust_creative=gBcvfFpabk3CnzmXKdYe3w&utm_campaign=yelp_api_v3&utm_medium=api_v3_business_search&utm_source=gBcvfFpabk3CnzmXKdYe3w", "phone": "", "coordinates": {"longitude": -71.0478758811951, "latitude": 42.3602801252228}, "categories": [{"alias": "landmarks", "title": "Landmarks & Historical Buildings"}], "review_count": 12, "location": {"city": "Boston", "address1": "Long Wharf", "address3": "", "address2": "", "zip_code": "02110", "country": "US", "display_address": ["Long Wharf", "Boston, MA 02110"], "state": "MA"}, "transactions": [], "display_phone": ""}, {"rating": 3.5, "is_closed": false, "distance": 1697.979389454, "name": "Boston & Maine Fish Co", "id": "boston-and-maine-fish-co-boston-2", "image_url": "https://s3-media4.fl.yelpcdn.com/bphoto/OE3hksc7E_qYjDVMZZwYbQ/o.jpg", "url": "https://www.yelp.com/biz/boston-and-maine-fish-co-boston-2?adjust_creative=gBcvfFpabk3CnzmXKdYe3w&utm_campaign=yelp_api_v3&utm_medium=api_v3_business_search&utm_source=gBcvfFpabk3CnzmXKdYe3w", "phone": "+16177234111", "coordinates": {"longitude": -71.0588801, "latitude": 42.3600825}, "categories": [{"alias": "seafood", "title": "Seafood"}], "review_count": 120, "location": {"city": "Boston", "address1": "200 Faneuil Hall Marketplace", "address3": "", "address2": "", "zip_code": "02109", "country": "US", "display_address": ["200 Faneuil Hall Marketplace", "Boston, MA 02109"], "state": "MA"}, "price": "$$", "transactions": [], "display_phone": "(617) 723-4111"}, {"rating": 3.0, "is_closed": false, "distance": 852.8654521555999, "name": "Pho Hoa Noodle Soup", "id": "pho-hoa-noodle-soup-boston-2", "image_url": "https://s3-media1.fl.yelpcdn.com/bphoto/TT8Os_5hfUMocLOLQkbFdQ/o.jpg", "url": "https://www.yelp.com/biz/pho-hoa-noodle-soup-boston-2?adjust_creative=gBcvfFpabk3CnzmXKdYe3w&utm_campaign=yelp_api_v3&utm_medium=api_v3_business_search&utm_source=gBcvfFpabk3CnzmXKdYe3w", "phone": "+16174233934", "coordinates": {"longitude": -71.0618885, "latitude": 42.3513085}, "categories": [{"alias": "vietnamese", "title": "Vietnamese"}, {"alias": "noodles", "title": "Noodles"}], "review_count": 273, "location": {"city": "Boston", "address1": "17 Beach St", "address3": "", "address2": "", "zip_code": "02111", "country": "US", "display_address": ["17 Beach St", "Boston, MA 02111"], "state": "MA"}, "price": "$", "transactions": [], "display_phone": "(617) 423-3934"}, {"rating": 3.5, "is_closed": false, "distance": 715.5577220803999, "name": "Buttermilk & Bourbon", "id": "buttermilk-and-bourbon-boston-2", "image_url": "https://s3-media1.fl.yelpcdn.com/bphoto/QiCvepY9RbG8RzkeHPdQEg/o.jpg", "url": "https://www.yelp.com/biz/buttermilk-and-bourbon-boston-2?adjust_creative=gBcvfFpabk3CnzmXKdYe3w&utm_campaign=yelp_api_v3&utm_medium=api_v3_business_search&utm_source=gBcvfFpabk3CnzmXKdYe3w", "phone": "+16172661122", "coordinates": {"longitude": -71.0786514282227, "latitude": 42.3512840270996}, "categories": [{"alias": "southern", "title": "Southern"}, {"alias": "cocktailbars", "title": "Cocktail Bars"}, {"alias": "tapas", "title": "Tapas Bars"}], "review_count": 48, "location": {"city": "Boston", "address1": "160 Commonwealth Ave", "address3": null, "address2": "", "zip_code": "02116", "country": "US", "display_address": ["160 Commonwealth Ave", "Boston, MA 02116"], "state": "MA"}, "price": "$$$", "transactions": [], "display_phone": "(617) 266-1122"}, {"rating": 3.5, "is_closed": false, "distance": 2411.9297671159998, "name": "Billy Tse Restaurant", "id": "billy-tse-restaurant-boston", "image_url": "https://s3-media3.fl.yelpcdn.com/bphoto/rlNhN4XittKs5zS83qxOdA/o.jpg", "url": "https://www.yelp.com/biz/billy-tse-restaurant-boston?adjust_creative=gBcvfFpabk3CnzmXKdYe3w&utm_campaign=yelp_api_v3&utm_medium=api_v3_business_search&utm_source=gBcvfFpabk3CnzmXKdYe3w", "phone": "+16172279990", "coordinates": {"longitude": -71.0514761, "latitude": 42.3637294}, "categories": [{"alias": "japanese", "title": "Japanese"}, {"alias": "sushi", "title": "Sushi Bars"}, {"alias": "chinese", "title": "Chinese"}], "review_count": 148, "location": {"city": "Boston", "address1": "240 Commercial St", "address3": "", "address2": "", "zip_code": "02109", "country": "US", "display_address": ["240 Commercial St", "Boston, MA 02109"], "state": "MA"}, "price": "$$", "transactions": [], "display_phone": "(617) 227-9990"}, {"rating": 3.0, "is_closed": false, "distance": 1482.191518356, "name": "Scholars American Bistro & Cocktail Lounge", "id": "scholars-american-bistro-and-cocktail-lounge-boston", "image_url": "https://s3-media1.fl.yelpcdn.com/bphoto/yxlSQXDXMWbtOdKuxGvsJw/o.jpg", "url": "https://www.yelp.com/biz/scholars-american-bistro-and-cocktail-lounge-boston?adjust_creative=gBcvfFpabk3CnzmXKdYe3w&utm_campaign=yelp_api_v3&utm_medium=api_v3_business_search&utm_source=gBcvfFpabk3CnzmXKdYe3w", "phone": "+16172480025", "coordinates": {"longitude": -71.059207250754, "latitude": 42.357769319572}, "categories": [{"alias": "newamerican", "title": "American (New)"}, {"alias": "poolhalls", "title": "Pool Halls"}, {"alias": "cocktailbars", "title": "Cocktail Bars"}], "review_count": 293, "location": {"city": "Boston", "address1": "25 School St", "address3": "", "address2": "", "zip_code": "02108", "country": "US", "display_address": ["25 School St", "Boston, MA 02108"], "state": "MA"}, "price": "$$", "transactions": [], "display_phone": "(617) 248-0025"}, {"rating": 4.0, "is_closed": false, "distance": 1876.6320619199998, "name": "Broadway's Pastry & Coffee Shop", "id": "broadways-pastry-and-coffee-shop-boston", "image_url": "https://s3-media4.fl.yelpcdn.com/bphoto/1RNPeN34zhVYky3Rgo9How/o.jpg", "url": "https://www.yelp.com/biz/broadways-pastry-and-coffee-shop-boston?adjust_creative=gBcvfFpabk3CnzmXKdYe3w&utm_campaign=yelp_api_v3&utm_medium=api_v3_business_search&utm_source=gBcvfFpabk3CnzmXKdYe3w", "phone": "+16172682253", "coordinates": {"longitude": -71.051376, "latitude": 42.33945}, "categories": [{"alias": "desserts", "title": "Desserts"}, {"alias": "cafes", "title": "Cafes"}, {"alias": "coffee", "title": "Coffee & Tea"}], "review_count": 25, "location": {"city": "Boston", "address1": "258 W Broadway", "address3": "", "address2": null, "zip_code": "02127", "country": "US", "display_address": ["258 W Broadway", "Boston, MA 02127"], "state": "MA"}, "price": "$", "transactions": ["delivery", "pickup"], "display_phone": "(617) 268-2253"}, {"rating": 3.5, "is_closed": false, "distance": 1479.3610594442, "name": "Felcaro Pizzeria", "id": "felcaro-pizzeria-boston", "image_url": "https://s3-media1.fl.yelpcdn.com/bphoto/4g-gKHRie7UFvs1ndR1fVA/o.jpg", "url": "https://www.yelp.com/biz/felcaro-pizzeria-boston?adjust_creative=gBcvfFpabk3CnzmXKdYe3w&utm_campaign=yelp_api_v3&utm_medium=api_v3_business_search&utm_source=gBcvfFpabk3CnzmXKdYe3w", "phone": "+16177420011", "coordinates": {"longitude": -71.06801, "latitude": 42.36092}, "categories": [{"alias": "pizza", "title": "Pizza"}], "review_count": 115, "location": {"city": "Boston", "address1": "280 Cambridge St", "address3": "", "address2": "", "zip_code": "02114", "country": "US", "display_address": ["280 Cambridge St", "Boston, MA 02114"], "state": "MA"}, "price": "$", "transactions": ["delivery", "pickup"], "display_phone": "(617) 742-0011"}, {"rating": 3.0, "is_closed": false, "distance": 1601.89599783, "name": "Clink", "id": "clink-boston", "image_url": "https://s3-media4.fl.yelpcdn.com/bphoto/Fw44zI3tBXm8WAnQwMMlOg/o.jpg", "url": "https://www.yelp.com/biz/clink-boston?adjust_creative=gBcvfFpabk3CnzmXKdYe3w&utm_campaign=yelp_api_v3&utm_medium=api_v3_business_search&utm_source=gBcvfFpabk3CnzmXKdYe3w", "phone": "+16172244004", "coordinates": {"longitude": -71.070537, "latitude": 42.362238}, "categories": [{"alias": "newamerican", "title": "American (New)"}, {"alias": "lounges", "title": "Lounges"}], "review_count": 338, "location": {"city": "Boston", "address1": "215 Charles St", "address3": "The Liberty Hotel", "address2": "", "zip_code": "02114", "country": "US", "display_address": ["215 Charles St", "The Liberty Hotel", "Boston, MA 02114"], "state": "MA"}, "price": "$$$", "transactions": [], "display_phone": "(617) 224-4004"}, {"rating": 3.5, "is_closed": false, "distance": 2428.497439614, "name": "Spirit of Boston", "id": "spirit-of-boston-boston", "image_url": "https://s3-media2.fl.yelpcdn.com/bphoto/_Y7ta6bFg04Y4SyXLNZ0Iw/o.jpg", "url": "https://www.yelp.com/biz/spirit-of-boston-boston?adjust_creative=gBcvfFpabk3CnzmXKdYe3w&utm_campaign=yelp_api_v3&utm_medium=api_v3_business_search&utm_source=gBcvfFpabk3CnzmXKdYe3w", "phone": "+18663102469", "coordinates": {"longitude": -71.041844, "latitude": 42.350079}, "categories": [{"alias": "boatcharters", "title": "Boat Charters"}, {"alias": "restaurants", "title": "Restaurants"}, {"alias": "venues", "title": "Venues & Event Spaces"}], "review_count": 87, "location": {"city": "Boston", "address1": "200 Seaport Blvd", "address3": "", "address2": "Ste 75", "zip_code": "02210", "country": "US", "display_address": ["200 Seaport Blvd", "Ste 75", "Boston, MA 02210"], "state": "MA"}, "price": "$$$$", "transactions": [], "display_phone": "(866) 310-2469"}, {"rating": 3.5, "is_closed": false, "distance": 2633.7748721059997, "name": "Rocco's Cucina & Bar", "id": "roccos-cucina-and-bar-boston-6", "image_url": "https://s3-media2.fl.yelpcdn.com/bphoto/0xCDYbt7o4Dz5n1xhPf3Ew/o.jpg", "url": "https://www.yelp.com/biz/roccos-cucina-and-bar-boston-6?adjust_creative=gBcvfFpabk3CnzmXKdYe3w&utm_campaign=yelp_api_v3&utm_medium=api_v3_business_search&utm_source=gBcvfFpabk3CnzmXKdYe3w", "phone": "+16175234055", "coordinates": {"longitude": -71.053254, "latitude": 42.3674477}, "categories": [{"alias": "sportsbars", "title": "Sports Bars"}, {"alias": "italian", "title": "Italian"}, {"alias": "burgers", "title": "Burgers"}], "review_count": 102, "location": {"city": "Boston", "address1": "450 Commercial St", "address3": "", "address2": null, "zip_code": "02109", "country": "US", "display_address": ["450 Commercial St", "Boston, MA 02109"], "state": "MA"}, "price": "$$", "transactions": ["delivery", "pickup"], "display_phone": "(617) 523-4055"}]}