{"region": {"center": {"latitude": 42.34784169448538, "longitude": -71.07124328613281}}, "businesses": [{"transactions": ["delivery"], "distance": 2313.124015948, "price": "$$", "display_phone": "(617) 742-4336", "phone": "+16177424336", "url": "https://www.yelp.com/biz/artu-boston-2?adjust_creative=gBcvfFpabk3CnzmXKdYe3w&utm_campaign=yelp_api_v3&utm_medium=api_v3_business_search&utm_source=gBcvfFpabk3CnzmXKdYe3w", "name": "Artu", "location": {"display_address": ["6 Prince St", "Boston, MA 02113"], "country": "US", "state": "MA", "address3": "", "address2": "", "address1": "6 Prince St", "city": "Boston", "zip_code": "02113"}, "is_closed": false, "review_count": 272, "coordinates": {"latitude": 42.3641323, "longitude": -71.0537365}, "id": "artu-boston-2", "image_url": "https://s3-media1.fl.yelpcdn.com/bphoto/4PUhSWD2WvhWZERlMlta3w/o.jpg", "categories": [{"alias": "italian", "title": "Italian"}, {"alias": "diners", "title": "Diners"}, {"alias": "wine_bars", "title": "Wine Bars"}], "rating": 3.5}, {"transactions": [], "distance": 748.1587340095999, "price": "$", "display_phone": "(617) 267-7153", "phone": "+16172677153", "url": "https://www.yelp.com/biz/dunkin-donuts-boston-24?adjust_creative=gBcvfFpabk3CnzmXKdYe3w&utm_campaign=yelp_api_v3&utm_medium=api_v3_business_search&utm_source=gBcvfFpabk3CnzmXKdYe3w", "name": "Dunkin' Donuts", "location": {"display_address": ["715 Boylston St", "Boston, MA 02116"], "country": "US", "state": "MA", "address3": "", "address2": "", "address1": "715 Boylston St", "city": "Boston", "zip_code": "02116"}, "is_closed": false, "review_count": 38, "coordinates": {"latitude": 42.3496513366699, "longitude": -71.0800094604492}, "id": "dunkin-donuts-boston-24", "image_url": "https://s3-media1.fl.yelpcdn.com/bphoto/N100x74j8dZUEdrsVBgleQ/o.jpg", "categories": [{"alias": "donuts", "title": "Donuts"}, {"alias": "coffee", "title": "Coffee & Tea"}], "rating": 3.5}, {"transactions": ["delivery", "pickup"], "distance": 662.1830919368, "price": "$", "display_phone": "(857) 265-2054", "phone": "+18572652054", "url": "https://www.yelp.com/biz/griddlers-burgers-and-dogs-boston-2?adjust_creative=gBcvfFpabk3CnzmXKdYe3w&utm_campaign=yelp_api_v3&utm_medium=api_v3_business_search&utm_source=gBcvfFpabk3CnzmXKdYe3w", "name": "Griddler's Burgers & Dogs", "location": {"display_address": ["134 Boylston St", "Boston, MA 02116"], "country": "US", "state": "MA", "address3": "", "address2": "", "address1": "134 Boylston St", "city": "Boston", "zip_code": "02116"}, "is_closed": false, "review_count": 35, "coordinates": {"latitude": 42.35229, "longitude": -71.0661499}, "id": "griddlers-burgers-and-dogs-boston-2", "image_url": "https://s3-media3.fl.yelpcdn.com/bphoto/-MeZnpADTjZdhgVG-Px37g/o.jpg", "categories": [{"alias": "hotdog", "title": "Hot Dogs"}, {"alias": "burgers", "title": "Burgers"}, {"alias": "hotdogs", "title": "Fast Food"}], "rating": 3.5}, {"transactions": [], "distance": 1959.4383985439997, "price": "$$$", "display_phone": "(617) 856-7744", "phone": "+16178567744", "url": "https://www.yelp.com/biz/rowes-wharf-sea-grille-boston?adjust_creative=gBcvfFpabk3CnzmXKdYe3w&utm_campaign=yelp_api_v3&utm_medium=api_v3_business_search&utm_source=gBcvfFpabk3CnzmXKdYe3w", "name": "Rowes Wharf Sea Grille", "location": {"display_address": ["70 Rowes Wharf", "Boston, MA 02110"], "country": "US", "state": "MA", "address3": "", "address2": "", "address1": "70 Rowes Wharf", "city": "Boston", "zip_code": "02110"}, "is_closed": false, "review_count": 139, "coordinates": {"latitude": 42.3561762, "longitude": -71.050234}, "id": "rowes-wharf-sea-grille-boston", "image_url": "https://s3-media2.fl.yelpcdn.com/bphoto/_4ozcc0v6IOXUIwRYxlpHg/o.jpg", "categories": [{"alias": "seafood", "title": "Seafood"}, {"alias": "breakfast_brunch", "title": "Breakfast & Brunch"}, {"alias": "cocktailbars", "title": "Cocktail Bars"}], "rating": 3.5}, {"transactions": ["delivery", "pickup"], "distance": 676.656819974, "price": "$", "display_phone": "(617) 482-3459", "phone": "+16174823459", "url": "https://www.yelp.com/biz/new-york-pizza-boston-5?adjust_creative=gBcvfFpabk3CnzmXKdYe3w&utm_campaign=yelp_api_v3&utm_medium=api_v3_business_search&utm_source=gBcvfFpabk3CnzmXKdYe3w", "name": "New York Pizza", "location": {"display_address": ["224 Tremont St", "Boston, MA 02116"], "country": "US", "state": "MA", "address3": "", "address2": "", "address1": "224 Tremont St", "city": "Boston", "zip_code": "02116"}, "is_closed": false, "review_count": 195, "coordinates": {"latitude": 42.351448059082, "longitude": -71.0645599365234}, "id": "new-york-pizza-boston-5", "image_url": "https://s3-media3.fl.yelpcdn.com/bphoto/RFon_3zBBAA4pg2W5QO75w/o.jpg", "categories": [{"alias": "pizza", "title": "Pizza"}], "rating": 3.0}, {"transactions": [], "distance": 949.938764907, "display_phone": "", "phone": "", "url": "https://www.yelp.com/biz/boston-public-garden-boston?adjust_creative=gBcvfFpabk3CnzmXKdYe3w&utm_campaign=yelp_api_v3&utm_medium=api_v3_business_search&utm_source=gBcvfFpabk3CnzmXKdYe3w", "name": "Boston Public Garden", "location": {"display_address": ["4 Charles St", "Boston, MA 02116"], "country": "US", "state": "MA", "address3": "", "address2": null, "address1": "4 Charles St", "city": "Boston", "zip_code": "02116"}, "is_closed": false, "review_count": 286, "coordinates": {"latitude": 42.3515255, "longitude": -71.0669081}, "id": "boston-public-garden-boston", "image_url": "https://s3-media4.fl.yelpcdn.com/bphoto/IeLLv4p4GXFlh65-yrYwjg/o.jpg", "categories": [{"alias": "communitygardens", "title": "Community Gardens"}], "rating": 4.5}, {"transactions": [], "distance": 518.6892520224, "display_phone": "(617) 875-1143", "phone": "+16178751143", "url": "https://www.yelp.com/biz/acupuncture-for-everyone-boston-2?adjust_creative=gBcvfFpabk3CnzmXKdYe3w&utm_campaign=yelp_api_v3&utm_medium=api_v3_business_search&utm_source=gBcvfFpabk3CnzmXKdYe3w", "name": "Acupuncture For Everyone", "location": {"display_address": ["581 Boylston St", "Ste 407", "Boston, MA 02116"], "country": "US", "state": "MA", "address3": "", "address2": "Ste 407", "address1": "581 Boylston St", "city": "Boston", "zip_code": "02116"}, "is_closed": false, "review_count": 40, "coordinates": {"latitude": 42.3503108, "longitude": -71.0765977}, "id": "acupuncture-for-everyone-boston-2", "image_url": "https://s3-media1.fl.yelpcdn.com/bphoto/Ihv_yuqeFQoWiVnbH0VDgg/o.jpg", "categories": [{"alias": "acupuncture", "title": "Acupuncture"}, {"alias": "tcm", "title": "Traditional Chinese Medicine"}, {"alias": "reiki", "title": "Reiki"}], "rating": 5.0}, {"transactions": [], "distance": 1338.581258786, "price": "$$", "display_phone": "(617) 227-4340", "phone": "+16172274340", "url": "https://www.yelp.com/biz/panificio-boston?adjust_creative=gBcvfFpabk3CnzmXKdYe3w&utm_campaign=yelp_api_v3&utm_medium=api_v3_business_search&utm_source=gBcvfFpabk3CnzmXKdYe3w", "name": "Panificio", "location": {"display_address": ["144 Charles St", "Boston, MA 02114"], "country": "US", "state": "MA", "address3": "", "address2": "", "address1": "144 Charles St", "city": "Boston", "zip_code": "02114"}, "is_closed": false, "review_count": 237, "coordinates": {"latitude": 42.3598776, "longitude": -71.0708957}, "id": "panificio-boston", "image_url": "https://s3-media3.fl.yelpcdn.com/bphoto/A1Ca_t8HFygGmNmOFnlo7Q/o.jpg", "categories": [{"alias": "bakeries", "title": "Bakeries"}, {"alias": "breakfast_brunch", "title": "Breakfast & Brunch"}, {"alias": "sandwiches", "title": "Sandwiches"}], "rating": 3.0}, {"transactions": ["delivery"], "distance": 1411.294941468, "price": "$$", "display_phone": "(617) 982-6953", "phone": "+16179826953", "url": "https://www.yelp.com/biz/love-art-sushi-boston?adjust_creative=gBcvfFpabk3CnzmXKdYe3w&utm_campaign=yelp_api_v3&utm_medium=api_v3_business_search&utm_source=gBcvfFpabk3CnzmXKdYe3w", "name": "Love Art Sushi", "location": {"display_address": ["1 Haviland St", "Boston, MA 02115"], "country": "US", "state": "MA", "address3": null, "address2": "", "address1": "1 Haviland St", "city": "Boston", "zip_code": "02115"}, "is_closed": false, "review_count": 49, "coordinates": {"latitude": 42.3464366973766, "longitude": -71.0883115231991}, "id": "love-art-sushi-boston", "image_url": "https://s3-media2.fl.yelpcdn.com/bphoto/ZQTNR9Rp0ENVo3GeTUBeDQ/o.jpg", "categories": [{"alias": "sushi", "title": "Sushi Bars"}], "rating": 4.0}, {"transactions": [], "distance": 896.7226386599999, "price": "$$", "display_phone": "(781) 850-6924", "phone": "+17818506924", "url": "https://www.yelp.com/biz/four-handed-illusions-an-intimate-evening-of-laughs-and-wonder-boston?adjust_creative=gBcvfFpabk3CnzmXKdYe3w&utm_campaign=yelp_api_v3&utm_medium=api_v3_business_search&utm_source=gBcvfFpabk3CnzmXKdYe3w", "name": "Four-Handed Illusions: An Intimate Evening of Laughs and Wonder", "location": {"display_address": ["84 Beacon St", "Library Room - The Hampshire House", "Boston, MA 02108"], "country": "US", "state": "MA", "address3": "Library Room - The Hampshire House", "address2": "", "address1": "84 Beacon St", "city": "Boston", "zip_code": "02108"}, "is_closed": false, "review_count": 54, "coordinates": {"latitude": 42.3558240383863, "longitude": -71.0711608082056}, "id": "four-handed-illusions-an-intimate-evening-of-laughs-and-wonder-boston", "image_url": "https://s3-media1.fl.yelpcdn.com/bphoto/jgmI9_BiX3vPiWYl9IqY-A/o.jpg", "categories": [{"alias": "theater", "title": "Performing Arts"}, {"alias": "comedyclubs", "title": "Comedy Clubs"}, {"alias": "magicians", "title": "Magicians"}], "rating": 5.0}, {"transactions": [], "distance": 1714.12251806, "price": "$", "display_phone": "(617) 726-2000", "phone": "+16177262000", "url": "https://www.yelp.com/biz/eat-street-cafe-boston?adjust_creative=gBcvfFpabk3CnzmXKdYe3w&utm_campaign=yelp_api_v3&utm_medium=api_v3_business_search&utm_source=gBcvfFpabk3CnzmXKdYe3w", "name": "Eat Street Cafe", "location": {"display_address": ["55 Fruit St", "Boston, MA 02228"], "country": "US", "state": "MA", "address3": "", "address2": "", "address1": "55 Fruit St", "city": "Boston", "zip_code": "02228"}, "is_closed": false, "review_count": 22, "coordinates": {"latitude": 42.3624564707279, "longitude": -71.0693744570017}, "id": "eat-street-cafe-boston", "image_url": "https://s3-media1.fl.yelpcdn.com/bphoto/1hvQHwOu5uhJeWeySqFLqw/o.jpg", "categories": [{"alias": "delis", "title": "Delis"}, {"alias": "salad", "title": "Salad"}, {"alias": "sandwiches", "title": "Sandwiches"}], "rating": 4.0}, {"transactions": [], "distance": 4731.36786762, "price": "$$", "display_phone": "", "phone": "", "url": "https://www.yelp.com/biz/american-airlines-admirals-club-boston?adjust_creative=gBcvfFpabk3CnzmXKdYe3w&utm_campaign=yelp_api_v3&utm_medium=api_v3_business_search&utm_source=gBcvfFpabk3CnzmXKdYe3w", "name": "American Airlines Admirals Club", "location": {"display_address": ["1 Harborside Dr", "Boston, MA 02128"], "country": "US", "state": "MA", "address3": "", "address2": "", "address1": "1 Harborside Dr", "city": "Boston", "zip_code": "02128"}, "is_closed": false, "review_count": 25, "coordinates": {"latitude": 42.3629260392377, "longitude": -71.0174040873412}, "id": "american-airlines-admirals-club-boston", "image_url": "https://s3-media2.fl.yelpcdn.com/bphoto/yAq2jKZDkKZwFCFMupOJKg/o.jpg", "categories": [{"alias": "airportlounges", "title": "Airport Lounges"}], "rating": 4.0}, {"transactions": [], "distance": 1539.7028925959999, "price": "$", "display_phone": "(617) 266-0040", "phone": "+16172660040", "url": "https://www.yelp.com/biz/amelias-taqueria-boston-3?adjust_creative=gBcvfFpabk3CnzmXKdYe3w&utm_campaign=yelp_api_v3&utm_medium=api_v3_business_search&utm_source=gBcvfFpabk3CnzmXKdYe3w", "name": "Amelia's Taqueria", "location": {"display_address": ["309 Huntington Ave", "Boston, MA 02115"], "country": "US", "state": "MA", "address3": "", "address2": "", "address1": "309 Huntington Ave", "city": "Boston", "zip_code": "02115"}, "is_closed": false, "review_count": 64, "coordinates": {"latitude": 42.3411328019005, "longitude": -71.0876348644621}, "id": "amelias-taqueria-boston-3", "image_url": "https://s3-media3.fl.yelpcdn.com/bphoto/-LThIktt7_sqPzGqQnEtoQ/o.jpg", "categories": [{"alias": "mexican", "title": "Mexican"}], "rating": 4.0}, {"transactions": [], "distance": 1655.1625768859997, "price": "$$$", "display_phone": "(617) 956-8765", "phone": "+16179568765", "url": "https://www.yelp.com/biz/bond-restaurant-and-lounge-boston-2?adjust_creative=gBcvfFpabk3CnzmXKdYe3w&utm_campaign=yelp_api_v3&utm_medium=api_v3_business_search&utm_source=gBcvfFpabk3CnzmXKdYe3w", "name": "Bond Restaurant and Lounge", "location": {"display_address": ["250 Franklin St", "Boston, MA 02110"], "country": "US", "state": "MA", "address3": "", "address2": "", "address1": "250 Franklin St", "city": "Boston", "zip_code": "02110"}, "is_closed": false, "review_count": 212, "coordinates": {"latitude": 42.3564959317446, "longitude": -71.0541609674692}, "id": "bond-restaurant-and-lounge-boston-2", "image_url": "https://s3-media2.fl.yelpcdn.com/bphoto/VrYXdL41_KYwBoLAFQD9KA/o.jpg", "categories": [{"alias": "lounges", "title": "Lounges"}, {"alias": "newamerican", "title": "American (New)"}], "rating": 3.0}, {"transactions": [], "distance": 486.7131307218, "price": "$$", "display_phone": "(617) 457-2626", "phone": "+16174572626", "url": "https://www.yelp.com/biz/emerald-lounge-boston?adjust_creative=gBcvfFpabk3CnzmXKdYe3w&utm_campaign=yelp_api_v3&utm_medium=api_v3_business_search&utm_source=gBcvfFpabk3CnzmXKdYe3w", "name": "Emerald Lounge", "location": {"display_address": ["200 Stuart St", "Boston, MA 02116"], "country": "US", "state": "MA", "address3": "", "address2": "", "address1": "200 Stuart St", "city": "Boston", "zip_code": "02116"}, "is_closed": false, "review_count": 166, "coordinates": {"latitude": 42.3508582393446, "longitude": -71.0669466122337}, "id": "emerald-lounge-boston", "image_url": "https://s3-media1.fl.yelpcdn.com/bphoto/ODO8EHmccRdq9gsxxIRFKQ/o.jpg", "categories": [{"alias": "lounges", "title": "Lounges"}], "rating": 3.0}, {"transactions": ["delivery"], "distance": 1935.59908419, "price": "$$", "display_phone": "(617) 367-9114", "phone": "+16173679114", "url": "https://www.yelp.com/biz/zumas-tex-mex-grill-boston-3?adjust_creative=gBcvfFpabk3CnzmXKdYe3w&utm_campaign=yelp_api_v3&utm_medium=api_v3_business_search&utm_source=gBcvfFpabk3CnzmXKdYe3w", "name": "Zumas Tex Mex Grill", "location": {"display_address": ["7 N Market St", "Boston, MA 02109"], "country": "US", "state": "MA", "address3": "", "address2": "", "address1": "7 N Market St", "city": "Boston", "zip_code": "02109"}, "is_closed": false, "review_count": 302, "coordinates": {"latitude": 42.360225, "longitude": -71.05469}, "id": "zumas-tex-mex-grill-boston-3", "image_url": "https://s3-media3.fl.yelpcdn.com/bphoto/v716NF60WDfyFhHPJY-g3Q/o.jpg", "categories": [{"alias": "tex-mex", "title": "Tex-Mex"}, {"alias": "salad", "title": "Salad"}, {"alias": "sandwiches", "title": "Sandwiches"}], "rating": 3.0}, {"transactions": [], "distance": 387.592319062, "display_phone": "(617) 266-0323", "phone": "+16172660323", "url": "https://www.yelp.com/biz/wellfit-studio-boston-10?adjust_creative=gBcvfFpabk3CnzmXKdYe3w&utm_campaign=yelp_api_v3&utm_medium=api_v3_business_search&utm_source=gBcvfFpabk3CnzmXKdYe3w", "name": "Wellfit Studio", "location": {"display_address": ["376 Boylston St", "Ste 202", "Boston, MA 02116"], "country": "US", "state": "MA", "address3": "", "address2": "Ste 202", "address1": "376 Boylston St", "city": "Boston", "zip_code": "02116"}, "is_closed": false, "review_count": 44, "coordinates": {"latitude": 42.3513162, "longitude": -71.0716709}, "id": "wellfit-studio-boston-10", "image_url": "https://s3-media2.fl.yelpcdn.com/bphoto/HFtxGDlJ940D4XbpGic-OA/o.jpg", "categories": [{"alias": "acupuncture", "title": "Acupuncture"}, {"alias": "nutritionists", "title": "Nutritionists"}, {"alias": "massage_therapy", "title": "Massage Therapy"}], "rating": 5.0}, {"transactions": [], "distance": 2058.070501926, "display_phone": "(617) 390-4600", "phone": "+16173904600", "url": "https://www.yelp.com/biz/mozart-moving-company-boston-4?adjust_creative=gBcvfFpabk3CnzmXKdYe3w&utm_campaign=yelp_api_v3&utm_medium=api_v3_business_search&utm_source=gBcvfFpabk3CnzmXKdYe3w", "name": "Mozart Moving Company", "location": {"display_address": ["1500 Washington St", "Boston, MA 02111"], "country": "US", "state": "MA", "address3": "", "address2": "", "address1": "1500 Washington St", "city": "Boston", "zip_code": "02111"}, "is_closed": false, "review_count": 116, "coordinates": {"latitude": 42.3453713, "longitude": -71.0960592}, "id": "mozart-moving-company-boston-4", "image_url": "https://s3-media2.fl.yelpcdn.com/bphoto/PPa0oEZdwDM7cYPHT6NuZw/o.jpg", "categories": [{"alias": "movers", "title": "Movers"}, {"alias": "selfstorage", "title": "Self Storage"}], "rating": 5.0}, {"transactions": [], "distance": 1113.05012146, "price": "$$$", "display_phone": "(617) 338-9600", "phone": "+16173389600", "url": "https://www.yelp.com/biz/49-social-boston?adjust_creative=gBcvfFpabk3CnzmXKdYe3w&utm_campaign=yelp_api_v3&utm_medium=api_v3_business_search&utm_source=gBcvfFpabk3CnzmXKdYe3w", "name": "49 Social", "location": {"display_address": ["49 Temple Pl", "Boston, MA 02111"], "country": "US", "state": "MA", "address3": "", "address2": "", "address1": "49 Temple Pl", "city": "Boston", "zip_code": "02111"}, "is_closed": false, "review_count": 184, "coordinates": {"latitude": 42.3549944, "longitude": -71.0617654}, "id": "49-social-boston", "image_url": "https://s3-media2.fl.yelpcdn.com/bphoto/2wc59gmGpWKab4KSrN9IbQ/o.jpg", "categories": [{"alias": "newamerican", "title": "American (New)"}], "rating": 3.5}, {"transactions": [], "distance": 5333.839907217999, "price": "$$$", "display_phone": "(844) 946-3724", "phone": "+18449463724", "url": "https://www.yelp.com/biz/boston-wine-school-boston?adjust_creative=gBcvfFpabk3CnzmXKdYe3w&utm_campaign=yelp_api_v3&utm_medium=api_v3_business_search&utm_source=gBcvfFpabk3CnzmXKdYe3w", "name": "Boston Wine School", "location": {"display_address": ["1354 Commonwealth Ave", "Boston, MA 02134"], "country": "US", "state": "MA", "address3": "", "address2": "", "address1": "1354 Commonwealth Ave", "city": "Boston", "zip_code": "02134"}, "is_closed": false, "review_count": 27, "coordinates": {"latitude": 42.3477973937988, "longitude": -71.1362838745117}, "id": "boston-wine-school-boston", "image_url": "https://s3-media1.fl.yelpcdn.com/bphoto/25KiFTSSfCbiHdJiclE-xw/o.jpg", "categories": [{"alias": "eventplanning", "title": "Party & Event Planning"}, {"alias": "wine_bars", "title": "Wine Bars"}], "rating": 4.5}, {"transactions": [], "distance": 2135.4895729, "price": "$", "display_phone": "(617) 268-8324", "phone": "+16172688324", "url": "https://www.yelp.com/biz/the-sausage-guy-boston?adjust_creative=gBcvfFpabk3CnzmXKdYe3w&utm_campaign=yelp_api_v3&utm_medium=api_v3_business_search&utm_source=gBcvfFpabk3CnzmXKdYe3w", "name": "The Sausage Guy", "location": {"display_address": ["49 Lansdowne St", "Boston, MA 02215"], "country": "US", "state": "MA", "address3": "", "address2": "", "address1": "49 Lansdowne St", "city": "Boston", "zip_code": "02215"}, "is_closed": false, "review_count": 27, "coordinates": {"latitude": 42.34741, "longitude": -71.09713}, "id": "the-sausage-guy-boston", "image_url": "https://s3-media1.fl.yelpcdn.com/bphoto/Rb40m1khQ-UyyM-04JM35g/o.jpg", "categories": [{"alias": "foodstands", "title": "Food Stands"}, {"alias": "hotdog", "title": "Hot Dogs"}], "rating": 4.0}, {"transactions": ["pickup"], "distance": 3910.1475759939995, "price": "$", "display_phone": "(617) 398-6311", "phone": "+16173986311", "url": "https://www.yelp.com/biz/prescott-boston?adjust_creative=gBcvfFpabk3CnzmXKdYe3w&utm_campaign=yelp_api_v3&utm_medium=api_v3_business_search&utm_source=gBcvfFpabk3CnzmXKdYe3w", "name": "Prescott", "location": {"display_address": ["50 Terminal St", "Bldg II, Unit 101", "Boston, MA 02129"], "country": "US", "state": "MA", "address3": "", "address2": "Bldg II, Unit 101", "address1": "50 Terminal St", "city": "Boston", "zip_code": "02129"}, "is_closed": false, "review_count": 34, "coordinates": {"latitude": 42.3820967013057, "longitude": -71.0604684920654}, "id": "prescott-boston", "image_url": "https://s3-media4.fl.yelpcdn.com/bphoto/N9jGYO4B9ftaqkq5FjfQdQ/o.jpg", "categories": [{"alias": "breakfast_brunch", "title": "Breakfast & Brunch"}, {"alias": "latin", "title": "Latin American"}, {"alias": "tradamerican", "title": "American (Traditional)"}], "rating": 4.0}, {"transactions": [], "distance": 1568.081672288, "price": "$", "display_phone": "(617) 248-1987", "phone": "+16172481987", "url": "https://www.yelp.com/biz/dunkin-donuts-boston-11?adjust_creative=gBcvfFpabk3CnzmXKdYe3w&utm_campaign=yelp_api_v3&utm_medium=api_v3_business_search&utm_source=gBcvfFpabk3CnzmXKdYe3w", "name": "Dunkin' Donuts", "location": {"display_address": ["235 Washington St", "Boston, MA 02108"], "country": "US", "state": "MA", "address3": "", "address2": "", "address1": "235 Washington St", "city": "Boston", "zip_code": "02108"}, "is_closed": false, "review_count": 28, "coordinates": {"latitude": 42.3581361025572, "longitude": -71.0579388588667}, "id": "dunkin-donuts-boston-11", "image_url": "https://s3-media3.fl.yelpcdn.com/bphoto/fYo5YyUDkxqrUCRZqyR30g/o.jpg", "categories": [{"alias": "donuts", "title": "Donuts"}, {"alias": "coffee", "title": "Coffee & Tea"}], "rating": 3.5}, {"transactions": [], "distance": 321.6486308646, "price": "$$", "display_phone": "(617) 542-9600", "phone": "+16175429600", "url": "https://www.yelp.com/biz/spectacle-boston-2?adjust_creative=gBcvfFpabk3CnzmXKdYe3w&utm_campaign=yelp_api_v3&utm_medium=api_v3_business_search&utm_source=gBcvfFpabk3CnzmXKdYe3w", "name": "Spectacle", "location": {"display_address": ["505 Tremont St", "Boston, MA 02116"], "country": "US", "state": "MA", "address3": "", "address2": null, "address1": "505 Tremont St", "city": "Boston", "zip_code": "02116"}, "is_closed": false, "review_count": 87, "coordinates": {"latitude": 42.3450221, "longitude": -71.0703915}, "id": "spectacle-boston-2", "image_url": "https://s3-media3.fl.yelpcdn.com/bphoto/p5aDN4u1kTYGi-QpAYzl4A/o.jpg", "categories": [{"alias": "optometrists", "title": "Optometrists"}, {"alias": "opticians", "title": "Eyewear & Opticians"}], "rating": 5.0}, {"transactions": [], "distance": 3218.8047238500003, "price": "$", "display_phone": "(617) 232-4782", "phone": "+16172324782", "url": "https://www.yelp.com/biz/grub-boston?adjust_creative=gBcvfFpabk3CnzmXKdYe3w&utm_campaign=yelp_api_v3&utm_medium=api_v3_business_search&utm_source=gBcvfFpabk3CnzmXKdYe3w", "name": "Grub", "location": {"display_address": ["738 Huntington Ave", "Boston, MA 02115"], "country": "US", "state": "MA", "address3": null, "address2": "", "address1": "738 Huntington Ave", "city": "Boston", "zip_code": "02115"}, "is_closed": false, "review_count": 28, "coordinates": {"latitude": 42.3337927, "longitude": -71.1052731}, "id": "grub-boston", "image_url": "https://s3-media3.fl.yelpcdn.com/bphoto/yDQDPJTgbD15Hlu2CTei0Q/o.jpg", "categories": [{"alias": "comfortfood", "title": "Comfort Food"}, {"alias": "poutineries", "title": "Poutineries"}, {"alias": "sandwiches", "title": "Sandwiches"}], "rating": 4.0}, {"transactions": ["delivery", "pickup"], "distance": 1800.548582212, "price": "$$", "display_phone": "(617) 338-8999", "phone": "+16173388999", "url": "https://www.yelp.com/biz/u-and-d-kitchen-boston?adjust_creative=gBcvfFpabk3CnzmXKdYe3w&utm_campaign=yelp_api_v3&utm_medium=api_v3_business_search&utm_source=gBcvfFpabk3CnzmXKdYe3w", "name": "U&D Kitchen", "location": {"display_address": ["184 High St", "Boston, MA 02110"], "country": "US", "state": "MA", "address3": "", "address2": null, "address1": "184 High St", "city": "Boston", "zip_code": "02110"}, "is_closed": false, "review_count": 56, "coordinates": {"latitude": 42.3564496636391, "longitude": -71.0527031868696}, "id": "u-and-d-kitchen-boston", "image_url": "https://s3-media3.fl.yelpcdn.com/bphoto/RC1RURpNR69Tefn10kdLSw/o.jpg", "categories": [{"alias": "thai", "title": "Thai"}, {"alias": "asianfusion", "title": "Asian Fusion"}], "rating": 3.5}, {"transactions": [], "distance": 923.2942904659999, "price": "$", "display_phone": "(617) 338-1988", "phone": "+16173381988", "url": "https://www.yelp.com/biz/cafe-corner-boston?adjust_creative=gBcvfFpabk3CnzmXKdYe3w&utm_campaign=yelp_api_v3&utm_medium=api_v3_business_search&utm_source=gBcvfFpabk3CnzmXKdYe3w", "name": "Cafe Corner", "location": {"display_address": ["62 Harrison Ave", "Boston, MA 02111"], "country": "US", "state": "MA", "address3": null, "address2": "", "address1": "62 Harrison Ave", "city": "Boston", "zip_code": "02111"}, "is_closed": false, "review_count": 6, "coordinates": {"latitude": 42.351163700223, "longitude": -71.0612520575523}, "id": "cafe-corner-boston", "image_url": "https://s3-media4.fl.yelpcdn.com/bphoto/m2p9fNzQDKpiBKce3Hjkcw/o.jpg", "categories": [{"alias": "cafes", "title": "Cafes"}], "rating": 5.0}, {"transactions": ["delivery", "pickup"], "distance": 3180.767329214, "price": "$$", "display_phone": "(617) 242-5232", "phone": "+16172425232", "url": "https://www.yelp.com/biz/sweet-rice-boston?adjust_creative=gBcvfFpabk3CnzmXKdYe3w&utm_campaign=yelp_api_v3&utm_medium=api_v3_business_search&utm_source=gBcvfFpabk3CnzmXKdYe3w", "name": "Sweet Rice", "location": {"display_address": ["187 Main St", "Boston, MA 02129"], "country": "US", "state": "MA", "address3": "", "address2": null, "address1": "187 Main St", "city": "Boston", "zip_code": "02129"}, "is_closed": false, "review_count": 71, "coordinates": {"latitude": 42.3759862, "longitude": -71.0647822}, "id": "sweet-rice-boston", "image_url": "https://s3-media2.fl.yelpcdn.com/bphoto/cLKHGTS0Ibmqm-uYVj107A/o.jpg", "categories": [{"alias": "sushi", "title": "Sushi Bars"}, {"alias": "thai", "title": "Thai"}], "rating": 3.5}, {"transactions": ["delivery", "pickup"], "distance": 963.8148967220001, "price": "$$", "display_phone": "(617) 423-3848", "phone": "+16174233848", "url": "https://www.yelp.com/biz/suishaya-boston?adjust_creative=gBcvfFpabk3CnzmXKdYe3w&utm_campaign=yelp_api_v3&utm_medium=api_v3_business_search&utm_source=gBcvfFpabk3CnzmXKdYe3w", "name": "Suishaya", "location": {"display_address": ["2 Tyler St", "Boston, MA 02111"], "country": "US", "state": "MA", "address3": "", "address2": "", "address1": "2 Tyler St", "city": "Boston", "zip_code": "02111"}, "is_closed": false, "review_count": 206, "coordinates": {"latitude": 42.3512316, "longitude": -71.0604492}, "id": "suishaya-boston", "image_url": "https://s3-media2.fl.yelpcdn.com/bphoto/fsh0bI4gOGbigsd6DNd-SQ/o.jpg", "categories": [{"alias": "japanese", "title": "Japanese"}, {"alias": "korean", "title": "Korean"}, {"alias": "sushi", "title": "Sushi Bars"}], "rating": 3.0}, {"transactions": ["delivery", "pickup"], "distance": 1369.4781727759998, "price": "$$", "display_phone": "(617) 423-5000", "phone": "+16174235000", "url": "https://www.yelp.com/biz/avana-sushi-2-boston?adjust_creative=gBcvfFpabk3CnzmXKdYe3w&utm_campaign=yelp_api_v3&utm_medium=api_v3_business_search&utm_source=gBcvfFpabk3CnzmXKdYe3w", "name": "Avana Sushi 2", "location": {"display_address": ["58 Franklin St", "Boston, MA 02110"], "country": "US", "state": "MA", "address3": "", "address2": null, "address1": "58 Franklin St", "city": "Boston", "zip_code": "02110"}, "is_closed": false, "review_count": 50, "coordinates": {"latitude": 42.3556174, "longitude": -71.0583079}, "id": "avana-sushi-2-boston", "image_url": "https://s3-media2.fl.yelpcdn.com/bphoto/twuAFhft_ec4XwX3bwEJlQ/o.jpg", "categories": [{"alias": "japanese", "title": "Japanese"}, {"alias": "sushi", "title": "Sushi Bars"}], "rating": 3.5}, {"transactions": [], "distance": 943.959020736, "display_phone": "(617) 792-6304", "phone": "+16177926304", "url": "https://www.yelp.com/biz/fong-massage-therapy-boston?adjust_creative=gBcvfFpabk3CnzmXKdYe3w&utm_campaign=yelp_api_v3&utm_medium=api_v3_business_search&utm_source=gBcvfFpabk3CnzmXKdYe3w", "name": "Fong Massage Therapy", "location": {"display_address": ["40 Harrison Ave", "Unit 2A", "Boston, MA 02111"], "country": "US", "state": "MA", "address3": "", "address2": "Unit 2A", "address1": "40 Harrison Ave", "city": "Boston", "zip_code": "02111"}, "is_closed": false, "review_count": 63, "coordinates": {"latitude": 42.3516705, "longitude": -71.0609895}, "id": "fong-massage-therapy-boston", "image_url": "https://s3-media1.fl.yelpcdn.com/bphoto/_-3qv-8F23Dc45iI9cQtMA/o.jpg", "categories": [{"alias": "massage_therapy", "title": "Massage Therapy"}, {"alias": "tcm", "title": "Traditional Chinese Medicine"}], "rating": 4.5}, {"transactions": [], "distance": 415.2579036396, "price": "$$", "display_phone": "(617) 482-2255", "phone": "+16174822255", "url": "https://www.yelp.com/biz/mj-o-connors-irish-pub-boston?adjust_creative=gBcvfFpabk3CnzmXKdYe3w&utm_campaign=yelp_api_v3&utm_medium=api_v3_business_search&utm_source=gBcvfFpabk3CnzmXKdYe3w", "name": "MJ O'Connor's Irish Pub", "location": {"display_address": ["27 Columbus Ave", "Boston, MA 02116"], "country": "US", "state": "MA", "address3": "", "address2": "", "address1": "27 Columbus Ave", "city": "Boston", "zip_code": "02116"}, "is_closed": false, "review_count": 188, "coordinates": {"latitude": 42.3511597728604, "longitude": -71.0689188256007}, "id": "mj-o-connors-irish-pub-boston", "image_url": "https://s3-media2.fl.yelpcdn.com/bphoto/XSb2dVMHhXdg9rZFShDiqA/o.jpg", "categories": [{"alias": "pubs", "title": "Pubs"}, {"alias": "tradamerican", "title": "American (Traditional)"}, {"alias": "irish_pubs", "title": "Irish Pub"}], "rating": 3.0}, {"transactions": [], "distance": 1006.824749623, "display_phone": "(857) 312-3381", "phone": "+18573123381", "url": "https://www.yelp.com/biz/exela-movers-boston-2?adjust_creative=gBcvfFpabk3CnzmXKdYe3w&utm_campaign=yelp_api_v3&utm_medium=api_v3_business_search&utm_source=gBcvfFpabk3CnzmXKdYe3w", "name": "Exela Movers", "location": {"display_address": ["867 Boylston St", "Fl 5", "Boston, MA 02116"], "country": "US", "state": "MA", "address3": "", "address2": "Fl 5", "address1": "867 Boylston St", "city": "Boston", "zip_code": "02116"}, "is_closed": false, "review_count": 63, "coordinates": {"latitude": 42.3487348, "longitude": -71.0834373}, "id": "exela-movers-boston-2", "image_url": "https://s3-media1.fl.yelpcdn.com/bphoto/Egft6SE37ktdAWOdZ19x5g/o.jpg", "categories": [{"alias": "movers", "title": "Movers"}], "rating": 5.0}, {"transactions": ["delivery", "pickup"], "distance": 1552.7401559359998, "price": "$", "display_phone": "(617) 227-4959", "phone": "+16172274959", "url": "https://www.yelp.com/biz/cafe-podima-boston?adjust_creative=gBcvfFpabk3CnzmXKdYe3w&utm_campaign=yelp_api_v3&utm_medium=api_v3_business_search&utm_source=gBcvfFpabk3CnzmXKdYe3w", "name": "Cafe Podima", "location": {"display_address": ["156 Cambridge St", "Boston, MA 02114"], "country": "US", "state": "MA", "address3": "", "address2": "", "address1": "156 Cambridge St", "city": "Boston", "zip_code": "02114"}, "is_closed": false, "review_count": 118, "coordinates": {"latitude": 42.3610036953466, "longitude": -71.0649252788279}, "id": "cafe-podima-boston", "image_url": "https://s3-media2.fl.yelpcdn.com/bphoto/MldFmpKCKh-MHqwKZWntGg/o.jpg", "categories": [{"alias": "sandwiches", "title": "Sandwiches"}], "rating": 3.5}, {"transactions": [], "distance": 781.8918039749999, "price": "$$", "display_phone": "(617) 482-8898", "phone": "+16174828898", "url": "https://www.yelp.com/biz/empire-garden-restaurant-boston-2?adjust_creative=gBcvfFpabk3CnzmXKdYe3w&utm_campaign=yelp_api_v3&utm_medium=api_v3_business_search&utm_source=gBcvfFpabk3CnzmXKdYe3w", "name": "Empire Garden Restaurant", "location": {"display_address": ["690 Washington St", "Boston, MA 02111"], "country": "US", "state": "MA", "address3": "", "address2": "", "address1": "690 Washington St", "city": "Boston", "zip_code": "02111"}, "is_closed": false, "review_count": 322, "coordinates": {"latitude": 42.351177, "longitude": -71.062865}, "id": "empire-garden-restaurant-boston-2", "image_url": "https://s3-media2.fl.yelpcdn.com/bphoto/olrz6fFGSDEq8khbZj5oDQ/o.jpg", "categories": [{"alias": "dimsum", "title": "Dim Sum"}], "rating": 3.0}, {"transactions": [], "distance": 2853.9340325119997, "display_phone": "(617) 784-3347", "phone": "+16177843347", "url": "https://www.yelp.com/biz/safe-responsible-movers-boston?adjust_creative=gBcvfFpabk3CnzmXKdYe3w&utm_campaign=yelp_api_v3&utm_medium=api_v3_business_search&utm_source=gBcvfFpabk3CnzmXKdYe3w", "name": "Safe Responsible Movers", "location": {"display_address": ["Boston, MA 02120"], "country": "US", "state": "MA", "address3": "", "address2": "", "address1": "", "city": "Boston", "zip_code": "02120"}, "is_closed": false, "review_count": 189, "coordinates": {"latitude": 42.3298862397678, "longitude": -71.0960559179688}, "id": "safe-responsible-movers-boston", "image_url": "https://s3-media1.fl.yelpcdn.com/bphoto/RZhCoCsK7BJb6wHIr3Cm9A/o.jpg", "categories": [{"alias": "movers", "title": "Movers"}], "rating": 5.0}, {"transactions": [], "distance": 1072.3301179779999, "price": "$$", "display_phone": "(857) 250-2165", "phone": "+18572502165", "url": "https://www.yelp.com/biz/savvor-restaurant-and-lounge-boston?adjust_creative=gBcvfFpabk3CnzmXKdYe3w&utm_campaign=yelp_api_v3&utm_medium=api_v3_business_search&utm_source=gBcvfFpabk3CnzmXKdYe3w", "name": "Savvor Restaurant and Lounge", "location": {"display_address": ["180 Lincoln St", "Boston, MA 02111"], "country": "US", "state": "MA", "address3": "", "address2": null, "address1": "180 Lincoln St", "city": "Boston", "zip_code": "02111"}, "is_closed": false, "review_count": 58, "coordinates": {"latitude": 42.350483, "longitude": -71.058691}, "id": "savvor-restaurant-and-lounge-boston", "image_url": "https://s3-media1.fl.yelpcdn.com/bphoto/JSvDlfCXjqIRRzTWUsPSfg/o.jpg", "categories": [{"alias": "lounges", "title": "Lounges"}, {"alias": "southern", "title": "Southern"}, {"alias": "soulfood", "title": "Soul Food"}], "rating": 3.5}, {"transactions": [], "distance": 1734.570309298, "price": "$$$", "display_phone": "(617) 217-5148", "phone": "+16172175148", "url": "https://www.yelp.com/biz/rumba-boston?adjust_creative=gBcvfFpabk3CnzmXKdYe3w&utm_campaign=yelp_api_v3&utm_medium=api_v3_business_search&utm_source=gBcvfFpabk3CnzmXKdYe3w", "name": "RumBa", "location": {"display_address": ["510 Atlantic Ave", "InterContinental Boston", "Boston, MA 02210"], "country": "US", "state": "MA", "address3": "InterContinental Boston", "address2": "", "address1": "510 Atlantic Ave", "city": "Boston", "zip_code": "02210"}, "is_closed": false, "review_count": 103, "coordinates": {"latitude": 42.354093, "longitude": -71.051903}, "id": "rumba-boston", "image_url": "https://s3-media1.fl.yelpcdn.com/bphoto/W2UUWAYyCN7r2G79cTRYVQ/o.jpg", "categories": [{"alias": "lounges", "title": "Lounges"}, {"alias": "wine_bars", "title": "Wine Bars"}], "rating": 3.5}, {"transactions": [], "distance": 1418.7201143599998, "price": "$$", "display_phone": "(617) 720-5400", "phone": "+16177205400", "url": "https://www.yelp.com/biz/boston-threading-boston-2?adjust_creative=gBcvfFpabk3CnzmXKdYe3w&utm_campaign=yelp_api_v3&utm_medium=api_v3_business_search&utm_source=gBcvfFpabk3CnzmXKdYe3w", "name": "Boston Threading", "location": {"display_address": ["333 Washington St", "Ste 223", "Boston, MA 02108"], "country": "US", "state": "MA", "address3": "", "address2": "Ste 223", "address1": "333 Washington St", "city": "Boston", "zip_code": "02108"}, "is_closed": false, "review_count": 115, "coordinates": {"latitude": 42.357048, "longitude": -71.059288}, "id": "boston-threading-boston-2", "image_url": "https://s3-media4.fl.yelpcdn.com/bphoto/tqB1SojhjD1TEmMxhPtB4A/o.jpg", "categories": [{"alias": "threadingservices", "title": "Threading Services"}, {"alias": "eyebrowservices", "title": "Eyebrow Services"}], "rating": 5.0}, {"transactions": ["delivery", "pickup"], "distance": 1504.3652301835998, "price": "$", "display_phone": "(617) 427-4054", "phone": "+16174274054", "url": "https://www.yelp.com/biz/boston-pizza-stop-and-cafe-boston?adjust_creative=gBcvfFpabk3CnzmXKdYe3w&utm_campaign=yelp_api_v3&utm_medium=api_v3_business_search&utm_source=gBcvfFpabk3CnzmXKdYe3w", "name": "Boston Pizza Stop & Cafe", "location": {"display_address": ["851 Harrison Ave", "Boston, MA 02118"], "country": "US", "state": "MA", "address3": "", "address2": "", "address1": "851 Harrison Ave", "city": "Boston", "zip_code": "02118"}, "is_closed": false, "review_count": 39, "coordinates": {"latitude": 42.3347358703613, "longitude": -71.07568359375}, "id": "boston-pizza-stop-and-cafe-boston", "image_url": "https://s3-media2.fl.yelpcdn.com/bphoto/BhLMZNlJyhPkGeASykMSxw/o.jpg", "categories": [{"alias": "pizza", "title": "Pizza"}, {"alias": "italian", "title": "Italian"}], "rating": 4.0}, {"transactions": ["delivery", "pickup"], "distance": 1139.4739232001998, "price": "$", "display_phone": "(617) 375-6333", "phone": "+16173756333", "url": "https://www.yelp.com/biz/code-10-boston?adjust_creative=gBcvfFpabk3CnzmXKdYe3w&utm_campaign=yelp_api_v3&utm_medium=api_v3_business_search&utm_source=gBcvfFpabk3CnzmXKdYe3w", "name": "Code 10", "location": {"display_address": ["1638 Washington St", "Boston, MA 02118"], "country": "US", "state": "MA", "address3": "", "address2": "", "address1": "1638 Washington St", "city": "Boston", "zip_code": "02118"}, "is_closed": false, "review_count": 89, "coordinates": {"latitude": 42.337909, "longitude": -71.0747293}, "id": "code-10-boston", "image_url": "https://s3-media1.fl.yelpcdn.com/bphoto/PtlKRnmyMOjX-jskQiwdkA/o.jpg", "categories": [{"alias": "delis", "title": "Delis"}, {"alias": "sandwiches", "title": "Sandwiches"}], "rating": 3.5}, {"transactions": [], "distance": 3393.4004111099994, "price": "$", "display_phone": "", "phone": "", "url": "https://www.yelp.com/biz/sheherazad-boston?adjust_creative=gBcvfFpabk3CnzmXKdYe3w&utm_campaign=yelp_api_v3&utm_medium=api_v3_business_search&utm_source=gBcvfFpabk3CnzmXKdYe3w", "name": "Sheherazad", "location": {"display_address": ["39-53 Drydock Ave", "Boston, MA 02210"], "country": "US", "state": "MA", "address3": "", "address2": "", "address1": "39-53 Drydock Ave", "city": "Boston", "zip_code": "02210"}, "is_closed": false, "review_count": 20, "coordinates": {"latitude": 42.3445768, "longitude": -71.0304171}, "id": "sheherazad-boston", "image_url": "https://s3-media4.fl.yelpcdn.com/bphoto/4XlWNN6qjU91CS7ZM_Fwyg/o.jpg", "categories": [{"alias": "foodtrucks", "title": "Food Trucks"}, {"alias": "mideastern", "title": "Middle Eastern"}], "rating": 4.5}, {"transactions": [], "distance": 515.536297468, "price": "$$", "display_phone": "(617) 437-8888", "phone": "+16174378888", "url": "https://www.yelp.com/biz/shabumaru-boston?adjust_creative=gBcvfFpabk3CnzmXKdYe3w&utm_campaign=yelp_api_v3&utm_medium=api_v3_business_search&utm_source=gBcvfFpabk3CnzmXKdYe3w", "name": "Shabumaru", "location": {"display_address": ["10 Huntington Ave", "Boston, MA 02116"], "country": "US", "state": "MA", "address3": "", "address2": "", "address1": "10 Huntington Ave", "city": "Boston", "zip_code": "02116"}, "is_closed": false, "review_count": 68, "coordinates": {"latitude": 42.3484725952148, "longitude": -71.0774230957031}, "id": "shabumaru-boston", "image_url": "https://s3-media2.fl.yelpcdn.com/bphoto/ngVOvlWDkA3Mv0_GJYDwLQ/o.jpg", "categories": [{"alias": "japanese", "title": "Japanese"}, {"alias": "hotpot", "title": "Hot Pot"}], "rating": 3.5}, {"transactions": [], "distance": 1417.4565249656, "price": "$$", "display_phone": "(617) 227-1559", "phone": "+16172271559", "url": "https://www.yelp.com/biz/boston-diamond-studio-dba-platinum-studio-by-z-boston-2?adjust_creative=gBcvfFpabk3CnzmXKdYe3w&utm_campaign=yelp_api_v3&utm_medium=api_v3_business_search&utm_source=gBcvfFpabk3CnzmXKdYe3w", "name": "Boston Diamond Studio dba/Platinum Studio by Z", "location": {"display_address": ["333 Washington St", "Room 226", "Boston, MA 02108"], "country": "US", "state": "MA", "address3": "", "address2": "Room 226", "address1": "333 Washington St", "city": "Boston", "zip_code": "02108"}, "is_closed": false, "review_count": 54, "coordinates": {"latitude": 42.3568503205345, "longitude": -71.05903555159}, "id": "boston-diamond-studio-dba-platinum-studio-by-z-boston-2", "image_url": "https://s3-media3.fl.yelpcdn.com/bphoto/fFnT5srl0ejD6Rk0ikz3fg/o.jpg", "categories": [{"alias": "jewelry", "title": "Jewelry"}, {"alias": "jewelryrepair", "title": "Jewelry Repair"}, {"alias": "appraisalservices", "title": "Appraisal Services"}], "rating": 5.0}, {"transactions": ["delivery", "pickup"], "distance": 2502.4565905219997, "price": "$$", "display_phone": "(617) 536-3100", "phone": "+16175363100", "url": "https://www.yelp.com/biz/noodle-street-boston?adjust_creative=gBcvfFpabk3CnzmXKdYe3w&utm_campaign=yelp_api_v3&utm_medium=api_v3_business_search&utm_source=gBcvfFpabk3CnzmXKdYe3w", "name": "Noodle Street", "location": {"display_address": ["627 Commonwealth Ave", "Boston, MA 02215"], "country": "US", "state": "MA", "address3": "", "address2": "", "address1": "627 Commonwealth Ave", "city": "Boston", "zip_code": "02215"}, "is_closed": false, "review_count": 293, "coordinates": {"latitude": 42.3498115539551, "longitude": -71.1015777587891}, "id": "noodle-street-boston", "image_url": "https://s3-media2.fl.yelpcdn.com/bphoto/ANSQtRlabVW28HNXaFJS6w/o.jpg", "categories": [{"alias": "thai", "title": "Thai"}, {"alias": "noodles", "title": "Noodles"}], "rating": 3.0}, {"transactions": [], "distance": 2256.05166966, "price": "$$$", "display_phone": "(617) 227-1576", "phone": "+16172271576", "url": "https://www.yelp.com/biz/chart-house-boston?adjust_creative=gBcvfFpabk3CnzmXKdYe3w&utm_campaign=yelp_api_v3&utm_medium=api_v3_business_search&utm_source=gBcvfFpabk3CnzmXKdYe3w", "name": "Chart House", "location": {"display_address": ["60 Long Wharf", "Boston, MA 02110"], "country": "US", "state": "MA", "address3": "", "address2": "", "address1": "60 Long Wharf", "city": "Boston", "zip_code": "02110"}, "is_closed": false, "review_count": 448, "coordinates": {"latitude": 42.360165, "longitude": -71.0494308}, "id": "chart-house-boston", "image_url": "https://s3-media4.fl.yelpcdn.com/bphoto/DRyipdhfdRBcE7tx7OjbhA/o.jpg", "categories": [{"alias": "seafood", "title": "Seafood"}], "rating": 3.0}, {"transactions": [], "distance": 1886.8553942699998, "price": "$$", "display_phone": "(617) 651-0044", "phone": "+16176510044", "url": "https://www.yelp.com/biz/sway-aveda-spa-boston-4?adjust_creative=gBcvfFpabk3CnzmXKdYe3w&utm_campaign=yelp_api_v3&utm_medium=api_v3_business_search&utm_source=gBcvfFpabk3CnzmXKdYe3w", "name": "Sway Aveda Spa", "location": {"display_address": ["485 Commonwealth Ave", "Boston, MA 02215"], "country": "US", "state": "MA", "address3": "", "address2": "", "address1": "485 Commonwealth Ave", "city": "Boston", "zip_code": "02215"}, "is_closed": false, "review_count": 79, "coordinates": {"latitude": 42.349253920866, "longitude": -71.0941274576721}, "id": "sway-aveda-spa-boston-4", "image_url": "https://s3-media1.fl.yelpcdn.com/bphoto/l6JogZgQT0CTiEUMHwnINw/o.jpg", "categories": [{"alias": "massage", "title": "Massage"}, {"alias": "skincare", "title": "Skin Care"}, {"alias": "spas", "title": "Day Spas"}], "rating": 5.0}, {"transactions": [], "distance": 2431.3926422739996, "price": "$$", "display_phone": "(617) 927-6810", "phone": "+16179276810", "url": "https://www.yelp.com/biz/wahlburgers-boston-12?adjust_creative=gBcvfFpabk3CnzmXKdYe3w&utm_campaign=yelp_api_v3&utm_medium=api_v3_business_search&utm_source=gBcvfFpabk3CnzmXKdYe3w", "name": "Wahlburgers", "location": {"display_address": ["132 Brookline Ave", "Boston, MA 02215"], "country": "US", "state": "MA", "address3": "", "address2": "", "address1": "132 Brookline Ave", "city": "Boston", "zip_code": "02215"}, "is_closed": false, "review_count": 327, "coordinates": {"latitude": 42.3450393676758, "longitude": -71.1004104614258}, "id": "wahlburgers-boston-12", "image_url": "https://s3-media1.fl.yelpcdn.com/bphoto/mvrCqdGZSWwpzsjw7-cuwQ/o.jpg", "categories": [{"alias": "tradamerican", "title": "American (Traditional)"}, {"alias": "burgers", "title": "Burgers"}], "rating": 3.0}, {"transactions": [], "distance": 3426.4911773879994, "price": "$", "display_phone": "", "phone": "", "url": "https://www.yelp.com/biz/clover-boston-6?adjust_creative=gBcvfFpabk3CnzmXKdYe3w&utm_campaign=yelp_api_v3&utm_medium=api_v3_business_search&utm_source=gBcvfFpabk3CnzmXKdYe3w", "name": "Clover", "location": {"display_address": ["807 Commonwealth Ave", "Boston University Bridge", "Boston, MA 02446"], "country": "US", "state": "MA", "address3": "Boston University Bridge", "address2": "", "address1": "807 Commonwealth Ave", "city": "Boston", "zip_code": "02446"}, "is_closed": false, "review_count": 9, "coordinates": {"latitude": 42.3508458584547, "longitude": -71.1124990135431}, "id": "clover-boston-6", "image_url": "https://s3-media2.fl.yelpcdn.com/bphoto/Tv7cJDRQU7eslCjbuQ5jrg/o.jpg", "categories": [{"alias": "hotdogs", "title": "Fast Food"}, {"alias": "foodstands", "title": "Food Stands"}], "rating": 4.5}, {"transactions": ["delivery", "pickup"], "distance": 760.1159692755999, "price": "$$", "display_phone": "(617) 859-8181", "phone": "+16178598181", "url": "https://www.yelp.com/biz/typhoon-asian-bistro-boston?adjust_creative=gBcvfFpabk3CnzmXKdYe3w&utm_campaign=yelp_api_v3&utm_medium=api_v3_business_search&utm_source=gBcvfFpabk3CnzmXKdYe3w", "name": "Typhoon Asian Bistro", "location": {"display_address": ["725 Boylston St", "Boston, MA 02116"], "country": "US", "state": "MA", "address3": "", "address2": "", "address1": "725 Boylston St", "city": "Boston", "zip_code": "02116"}, "is_closed": false, "review_count": 244, "coordinates": {"latitude": 42.3496, "longitude": -71.08016}, "id": "typhoon-asian-bistro-boston", "image_url": "https://s3-media3.fl.yelpcdn.com/bphoto/E80KLNI6yNU0DKn7EbLLDQ/o.jpg", "categories": [{"alias": "japanese", "title": "Japanese"}, {"alias": "asianfusion", "title": "Asian Fusion"}, {"alias": "sushi", "title": "Sushi Bars"}], "rating": 3.0}], "total": 24838}