{"total": 24838, "region": {"center": {"longitude": -71.07124328613281, "latitude": 42.34784169448538}}, "businesses": [{"rating": 4.0, "is_closed": false, "distance": 944.670831818, "name": "Avana Sushi", "id": "avana-sushi-boston", "image_url": "https://s3-media1.fl.yelpcdn.com/bphoto/y8RWhhblmgUTajfeg1E23g/o.jpg", "url": "https://www.yelp.com/biz/avana-sushi-boston?adjust_creative=gBcvfFpabk3CnzmXKdYe3w&utm_campaign=yelp_api_v3&utm_medium=api_v3_business_search&utm_source=gBcvfFpabk3CnzmXKdYe3w", "phone": "+16178187782", "coordinates": {"longitude": -71.0609107137522, "latitude": 42.3515687774432}, "categories": [{"alias": "japanese", "title": "Japanese"}, {"alias": "sushi", "title": "Sushi Bars"}, {"alias": "salad", "title": "Salad"}], "review_count": 791, "location": {"city": "Boston", "address1": "42 Beach St", "address3": "", "address2": "", "zip_code": "02111", "country": "US", "display_address": ["42 Beach St", "Boston, MA 02111"], "state": "MA"}, "price": "$", "transactions": ["delivery", "pickup"], "display_phone": "(617) 818-7782"}, {"rating": 4.5, "is_closed": false, "distance": 1838.0045223060001, "name": "Al's State Street Cafe", "id": "als-state-street-cafe-boston", "image_url": "https://s3-media2.fl.yelpcdn.com/bphoto/3oellu-CceBkOi5FaM6yPg/o.jpg", "url": "https://www.yelp.com/biz/als-state-street-cafe-boston?adjust_creative=gBcvfFpabk3CnzmXKdYe3w&utm_campaign=yelp_api_v3&utm_medium=api_v3_business_search&utm_source=gBcvfFpabk3CnzmXKdYe3w", "phone": "+16177205555", "coordinates": {"longitude": -71.05507, "latitude": 42.35927}, "categories": [{"alias": "sandwiches", "title": "Sandwiches"}, {"alias": "salad", "title": "Salad"}, {"alias": "italian", "title": "Italian"}], "review_count": 411, "location": {"city": "Boston", "address1": "110 State St", "address3": "", "address2": "", "zip_code": "02109", "country": "US", "display_address": ["110 State St", "Boston, MA 02109"], "state": "MA"}, "price": "$", "transactions": ["pickup"], "display_phone": "(617) 720-5555"}, {"rating": 4.5, "is_closed": false, "distance": 1411.3477761002, "name": "Stoked Wood Fired Pizza", "id": "stoked-wood-fired-pizza-boston", "image_url": "https://s3-media3.fl.yelpcdn.com/bphoto/vrGWscFZKXXdrIrKF1gfvQ/o.jpg", "url": "https://www.yelp.com/biz/stoked-wood-fired-pizza-boston?adjust_creative=gBcvfFpabk3CnzmXKdYe3w&utm_campaign=yelp_api_v3&utm_medium=api_v3_business_search&utm_source=gBcvfFpabk3CnzmXKdYe3w", "phone": "+16179823473", "coordinates": {"longitude": -71.0556462478491, "latitude": 42.3531626418461}, "categories": [{"alias": "foodtrucks", "title": "Food Trucks"}, {"alias": "pizza", "title": "Pizza"}], "review_count": 53, "location": {"city": "Boston", "address1": "", "address3": "", "address2": "", "zip_code": "02110", "country": "US", "display_address": ["Boston, MA 02110"], "state": "MA"}, "price": "$", "transactions": [], "display_phone": "(617) 982-3473"}, {"rating": 4.5, "is_closed": false, "distance": 730.512900272, "name": "FoMu", "id": "fomu-boston-2", "image_url": "https://s3-media2.fl.yelpcdn.com/bphoto/I4OqLq6BQQAFTitfamKx8A/o.jpg", "url": "https://www.yelp.com/biz/fomu-boston-2?adjust_creative=gBcvfFpabk3CnzmXKdYe3w&utm_campaign=yelp_api_v3&utm_medium=api_v3_business_search&utm_source=gBcvfFpabk3CnzmXKdYe3w", "phone": "+16179827955", "coordinates": {"longitude": -71.075637, "latitude": 42.342132}, "categories": [{"alias": "icecream", "title": "Ice Cream & Frozen Yogurt"}, {"alias": "bakeries", "title": "Bakeries"}, {"alias": "coffee", "title": "Coffee & Tea"}], "review_count": 84, "location": {"city": "Boston", "address1": "655 Tremont St", "address3": "", "address2": "", "zip_code": "02118", "country": "US", "display_address": ["655 Tremont St", "Boston, MA 02118"], "state": "MA"}, "price": "$", "transactions": [], "display_phone": "(617) 982-7955"}, {"rating": 4.5, "is_closed": false, "distance": 963.2503402499999, "name": "Cafe Madeleine", "id": "cafe-madeleine-boston-2", "image_url": "https://s3-media2.fl.yelpcdn.com/bphoto/InXvjmU3oij4yDhPmo7emQ/o.jpg", "url": "https://www.yelp.com/biz/cafe-madeleine-boston-2?adjust_creative=gBcvfFpabk3CnzmXKdYe3w&utm_campaign=yelp_api_v3&utm_medium=api_v3_business_search&utm_source=gBcvfFpabk3CnzmXKdYe3w", "phone": "+18572398052", "coordinates": {"longitude": -71.0799805819988, "latitude": 42.3420690000057}, "categories": [{"alias": "bakeries", "title": "Bakeries"}, {"alias": "coffee", "title": "Coffee & Tea"}], "review_count": 159, "location": {"city": "Boston", "address1": "517 Columbus Ave", "address3": "", "address2": "", "zip_code": "02118", "country": "US", "display_address": ["517 Columbus Ave", "Boston, MA 02118"], "state": "MA"}, "price": "$", "transactions": [], "display_phone": "(857) 239-8052"}, {"rating": 4.5, "is_closed": false, "distance": 1293.387290104, "name": "Grass Roots Cafe", "id": "grass-roots-cafe-boston", "image_url": "https://s3-media2.fl.yelpcdn.com/bphoto/P6kopthOeQ41rqmd1RULqQ/o.jpg", "url": "https://www.yelp.com/biz/grass-roots-cafe-boston?adjust_creative=gBcvfFpabk3CnzmXKdYe3w&utm_campaign=yelp_api_v3&utm_medium=api_v3_business_search&utm_source=gBcvfFpabk3CnzmXKdYe3w", "phone": "+16179512124", "coordinates": {"longitude": -71.0585443675518, "latitude": 42.3549818247557}, "categories": [{"alias": "sandwiches", "title": "Sandwiches"}, {"alias": "korean", "title": "Korean"}, {"alias": "delis", "title": "Delis"}], "review_count": 102, "location": {"city": "Boston", "address1": "101 Arch St", "address3": "", "address2": "", "zip_code": "02110", "country": "US", "display_address": ["101 Arch St", "Boston, MA 02110"], "state": "MA"}, "price": "$", "transactions": [], "display_phone": "(617) 951-2124"}, {"rating": 4.0, "is_closed": false, "distance": 2372.09634904, "name": "Giacomo's Ristorante", "id": "giacomos-ristorante-boston", "image_url": "https://s3-media4.fl.yelpcdn.com/bphoto/g-lo6_IuVNaiKMCikW4bSQ/o.jpg", "url": "https://www.yelp.com/biz/giacomos-ristorante-boston?adjust_creative=gBcvfFpabk3CnzmXKdYe3w&utm_campaign=yelp_api_v3&utm_medium=api_v3_business_search&utm_source=gBcvfFpabk3CnzmXKdYe3w", "phone": "+16175239026", "coordinates": {"longitude": -71.05344, "latitude": 42.36458}, "categories": [{"alias": "italian", "title": "Italian"}], "review_count": 2524, "location": {"city": "Boston", "address1": "355 Hanover St", "address3": "", "address2": "", "zip_code": "02113", "country": "US", "display_address": ["355 Hanover St", "Boston, MA 02113"], "state": "MA"}, "price": "$$", "transactions": [], "display_phone": "(617) 523-9026"}, {"rating": 4.0, "is_closed": false, "distance": 168.4285998196, "name": "Da Vinci", "id": "da-vinci-boston", "image_url": "https://s3-media3.fl.yelpcdn.com/bphoto/ORybKO4sJzqAHZpZT9ncIw/o.jpg", "url": "https://www.yelp.com/biz/da-vinci-boston?adjust_creative=gBcvfFpabk3CnzmXKdYe3w&utm_campaign=yelp_api_v3&utm_medium=api_v3_business_search&utm_source=gBcvfFpabk3CnzmXKdYe3w", "phone": "+16173500007", "coordinates": {"longitude": -71.07076, "latitude": 42.3493148}, "categories": [{"alias": "italian", "title": "Italian"}], "review_count": 335, "location": {"city": "Boston", "address1": "162 Columbus Ave", "address3": "", "address2": "", "zip_code": "02116", "country": "US", "display_address": ["162 Columbus Ave", "Boston, MA 02116"], "state": "MA"}, "price": "$$$", "transactions": ["delivery"], "display_phone": "(617) 350-0007"}, {"rating": 4.0, "is_closed": false, "distance": 1852.526079928, "name": "James Hook & Co", "id": "james-hook-and-co-boston", "image_url": "https://s3-media1.fl.yelpcdn.com/bphoto/go6uoS1w6jh0_mOhJxkmnw/o.jpg", "url": "https://www.yelp.com/biz/james-hook-and-co-boston?adjust_creative=gBcvfFpabk3CnzmXKdYe3w&utm_campaign=yelp_api_v3&utm_medium=api_v3_business_search&utm_source=gBcvfFpabk3CnzmXKdYe3w", "phone": "+16174235501", "coordinates": {"longitude": -71.050886414287, "latitude": 42.355005189947}, "categories": [{"alias": "seafood", "title": "Seafood"}, {"alias": "seafoodmarkets", "title": "Seafood Markets"}], "review_count": 773, "location": {"city": "Boston", "address1": "440 Atlantic Ave", "address3": "", "address2": "", "zip_code": "02110", "country": "US", "display_address": ["440 Atlantic Ave", "Boston, MA 02110"], "state": "MA"}, "price": "$$", "transactions": [], "display_phone": "(617) 423-5501"}, {"rating": 4.0, "is_closed": false, "distance": 826.8703624980001, "name": "Atlantic Fish Company", "id": "atlantic-fish-company-boston", "image_url": "https://s3-media4.fl.yelpcdn.com/bphoto/mO_5bQ5_k5W90YmLePH5fg/o.jpg", "url": "https://www.yelp.com/biz/atlantic-fish-company-boston?adjust_creative=gBcvfFpabk3CnzmXKdYe3w&utm_campaign=yelp_api_v3&utm_medium=api_v3_business_search&utm_source=gBcvfFpabk3CnzmXKdYe3w", "phone": "+16172674000", "coordinates": {"longitude": -71.0811272917217, "latitude": 42.3492217873536}, "categories": [{"alias": "seafood", "title": "Seafood"}, {"alias": "bars", "title": "Bars"}, {"alias": "tradamerican", "title": "American (Traditional)"}], "review_count": 1924, "location": {"city": "Boston", "address1": "761 Boylston St", "address3": "", "address2": "", "zip_code": "02116", "country": "US", "display_address": ["761 Boylston St", "Boston, MA 02116"], "state": "MA"}, "price": "$$$", "transactions": ["delivery"], "display_phone": "(617) 267-4000"}, {"rating": 4.0, "is_closed": false, "distance": 217.42915649699998, "name": "Flour Bakery + Caf\u00e9", "id": "flour-bakery-caf\u00e9-boston-5", "image_url": "https://s3-media1.fl.yelpcdn.com/bphoto/eJirxHZys8fAdn_YQmbkKQ/o.jpg", "url": "https://www.yelp.com/biz/flour-bakery-caf%C3%A9-boston-5?adjust_creative=gBcvfFpabk3CnzmXKdYe3w&utm_campaign=yelp_api_v3&utm_medium=api_v3_business_search&utm_source=gBcvfFpabk3CnzmXKdYe3w", "phone": "+16174377700", "coordinates": {"longitude": -71.0738261386231, "latitude": 42.3482569197856}, "categories": [{"alias": "coffee", "title": "Coffee & Tea"}, {"alias": "bakeries", "title": "Bakeries"}, {"alias": "sandwiches", "title": "Sandwiches"}], "review_count": 697, "location": {"city": "Boston", "address1": "131 Clarendon St", "address3": "", "address2": "", "zip_code": "02116", "country": "US", "display_address": ["131 Clarendon St", "Boston, MA 02116"], "state": "MA"}, "price": "$$", "transactions": [], "display_phone": "(617) 437-7700"}, {"rating": 4.0, "is_closed": false, "distance": 904.6272339379999, "name": "Thinking Cup", "id": "thinking-cup-boston-2", "image_url": "https://s3-media2.fl.yelpcdn.com/bphoto/aTDgCaha3DYkCrzGgpSngQ/o.jpg", "url": "https://www.yelp.com/biz/thinking-cup-boston-2?adjust_creative=gBcvfFpabk3CnzmXKdYe3w&utm_campaign=yelp_api_v3&utm_medium=api_v3_business_search&utm_source=gBcvfFpabk3CnzmXKdYe3w", "phone": "+16174825555", "coordinates": {"longitude": -71.0639215260744, "latitude": 42.3539183288813}, "categories": [{"alias": "coffee", "title": "Coffee & Tea"}], "review_count": 956, "location": {"city": "Boston", "address1": "165 Tremont St", "address3": "", "address2": "", "zip_code": "02111", "country": "US", "display_address": ["165 Tremont St", "Boston, MA 02111"], "state": "MA"}, "price": "$$", "transactions": [], "display_phone": "(617) 482-5555"}, {"rating": 4.5, "is_closed": false, "distance": 2218.160724964, "name": "The North End", "id": "the-north-end-boston", "image_url": "https://s3-media2.fl.yelpcdn.com/bphoto/2yGKCsw853-Jr93TlJqdJQ/o.jpg", "url": "https://www.yelp.com/biz/the-north-end-boston?adjust_creative=gBcvfFpabk3CnzmXKdYe3w&utm_campaign=yelp_api_v3&utm_medium=api_v3_business_search&utm_source=gBcvfFpabk3CnzmXKdYe3w", "phone": "", "coordinates": {"longitude": -71.0547208786011, "latitude": 42.3636176318038}, "categories": [{"alias": "localflavor", "title": "Local Flavor"}, {"alias": "landmarks", "title": "Landmarks & Historical Buildings"}], "review_count": 84, "location": {"city": "Boston", "address1": "", "address3": "", "address2": "", "zip_code": "02455", "country": "US", "display_address": ["Boston, MA 02455"], "state": "MA"}, "transactions": [], "display_phone": ""}, {"rating": 4.5, "is_closed": false, "distance": 2413.030877544, "name": "Cafe Polonia", "id": "cafe-polonia-boston", "image_url": "https://s3-media1.fl.yelpcdn.com/bphoto/3m2OxYFwijxSX1QB-nXrpw/o.jpg", "url": "https://www.yelp.com/biz/cafe-polonia-boston?adjust_creative=gBcvfFpabk3CnzmXKdYe3w&utm_campaign=yelp_api_v3&utm_medium=api_v3_business_search&utm_source=gBcvfFpabk3CnzmXKdYe3w", "phone": "+16172690110", "coordinates": {"longitude": -71.05712, "latitude": 42.32878}, "categories": [{"alias": "polish", "title": "Polish"}, {"alias": "austrian", "title": "Austrian"}, {"alias": "hungarian", "title": "Hungarian"}], "review_count": 357, "location": {"city": "Boston", "address1": "611 Dorchester Ave", "address3": "", "address2": "", "zip_code": "02127", "country": "US", "display_address": ["611 Dorchester Ave", "Boston, MA 02127"], "state": "MA"}, "price": "$$", "transactions": [], "display_phone": "(617) 269-0110"}, {"rating": 4.5, "is_closed": false, "distance": 1489.850850218, "name": "Cornish Pasty", "id": "cornish-pasty-boston-3", "image_url": "https://s3-media4.fl.yelpcdn.com/bphoto/ctcCOzvqC0_qSZlOytk3lg/o.jpg", "url": "https://www.yelp.com/biz/cornish-pasty-boston-3?adjust_creative=gBcvfFpabk3CnzmXKdYe3w&utm_campaign=yelp_api_v3&utm_medium=api_v3_business_search&utm_source=gBcvfFpabk3CnzmXKdYe3w", "phone": "+18572504497", "coordinates": {"longitude": -71.0891945599281, "latitude": 42.349712092998}, "categories": [{"alias": "british", "title": "British"}], "review_count": 92, "location": {"city": "Boston", "address1": "51 Massachusetts Ave", "address3": null, "address2": "", "zip_code": "02115", "country": "US", "display_address": ["51 Massachusetts Ave", "Boston, MA 02115"], "state": "MA"}, "price": "$$", "transactions": [], "display_phone": "(857) 250-4497"}, {"rating": 4.0, "is_closed": false, "distance": 1290.1366968917998, "name": "No. 9 Park", "id": "no-9-park-boston", "image_url": "https://s3-media2.fl.yelpcdn.com/bphoto/yK04LH8kqNrrG9RkCJUGQQ/o.jpg", "url": "https://www.yelp.com/biz/no-9-park-boston?adjust_creative=gBcvfFpabk3CnzmXKdYe3w&utm_campaign=yelp_api_v3&utm_medium=api_v3_business_search&utm_source=gBcvfFpabk3CnzmXKdYe3w", "phone": "+16177429991", "coordinates": {"longitude": -71.0627899169922, "latitude": 42.3576202392578}, "categories": [{"alias": "french", "title": "French"}, {"alias": "italian", "title": "Italian"}], "review_count": 544, "location": {"city": "Boston", "address1": "9 Park St", "address3": "", "address2": "", "zip_code": "02108", "country": "US", "display_address": ["9 Park St", "Boston, MA 02108"], "state": "MA"}, "price": "$$$$", "transactions": [], "display_phone": "(617) 742-9991"}, {"rating": 4.5, "is_closed": false, "distance": 1494.5329030799999, "name": "DavidsTea", "id": "davidstea-boston-5", "image_url": "https://s3-media1.fl.yelpcdn.com/bphoto/hvdE9RX__r17uEdhazlJEQ/o.jpg", "url": "https://www.yelp.com/biz/davidstea-boston-5?adjust_creative=gBcvfFpabk3CnzmXKdYe3w&utm_campaign=yelp_api_v3&utm_medium=api_v3_business_search&utm_source=gBcvfFpabk3CnzmXKdYe3w", "phone": "+16172920098", "coordinates": {"longitude": -71.0585168749094, "latitude": 42.3571470379829}, "categories": [{"alias": "coffee", "title": "Coffee & Tea"}], "review_count": 88, "location": {"city": "Boston", "address1": "298 Washington St", "address3": "", "address2": null, "zip_code": "02108", "country": "US", "display_address": ["298 Washington St", "Boston, MA 02108"], "state": "MA"}, "price": "$$", "transactions": [], "display_phone": "(617) 292-0098"}, {"rating": 4.0, "is_closed": false, "distance": 1060.1540607522, "name": "Orinoco", "id": "orinoco-boston", "image_url": "https://s3-media4.fl.yelpcdn.com/bphoto/h9q39McxW0JiV1m38IpNJw/o.jpg", "url": "https://www.yelp.com/biz/orinoco-boston?adjust_creative=gBcvfFpabk3CnzmXKdYe3w&utm_campaign=yelp_api_v3&utm_medium=api_v3_business_search&utm_source=gBcvfFpabk3CnzmXKdYe3w", "phone": "+16173697075", "coordinates": {"longitude": -71.07596, "latitude": 42.33892}, "categories": [{"alias": "caribbean", "title": "Caribbean"}, {"alias": "venezuelan", "title": "Venezuelan"}], "review_count": 506, "location": {"city": "Boston", "address1": "477 Shawmut Ave", "address3": "", "address2": null, "zip_code": "02118", "country": "US", "display_address": ["477 Shawmut Ave", "Boston, MA 02118"], "state": "MA"}, "price": "$$", "transactions": ["delivery", "pickup"], "display_phone": "(617) 369-7075"}, {"rating": 4.5, "is_closed": false, "distance": 2117.5433397579995, "name": "Pauli's", "id": "paulis-boston", "image_url": "https://s3-media4.fl.yelpcdn.com/bphoto/mMhGo-iXq8n6l6HYopCpSw/o.jpg", "url": "https://www.yelp.com/biz/paulis-boston?adjust_creative=gBcvfFpabk3CnzmXKdYe3w&utm_campaign=yelp_api_v3&utm_medium=api_v3_business_search&utm_source=gBcvfFpabk3CnzmXKdYe3w", "phone": "+18572847064", "coordinates": {"longitude": -71.0560854227807, "latitude": 42.363244212396}, "categories": [{"alias": "sandwiches", "title": "Sandwiches"}, {"alias": "catering", "title": "Caterers"}, {"alias": "seafood", "title": "Seafood"}], "review_count": 558, "location": {"city": "Boston", "address1": "65 Salem St", "address3": "", "address2": null, "zip_code": "02113", "country": "US", "display_address": ["65 Salem St", "Boston, MA 02113"], "state": "MA"}, "price": "$$", "transactions": ["delivery", "pickup"], "display_phone": "(857) 284-7064"}, {"rating": 4.0, "is_closed": false, "distance": 558.3565218368, "name": "Sorellina", "id": "sorellina-boston", "image_url": "https://s3-media2.fl.yelpcdn.com/bphoto/vqP9W3fewWzlIQzTnkH8mQ/o.jpg", "url": "https://www.yelp.com/biz/sorellina-boston?adjust_creative=gBcvfFpabk3CnzmXKdYe3w&utm_campaign=yelp_api_v3&utm_medium=api_v3_business_search&utm_source=gBcvfFpabk3CnzmXKdYe3w", "phone": "+16174124600", "coordinates": {"longitude": -71.0779036594912, "latitude": 42.3488367161261}, "categories": [{"alias": "italian", "title": "Italian"}], "review_count": 568, "location": {"city": "Boston", "address1": "1 Huntington Ave", "address3": "", "address2": null, "zip_code": "02116", "country": "US", "display_address": ["1 Huntington Ave", "Boston, MA 02116"], "state": "MA"}, "price": "$$$$", "transactions": [], "display_phone": "(617) 412-4600"}, {"rating": 4.5, "is_closed": false, "distance": 1642.704354078, "name": "Biddy Early's", "id": "biddy-earlys-boston", "image_url": "https://s3-media3.fl.yelpcdn.com/bphoto/8kEgR1yeFVStVone5j4aug/o.jpg", "url": "https://www.yelp.com/biz/biddy-earlys-boston?adjust_creative=gBcvfFpabk3CnzmXKdYe3w&utm_campaign=yelp_api_v3&utm_medium=api_v3_business_search&utm_source=gBcvfFpabk3CnzmXKdYe3w", "phone": "+16176549944", "coordinates": {"longitude": -71.0537415, "latitude": 42.3546486}, "categories": [{"alias": "divebars", "title": "Dive Bars"}], "review_count": 193, "location": {"city": "Boston", "address1": "141 Pearl St", "address3": "", "address2": "", "zip_code": "02110", "country": "US", "display_address": ["141 Pearl St", "Boston, MA 02110"], "state": "MA"}, "price": "$", "transactions": [], "display_phone": "(617) 654-9944"}, {"rating": 4.0, "is_closed": false, "distance": 1172.085379746, "name": "Yvonne's", "id": "yvonnes-boston", "image_url": "https://s3-media2.fl.yelpcdn.com/bphoto/S6kIwQhsGAhk5Ys3nUadxA/o.jpg", "url": "https://www.yelp.com/biz/yvonnes-boston?adjust_creative=gBcvfFpabk3CnzmXKdYe3w&utm_campaign=yelp_api_v3&utm_medium=api_v3_business_search&utm_source=gBcvfFpabk3CnzmXKdYe3w", "phone": "+16172670047", "coordinates": {"longitude": -71.06141, "latitude": 42.35549}, "categories": [{"alias": "lounges", "title": "Lounges"}], "review_count": 445, "location": {"city": "Boston", "address1": "2 Winter Pl", "address3": "", "address2": null, "zip_code": "02108", "country": "US", "display_address": ["2 Winter Pl", "Boston, MA 02108"], "state": "MA"}, "price": "$$$", "transactions": [], "display_phone": "(617) 267-0047"}, {"rating": 4.0, "is_closed": false, "distance": 967.1573349679999, "name": "Caff\u00e8 Nero", "id": "caff\u00e8-nero-boston-8", "image_url": "https://s3-media3.fl.yelpcdn.com/bphoto/Bc-CTaWWqLqlfO9c8-wp_g/o.jpg", "url": "https://www.yelp.com/biz/caff%C3%A8-nero-boston-8?adjust_creative=gBcvfFpabk3CnzmXKdYe3w&utm_campaign=yelp_api_v3&utm_medium=api_v3_business_search&utm_source=gBcvfFpabk3CnzmXKdYe3w", "phone": "+16179363432", "coordinates": {"longitude": -71.0623134436442, "latitude": 42.3535129107984}, "categories": [{"alias": "coffee", "title": "Coffee & Tea"}], "review_count": 309, "location": {"city": "Boston", "address1": "560 Washington St", "address3": "", "address2": "", "zip_code": "02111", "country": "US", "display_address": ["560 Washington St", "Boston, MA 02111"], "state": "MA"}, "price": "$$", "transactions": [], "display_phone": "(617) 936-3432"}, {"rating": 4.5, "is_closed": false, "distance": 2245.9722123059996, "name": "Galleria Umberto", "id": "galleria-umberto-boston", "image_url": "https://s3-media1.fl.yelpcdn.com/bphoto/C2Lhz7qkKESCAYpov_qdFA/o.jpg", "url": "https://www.yelp.com/biz/galleria-umberto-boston?adjust_creative=gBcvfFpabk3CnzmXKdYe3w&utm_campaign=yelp_api_v3&utm_medium=api_v3_business_search&utm_source=gBcvfFpabk3CnzmXKdYe3w", "phone": "+16172275709", "coordinates": {"longitude": -71.0544499754906, "latitude": 42.36377812922}, "categories": [{"alias": "pizza", "title": "Pizza"}, {"alias": "salad", "title": "Salad"}, {"alias": "italian", "title": "Italian"}], "review_count": 478, "location": {"city": "Boston", "address1": "289 Hanover St", "address3": "", "address2": "", "zip_code": "02113", "country": "US", "display_address": ["289 Hanover St", "Boston, MA 02113"], "state": "MA"}, "price": "$", "transactions": [], "display_phone": "(617) 227-5709"}, {"rating": 4.5, "is_closed": false, "distance": 2205.53046371, "name": "North End Fish Market", "id": "north-end-fish-market-boston", "image_url": "https://s3-media3.fl.yelpcdn.com/bphoto/sl8uGbwVMlpE3A4xU29byQ/o.jpg", "url": "https://www.yelp.com/biz/north-end-fish-market-boston?adjust_creative=gBcvfFpabk3CnzmXKdYe3w&utm_campaign=yelp_api_v3&utm_medium=api_v3_business_search&utm_source=gBcvfFpabk3CnzmXKdYe3w", "phone": "+18573627477", "coordinates": {"longitude": -71.0554885864258, "latitude": 42.3639030456543}, "categories": [{"alias": "seafoodmarkets", "title": "Seafood Markets"}, {"alias": "seafood", "title": "Seafood"}], "review_count": 192, "location": {"city": "Boston", "address1": "99 Salem St", "address3": "", "address2": "", "zip_code": "02113", "country": "US", "display_address": ["99 Salem St", "Boston, MA 02113"], "state": "MA"}, "price": "$$", "transactions": ["delivery", "pickup"], "display_phone": "(857) 362-7477"}, {"rating": 4.5, "is_closed": false, "distance": 1510.7572228889999, "name": "Luke's Lobster Downtown Crossing", "id": "lukes-lobster-downtown-crossing-boston", "image_url": "https://s3-media2.fl.yelpcdn.com/bphoto/M5zlEGKHZfdGUVRtG26nVg/o.jpg", "url": "https://www.yelp.com/biz/lukes-lobster-downtown-crossing-boston?adjust_creative=gBcvfFpabk3CnzmXKdYe3w&utm_campaign=yelp_api_v3&utm_medium=api_v3_business_search&utm_source=gBcvfFpabk3CnzmXKdYe3w", "phone": "+18573174843", "coordinates": {"longitude": -71.0584545135498, "latitude": 42.3572093993425}, "categories": [{"alias": "seafood", "title": "Seafood"}], "review_count": 103, "location": {"city": "Boston", "address1": "290 Washington St", "address3": "", "address2": null, "zip_code": "02108", "country": "US", "display_address": ["290 Washington St", "Boston, MA 02108"], "state": "MA"}, "price": "$$", "transactions": [], "display_phone": "(857) 317-4843"}, {"rating": 4.5, "is_closed": false, "distance": 2149.553112358, "name": "Blaze Fast Fire'd Pizza", "id": "blaze-fast-fired-pizza-boston-2", "image_url": "https://s3-media1.fl.yelpcdn.com/bphoto/160aGhxp0SUrehsS_ueimg/o.jpg", "url": "https://www.yelp.com/biz/blaze-fast-fired-pizza-boston-2?adjust_creative=gBcvfFpabk3CnzmXKdYe3w&utm_campaign=yelp_api_v3&utm_medium=api_v3_business_search&utm_source=gBcvfFpabk3CnzmXKdYe3w", "phone": "+16174205200", "coordinates": {"longitude": -71.0969848632812, "latitude": 42.3444633483887}, "categories": [{"alias": "salad", "title": "Salad"}, {"alias": "pizza", "title": "Pizza"}, {"alias": "hotdogs", "title": "Fast Food"}], "review_count": 85, "location": {"city": "Boston", "address1": "1282 Boylston St", "address3": null, "address2": "", "zip_code": "02215", "country": "US", "display_address": ["1282 Boylston St", "Boston, MA 02215"], "state": "MA"}, "price": "$", "transactions": [], "display_phone": "(617) 420-5200"}, {"rating": 4.5, "is_closed": false, "distance": 1491.335627302, "name": "Clover Food Lab", "id": "clover-food-lab-boston-10", "image_url": "https://s3-media1.fl.yelpcdn.com/bphoto/3edLCx8z8uq7eibZJRecFg/o.jpg", "url": "https://www.yelp.com/biz/clover-food-lab-boston-10?adjust_creative=gBcvfFpabk3CnzmXKdYe3w&utm_campaign=yelp_api_v3&utm_medium=api_v3_business_search&utm_source=gBcvfFpabk3CnzmXKdYe3w", "phone": "", "coordinates": {"longitude": -71.0646584630013, "latitude": 42.3774761706591}, "categories": [{"alias": "coffee", "title": "Coffee & Tea"}, {"alias": "sandwiches", "title": "Sandwiches"}, {"alias": "vegetarian", "title": "Vegetarian"}], "review_count": 99, "location": {"city": "Boston", "address1": "27 School St", "address3": "", "address2": "", "zip_code": "02201", "country": "US", "display_address": ["27 School St", "Boston, MA 02201"], "state": "MA"}, "price": "$", "transactions": [], "display_phone": ""}, {"rating": 4.5, "is_closed": false, "distance": 2342.427039602, "name": "Tenoch Mexican", "id": "tenoch-mexican-boston", "image_url": "https://s3-media3.fl.yelpcdn.com/bphoto/PQJsNrMYu0a4NTJajSAWxw/o.jpg", "url": "https://www.yelp.com/biz/tenoch-mexican-boston?adjust_creative=gBcvfFpabk3CnzmXKdYe3w&utm_campaign=yelp_api_v3&utm_medium=api_v3_business_search&utm_source=gBcvfFpabk3CnzmXKdYe3w", "phone": "+16172489537", "coordinates": {"longitude": -71.051844, "latitude": 42.363278}, "categories": [{"alias": "mexican", "title": "Mexican"}, {"alias": "foodtrucks", "title": "Food Trucks"}], "review_count": 232, "location": {"city": "Boston", "address1": "3 Lewis St", "address3": "", "address2": "", "zip_code": "02110", "country": "US", "display_address": ["3 Lewis St", "Boston, MA 02110"], "state": "MA"}, "price": "$", "transactions": [], "display_phone": "(617) 248-9537"}, {"rating": 4.5, "is_closed": false, "distance": 1489.576618682, "name": "Asta", "id": "asta-boston", "image_url": "https://s3-media1.fl.yelpcdn.com/bphoto/bZNl2bCjXDSckCY2Nk1mkQ/o.jpg", "url": "https://www.yelp.com/biz/asta-boston?adjust_creative=gBcvfFpabk3CnzmXKdYe3w&utm_campaign=yelp_api_v3&utm_medium=api_v3_business_search&utm_source=gBcvfFpabk3CnzmXKdYe3w", "phone": "+16175859575", "coordinates": {"longitude": -71.0891662, "latitude": 42.3498513}, "categories": [{"alias": "newamerican", "title": "American (New)"}], "review_count": 145, "location": {"city": "Boston", "address1": "47 Massachusetts Ave", "address3": "", "address2": "", "zip_code": "02115", "country": "US", "display_address": ["47 Massachusetts Ave", "Boston, MA 02115"], "state": "MA"}, "price": "$$$$", "transactions": [], "display_phone": "(617) 585-9575"}, {"rating": 4.0, "is_closed": false, "distance": 2348.2179277239998, "name": "El Pel\u00f3n Taquer\u00eda", "id": "el-pel\u00f3n-taquer\u00eda-boston-3", "image_url": "https://s3-media3.fl.yelpcdn.com/bphoto/b7L9Y1vElmxPX1svRedAJw/o.jpg", "url": "https://www.yelp.com/biz/el-pel%C3%B3n-taquer%C3%ADa-boston-3?adjust_creative=gBcvfFpabk3CnzmXKdYe3w&utm_campaign=yelp_api_v3&utm_medium=api_v3_business_search&utm_source=gBcvfFpabk3CnzmXKdYe3w", "phone": "+16172629090", "coordinates": {"longitude": -71.0989652574062, "latitude": 42.3432216793299}, "categories": [{"alias": "mexican", "title": "Mexican"}, {"alias": "gluten_free", "title": "Gluten-Free"}, {"alias": "vegetarian", "title": "Vegetarian"}], "review_count": 911, "location": {"city": "Boston", "address1": "92 Peterborough St", "address3": "", "address2": "", "zip_code": "02215", "country": "US", "display_address": ["92 Peterborough St", "Boston, MA 02215"], "state": "MA"}, "price": "$", "transactions": ["delivery", "pickup"], "display_phone": "(617) 262-9090"}, {"rating": 4.0, "is_closed": false, "distance": 2282.713283572, "name": "Regina Pizza", "id": "regina-pizza-boston-2", "image_url": "https://s3-media3.fl.yelpcdn.com/bphoto/sq0_SrEbI6SvNhc5i34LPg/o.jpg", "url": "https://www.yelp.com/biz/regina-pizza-boston-2?adjust_creative=gBcvfFpabk3CnzmXKdYe3w&utm_campaign=yelp_api_v3&utm_medium=api_v3_business_search&utm_source=gBcvfFpabk3CnzmXKdYe3w", "phone": "+16172270765", "coordinates": {"longitude": -71.0568833173494, "latitude": 42.3654185550275}, "categories": [{"alias": "pizza", "title": "Pizza"}, {"alias": "italian", "title": "Italian"}], "review_count": 1293, "location": {"city": "Boston", "address1": "11 1/2 Thacher St", "address3": "", "address2": "", "zip_code": "02113", "country": "US", "display_address": ["11 1/2 Thacher St", "Boston, MA 02113"], "state": "MA"}, "price": "$$", "transactions": ["delivery"], "display_phone": "(617) 227-0765"}, {"rating": 4.5, "is_closed": false, "distance": 1390.01592612, "name": "Charles River Bike Paths", "id": "charles-river-bike-paths-boston", "image_url": "https://s3-media2.fl.yelpcdn.com/bphoto/HrngKNGEFep_yf4WzR3z_w/o.jpg", "url": "https://www.yelp.com/biz/charles-river-bike-paths-boston?adjust_creative=gBcvfFpabk3CnzmXKdYe3w&utm_campaign=yelp_api_v3&utm_medium=api_v3_business_search&utm_source=gBcvfFpabk3CnzmXKdYe3w", "phone": "", "coordinates": {"longitude": -71.0725625172882, "latitude": 42.3603070472907}, "categories": [{"alias": "parks", "title": "Parks"}], "review_count": 74, "location": {"city": "Boston", "address1": "Storrow And Memorial Dr", "address3": "", "address2": null, "zip_code": "02228", "country": "US", "display_address": ["Storrow And Memorial Dr", "Boston, MA 02228"], "state": "MA"}, "transactions": [], "display_phone": ""}, {"rating": 4.0, "is_closed": false, "distance": 2288.87094028, "name": "Carmelina's", "id": "carmelinas-boston-2", "image_url": "https://s3-media3.fl.yelpcdn.com/bphoto/qJSoZ8eOLSXkBq92py5zMg/o.jpg", "url": "https://www.yelp.com/biz/carmelinas-boston-2?adjust_creative=gBcvfFpabk3CnzmXKdYe3w&utm_campaign=yelp_api_v3&utm_medium=api_v3_business_search&utm_source=gBcvfFpabk3CnzmXKdYe3w", "phone": "+16177420020", "coordinates": {"longitude": -71.0541488, "latitude": 42.3640943}, "categories": [{"alias": "italian", "title": "Italian"}], "review_count": 580, "location": {"city": "Boston", "address1": "307 Hanover St", "address3": "", "address2": "", "zip_code": "02113", "country": "US", "display_address": ["307 Hanover St", "Boston, MA 02113"], "state": "MA"}, "price": "$$", "transactions": [], "display_phone": "(617) 742-0020"}, {"rating": 4.5, "is_closed": false, "distance": 2339.079773336, "name": "Gyro City", "id": "gyro-city-boston", "image_url": "https://s3-media4.fl.yelpcdn.com/bphoto/zLxQR9gJkdWmZI4OagHBxg/o.jpg", "url": "https://www.yelp.com/biz/gyro-city-boston?adjust_creative=gBcvfFpabk3CnzmXKdYe3w&utm_campaign=yelp_api_v3&utm_medium=api_v3_business_search&utm_source=gBcvfFpabk3CnzmXKdYe3w", "phone": "+16172664976", "coordinates": {"longitude": -71.0989929288362, "latitude": 42.3431622796524}, "categories": [{"alias": "greek", "title": "Greek"}], "review_count": 225, "location": {"city": "Boston", "address1": "88 Peterborough St", "address3": "", "address2": "", "zip_code": "02215", "country": "US", "display_address": ["88 Peterborough St", "Boston, MA 02215"], "state": "MA"}, "price": "$", "transactions": ["pickup", "delivery"], "display_phone": "(617) 266-4976"}, {"rating": 4.0, "is_closed": false, "distance": 2140.0523736679997, "name": "Ernesto's", "id": "ernestos-boston", "image_url": "https://s3-media3.fl.yelpcdn.com/bphoto/RnPETYggrID5916lhqJdvg/o.jpg", "url": "https://www.yelp.com/biz/ernestos-boston?adjust_creative=gBcvfFpabk3CnzmXKdYe3w&utm_campaign=yelp_api_v3&utm_medium=api_v3_business_search&utm_source=gBcvfFpabk3CnzmXKdYe3w", "phone": "+16175231373", "coordinates": {"longitude": -71.0558242797852, "latitude": 42.363353729248}, "categories": [{"alias": "pizza", "title": "Pizza"}, {"alias": "desserts", "title": "Desserts"}], "review_count": 581, "location": {"city": "Boston", "address1": "69 Salem St", "address3": "", "address2": null, "zip_code": "02113", "country": "US", "display_address": ["69 Salem St", "Boston, MA 02113"], "state": "MA"}, "price": "$", "transactions": ["delivery"], "display_phone": "(617) 523-1373"}, {"rating": 4.0, "is_closed": false, "distance": 933.9422632683999, "name": "Shabu-Zen", "id": "shabu-zen-boston", "image_url": "https://s3-media4.fl.yelpcdn.com/bphoto/MzzPIqeynyVSx78Zoq0XAQ/o.jpg", "url": "https://www.yelp.com/biz/shabu-zen-boston?adjust_creative=gBcvfFpabk3CnzmXKdYe3w&utm_campaign=yelp_api_v3&utm_medium=api_v3_business_search&utm_source=gBcvfFpabk3CnzmXKdYe3w", "phone": "+16172928828", "coordinates": {"longitude": -71.0606166602329, "latitude": 42.3508174908521}, "categories": [{"alias": "hotpot", "title": "Hot Pot"}, {"alias": "diyfood", "title": "Do-It-Yourself Food"}, {"alias": "fondue", "title": "Fondue"}], "review_count": 720, "location": {"city": "Boston", "address1": "16 Tyler St", "address3": "", "address2": "", "zip_code": "02111", "country": "US", "display_address": ["16 Tyler St", "Boston, MA 02111"], "state": "MA"}, "price": "$$", "transactions": [], "display_phone": "(617) 292-8828"}, {"rating": 4.5, "is_closed": false, "distance": 2364.994170686, "name": "Pomodoro", "id": "pomodoro-boston-2", "image_url": "https://s3-media2.fl.yelpcdn.com/bphoto/JB1KVFXAhGgm-Un-ONZHUw/o.jpg", "url": "https://www.yelp.com/biz/pomodoro-boston-2?adjust_creative=gBcvfFpabk3CnzmXKdYe3w&utm_campaign=yelp_api_v3&utm_medium=api_v3_business_search&utm_source=gBcvfFpabk3CnzmXKdYe3w", "phone": "+16173674348", "coordinates": {"longitude": -71.05349, "latitude": 42.36454}, "categories": [{"alias": "italian", "title": "Italian"}, {"alias": "mediterranean", "title": "Mediterranean"}], "review_count": 180, "location": {"city": "Boston", "address1": "351 Hanover St", "address3": "", "address2": "", "zip_code": "02113", "country": "US", "display_address": ["351 Hanover St", "Boston, MA 02113"], "state": "MA"}, "price": "$$", "transactions": [], "display_phone": "(617) 367-4348"}, {"rating": 4.0, "is_closed": false, "distance": 1484.5545927449998, "name": "Deuxave", "id": "deuxave-boston", "image_url": "https://s3-media1.fl.yelpcdn.com/bphoto/T5yczouXE4xgEURtRduamQ/o.jpg", "url": "https://www.yelp.com/biz/deuxave-boston?adjust_creative=gBcvfFpabk3CnzmXKdYe3w&utm_campaign=yelp_api_v3&utm_medium=api_v3_business_search&utm_source=gBcvfFpabk3CnzmXKdYe3w", "phone": "+16175175915", "coordinates": {"longitude": -71.089166, "latitude": 42.349521}, "categories": [{"alias": "newamerican", "title": "American (New)"}, {"alias": "bars", "title": "Bars"}], "review_count": 393, "location": {"city": "Boston", "address1": "371 Commonwealth Ave", "address3": "", "address2": "", "zip_code": "02115", "country": "US", "display_address": ["371 Commonwealth Ave", "Boston, MA 02115"], "state": "MA"}, "price": "$$$", "transactions": [], "display_phone": "(617) 517-5915"}, {"rating": 4.0, "is_closed": false, "distance": 414.0047427683999, "name": "The Salty Pig", "id": "the-salty-pig-boston", "image_url": "https://s3-media4.fl.yelpcdn.com/bphoto/0lHTVuN-EiK4Z3fLAqY-9A/o.jpg", "url": "https://www.yelp.com/biz/the-salty-pig-boston?adjust_creative=gBcvfFpabk3CnzmXKdYe3w&utm_campaign=yelp_api_v3&utm_medium=api_v3_business_search&utm_source=gBcvfFpabk3CnzmXKdYe3w", "phone": "+16175366200", "coordinates": {"longitude": -71.0761067061516, "latitude": 42.3468620018707}, "categories": [{"alias": "newamerican", "title": "American (New)"}, {"alias": "italian", "title": "Italian"}, {"alias": "pizza", "title": "Pizza"}], "review_count": 1088, "location": {"city": "Boston", "address1": "130 Dartmouth St", "address3": "", "address2": "", "zip_code": "02116", "country": "US", "display_address": ["130 Dartmouth St", "Boston, MA 02116"], "state": "MA"}, "price": "$$", "transactions": [], "display_phone": "(617) 536-6200"}, {"rating": 4.5, "is_closed": false, "distance": 1950.0981110520001, "name": "sweetgreen", "id": "sweetgreen-boston-3", "image_url": "https://s3-media2.fl.yelpcdn.com/bphoto/hTc34T7IptRkZ2V31HtGmQ/o.jpg", "url": "https://www.yelp.com/biz/sweetgreen-boston-3?adjust_creative=gBcvfFpabk3CnzmXKdYe3w&utm_campaign=yelp_api_v3&utm_medium=api_v3_business_search&utm_source=gBcvfFpabk3CnzmXKdYe3w", "phone": "+18572637916", "coordinates": {"longitude": -71.0477234423169, "latitude": 42.3501618122571}, "categories": [{"alias": "salad", "title": "Salad"}, {"alias": "vegetarian", "title": "Vegetarian"}], "review_count": 108, "location": {"city": "Boston", "address1": "372 Congress St", "address3": "", "address2": "", "zip_code": "02210", "country": "US", "display_address": ["372 Congress St", "Boston, MA 02210"], "state": "MA"}, "price": "$$", "transactions": [], "display_phone": "(857) 263-7916"}, {"rating": 4.5, "is_closed": false, "distance": 2178.871907544, "name": "Aria Trattoria", "id": "aria-trattoria-boston", "image_url": "https://s3-media1.fl.yelpcdn.com/bphoto/NPAQlQaiPWQUvLRpA2ei8A/o.jpg", "url": "https://www.yelp.com/biz/aria-trattoria-boston?adjust_creative=gBcvfFpabk3CnzmXKdYe3w&utm_campaign=yelp_api_v3&utm_medium=api_v3_business_search&utm_source=gBcvfFpabk3CnzmXKdYe3w", "phone": "+16177421276", "coordinates": {"longitude": -71.0549427, "latitude": 42.3632969}, "categories": [{"alias": "italian", "title": "Italian"}], "review_count": 116, "location": {"city": "Boston", "address1": "253 Hanover St", "address3": "", "address2": "", "zip_code": "02113", "country": "US", "display_address": ["253 Hanover St", "Boston, MA 02113"], "state": "MA"}, "price": "$$$", "transactions": [], "display_phone": "(617) 742-1276"}, {"rating": 4.5, "is_closed": false, "distance": 1984.7790661839997, "name": "The Hawthorne", "id": "the-hawthorne-boston-2", "image_url": "https://s3-media2.fl.yelpcdn.com/bphoto/zdD_eMLEHJEb40u2j10GRg/o.jpg", "url": "https://www.yelp.com/biz/the-hawthorne-boston-2?adjust_creative=gBcvfFpabk3CnzmXKdYe3w&utm_campaign=yelp_api_v3&utm_medium=api_v3_business_search&utm_source=gBcvfFpabk3CnzmXKdYe3w", "phone": "+16175329150", "coordinates": {"longitude": -71.0953666879285, "latitude": 42.3486925877382}, "categories": [{"alias": "cocktailbars", "title": "Cocktail Bars"}], "review_count": 244, "location": {"city": "Boston", "address1": "500A Commonwealth Ave", "address3": "Hotel Commonwealth", "address2": "", "zip_code": "02215", "country": "US", "display_address": ["500A Commonwealth Ave", "Hotel Commonwealth", "Boston, MA 02215"], "state": "MA"}, "price": "$$", "transactions": [], "display_phone": "(617) 532-9150"}, {"rating": 4.0, "is_closed": false, "distance": 1232.246371362, "name": "Al's South Street Cafe", "id": "als-south-street-cafe-boston", "image_url": "https://s3-media1.fl.yelpcdn.com/bphoto/DZtsHccwa8DjnI-HKWwAoA/o.jpg", "url": "https://www.yelp.com/biz/als-south-street-cafe-boston?adjust_creative=gBcvfFpabk3CnzmXKdYe3w&utm_campaign=yelp_api_v3&utm_medium=api_v3_business_search&utm_source=gBcvfFpabk3CnzmXKdYe3w", "phone": "+16173301002", "coordinates": {"longitude": -71.0573908, "latitude": 42.3520819}, "categories": [{"alias": "sandwiches", "title": "Sandwiches"}, {"alias": "salad", "title": "Salad"}], "review_count": 169, "location": {"city": "Boston", "address1": "179 Essex St", "address3": "", "address2": "", "zip_code": "02111", "country": "US", "display_address": ["179 Essex St", "Boston, MA 02111"], "state": "MA"}, "price": "$", "transactions": [], "display_phone": "(617) 330-1002"}, {"rating": 4.0, "is_closed": false, "distance": 1465.03691956, "name": "Ogawa Coffee", "id": "ogawa-coffee-boston-2", "image_url": "https://s3-media4.fl.yelpcdn.com/bphoto/zAJtV5-9zgkLjmzlDsncKA/o.jpg", "url": "https://www.yelp.com/biz/ogawa-coffee-boston-2?adjust_creative=gBcvfFpabk3CnzmXKdYe3w&utm_campaign=yelp_api_v3&utm_medium=api_v3_business_search&utm_source=gBcvfFpabk3CnzmXKdYe3w", "phone": "+16177807139", "coordinates": {"longitude": -71.0579220950603, "latitude": 42.3567795753479}, "categories": [{"alias": "coffee", "title": "Coffee & Tea"}, {"alias": "sandwiches", "title": "Sandwiches"}, {"alias": "cafes", "title": "Cafes"}], "review_count": 264, "location": {"city": "Boston", "address1": "10 Milk St", "address3": "", "address2": "", "zip_code": "02108", "country": "US", "display_address": ["10 Milk St", "Boston, MA 02108"], "state": "MA"}, "price": "$$", "transactions": [], "display_phone": "(617) 780-7139"}, {"rating": 4.0, "is_closed": false, "distance": 1069.576698172, "name": "Toscano Restaurant", "id": "toscano-restaurant-boston", "image_url": "https://s3-media3.fl.yelpcdn.com/bphoto/AWBMahACQe5vFXEECqgLZw/o.jpg", "url": "https://www.yelp.com/biz/toscano-restaurant-boston?adjust_creative=gBcvfFpabk3CnzmXKdYe3w&utm_campaign=yelp_api_v3&utm_medium=api_v3_business_search&utm_source=gBcvfFpabk3CnzmXKdYe3w", "phone": "+16177234090", "coordinates": {"longitude": -71.069847310732, "latitude": 42.357408381604}, "categories": [{"alias": "italian", "title": "Italian"}], "review_count": 383, "location": {"city": "Boston", "address1": "47 Charles St", "address3": "", "address2": "", "zip_code": "02114", "country": "US", "display_address": ["47 Charles St", "Boston, MA 02114"], "state": "MA"}, "price": "$$$", "transactions": [], "display_phone": "(617) 723-4090"}, {"rating": 4.0, "is_closed": false, "distance": 2185.660103664, "name": "Modern Pastry Shop", "id": "modern-pastry-shop-boston", "image_url": "https://s3-media1.fl.yelpcdn.com/bphoto/ahWS2VxSune19MjENJbWLA/o.jpg", "url": "https://www.yelp.com/biz/modern-pastry-shop-boston?adjust_creative=gBcvfFpabk3CnzmXKdYe3w&utm_campaign=yelp_api_v3&utm_medium=api_v3_business_search&utm_source=gBcvfFpabk3CnzmXKdYe3w", "phone": "+16175233783", "coordinates": {"longitude": -71.0547409057617, "latitude": 42.3632507324219}, "categories": [{"alias": "bakeries", "title": "Bakeries"}, {"alias": "coffee", "title": "Coffee & Tea"}, {"alias": "desserts", "title": "Desserts"}], "review_count": 1291, "location": {"city": "Boston", "address1": "257 Hanover St", "address3": "", "address2": "", "zip_code": "02113", "country": "US", "display_address": ["257 Hanover St", "Boston, MA 02113"], "state": "MA"}, "price": "$", "transactions": ["delivery"], "display_phone": "(617) 523-3783"}, {"rating": 4.0, "is_closed": false, "distance": 936.6873305997999, "name": "Shojo", "id": "shojo-boston-2", "image_url": "https://s3-media1.fl.yelpcdn.com/bphoto/8KiRiDfoonaUSQQghT0npQ/o.jpg", "url": "https://www.yelp.com/biz/shojo-boston-2?adjust_creative=gBcvfFpabk3CnzmXKdYe3w&utm_campaign=yelp_api_v3&utm_medium=api_v3_business_search&utm_source=gBcvfFpabk3CnzmXKdYe3w", "phone": "+16174237888", "coordinates": {"longitude": -71.0607028752565, "latitude": 42.3510322719812}, "categories": [{"alias": "asianfusion", "title": "Asian Fusion"}, {"alias": "japanese", "title": "Japanese"}, {"alias": "tapas", "title": "Tapas Bars"}], "review_count": 542, "location": {"city": "Boston", "address1": "9A Tyler St", "address3": "", "address2": "", "zip_code": "02111", "country": "US", "display_address": ["9A Tyler St", "Boston, MA 02111"], "state": "MA"}, "price": "$$", "transactions": [], "display_phone": "(617) 423-7888"}, {"rating": 4.0, "is_closed": false, "distance": 1387.196040572, "name": "Clover", "id": "clover-boston-3", "image_url": "https://s3-media3.fl.yelpcdn.com/bphoto/Oei0YBfPx4pSvPCdQDXZEA/o.jpg", "url": "https://www.yelp.com/biz/clover-boston-3?adjust_creative=gBcvfFpabk3CnzmXKdYe3w&utm_campaign=yelp_api_v3&utm_medium=api_v3_business_search&utm_source=gBcvfFpabk3CnzmXKdYe3w", "phone": "", "coordinates": {"longitude": -71.0558474063873, "latitude": 42.3529583942053}, "categories": [{"alias": "foodtrucks", "title": "Food Trucks"}, {"alias": "hotdogs", "title": "Fast Food"}], "review_count": 202, "location": {"city": "Boston", "address1": "Dewey Sq", "address3": "", "address2": "", "zip_code": "02111", "country": "US", "display_address": ["Dewey Sq", "Boston, MA 02111"], "state": "MA"}, "price": "$", "transactions": [], "display_phone": ""}, {"rating": 4.0, "is_closed": false, "distance": 1876.645097574, "name": "Saus", "id": "saus-boston", "image_url": "https://s3-media4.fl.yelpcdn.com/bphoto/U_GZbsZdQYeoFwWmKdRg_g/o.jpg", "url": "https://www.yelp.com/biz/saus-boston?adjust_creative=gBcvfFpabk3CnzmXKdYe3w&utm_campaign=yelp_api_v3&utm_medium=api_v3_business_search&utm_source=gBcvfFpabk3CnzmXKdYe3w", "phone": "+16172488835", "coordinates": {"longitude": -71.0570718850568, "latitude": 42.3610800091721}, "categories": [{"alias": "sandwiches", "title": "Sandwiches"}, {"alias": "beerbar", "title": "Beer Bar"}], "review_count": 976, "location": {"city": "Boston", "address1": "33 Union St", "address3": "", "address2": "", "zip_code": "02108", "country": "US", "display_address": ["33 Union St", "Boston, MA 02108"], "state": "MA"}, "price": "$", "transactions": [], "display_phone": "(617) 248-8835"}]}