{"region": {"center": {"latitude": 42.34784169448538, "longitude": -71.07124328613281}}, "businesses": [{"transactions": [], "distance": 3344.67683794, "price": "$$", "display_phone": "(617) 268-1155", "phone": "+16172681155", "url": "https://www.yelp.com/biz/l-street-diner-and-pizzeria-boston-2?adjust_creative=gBcvfFpabk3CnzmXKdYe3w&utm_campaign=yelp_api_v3&utm_medium=api_v3_business_search&utm_source=gBcvfFpabk3CnzmXKdYe3w", "name": "L Street Diner & Pizzeria", "location": {"display_address": ["108 L St", "Boston, MA 02127"], "country": "US", "state": "MA", "address3": "", "address2": "", "address1": "108 L St", "city": "Boston", "zip_code": "02127"}, "is_closed": false, "review_count": 73, "coordinates": {"latitude": 42.33404, "longitude": -71.03512}, "id": "l-street-diner-and-pizzeria-boston-2", "image_url": "https://s3-media3.fl.yelpcdn.com/bphoto/6Bpx-VtcyQN7oD4AwJH1MA/o.jpg", "categories": [{"alias": "diners", "title": "Diners"}, {"alias": "pizza", "title": "Pizza"}, {"alias": "bbq", "title": "Barbeque"}], "rating": 4.0}, {"transactions": [], "distance": 1934.7047739519999, "price": "$$", "display_phone": "(617) 451-9460", "phone": "+16174519460", "url": "https://www.yelp.com/biz/central-wharf-co-boston?adjust_creative=gBcvfFpabk3CnzmXKdYe3w&utm_campaign=yelp_api_v3&utm_medium=api_v3_business_search&utm_source=gBcvfFpabk3CnzmXKdYe3w", "name": "Central Wharf Co", "location": {"display_address": ["160 Milk St", "Boston, MA 02109"], "country": "US", "state": "MA", "address3": "", "address2": "", "address1": "160 Milk St", "city": "Boston", "zip_code": "02109"}, "is_closed": false, "review_count": 83, "coordinates": {"latitude": 42.3585953, "longitude": -71.0527324}, "id": "central-wharf-co-boston", "image_url": "https://s3-media3.fl.yelpcdn.com/bphoto/JJ3c9sHJg7sU5eg27DmyFA/o.jpg", "categories": [{"alias": "bars", "title": "Bars"}, {"alias": "newamerican", "title": "American (New)"}], "rating": 3.5}, {"transactions": ["delivery", "pickup"], "distance": 4556.240454424, "price": "$$", "display_phone": "(617) 903-4324", "phone": "+16179034324", "url": "https://www.yelp.com/biz/ecco-pizzeria-boston-2?adjust_creative=gBcvfFpabk3CnzmXKdYe3w&utm_campaign=yelp_api_v3&utm_medium=api_v3_business_search&utm_source=gBcvfFpabk3CnzmXKdYe3w", "name": "Ecco Pizzeria", "location": {"display_address": ["1147 Commonwealth Ave", "Boston, MA 02134"], "country": "US", "state": "MA", "address3": "", "address2": null, "address1": "1147 Commonwealth Ave", "city": "Boston", "zip_code": "02134"}, "is_closed": false, "review_count": 143, "coordinates": {"latitude": 42.3508071899414, "longitude": -71.1265411376953}, "id": "ecco-pizzeria-boston-2", "image_url": "https://s3-media2.fl.yelpcdn.com/bphoto/xOn3pMtx3us_yLY9xlCV3Q/o.jpg", "categories": [{"alias": "pizza", "title": "Pizza"}, {"alias": "salad", "title": "Salad"}, {"alias": "italian", "title": "Italian"}], "rating": 4.0}, {"transactions": [], "distance": 1497.8594571401998, "price": "$$$", "display_phone": "(617) 542-2070", "phone": "+16175422070", "url": "https://www.yelp.com/biz/downtown-harvard-club-of-boston-boston-3?adjust_creative=gBcvfFpabk3CnzmXKdYe3w&utm_campaign=yelp_api_v3&utm_medium=api_v3_business_search&utm_source=gBcvfFpabk3CnzmXKdYe3w", "name": "Downtown Harvard Club of Boston", "location": {"display_address": ["1 Federal St", "Downtown Club", "Boston, MA 02110"], "country": "US", "state": "MA", "address3": "Downtown Club", "address2": "", "address1": "1 Federal St", "city": "Boston", "zip_code": "02110"}, "is_closed": false, "review_count": 29, "coordinates": {"latitude": 42.3560898077472, "longitude": -71.0568286527786}, "id": "downtown-harvard-club-of-boston-boston-3", "image_url": "https://s3-media1.fl.yelpcdn.com/bphoto/CPzYDthUtBeFw_rVufWiNg/o.jpg", "categories": [{"alias": "venues", "title": "Venues & Event Spaces"}, {"alias": "newamerican", "title": "American (New)"}], "rating": 4.0}, {"transactions": ["delivery", "pickup"], "distance": 977.449708004, "price": "$$", "display_phone": "(617) 574-8888", "phone": "+16175748888", "url": "https://www.yelp.com/biz/five-spices-house-boston?adjust_creative=gBcvfFpabk3CnzmXKdYe3w&utm_campaign=yelp_api_v3&utm_medium=api_v3_business_search&utm_source=gBcvfFpabk3CnzmXKdYe3w", "name": "Five Spices House", "location": {"display_address": ["58 Beach St", "Boston, MA 02111"], "country": "US", "state": "MA", "address3": "", "address2": "", "address1": "58 Beach St", "city": "Boston", "zip_code": "02111"}, "is_closed": false, "review_count": 82, "coordinates": {"latitude": 42.3513735830784, "longitude": -71.0604359954596}, "id": "five-spices-house-boston", "image_url": "https://s3-media3.fl.yelpcdn.com/bphoto/JPxFHvqviEAqqSjT6TwV_A/o.jpg", "categories": [{"alias": "taiwanese", "title": "Taiwanese"}, {"alias": "szechuan", "title": "Szechuan"}], "rating": 3.5}, {"transactions": ["delivery"], "distance": 923.402920916, "price": "$$", "display_phone": "(617) 426-4338", "phone": "+16174264338", "url": "https://www.yelp.com/biz/china-pearl-restaurant-boston?adjust_creative=gBcvfFpabk3CnzmXKdYe3w&utm_campaign=yelp_api_v3&utm_medium=api_v3_business_search&utm_source=gBcvfFpabk3CnzmXKdYe3w", "name": "China Pearl Restaurant", "location": {"display_address": ["9 Tyler St", "Boston, MA 02111"], "country": "US", "state": "MA", "address3": "", "address2": "", "address1": "9 Tyler St", "city": "Boston", "zip_code": "02111"}, "is_closed": false, "review_count": 441, "coordinates": {"latitude": 42.35113, "longitude": -71.06077}, "id": "china-pearl-restaurant-boston", "image_url": "https://s3-media1.fl.yelpcdn.com/bphoto/T1OnLz5RT6kLGL7jYgny3g/o.jpg", "categories": [{"alias": "dimsum", "title": "Dim Sum"}, {"alias": "seafood", "title": "Seafood"}, {"alias": "cantonese", "title": "Cantonese"}], "rating": 3.0}, {"transactions": [], "distance": 2270.2270582479996, "price": "$$", "display_phone": "(617) 720-3550", "phone": "+16177203550", "url": "https://www.yelp.com/biz/locontes-italian-cuisine-boston?adjust_creative=gBcvfFpabk3CnzmXKdYe3w&utm_campaign=yelp_api_v3&utm_medium=api_v3_business_search&utm_source=gBcvfFpabk3CnzmXKdYe3w", "name": "Loconte's Italian Cuisine", "location": {"display_address": ["116 Salem St", "Boston, MA 02113"], "country": "US", "state": "MA", "address3": "", "address2": "", "address1": "116 Salem St", "city": "Boston", "zip_code": "02113"}, "is_closed": false, "review_count": 213, "coordinates": {"latitude": 42.3646572122421, "longitude": -71.0555757840528}, "id": "locontes-italian-cuisine-boston", "image_url": "https://s3-media2.fl.yelpcdn.com/bphoto/UsPCYyDFtrCjdfsxBtLr9g/o.jpg", "categories": [{"alias": "italian", "title": "Italian"}], "rating": 3.5}, {"transactions": [], "distance": 2060.688737172, "price": "$", "display_phone": "", "phone": "", "url": "https://www.yelp.com/biz/punters-pub-boston?adjust_creative=gBcvfFpabk3CnzmXKdYe3w&utm_campaign=yelp_api_v3&utm_medium=api_v3_business_search&utm_source=gBcvfFpabk3CnzmXKdYe3w", "name": "Punter's Pub", "location": {"display_address": ["450 Huntington Ave", "Boston, MA 02108"], "country": "US", "state": "MA", "address3": "", "address2": null, "address1": "450 Huntington Ave", "city": "Boston", "zip_code": "02108"}, "is_closed": false, "review_count": 83, "coordinates": {"latitude": 42.3385463238788, "longitude": -71.0929369926453}, "id": "punters-pub-boston", "image_url": "https://s3-media3.fl.yelpcdn.com/bphoto/JEsfPot3wrntW9osWpsY7w/o.jpg", "categories": [{"alias": "pubs", "title": "Pubs"}, {"alias": "divebars", "title": "Dive Bars"}], "rating": 3.5}, {"transactions": [], "distance": 1213.2975193999998, "price": "$", "display_phone": "(617) 615-6264", "phone": "+16176156264", "url": "https://www.yelp.com/biz/sate-asian-grill-boston-2?adjust_creative=gBcvfFpabk3CnzmXKdYe3w&utm_campaign=yelp_api_v3&utm_medium=api_v3_business_search&utm_source=gBcvfFpabk3CnzmXKdYe3w", "name": "Sate Asian Grill", "location": {"display_address": ["89 South St", "Boston, MA 02111"], "country": "US", "state": "MA", "address3": "", "address2": "", "address1": "89 South St", "city": "Boston", "zip_code": "02111"}, "is_closed": false, "review_count": 28, "coordinates": {"latitude": 42.3518072367983, "longitude": -71.0574840959931}, "id": "sate-asian-grill-boston-2", "image_url": "https://s3-media2.fl.yelpcdn.com/bphoto/at6EnanYSUxEGUH-pMTYYw/o.jpg", "categories": [{"alias": "asianfusion", "title": "Asian Fusion"}], "rating": 4.0}, {"transactions": [], "distance": 1259.816618638, "price": "$", "display_phone": "(617) 482-2244", "phone": "+16174822244", "url": "https://www.yelp.com/biz/five-guys-boston?adjust_creative=gBcvfFpabk3CnzmXKdYe3w&utm_campaign=yelp_api_v3&utm_medium=api_v3_business_search&utm_source=gBcvfFpabk3CnzmXKdYe3w", "name": "Five Guys", "location": {"display_address": ["58 Summer St", "Boston, MA 02110"], "country": "US", "state": "MA", "address3": "", "address2": "", "address1": "58 Summer St", "city": "Boston", "zip_code": "02110"}, "is_closed": false, "review_count": 88, "coordinates": {"latitude": 42.3543727, "longitude": -71.0587193}, "id": "five-guys-boston", "image_url": "https://s3-media1.fl.yelpcdn.com/bphoto/C6k8eV3wYTJ5T0_qXbPgfA/o.jpg", "categories": [{"alias": "burgers", "title": "Burgers"}, {"alias": "hotdogs", "title": "Fast Food"}], "rating": 3.5}, {"transactions": [], "distance": 1924.47532611, "price": "$$", "display_phone": "(617) 523-3600", "phone": "+16175233600", "url": "https://www.yelp.com/biz/north-26-boston?adjust_creative=gBcvfFpabk3CnzmXKdYe3w&utm_campaign=yelp_api_v3&utm_medium=api_v3_business_search&utm_source=gBcvfFpabk3CnzmXKdYe3w", "name": "North 26", "location": {"display_address": ["Millennium Bostonian Hotel", "Boston, MA 02109"], "country": "US", "state": "MA", "address3": "", "address2": "", "address1": "Millennium Bostonian Hotel", "city": "Boston", "zip_code": "02109"}, "is_closed": false, "review_count": 143, "coordinates": {"latitude": 42.3610124719964, "longitude": -71.0560464900237}, "id": "north-26-boston", "image_url": "https://s3-media3.fl.yelpcdn.com/bphoto/S0nVwsrribwjAasWVPA70w/o.jpg", "categories": [{"alias": "tradamerican", "title": "American (Traditional)"}, {"alias": "modern_european", "title": "Modern European"}, {"alias": "steak", "title": "Steakhouses"}], "rating": 3.5}, {"transactions": [], "distance": 1548.587978269, "price": "$", "display_phone": "(617) 371-3991", "phone": "+16173713991", "url": "https://www.yelp.com/biz/panera-cares-boston?adjust_creative=gBcvfFpabk3CnzmXKdYe3w&utm_campaign=yelp_api_v3&utm_medium=api_v3_business_search&utm_source=gBcvfFpabk3CnzmXKdYe3w", "name": "Panera Cares", "location": {"display_address": ["3 Center Plz", "Boston, MA 02108"], "country": "US", "state": "MA", "address3": "", "address2": "", "address1": "3 Center Plz", "city": "Boston", "zip_code": "02108"}, "is_closed": false, "review_count": 44, "coordinates": {"latitude": 42.359086, "longitude": -71.060119}, "id": "panera-cares-boston", "image_url": "https://s3-media2.fl.yelpcdn.com/bphoto/6vCgKseZ11pTf0dsbBKTcA/o.jpg", "categories": [{"alias": "cafes", "title": "Cafes"}, {"alias": "publicservicesgovt", "title": "Public Services & Government"}], "rating": 4.0}, {"transactions": [], "distance": 3231.5975284439996, "price": "$$", "display_phone": "(617) 734-1911", "phone": "+16177341911", "url": "https://www.yelp.com/biz/flames-restaurant-ii-boston?adjust_creative=gBcvfFpabk3CnzmXKdYe3w&utm_campaign=yelp_api_v3&utm_medium=api_v3_business_search&utm_source=gBcvfFpabk3CnzmXKdYe3w", "name": "Flames Restaurant II", "location": {"display_address": ["746 Huntington Ave", "Boston, MA 02115"], "country": "US", "state": "MA", "address3": "", "address2": null, "address1": "746 Huntington Ave", "city": "Boston", "zip_code": "02115"}, "is_closed": false, "review_count": 123, "coordinates": {"latitude": 42.3335876464844, "longitude": -71.1055068969727}, "id": "flames-restaurant-ii-boston", "image_url": "https://s3-media3.fl.yelpcdn.com/bphoto/ObA4k7-X2RMoGFz9RwJtMw/o.jpg", "categories": [{"alias": "caribbean", "title": "Caribbean"}], "rating": 3.5}, {"transactions": [], "distance": 2804.492049966, "display_phone": "", "phone": "", "url": "https://www.yelp.com/biz/charlestown-navy-yard-no-title?adjust_creative=gBcvfFpabk3CnzmXKdYe3w&utm_campaign=yelp_api_v3&utm_medium=api_v3_business_search&utm_source=gBcvfFpabk3CnzmXKdYe3w", "name": "Charlestown Navy Yard", "location": {"display_address": ["Charlestown Navy Yard", "Boston, MA 02129"], "country": "US", "state": "MA", "address3": "", "address2": "", "address1": "Charlestown Navy Yard", "city": "Boston", "zip_code": "02129"}, "is_closed": false, "review_count": 15, "coordinates": {"latitude": 42.3720207, "longitude": -71.0593491}, "id": "charlestown-navy-yard-no-title", "image_url": "https://s3-media3.fl.yelpcdn.com/bphoto/VeHI8TrQvXAb8mI2kLH_dg/o.jpg", "categories": [{"alias": "landmarks", "title": "Landmarks & Historical Buildings"}], "rating": 4.5}, {"transactions": ["delivery", "pickup"], "distance": 1034.5761763961998, "price": "$$", "display_phone": "(617) 267-1755", "phone": "+16172671755", "url": "https://www.yelp.com/biz/house-of-siam-boston?adjust_creative=gBcvfFpabk3CnzmXKdYe3w&utm_campaign=yelp_api_v3&utm_medium=api_v3_business_search&utm_source=gBcvfFpabk3CnzmXKdYe3w", "name": "House of Siam", "location": {"display_address": ["542 Columbus Ave", "Boston, MA 02118"], "country": "US", "state": "MA", "address3": "", "address2": "", "address1": "542 Columbus Ave", "city": "Boston", "zip_code": "02118"}, "is_closed": false, "review_count": 167, "coordinates": {"latitude": 42.34141, "longitude": -71.08033}, "id": "house-of-siam-boston", "image_url": "https://s3-media4.fl.yelpcdn.com/bphoto/rg5NMsfnvNLy5q5CD7--dg/o.jpg", "categories": [{"alias": "thai", "title": "Thai"}], "rating": 3.5}, {"transactions": [], "distance": 5232.45357936, "price": "$$", "display_phone": "(617) 787-1117", "phone": "+16177871117", "url": "https://www.yelp.com/biz/lulus-allston-boston-4?adjust_creative=gBcvfFpabk3CnzmXKdYe3w&utm_campaign=yelp_api_v3&utm_medium=api_v3_business_search&utm_source=gBcvfFpabk3CnzmXKdYe3w", "name": "Lulu's Allston", "location": {"display_address": ["421 Cambridge St", "Boston, MA 02134"], "country": "US", "state": "MA", "address3": "", "address2": "", "address1": "421 Cambridge St", "city": "Boston", "zip_code": "02134"}, "is_closed": false, "review_count": 275, "coordinates": {"latitude": 42.3550647, "longitude": -71.1341649}, "id": "lulus-allston-boston-4", "image_url": "https://s3-media1.fl.yelpcdn.com/bphoto/_vSyZJ7GTvMrHiAQD5utGA/o.jpg", "categories": [{"alias": "newamerican", "title": "American (New)"}, {"alias": "sportsbars", "title": "Sports Bars"}], "rating": 4.0}, {"transactions": [], "distance": 2180.3127496459997, "price": "$$", "display_phone": "", "phone": "", "url": "https://www.yelp.com/biz/by-chloe-seaport-boston?adjust_creative=gBcvfFpabk3CnzmXKdYe3w&utm_campaign=yelp_api_v3&utm_medium=api_v3_business_search&utm_source=gBcvfFpabk3CnzmXKdYe3w", "name": "by CHLOE. Seaport", "location": {"display_address": ["107 Seaport Blvd", "Boston, MA 02210"], "country": "US", "state": "MA", "address3": "", "address2": null, "address1": "107 Seaport Blvd", "city": "Boston", "zip_code": "02210"}, "is_closed": false, "review_count": 70, "coordinates": {"latitude": 42.351040143053, "longitude": -71.0450695105518}, "id": "by-chloe-seaport-boston", "image_url": "https://s3-media1.fl.yelpcdn.com/bphoto/ygOsN6uSha27N_N-w3Fyjg/o.jpg", "categories": [{"alias": "vegan", "title": "Vegan"}, {"alias": "vegetarian", "title": "Vegetarian"}], "rating": 4.0}, {"transactions": ["pickup"], "distance": 1341.826090561, "price": "$", "display_phone": "(617) 357-1899", "phone": "+16173571899", "url": "https://www.yelp.com/biz/sidebar-food-and-spirits-boston?adjust_creative=gBcvfFpabk3CnzmXKdYe3w&utm_campaign=yelp_api_v3&utm_medium=api_v3_business_search&utm_source=gBcvfFpabk3CnzmXKdYe3w", "name": "Sidebar Food & Spirits", "location": {"display_address": ["14 Bromfield St", "Boston, MA 02108"], "country": "US", "state": "MA", "address3": "", "address2": null, "address1": "14 Bromfield St", "city": "Boston", "zip_code": "02108"}, "is_closed": false, "review_count": 205, "coordinates": {"latitude": 42.3564764857292, "longitude": -71.0598278045654}, "id": "sidebar-food-and-spirits-boston", "image_url": "https://s3-media3.fl.yelpcdn.com/bphoto/u6opo4gM89ofmQksB02CaQ/o.jpg", "categories": [{"alias": "tradamerican", "title": "American (Traditional)"}, {"alias": "divebars", "title": "Dive Bars"}, {"alias": "pubs", "title": "Pubs"}], "rating": 3.5}, {"transactions": [], "distance": 2291.305227964, "price": "$$", "display_phone": "(617) 523-8123", "phone": "+16175238123", "url": "https://www.yelp.com/biz/pushcart-cafe-and-pizzeria-boston?adjust_creative=gBcvfFpabk3CnzmXKdYe3w&utm_campaign=yelp_api_v3&utm_medium=api_v3_business_search&utm_source=gBcvfFpabk3CnzmXKdYe3w", "name": "Pushcart Cafe & Pizzeria", "location": {"display_address": ["117 Salem St", "Boston, MA 02113"], "country": "US", "state": "MA", "address3": "", "address2": "", "address1": "117 Salem St", "city": "Boston", "zip_code": "02113"}, "is_closed": false, "review_count": 183, "coordinates": {"latitude": 42.364838, "longitude": -71.055475}, "id": "pushcart-cafe-and-pizzeria-boston", "image_url": "https://s3-media1.fl.yelpcdn.com/bphoto/vkB2CdQLMxii6MazGl3lfA/o.jpg", "categories": [{"alias": "italian", "title": "Italian"}, {"alias": "bars", "title": "Bars"}, {"alias": "pizza", "title": "Pizza"}], "rating": 3.5}, {"transactions": [], "distance": 583.2857617057999, "price": "$$", "display_phone": "(617) 859-2250", "phone": "+16178592250", "url": "https://www.yelp.com/biz/map-room-caf%C3%A9-boston-3?adjust_creative=gBcvfFpabk3CnzmXKdYe3w&utm_campaign=yelp_api_v3&utm_medium=api_v3_business_search&utm_source=gBcvfFpabk3CnzmXKdYe3w", "name": "Map Room Caf\u00e9", "location": {"display_address": ["230 Darmouth St", "The Boston Public Library", "Boston, MA 02116"], "country": "US", "state": "MA", "address3": "The Boston Public Library", "address2": "", "address1": "230 Darmouth St", "city": "Boston", "zip_code": "02116"}, "is_closed": false, "review_count": 51, "coordinates": {"latitude": 42.349856, "longitude": -71.077799}, "id": "map-room-caf\u00e9-boston-3", "image_url": "https://s3-media4.fl.yelpcdn.com/bphoto/8-P7g5MAK0pjlfYDLn-bNQ/o.jpg", "categories": [{"alias": "cafes", "title": "Cafes"}], "rating": 3.5}, {"transactions": [], "distance": 1006.2625266939999, "price": "$$$", "display_phone": "(617) 247-0400", "phone": "+16172470400", "url": "https://www.yelp.com/biz/towne-stove-and-spirits-boston?adjust_creative=gBcvfFpabk3CnzmXKdYe3w&utm_campaign=yelp_api_v3&utm_medium=api_v3_business_search&utm_source=gBcvfFpabk3CnzmXKdYe3w", "name": "Towne Stove and Spirits", "location": {"display_address": ["900 Boylston St", "Boston, MA 02115"], "country": "US", "state": "MA", "address3": "", "address2": "", "address1": "900 Boylston St", "city": "Boston", "zip_code": "02115"}, "is_closed": false, "review_count": 518, "coordinates": {"latitude": 42.3482841, "longitude": -71.0834741}, "id": "towne-stove-and-spirits-boston", "image_url": "https://s3-media1.fl.yelpcdn.com/bphoto/Mrf9-3xBt8UcI6ieJMo22w/o.jpg", "categories": [{"alias": "newamerican", "title": "American (New)"}], "rating": 3.0}, {"transactions": ["delivery"], "distance": 910.3543278224, "price": "$$", "display_phone": "(617) 399-7777", "phone": "+16173997777", "url": "https://www.yelp.com/biz/the-cheesecake-factory-boston?adjust_creative=gBcvfFpabk3CnzmXKdYe3w&utm_campaign=yelp_api_v3&utm_medium=api_v3_business_search&utm_source=gBcvfFpabk3CnzmXKdYe3w", "name": "The Cheesecake Factory", "location": {"display_address": ["115 Huntington Ave", "Ste 181", "Boston, MA 02199"], "country": "US", "state": "MA", "address3": "", "address2": "Ste 181", "address1": "115 Huntington Ave", "city": "Boston", "zip_code": "02199"}, "is_closed": false, "review_count": 494, "coordinates": {"latitude": 42.345868, "longitude": -71.081993}, "id": "the-cheesecake-factory-boston", "image_url": "https://s3-media3.fl.yelpcdn.com/bphoto/Yd4yquMsY6l8Vu-gC1rLzQ/o.jpg", "categories": [{"alias": "tradamerican", "title": "American (Traditional)"}, {"alias": "desserts", "title": "Desserts"}], "rating": 3.0}, {"transactions": ["delivery", "pickup"], "distance": 1124.32998552, "price": "$", "display_phone": "(857) 991-1246", "phone": "+18579911246", "url": "https://www.yelp.com/biz/zitis-italian-express-boston?adjust_creative=gBcvfFpabk3CnzmXKdYe3w&utm_campaign=yelp_api_v3&utm_medium=api_v3_business_search&utm_source=gBcvfFpabk3CnzmXKdYe3w", "name": "Ziti's Italian Express", "location": {"display_address": ["140 Tremont St", "Boston, MA 02111"], "country": "US", "state": "MA", "address3": "", "address2": "", "address1": "140 Tremont St", "city": "Boston", "zip_code": "02111"}, "is_closed": false, "review_count": 61, "coordinates": {"latitude": 42.3555908, "longitude": -71.0626297}, "id": "zitis-italian-express-boston", "image_url": "https://s3-media2.fl.yelpcdn.com/bphoto/fFLwrm4STx1DmnIbg0PJqg/o.jpg", "categories": [{"alias": "pizza", "title": "Pizza"}, {"alias": "italian", "title": "Italian"}, {"alias": "burgers", "title": "Burgers"}], "rating": 3.5}, {"transactions": [], "distance": 1046.261063054, "price": "$$", "display_phone": "(617) 807-7300", "phone": "+16178077300", "url": "https://www.yelp.com/biz/eataly-boston-boston?adjust_creative=gBcvfFpabk3CnzmXKdYe3w&utm_campaign=yelp_api_v3&utm_medium=api_v3_business_search&utm_source=gBcvfFpabk3CnzmXKdYe3w", "name": "Eataly Boston", "location": {"display_address": ["800 Boylston St", "Boston, MA 02199"], "country": "US", "state": "MA", "address3": null, "address2": "", "address1": "800 Boylston St", "city": "Boston", "zip_code": "02199"}, "is_closed": false, "review_count": 318, "coordinates": {"latitude": 42.34751, "longitude": -71.08135}, "id": "eataly-boston-boston", "image_url": "https://s3-media2.fl.yelpcdn.com/bphoto/aNCVMIYnaVbQtm7iEyGbTA/o.jpg", "categories": [{"alias": "grocery", "title": "Grocery"}, {"alias": "italian", "title": "Italian"}, {"alias": "desserts", "title": "Desserts"}], "rating": 3.0}, {"transactions": ["delivery"], "distance": 2183.1416474979997, "price": "$$$", "display_phone": "(617) 295-0001", "phone": "+16172950001", "url": "https://www.yelp.com/biz/empire-asian-restaurant-and-lounge-boston-12?adjust_creative=gBcvfFpabk3CnzmXKdYe3w&utm_campaign=yelp_api_v3&utm_medium=api_v3_business_search&utm_source=gBcvfFpabk3CnzmXKdYe3w", "name": "Empire Asian Restaurant & Lounge", "location": {"display_address": ["1 Marina Park Dr", "Boston, MA 02210"], "country": "US", "state": "MA", "address3": null, "address2": null, "address1": "1 Marina Park Dr", "city": "Boston", "zip_code": "02210"}, "is_closed": false, "review_count": 333, "coordinates": {"latitude": 42.3529147863218, "longitude": -71.0455799102783}, "id": "empire-asian-restaurant-and-lounge-boston-12", "image_url": "https://s3-media1.fl.yelpcdn.com/bphoto/oJaXvq5HFON8R3Nrirb8ag/o.jpg", "categories": [{"alias": "lounges", "title": "Lounges"}, {"alias": "asianfusion", "title": "Asian Fusion"}], "rating": 3.5}, {"transactions": [], "distance": 1809.0555534519997, "price": "$$$", "display_phone": "(857) 284-7742", "phone": "+18572847742", "url": "https://www.yelp.com/biz/oak-rowan-boston?adjust_creative=gBcvfFpabk3CnzmXKdYe3w&utm_campaign=yelp_api_v3&utm_medium=api_v3_business_search&utm_source=gBcvfFpabk3CnzmXKdYe3w", "name": "Oak + Rowan", "location": {"display_address": ["321 A St Fort Point", "Boston, MA 02210"], "country": "US", "state": "MA", "address3": null, "address2": "", "address1": "321 A St Fort Point", "city": "Boston", "zip_code": "02210"}, "is_closed": false, "review_count": 55, "coordinates": {"latitude": 42.3490794393063, "longitude": -71.0492948112806}, "id": "oak-rowan-boston", "image_url": "https://s3-media4.fl.yelpcdn.com/bphoto/84-v6ILhGIHMdd2pd-DxHg/o.jpg", "categories": [{"alias": "seafood", "title": "Seafood"}, {"alias": "newamerican", "title": "American (New)"}, {"alias": "bars", "title": "Bars"}], "rating": 3.5}, {"transactions": [], "distance": 1442.608594051, "price": "$", "display_phone": "", "phone": "", "url": "https://www.yelp.com/biz/clover-boston-9?adjust_creative=gBcvfFpabk3CnzmXKdYe3w&utm_campaign=yelp_api_v3&utm_medium=api_v3_business_search&utm_source=gBcvfFpabk3CnzmXKdYe3w", "name": "Clover", "location": {"display_address": ["160 Federal St", "Boston, MA 02110"], "country": "US", "state": "MA", "address3": null, "address2": "", "address1": "160 Federal St", "city": "Boston", "zip_code": "02110"}, "is_closed": false, "review_count": 21, "coordinates": {"latitude": 42.35408, "longitude": -71.05587}, "id": "clover-boston-9", "image_url": "https://s3-media1.fl.yelpcdn.com/bphoto/WLcxuJhIFw3-OODH3xjksw/o.jpg", "categories": [{"alias": "breakfast_brunch", "title": "Breakfast & Brunch"}, {"alias": "sandwiches", "title": "Sandwiches"}, {"alias": "csa", "title": "CSA"}], "rating": 4.0}, {"transactions": [], "distance": 2172.307087816, "price": "$$", "display_phone": "(617) 227-4321", "phone": "+16172274321", "url": "https://www.yelp.com/biz/the-landing-boston?adjust_creative=gBcvfFpabk3CnzmXKdYe3w&utm_campaign=yelp_api_v3&utm_medium=api_v3_business_search&utm_source=gBcvfFpabk3CnzmXKdYe3w", "name": "The Landing", "location": {"display_address": ["One Long Wharf", "Boston, MA 02110"], "country": "US", "state": "MA", "address3": "", "address2": null, "address1": "One Long Wharf", "city": "Boston", "zip_code": "02110"}, "is_closed": false, "review_count": 97, "coordinates": {"latitude": 42.3597856181253, "longitude": -71.0503201610399}, "id": "the-landing-boston", "image_url": "https://s3-media2.fl.yelpcdn.com/bphoto/NJmx86XKvwjIub-QrmDxpQ/o.jpg", "categories": [{"alias": "bars", "title": "Bars"}], "rating": 3.5}, {"transactions": [], "distance": 1086.617355696, "price": "$$", "display_phone": "(617) 859-9515", "phone": "+16178599515", "url": "https://www.yelp.com/biz/pavement-coffeehouse-boston-4?adjust_creative=gBcvfFpabk3CnzmXKdYe3w&utm_campaign=yelp_api_v3&utm_medium=api_v3_business_search&utm_source=gBcvfFpabk3CnzmXKdYe3w", "name": "Pavement Coffeehouse", "location": {"display_address": ["286 Newbury St", "Boston, MA 02115"], "country": "US", "state": "MA", "address3": "", "address2": "", "address1": "286 Newbury St", "city": "Boston", "zip_code": "02115"}, "is_closed": false, "review_count": 124, "coordinates": {"latitude": 42.348843, "longitude": -71.084396}, "id": "pavement-coffeehouse-boston-4", "image_url": "https://s3-media3.fl.yelpcdn.com/bphoto/zM9PHIvTNdSwcBMptQVc9w/o.jpg", "categories": [{"alias": "coffee", "title": "Coffee & Tea"}, {"alias": "bagels", "title": "Bagels"}, {"alias": "sandwiches", "title": "Sandwiches"}], "rating": 3.5}, {"transactions": [], "distance": 2661.727337632, "price": "$$", "display_phone": "(617) 330-7430", "phone": "+16173307430", "url": "https://www.yelp.com/biz/legal-test-kitchen-boston?adjust_creative=gBcvfFpabk3CnzmXKdYe3w&utm_campaign=yelp_api_v3&utm_medium=api_v3_business_search&utm_source=gBcvfFpabk3CnzmXKdYe3w", "name": "Legal Test Kitchen", "location": {"display_address": ["225 Northern Ave", "Boston, MA 02210"], "country": "US", "state": "MA", "address3": "", "address2": "", "address1": "225 Northern Ave", "city": "Boston", "zip_code": "02210"}, "is_closed": false, "review_count": 615, "coordinates": {"latitude": 42.3487845808268, "longitude": -71.0388763993979}, "id": "legal-test-kitchen-boston", "image_url": "https://s3-media4.fl.yelpcdn.com/bphoto/eZ27lI4K5njJ8RHO7BLbxA/o.jpg", "categories": [{"alias": "newamerican", "title": "American (New)"}, {"alias": "seafood", "title": "Seafood"}, {"alias": "gluten_free", "title": "Gluten-Free"}], "rating": 3.5}, {"transactions": ["delivery", "pickup"], "distance": 4759.85801364, "price": "$", "display_phone": "(617) 202-5038", "phone": "+16172025038", "url": "https://www.yelp.com/biz/olitoki-boston?adjust_creative=gBcvfFpabk3CnzmXKdYe3w&utm_campaign=yelp_api_v3&utm_medium=api_v3_business_search&utm_source=gBcvfFpabk3CnzmXKdYe3w", "name": "OliToki", "location": {"display_address": ["76 Brighton Ave", "Boston, MA 02134"], "country": "US", "state": "MA", "address3": "", "address2": "", "address1": "76 Brighton Ave", "city": "Boston", "zip_code": "02134"}, "is_closed": false, "review_count": 77, "coordinates": {"latitude": 42.3523799, "longitude": -71.12868}, "id": "olitoki-boston", "image_url": "https://s3-media4.fl.yelpcdn.com/bphoto/3rsTNvbijFnWKrDlZD3Dwg/o.jpg", "categories": [{"alias": "korean", "title": "Korean"}, {"alias": "asianfusion", "title": "Asian Fusion"}, {"alias": "mexican", "title": "Mexican"}], "rating": 4.0}, {"transactions": [], "distance": 1633.253343994, "price": "$$", "display_phone": "(617) 742-5577", "phone": "+16177425577", "url": "https://www.yelp.com/biz/the-kinsale-boston?adjust_creative=gBcvfFpabk3CnzmXKdYe3w&utm_campaign=yelp_api_v3&utm_medium=api_v3_business_search&utm_source=gBcvfFpabk3CnzmXKdYe3w", "name": "The Kinsale", "location": {"display_address": ["2 Center Plz", "Boston, MA 02108"], "country": "US", "state": "MA", "address3": "", "address2": "", "address1": "2 Center Plz", "city": "Boston", "zip_code": "02108"}, "is_closed": false, "review_count": 304, "coordinates": {"latitude": 42.3601723791087, "longitude": -71.0604411276474}, "id": "the-kinsale-boston", "image_url": "https://s3-media2.fl.yelpcdn.com/bphoto/kBKQk1wBN3_YrkstVHJlyA/o.jpg", "categories": [{"alias": "pubs", "title": "Pubs"}, {"alias": "irish", "title": "Irish"}, {"alias": "karaoke", "title": "Karaoke"}], "rating": 3.5}, {"transactions": ["delivery"], "distance": 2960.860674254, "price": "$", "display_phone": "(617) 232-2166", "phone": "+16172322166", "url": "https://www.yelp.com/biz/boloco-boston-41?adjust_creative=gBcvfFpabk3CnzmXKdYe3w&utm_campaign=yelp_api_v3&utm_medium=api_v3_business_search&utm_source=gBcvfFpabk3CnzmXKdYe3w", "name": "Boloco", "location": {"display_address": ["283 Longwood Ave", "Children's Hospital", "Boston, MA 02115"], "country": "US", "state": "MA", "address3": "Children's Hospital", "address2": "", "address1": "283 Longwood Ave", "city": "Boston", "zip_code": "02115"}, "is_closed": false, "review_count": 89, "coordinates": {"latitude": 42.3376714546849, "longitude": -71.1045401212971}, "id": "boloco-boston-41", "image_url": "https://s3-media1.fl.yelpcdn.com/bphoto/ZL3tMEX8kuqBQ-Ot4xvqgw/o.jpg", "categories": [{"alias": "newamerican", "title": "American (New)"}], "rating": 3.5}, {"transactions": [], "distance": 2273.339039006, "price": "$", "display_phone": "(617) 262-2233", "phone": "+16172622233", "url": "https://www.yelp.com/biz/fenway-cafe-boston?adjust_creative=gBcvfFpabk3CnzmXKdYe3w&utm_campaign=yelp_api_v3&utm_medium=api_v3_business_search&utm_source=gBcvfFpabk3CnzmXKdYe3w", "name": "Fenway Cafe", "location": {"display_address": ["61 Brookline Ave", "Boston, MA 02215"], "country": "US", "state": "MA", "address3": "", "address2": "", "address1": "61 Brookline Ave", "city": "Boston", "zip_code": "02215"}, "is_closed": false, "review_count": 20, "coordinates": {"latitude": 42.3470894247293, "longitude": -71.0987225174904}, "id": "fenway-cafe-boston", "image_url": "https://s3-media1.fl.yelpcdn.com/bphoto/hwtA0QyLIvqxtZRCJqHeag/o.jpg", "categories": [{"alias": "coffee", "title": "Coffee & Tea"}, {"alias": "icecream", "title": "Ice Cream & Frozen Yogurt"}], "rating": 4.5}, {"transactions": [], "distance": 801.787511126, "price": "$$", "display_phone": "(617) 274-1741", "phone": "+16172741741", "url": "https://www.yelp.com/biz/max-brenner-boston-2?adjust_creative=gBcvfFpabk3CnzmXKdYe3w&utm_campaign=yelp_api_v3&utm_medium=api_v3_business_search&utm_source=gBcvfFpabk3CnzmXKdYe3w", "name": "Max Brenner", "location": {"display_address": ["745 Boylston St", "Boston, MA 02116"], "country": "US", "state": "MA", "address3": "", "address2": "", "address1": "745 Boylston St", "city": "Boston", "zip_code": "02116"}, "is_closed": false, "review_count": 1095, "coordinates": {"latitude": 42.3493112598047, "longitude": -71.0807957123031}, "id": "max-brenner-boston-2", "image_url": "https://s3-media4.fl.yelpcdn.com/bphoto/EZDUCjo7AdTXbLqDerCJNg/o.jpg", "categories": [{"alias": "desserts", "title": "Desserts"}, {"alias": "tradamerican", "title": "American (Traditional)"}, {"alias": "chocolate", "title": "Chocolatiers & Shops"}], "rating": 3.0}, {"transactions": [], "distance": 1518.6792151323998, "price": "$$", "display_phone": "(617) 742-6192", "phone": "+16177426192", "url": "https://www.yelp.com/biz/the-hill-tavern-boston?adjust_creative=gBcvfFpabk3CnzmXKdYe3w&utm_campaign=yelp_api_v3&utm_medium=api_v3_business_search&utm_source=gBcvfFpabk3CnzmXKdYe3w", "name": "The Hill Tavern", "location": {"display_address": ["228 Cambridge St", "Boston, MA 02114"], "country": "US", "state": "MA", "address3": "", "address2": "", "address1": "228 Cambridge St", "city": "Boston", "zip_code": "02114"}, "is_closed": false, "review_count": 199, "coordinates": {"latitude": 42.360981, "longitude": -71.066658}, "id": "the-hill-tavern-boston", "image_url": "https://s3-media1.fl.yelpcdn.com/bphoto/zA5jOh4oCWLb99HtjqNfKw/o.jpg", "categories": [{"alias": "pubs", "title": "Pubs"}, {"alias": "breakfast_brunch", "title": "Breakfast & Brunch"}, {"alias": "sandwiches", "title": "Sandwiches"}], "rating": 3.5}, {"transactions": [], "distance": 2133.519901674, "price": "$$", "display_phone": "(617) 670-0507", "phone": "+16176700507", "url": "https://www.yelp.com/biz/hojoko-boston-boston?adjust_creative=gBcvfFpabk3CnzmXKdYe3w&utm_campaign=yelp_api_v3&utm_medium=api_v3_business_search&utm_source=gBcvfFpabk3CnzmXKdYe3w", "name": "Hojoko Boston", "location": {"display_address": ["1271 Boylston St", "Boston, MA 02215"], "country": "US", "state": "MA", "address3": "", "address2": "", "address1": "1271 Boylston St", "city": "Boston", "zip_code": "02215"}, "is_closed": false, "review_count": 203, "coordinates": {"latitude": 42.3451899451252, "longitude": -71.0969520423279}, "id": "hojoko-boston-boston", "image_url": "https://s3-media1.fl.yelpcdn.com/bphoto/oW7uRebdLsiIEI-epfX_Yg/o.jpg", "categories": [{"alias": "japanese", "title": "Japanese"}, {"alias": "cocktailbars", "title": "Cocktail Bars"}], "rating": 3.5}, {"transactions": [], "distance": 1139.718333666, "price": "$$", "display_phone": "(617) 945-7357", "phone": "+16179457357", "url": "https://www.yelp.com/biz/mother-juice-boston-3?adjust_creative=gBcvfFpabk3CnzmXKdYe3w&utm_campaign=yelp_api_v3&utm_medium=api_v3_business_search&utm_source=gBcvfFpabk3CnzmXKdYe3w", "name": "Mother Juice", "location": {"display_address": ["291 Newbury St", "Boston, MA 02115"], "country": "US", "state": "MA", "address3": null, "address2": "", "address1": "291 Newbury St", "city": "Boston", "zip_code": "02115"}, "is_closed": false, "review_count": 24, "coordinates": {"latitude": 42.349178314209, "longitude": -71.0850067138672}, "id": "mother-juice-boston-3", "image_url": "https://s3-media4.fl.yelpcdn.com/bphoto/ImLSw9PQHYR0Xrss45-2VQ/o.jpg", "categories": [{"alias": "juicebars", "title": "Juice Bars & Smoothies"}, {"alias": "gluten_free", "title": "Gluten-Free"}, {"alias": "breakfast_brunch", "title": "Breakfast & Brunch"}], "rating": 4.0}, {"transactions": ["delivery"], "distance": 2232.559168076, "price": "$$", "display_phone": "(617) 723-7847", "phone": "+16177237847", "url": "https://www.yelp.com/biz/l-osteria-boston?adjust_creative=gBcvfFpabk3CnzmXKdYe3w&utm_campaign=yelp_api_v3&utm_medium=api_v3_business_search&utm_source=gBcvfFpabk3CnzmXKdYe3w", "name": "L'osteria", "location": {"display_address": ["104 Salem St", "Boston, MA 02113"], "country": "US", "state": "MA", "address3": "", "address2": "", "address1": "104 Salem St", "city": "Boston", "zip_code": "02113"}, "is_closed": false, "review_count": 230, "coordinates": {"latitude": 42.3642414808273, "longitude": -71.0556153953075}, "id": "l-osteria-boston", "image_url": "https://s3-media1.fl.yelpcdn.com/bphoto/3hPA1biB6QBRniipZCZiXA/o.jpg", "categories": [{"alias": "italian", "title": "Italian"}, {"alias": "coffee", "title": "Coffee & Tea"}], "rating": 3.5}, {"transactions": ["pickup"], "distance": 1352.8467221337999, "price": "$$", "display_phone": "(617) 936-3800", "phone": "+16179363800", "url": "https://www.yelp.com/biz/mast-boston?adjust_creative=gBcvfFpabk3CnzmXKdYe3w&utm_campaign=yelp_api_v3&utm_medium=api_v3_business_search&utm_source=gBcvfFpabk3CnzmXKdYe3w", "name": "MAST'", "location": {"display_address": ["45 Province St", "Boston, MA 02108"], "country": "US", "state": "MA", "address3": "", "address2": "", "address1": "45 Province St", "city": "Boston", "zip_code": "02108"}, "is_closed": false, "review_count": 150, "coordinates": {"latitude": 42.356885, "longitude": -71.060223}, "id": "mast-boston", "image_url": "https://s3-media2.fl.yelpcdn.com/bphoto/I8JGCHqtxKu89TJ6vCwKNw/o.jpg", "categories": [{"alias": "pizza", "title": "Pizza"}, {"alias": "italian", "title": "Italian"}, {"alias": "lounges", "title": "Lounges"}], "rating": 3.5}, {"transactions": [], "distance": 3242.768922988, "price": "$", "display_phone": "(646) 371-6531", "phone": "+16463716531", "url": "https://www.yelp.com/biz/rice-burg-boston?adjust_creative=gBcvfFpabk3CnzmXKdYe3w&utm_campaign=yelp_api_v3&utm_medium=api_v3_business_search&utm_source=gBcvfFpabk3CnzmXKdYe3w", "name": "Rice Burg", "location": {"display_address": ["Boston, MA 02127"], "country": "US", "state": "MA", "address3": "", "address2": "", "address1": "", "city": "Boston", "zip_code": "02127"}, "is_closed": false, "review_count": 23, "coordinates": {"latitude": 42.3355293273926, "longitude": -71.0393753051758}, "id": "rice-burg-boston", "image_url": "https://s3-media4.fl.yelpcdn.com/bphoto/2lP4sHxFK_HWscw_6DI37A/o.jpg", "categories": [{"alias": "foodtrucks", "title": "Food Trucks"}, {"alias": "gourmet", "title": "Specialty Food"}, {"alias": "burgers", "title": "Burgers"}], "rating": 4.0}, {"transactions": [], "distance": 564.8758133361999, "price": "$$", "display_phone": "(617) 267-7426", "phone": "+16172677426", "url": "https://www.yelp.com/biz/house-of-siam-boston-2?adjust_creative=gBcvfFpabk3CnzmXKdYe3w&utm_campaign=yelp_api_v3&utm_medium=api_v3_business_search&utm_source=gBcvfFpabk3CnzmXKdYe3w", "name": "House of Siam", "location": {"display_address": ["592 Tremont St", "Boston, MA 02118"], "country": "US", "state": "MA", "address3": "", "address2": "", "address1": "592 Tremont St", "city": "Boston", "zip_code": "02118"}, "is_closed": false, "review_count": 109, "coordinates": {"latitude": 42.3429183959961, "longitude": -71.0730133056641}, "id": "house-of-siam-boston-2", "image_url": "https://s3-media4.fl.yelpcdn.com/bphoto/F6t2tse2sKuBlHHv-mk9GQ/o.jpg", "categories": [{"alias": "thai", "title": "Thai"}], "rating": 3.5}, {"transactions": ["delivery"], "distance": 172.13078349184, "price": "$$", "display_phone": "(617) 723-3131", "phone": "+16177233131", "url": "https://www.yelp.com/biz/the-brahmin-boston?adjust_creative=gBcvfFpabk3CnzmXKdYe3w&utm_campaign=yelp_api_v3&utm_medium=api_v3_business_search&utm_source=gBcvfFpabk3CnzmXKdYe3w", "name": "The Brahmin", "location": {"display_address": ["33 Stanhope St", "Boston, MA 02116"], "country": "US", "state": "MA", "address3": "", "address2": "", "address1": "33 Stanhope St", "city": "Boston", "zip_code": "02116"}, "is_closed": false, "review_count": 323, "coordinates": {"latitude": 42.3484325, "longitude": -71.0731806}, "id": "the-brahmin-boston", "image_url": "https://s3-media1.fl.yelpcdn.com/bphoto/El335EZwgoVI8YN6TP3mEQ/o.jpg", "categories": [{"alias": "newamerican", "title": "American (New)"}, {"alias": "cocktailbars", "title": "Cocktail Bars"}], "rating": 3.0}, {"transactions": [], "distance": 2226.528810162, "price": "$", "display_phone": "(617) 269-8822", "phone": "+16172698822", "url": "https://www.yelp.com/biz/cafe-arpeggio-boston?adjust_creative=gBcvfFpabk3CnzmXKdYe3w&utm_campaign=yelp_api_v3&utm_medium=api_v3_business_search&utm_source=gBcvfFpabk3CnzmXKdYe3w", "name": "Cafe Arpeggio", "location": {"display_address": ["398 W Broadway", "Boston, MA 02127"], "country": "US", "state": "MA", "address3": "", "address2": "", "address1": "398 W Broadway", "city": "Boston", "zip_code": "02127"}, "is_closed": false, "review_count": 64, "coordinates": {"latitude": 42.3373718261719, "longitude": -71.0481491088867}, "id": "cafe-arpeggio-boston", "image_url": "https://s3-media2.fl.yelpcdn.com/bphoto/1QGlSuYHwbV1kdmv47rAyA/o.jpg", "categories": [{"alias": "coffee", "title": "Coffee & Tea"}, {"alias": "sandwiches", "title": "Sandwiches"}, {"alias": "desserts", "title": "Desserts"}], "rating": 3.5}, {"transactions": [], "distance": 1768.5005073199998, "display_phone": "(617) 785-5857", "phone": "+16177855857", "url": "https://www.yelp.com/biz/mr-locksmith-boston?adjust_creative=gBcvfFpabk3CnzmXKdYe3w&utm_campaign=yelp_api_v3&utm_medium=api_v3_business_search&utm_source=gBcvfFpabk3CnzmXKdYe3w", "name": "Mr Locksmith", "location": {"display_address": ["Boston, MA 02115"], "country": "US", "state": "MA", "address3": "", "address2": "", "address1": "", "city": "Boston", "zip_code": "02115"}, "is_closed": false, "review_count": 159, "coordinates": {"latitude": 42.3408851623535, "longitude": -71.0948181152344}, "id": "mr-locksmith-boston", "image_url": "https://s3-media4.fl.yelpcdn.com/bphoto/H6aEIn4yLy8rWQUfex8Hag/o.jpg", "categories": [{"alias": "locksmiths", "title": "Keys & Locksmiths"}], "rating": 5.0}, {"transactions": [], "distance": 1118.6066896779998, "price": "$$", "display_phone": "(617) 797-6386", "phone": "+16177976386", "url": "https://www.yelp.com/biz/k-a-carpet-cleaning-boston-3?adjust_creative=gBcvfFpabk3CnzmXKdYe3w&utm_campaign=yelp_api_v3&utm_medium=api_v3_business_search&utm_source=gBcvfFpabk3CnzmXKdYe3w", "name": "K-A Carpet Cleaning", "location": {"display_address": ["Boston, MA 02118"], "country": "US", "state": "MA", "address3": "", "address2": null, "address1": "", "city": "Boston", "zip_code": "02118"}, "is_closed": false, "review_count": 115, "coordinates": {"latitude": 42.3379669189453, "longitude": -71.0699996948242}, "id": "k-a-carpet-cleaning-boston-3", "image_url": "https://s3-media1.fl.yelpcdn.com/bphoto/Bij_FbPbt9yc2K3wlDyQgQ/o.jpg", "categories": [{"alias": "carpet_cleaning", "title": "Carpet Cleaning"}, {"alias": "rugs", "title": "Rugs"}], "rating": 5.0}, {"transactions": [], "distance": 1708.55983435, "price": "$$$", "display_phone": "(617) 217-5151", "phone": "+16172175151", "url": "https://www.yelp.com/biz/miel-boston?adjust_creative=gBcvfFpabk3CnzmXKdYe3w&utm_campaign=yelp_api_v3&utm_medium=api_v3_business_search&utm_source=gBcvfFpabk3CnzmXKdYe3w", "name": "Miel", "location": {"display_address": ["510 Atlantic Ave", "InterContinental Boston", "Boston, MA 02210"], "country": "US", "state": "MA", "address3": "InterContinental Boston", "address2": "", "address1": "510 Atlantic Ave", "city": "Boston", "zip_code": "02210"}, "is_closed": false, "review_count": 213, "coordinates": {"latitude": 42.3539856484377, "longitude": -71.052186191082}, "id": "miel-boston", "image_url": "https://s3-media2.fl.yelpcdn.com/bphoto/jdKJzYI36d8h5I2mT6WGZA/o.jpg", "categories": [{"alias": "french", "title": "French"}, {"alias": "salad", "title": "Salad"}, {"alias": "breakfast_brunch", "title": "Breakfast & Brunch"}], "rating": 3.5}, {"transactions": [], "distance": 2064.3884488979998, "price": "$$", "display_phone": "(617) 896-2337", "phone": "+16178962337", "url": "https://www.yelp.com/biz/boston-beer-works-boston?adjust_creative=gBcvfFpabk3CnzmXKdYe3w&utm_campaign=yelp_api_v3&utm_medium=api_v3_business_search&utm_source=gBcvfFpabk3CnzmXKdYe3w", "name": "Boston Beer Works", "location": {"display_address": ["112 Canal St", "Boston, MA 02114"], "country": "US", "state": "MA", "address3": "", "address2": "", "address1": "112 Canal St", "city": "Boston", "zip_code": "02114"}, "is_closed": false, "review_count": 396, "coordinates": {"latitude": 42.3644577, "longitude": -71.0600313}, "id": "boston-beer-works-boston", "image_url": "https://s3-media1.fl.yelpcdn.com/bphoto/MwRYwrkW0U63CBMVkWkgJA/o.jpg", "categories": [{"alias": "pubs", "title": "Pubs"}, {"alias": "tradamerican", "title": "American (Traditional)"}], "rating": 3.0}, {"transactions": [], "distance": 1897.9991081659998, "price": "$$", "display_phone": "(617) 936-4241", "phone": "+16179364241", "url": "https://www.yelp.com/biz/the-ginger-man-boston?adjust_creative=gBcvfFpabk3CnzmXKdYe3w&utm_campaign=yelp_api_v3&utm_medium=api_v3_business_search&utm_source=gBcvfFpabk3CnzmXKdYe3w", "name": "The Ginger Man", "location": {"display_address": ["148 State St", "Boston, MA 02109"], "country": "US", "state": "MA", "address3": "", "address2": "", "address1": "148 State St", "city": "Boston", "zip_code": "02109"}, "is_closed": false, "review_count": 54, "coordinates": {"latitude": 42.35948, "longitude": -71.05419}, "id": "the-ginger-man-boston", "image_url": "https://s3-media3.fl.yelpcdn.com/bphoto/B9oHFpjU6cB_NSVCJIsxUw/o.jpg", "categories": [{"alias": "bars", "title": "Bars"}, {"alias": "tradamerican", "title": "American (Traditional)"}], "rating": 3.5}, {"transactions": [], "distance": 1915.993138706, "price": "$$", "display_phone": "(617) 227-2098", "phone": "+16172272098", "url": "https://www.yelp.com/biz/the-bell-in-hand-boston?adjust_creative=gBcvfFpabk3CnzmXKdYe3w&utm_campaign=yelp_api_v3&utm_medium=api_v3_business_search&utm_source=gBcvfFpabk3CnzmXKdYe3w", "name": "The Bell In Hand", "location": {"display_address": ["45 Union St", "Boston, MA 02108"], "country": "US", "state": "MA", "address3": "", "address2": "", "address1": "45 Union St", "city": "Boston", "zip_code": "02108"}, "is_closed": false, "review_count": 580, "coordinates": {"latitude": 42.3615760803223, "longitude": -71.0570678710938}, "id": "the-bell-in-hand-boston", "image_url": "https://s3-media4.fl.yelpcdn.com/bphoto/DhvFXlNTTPjl4oj3jh4vEA/o.jpg", "categories": [{"alias": "lounges", "title": "Lounges"}, {"alias": "pubs", "title": "Pubs"}, {"alias": "musicvenues", "title": "Music Venues"}], "rating": 3.0}], "total": 24839}