{"region": {"center": {"latitude": 42.34784169448538, "longitude": -71.07124328613281}}, "businesses": [{"transactions": [], "distance": 192.7965662702, "price": "$$$", "display_phone": "(617) 482-0117", "phone": "+16174820117", "url": "https://www.yelp.com/biz/wink-and-nod-boston?adjust_creative=gBcvfFpabk3CnzmXKdYe3w&utm_campaign=yelp_api_v3&utm_medium=api_v3_business_search&utm_source=gBcvfFpabk3CnzmXKdYe3w", "name": "Wink & Nod", "location": {"display_address": ["3 Appleton St", "Boston, MA 02116"], "country": "US", "state": "MA", "address3": "", "address2": "", "address1": "3 Appleton St", "city": "Boston", "zip_code": "02116"}, "is_closed": false, "review_count": 305, "coordinates": {"latitude": 42.3466991630507, "longitude": -71.0694792474231}, "id": "wink-and-nod-boston", "image_url": "https://s3-media3.fl.yelpcdn.com/bphoto/5_16meQBI_XvJNJRGvTyaA/o.jpg", "categories": [{"alias": "cocktailbars", "title": "Cocktail Bars"}, {"alias": "newamerican", "title": "American (New)"}, {"alias": "tapasmallplates", "title": "Tapas/Small Plates"}], "rating": 4.0}, {"transactions": [], "distance": 1102.4842410909998, "price": "$$$", "display_phone": "(617) 266-0102", "phone": "+16172660102", "url": "https://www.yelp.com/biz/ruka-restobar-boston?adjust_creative=gBcvfFpabk3CnzmXKdYe3w&utm_campaign=yelp_api_v3&utm_medium=api_v3_business_search&utm_source=gBcvfFpabk3CnzmXKdYe3w", "name": "RUKA Restobar", "location": {"display_address": ["505 Washington St", "Boston, MA 02111"], "country": "US", "state": "MA", "address3": "", "address2": null, "address1": "505 Washington St", "city": "Boston", "zip_code": "02111"}, "is_closed": false, "review_count": 107, "coordinates": {"latitude": 42.35454, "longitude": -71.06173}, "id": "ruka-restobar-boston", "image_url": "https://s3-media4.fl.yelpcdn.com/bphoto/6U0yIzzAeMO-A00KXj3MaQ/o.jpg", "categories": [{"alias": "sushi", "title": "Sushi Bars"}, {"alias": "latin", "title": "Latin American"}, {"alias": "peruvian", "title": "Peruvian"}], "rating": 4.0}, {"transactions": ["delivery", "pickup"], "distance": 1739.1754357080001, "price": "$", "display_phone": "(617) 227-6900", "phone": "+16172276900", "url": "https://www.yelp.com/biz/boston-kebab-house-boston?adjust_creative=gBcvfFpabk3CnzmXKdYe3w&utm_campaign=yelp_api_v3&utm_medium=api_v3_business_search&utm_source=gBcvfFpabk3CnzmXKdYe3w", "name": "Boston Kebab House", "location": {"display_address": ["7 Liberty Sq", "Boston, MA 02109"], "country": "US", "state": "MA", "address3": "", "address2": null, "address1": "7 Liberty Sq", "city": "Boston", "zip_code": "02109"}, "is_closed": false, "review_count": 195, "coordinates": {"latitude": 42.3578242957592, "longitude": -71.0551781952381}, "id": "boston-kebab-house-boston", "image_url": "https://s3-media3.fl.yelpcdn.com/bphoto/7RWNYVphql3npYf_tiaO0A/o.jpg", "categories": [{"alias": "turkish", "title": "Turkish"}, {"alias": "mediterranean", "title": "Mediterranean"}], "rating": 4.0}, {"transactions": ["delivery"], "distance": 1351.3664994819999, "price": "$$", "display_phone": "(617) 742-4900", "phone": "+16177424900", "url": "https://www.yelp.com/biz/scollay-square-boston?adjust_creative=gBcvfFpabk3CnzmXKdYe3w&utm_campaign=yelp_api_v3&utm_medium=api_v3_business_search&utm_source=gBcvfFpabk3CnzmXKdYe3w", "name": "Scollay Square", "location": {"display_address": ["21 Beacon St", "Boston, MA 02108"], "country": "US", "state": "MA", "address3": "", "address2": "", "address1": "21 Beacon St", "city": "Boston", "zip_code": "02108"}, "is_closed": false, "review_count": 472, "coordinates": {"latitude": 42.35827, "longitude": -71.06245}, "id": "scollay-square-boston", "image_url": "https://s3-media1.fl.yelpcdn.com/bphoto/P9T6OOOAUnTvtRHC1wrekQ/o.jpg", "categories": [{"alias": "seafood", "title": "Seafood"}, {"alias": "tradamerican", "title": "American (Traditional)"}], "rating": 4.0}, {"transactions": [], "distance": 2316.5903733739997, "price": "$$$", "display_phone": "(617) 670-1345", "phone": "+16176701345", "url": "https://www.yelp.com/biz/ocean-prime-boston-2?adjust_creative=gBcvfFpabk3CnzmXKdYe3w&utm_campaign=yelp_api_v3&utm_medium=api_v3_business_search&utm_source=gBcvfFpabk3CnzmXKdYe3w", "name": "Ocean Prime", "location": {"display_address": ["140 Seaport Blvd", "Boston, MA 02210"], "country": "US", "state": "MA", "address3": "", "address2": "", "address1": "140 Seaport Blvd", "city": "Boston", "zip_code": "02210"}, "is_closed": false, "review_count": 168, "coordinates": {"latitude": 42.3511248081923, "longitude": -71.0440584272146}, "id": "ocean-prime-boston-2", "image_url": "https://s3-media4.fl.yelpcdn.com/bphoto/rnYw6gxRPn3YTvof-8elqg/o.jpg", "categories": [{"alias": "seafood", "title": "Seafood"}, {"alias": "steak", "title": "Steakhouses"}, {"alias": "newamerican", "title": "American (New)"}], "rating": 4.0}, {"transactions": ["delivery", "pickup"], "distance": 707.1123241887999, "price": "$$", "display_phone": "(617) 482-0654", "phone": "+16174820654", "url": "https://www.yelp.com/biz/ali-baba-boston?adjust_creative=gBcvfFpabk3CnzmXKdYe3w&utm_campaign=yelp_api_v3&utm_medium=api_v3_business_search&utm_source=gBcvfFpabk3CnzmXKdYe3w", "name": "Ali Baba", "location": {"display_address": ["145 E Berkeley St", "Boston, MA 02118"], "country": "US", "state": "MA", "address3": "", "address2": "", "address1": "145 E Berkeley St", "city": "Boston", "zip_code": "02118"}, "is_closed": false, "review_count": 94, "coordinates": {"latitude": 42.3436126, "longitude": -71.0648162}, "id": "ali-baba-boston", "image_url": "https://s3-media2.fl.yelpcdn.com/bphoto/4uCcTHO3nfZD5gHW7MEDCQ/o.jpg", "categories": [{"alias": "turkish", "title": "Turkish"}], "rating": 4.0}, {"transactions": ["pickup"], "distance": 4497.780374254, "price": "$", "display_phone": "(857) 264-6106", "phone": "+18572646106", "url": "https://www.yelp.com/biz/tea-bar-by-evytea-boston-2?adjust_creative=gBcvfFpabk3CnzmXKdYe3w&utm_campaign=yelp_api_v3&utm_medium=api_v3_business_search&utm_source=gBcvfFpabk3CnzmXKdYe3w", "name": "Tea Bar by EvyTea", "location": {"display_address": ["253 Amory St", "Boston, MA 02130"], "country": "US", "state": "MA", "address3": "", "address2": null, "address1": "253 Amory St", "city": "Boston", "zip_code": "02130"}, "is_closed": false, "review_count": 41, "coordinates": {"latitude": 42.31564, "longitude": -71.1042499}, "id": "tea-bar-by-evytea-boston-2", "image_url": "https://s3-media1.fl.yelpcdn.com/bphoto/P_SVY10fd5RYiDEFHdUIHw/o.jpg", "categories": [{"alias": "coffee", "title": "Coffee & Tea"}], "rating": 5.0}, {"transactions": [], "distance": 1347.9376396779999, "display_phone": "", "phone": "", "url": "https://www.yelp.com/biz/georges-island-boston?adjust_creative=gBcvfFpabk3CnzmXKdYe3w&utm_campaign=yelp_api_v3&utm_medium=api_v3_business_search&utm_source=gBcvfFpabk3CnzmXKdYe3w", "name": "Georges Island", "location": {"display_address": ["Boston, MA 02228"], "country": "US", "state": "MA", "address3": "", "address2": "", "address1": "", "city": "Boston", "zip_code": "02228"}, "is_closed": false, "review_count": 47, "coordinates": {"latitude": 42.358333, "longitude": -71.060278}, "id": "georges-island-boston", "image_url": "https://s3-media1.fl.yelpcdn.com/bphoto/B8IhzNWo1kihxGKaO5J7Pg/o.jpg", "categories": [{"alias": "parks", "title": "Parks"}], "rating": 4.5}, {"transactions": [], "distance": 2312.857831112, "price": "$$", "display_phone": "(617) 720-2010", "phone": "+16177202010", "url": "https://www.yelp.com/biz/north-street-grille-boston-2?adjust_creative=gBcvfFpabk3CnzmXKdYe3w&utm_campaign=yelp_api_v3&utm_medium=api_v3_business_search&utm_source=gBcvfFpabk3CnzmXKdYe3w", "name": "North Street Grille", "location": {"display_address": ["229 North St", "Boston, MA 02113"], "country": "US", "state": "MA", "address3": "", "address2": "", "address1": "229 North St", "city": "Boston", "zip_code": "02113"}, "is_closed": false, "review_count": 564, "coordinates": {"latitude": 42.3633987875275, "longitude": -71.0525562839306}, "id": "north-street-grille-boston-2", "image_url": "https://s3-media1.fl.yelpcdn.com/bphoto/C5hoGj53mU7y8-G2xJEmtQ/o.jpg", "categories": [{"alias": "breakfast_brunch", "title": "Breakfast & Brunch"}, {"alias": "newamerican", "title": "American (New)"}, {"alias": "burgers", "title": "Burgers"}], "rating": 4.0}, {"transactions": [], "distance": 1462.190318968, "price": "$", "display_phone": "(617) 269-7560", "phone": "+16172697560", "url": "https://www.yelp.com/biz/doughboy-donuts-and-deli-boston?adjust_creative=gBcvfFpabk3CnzmXKdYe3w&utm_campaign=yelp_api_v3&utm_medium=api_v3_business_search&utm_source=gBcvfFpabk3CnzmXKdYe3w", "name": "Doughboy Donuts & Deli", "location": {"display_address": ["220 Dorchester Ave", "Boston, MA 02127"], "country": "US", "state": "MA", "address3": "", "address2": "", "address1": "220 Dorchester Ave", "city": "Boston", "zip_code": "02127"}, "is_closed": false, "review_count": 123, "coordinates": {"latitude": 42.340173, "longitude": -71.056792}, "id": "doughboy-donuts-and-deli-boston", "image_url": "https://s3-media1.fl.yelpcdn.com/bphoto/FnUo10j9aDb4R173Yj4vbA/o.jpg", "categories": [{"alias": "donuts", "title": "Donuts"}, {"alias": "delis", "title": "Delis"}, {"alias": "pizza", "title": "Pizza"}], "rating": 4.0}, {"transactions": [], "distance": 2165.793606034, "price": "$$$", "display_phone": "(617) 248-6800", "phone": "+16172486800", "url": "https://www.yelp.com/biz/bricco-boston-6?adjust_creative=gBcvfFpabk3CnzmXKdYe3w&utm_campaign=yelp_api_v3&utm_medium=api_v3_business_search&utm_source=gBcvfFpabk3CnzmXKdYe3w", "name": "Bricco", "location": {"display_address": ["241 Hanover St", "Boston, MA 02113"], "country": "US", "state": "MA", "address3": "", "address2": "", "address1": "241 Hanover St", "city": "Boston", "zip_code": "02113"}, "is_closed": false, "review_count": 639, "coordinates": {"latitude": 42.3631202, "longitude": -71.0549297}, "id": "bricco-boston-6", "image_url": "https://s3-media1.fl.yelpcdn.com/bphoto/XBFzGXGf1Qh8HcZNHMj8kA/o.jpg", "categories": [{"alias": "italian", "title": "Italian"}], "rating": 4.0}, {"transactions": [], "distance": 2014.699110794, "display_phone": "", "phone": "", "url": "https://www.yelp.com/biz/beacon-hill-boston?adjust_creative=gBcvfFpabk3CnzmXKdYe3w&utm_campaign=yelp_api_v3&utm_medium=api_v3_business_search&utm_source=gBcvfFpabk3CnzmXKdYe3w", "name": "Beacon Hill", "location": {"display_address": ["Boston, MA 02114"], "country": "US", "state": "MA", "address3": "", "address2": null, "address1": null, "city": "Boston", "zip_code": "02114"}, "is_closed": false, "review_count": 42, "coordinates": {"latitude": 42.36335, "longitude": -71.06434}, "id": "beacon-hill-boston", "image_url": "https://s3-media1.fl.yelpcdn.com/bphoto/GfPcFJbGXF1rEvS_nX6Xmw/o.jpg", "categories": [{"alias": "localflavor", "title": "Local Flavor"}], "rating": 4.5}, {"transactions": ["delivery", "pickup"], "distance": 1872.4107631, "price": "$$", "display_phone": "(617) 367-0033", "phone": "+16173670033", "url": "https://www.yelp.com/biz/the-tap-trailhouse-boston-2?adjust_creative=gBcvfFpabk3CnzmXKdYe3w&utm_campaign=yelp_api_v3&utm_medium=api_v3_business_search&utm_source=gBcvfFpabk3CnzmXKdYe3w", "name": "The Tap Trailhouse", "location": {"display_address": ["19 Union St", "Boston, MA 02108"], "country": "US", "state": "MA", "address3": "", "address2": "", "address1": "19 Union St", "city": "Boston", "zip_code": "02108"}, "is_closed": false, "review_count": 222, "coordinates": {"latitude": 42.3609285960884, "longitude": -71.056898076297}, "id": "the-tap-trailhouse-boston-2", "image_url": "https://s3-media3.fl.yelpcdn.com/bphoto/uObo--CAqOnRFArqtT1RTg/o.jpg", "categories": [{"alias": "tradamerican", "title": "American (Traditional)"}, {"alias": "pubs", "title": "Pubs"}], "rating": 4.0}, {"transactions": [], "distance": 997.2849844379999, "price": "$", "display_phone": "(617) 338-9833", "phone": "+16173389833", "url": "https://www.yelp.com/biz/wai-wai-restaurant-boston?adjust_creative=gBcvfFpabk3CnzmXKdYe3w&utm_campaign=yelp_api_v3&utm_medium=api_v3_business_search&utm_source=gBcvfFpabk3CnzmXKdYe3w", "name": "Wai Wai Restaurant", "location": {"display_address": ["26 Oxford St", "Boston, MA 02111"], "country": "US", "state": "MA", "address3": "", "address2": "", "address1": "26 Oxford St", "city": "Boston", "zip_code": "02111"}, "is_closed": false, "review_count": 157, "coordinates": {"latitude": 42.35168, "longitude": -71.06027}, "id": "wai-wai-restaurant-boston", "image_url": "https://s3-media3.fl.yelpcdn.com/bphoto/t6nI1ufmQ9nundXMPRh1tg/o.jpg", "categories": [{"alias": "chinese", "title": "Chinese"}], "rating": 4.0}, {"transactions": [], "distance": 2629.319253382, "price": "$$", "display_phone": "(617) 421-1910", "phone": "+16174211910", "url": "https://www.yelp.com/biz/audubon-boston-boston?adjust_creative=gBcvfFpabk3CnzmXKdYe3w&utm_campaign=yelp_api_v3&utm_medium=api_v3_business_search&utm_source=gBcvfFpabk3CnzmXKdYe3w", "name": "Audubon Boston", "location": {"display_address": ["838 Beacon St", "Boston, MA 02215"], "country": "US", "state": "MA", "address3": "", "address2": "", "address1": "838 Beacon St", "city": "Boston", "zip_code": "02215"}, "is_closed": false, "review_count": 122, "coordinates": {"latitude": 42.347459, "longitude": -71.10323}, "id": "audubon-boston-boston", "image_url": "https://s3-media3.fl.yelpcdn.com/bphoto/-sXXMrqf7X7zu7BQykmfjw/o.jpg", "categories": [{"alias": "tradamerican", "title": "American (Traditional)"}], "rating": 4.0}, {"transactions": [], "distance": 1142.777528072, "price": "$", "display_phone": "(617) 482-1888", "phone": "+16174821888", "url": "https://www.yelp.com/biz/genes-chinese-flatbread-cafe-boston?adjust_creative=gBcvfFpabk3CnzmXKdYe3w&utm_campaign=yelp_api_v3&utm_medium=api_v3_business_search&utm_source=gBcvfFpabk3CnzmXKdYe3w", "name": "Gene's Chinese Flatbread Cafe", "location": {"display_address": ["86 Bedford St", "Boston, MA 02111"], "country": "US", "state": "MA", "address3": "", "address2": "", "address1": "86 Bedford St", "city": "Boston", "zip_code": "02111"}, "is_closed": false, "review_count": 192, "coordinates": {"latitude": 42.3534194, "longitude": -71.0595619}, "id": "genes-chinese-flatbread-cafe-boston", "image_url": "https://s3-media4.fl.yelpcdn.com/bphoto/qrQR_RyC0ZOZA_lnHqIE2A/o.jpg", "categories": [{"alias": "chinese", "title": "Chinese"}, {"alias": "noodles", "title": "Noodles"}], "rating": 4.0}, {"transactions": [], "distance": 1096.2680848740001, "price": "$$$", "display_phone": "(617) 338-5333", "phone": "+16173385333", "url": "https://www.yelp.com/biz/bogies-place-boston?adjust_creative=gBcvfFpabk3CnzmXKdYe3w&utm_campaign=yelp_api_v3&utm_medium=api_v3_business_search&utm_source=gBcvfFpabk3CnzmXKdYe3w", "name": "Bogie's Place", "location": {"display_address": ["25 Temple Pl", "Boston, MA 02111"], "country": "US", "state": "MA", "address3": "", "address2": null, "address1": "25 Temple Pl", "city": "Boston", "zip_code": "02111"}, "is_closed": false, "review_count": 64, "coordinates": {"latitude": 42.3551597595215, "longitude": -71.0623016357422}, "id": "bogies-place-boston", "image_url": "https://s3-media1.fl.yelpcdn.com/bphoto/2msWmnoyUubVeMOm6nEFpw/o.jpg", "categories": [{"alias": "bars", "title": "Bars"}, {"alias": "tradamerican", "title": "American (Traditional)"}], "rating": 4.0}, {"transactions": [], "distance": 1842.023688022, "display_phone": "(617) 523-1300", "phone": "+16175231300", "url": "https://www.yelp.com/biz/faneuil-hall-boston?adjust_creative=gBcvfFpabk3CnzmXKdYe3w&utm_campaign=yelp_api_v3&utm_medium=api_v3_business_search&utm_source=gBcvfFpabk3CnzmXKdYe3w", "name": "Faneuil Hall", "location": {"display_address": ["0 Faneuil Hall Sq", "Boston, MA 02109"], "country": "US", "state": "MA", "address3": "", "address2": "", "address1": "0 Faneuil Hall Sq", "city": "Boston", "zip_code": "02109"}, "is_closed": false, "review_count": 67, "coordinates": {"latitude": 42.3600458008124, "longitude": -71.0560864167609}, "id": "faneuil-hall-boston", "image_url": "https://s3-media1.fl.yelpcdn.com/bphoto/pdKsfFqsv4cwRXurMJE0Hg/o.jpg", "categories": [{"alias": "landmarks", "title": "Landmarks & Historical Buildings"}], "rating": 4.0}, {"transactions": [], "distance": 713.1917991595999, "price": "$$$", "display_phone": "(617) 536-5300", "phone": "+16175365300", "url": "https://www.yelp.com/biz/city-bar-boston?adjust_creative=gBcvfFpabk3CnzmXKdYe3w&utm_campaign=yelp_api_v3&utm_medium=api_v3_business_search&utm_source=gBcvfFpabk3CnzmXKdYe3w", "name": "City Bar", "location": {"display_address": ["61 Exeter St", "Boston, MA 02199"], "country": "US", "state": "MA", "address3": "", "address2": null, "address1": "61 Exeter St", "city": "Boston", "zip_code": "02199"}, "is_closed": false, "review_count": 250, "coordinates": {"latitude": 42.3491411506797, "longitude": -71.079742038714}, "id": "city-bar-boston", "image_url": "https://s3-media3.fl.yelpcdn.com/bphoto/inVwDEC5s7L4Bodbbpg-bQ/o.jpg", "categories": [{"alias": "newamerican", "title": "American (New)"}, {"alias": "cocktailbars", "title": "Cocktail Bars"}], "rating": 4.0}, {"transactions": ["delivery", "pickup"], "distance": 1903.333909332, "price": "$$", "display_phone": "(617) 267-4499", "phone": "+16172674499", "url": "https://www.yelp.com/biz/india-quality-restaurant-boston?adjust_creative=gBcvfFpabk3CnzmXKdYe3w&utm_campaign=yelp_api_v3&utm_medium=api_v3_business_search&utm_source=gBcvfFpabk3CnzmXKdYe3w", "name": "India Quality Restaurant", "location": {"display_address": ["484 Commonwealth Ave", "Boston, MA 02215"], "country": "US", "state": "MA", "address3": "", "address2": "", "address1": "484 Commonwealth Ave", "city": "Boston", "zip_code": "02215"}, "is_closed": false, "review_count": 559, "coordinates": {"latitude": 42.3485649735803, "longitude": -71.0943808368296}, "id": "india-quality-restaurant-boston", "image_url": "https://s3-media1.fl.yelpcdn.com/bphoto/fQZ55wcnwaB5bTBdSKTKSA/o.jpg", "categories": [{"alias": "indpak", "title": "Indian"}], "rating": 4.0}, {"transactions": ["delivery"], "distance": 2255.4892053299995, "price": "$$", "display_phone": "(617) 367-6711", "phone": "+16173676711", "url": "https://www.yelp.com/biz/la-famiglia-giorgios-boston-3?adjust_creative=gBcvfFpabk3CnzmXKdYe3w&utm_campaign=yelp_api_v3&utm_medium=api_v3_business_search&utm_source=gBcvfFpabk3CnzmXKdYe3w", "name": "La Famiglia Giorgio's", "location": {"display_address": ["112 Salem St", "Boston, MA 02113"], "country": "US", "state": "MA", "address3": "", "address2": "", "address1": "112 Salem St", "city": "Boston", "zip_code": "02113"}, "is_closed": false, "review_count": 857, "coordinates": {"latitude": 42.36459, "longitude": -71.05571}, "id": "la-famiglia-giorgios-boston-3", "image_url": "https://s3-media2.fl.yelpcdn.com/bphoto/5ZFlIVJAl47I9ltfWvmVZA/o.jpg", "categories": [{"alias": "italian", "title": "Italian"}, {"alias": "pizza", "title": "Pizza"}], "rating": 4.0}, {"transactions": [], "distance": 2149.4702313479997, "price": "$$", "display_phone": "(617) 737-5051", "phone": "+16177375051", "url": "https://www.yelp.com/biz/committee-boston?adjust_creative=gBcvfFpabk3CnzmXKdYe3w&utm_campaign=yelp_api_v3&utm_medium=api_v3_business_search&utm_source=gBcvfFpabk3CnzmXKdYe3w", "name": "Committee", "location": {"display_address": ["50 Northern Ave", "Boston, MA 02210"], "country": "US", "state": "MA", "address3": "", "address2": "", "address1": "50 Northern Ave", "city": "Boston", "zip_code": "02210"}, "is_closed": false, "review_count": 208, "coordinates": {"latitude": 42.3529892, "longitude": -71.0455704}, "id": "committee-boston", "image_url": "https://s3-media4.fl.yelpcdn.com/bphoto/TVoPYrztSq9AXgqbcoaPeQ/o.jpg", "categories": [{"alias": "mediterranean", "title": "Mediterranean"}, {"alias": "greek", "title": "Greek"}, {"alias": "cocktailbars", "title": "Cocktail Bars"}], "rating": 4.0}, {"transactions": [], "distance": 127.9527010288, "price": "$", "display_phone": "(617) 426-7375", "phone": "+16174267375", "url": "https://www.yelp.com/biz/berkeley-perk-cafe-boston?adjust_creative=gBcvfFpabk3CnzmXKdYe3w&utm_campaign=yelp_api_v3&utm_medium=api_v3_business_search&utm_source=gBcvfFpabk3CnzmXKdYe3w", "name": "Berkeley Perk Cafe", "location": {"display_address": ["69 Berkeley St", "Boston, MA 02116"], "country": "US", "state": "MA", "address3": "", "address2": "", "address1": "69 Berkeley St", "city": "Boston", "zip_code": "02116"}, "is_closed": false, "review_count": 110, "coordinates": {"latitude": 42.3468094, "longitude": -71.0705338}, "id": "berkeley-perk-cafe-boston", "image_url": "https://s3-media1.fl.yelpcdn.com/bphoto/DwVQMc6cej2sYWdQJkP8_Q/o.jpg", "categories": [{"alias": "sandwiches", "title": "Sandwiches"}, {"alias": "coffee", "title": "Coffee & Tea"}, {"alias": "cafes", "title": "Cafes"}], "rating": 4.0}, {"transactions": ["delivery"], "distance": 1903.4150200679999, "price": "$$", "display_phone": "(617) 742-4441", "phone": "+16177424441", "url": "https://www.yelp.com/biz/boston-chowda-co-boston-3?adjust_creative=gBcvfFpabk3CnzmXKdYe3w&utm_campaign=yelp_api_v3&utm_medium=api_v3_business_search&utm_source=gBcvfFpabk3CnzmXKdYe3w", "name": "Boston Chowda Co.", "location": {"display_address": ["1 Faneuil Hall Market Pl", "Boston, MA 02109"], "country": "US", "state": "MA", "address3": "", "address2": "", "address1": "1 Faneuil Hall Market Pl", "city": "Boston", "zip_code": "02109"}, "is_closed": false, "review_count": 665, "coordinates": {"latitude": 42.360156558668, "longitude": -71.055152437753}, "id": "boston-chowda-co-boston-3", "image_url": "https://s3-media3.fl.yelpcdn.com/bphoto/sMlMvZ4BfbANhLUhOdO3mg/o.jpg", "categories": [{"alias": "seafood", "title": "Seafood"}], "rating": 4.0}, {"transactions": ["delivery", "pickup"], "distance": 834.505393326, "price": "$", "display_phone": "(617) 262-0090", "phone": "+16172620090", "url": "https://www.yelp.com/biz/dirty-water-dough-co-boston?adjust_creative=gBcvfFpabk3CnzmXKdYe3w&utm_campaign=yelp_api_v3&utm_medium=api_v3_business_search&utm_source=gBcvfFpabk3CnzmXKdYe3w", "name": "Dirty Water Dough Co", "location": {"display_address": ["222 Newbury St", "Boston, MA 02116"], "country": "US", "state": "MA", "address3": "", "address2": "", "address1": "222 Newbury St", "city": "Boston", "zip_code": "02116"}, "is_closed": false, "review_count": 271, "coordinates": {"latitude": 42.349734, "longitude": -71.081072}, "id": "dirty-water-dough-co-boston", "image_url": "https://s3-media1.fl.yelpcdn.com/bphoto/SMVON5FmPKZDA3Oba6D7VQ/o.jpg", "categories": [{"alias": "pizza", "title": "Pizza"}, {"alias": "sandwiches", "title": "Sandwiches"}, {"alias": "salad", "title": "Salad"}], "rating": 4.0}, {"transactions": [], "distance": 1231.039527296, "price": "$", "display_phone": "(857) 244-1174", "phone": "+18572441174", "url": "https://www.yelp.com/biz/karos-bbq-boston-2?adjust_creative=gBcvfFpabk3CnzmXKdYe3w&utm_campaign=yelp_api_v3&utm_medium=api_v3_business_search&utm_source=gBcvfFpabk3CnzmXKdYe3w", "name": "Karo's BBQ", "location": {"display_address": ["1 Washington Mall", "Boston, MA 02110"], "country": "US", "state": "MA", "address3": "", "address2": "", "address1": "1 Washington Mall", "city": "Boston", "zip_code": "02110"}, "is_closed": false, "review_count": 57, "coordinates": {"latitude": 42.3549525, "longitude": -71.0597632}, "id": "karos-bbq-boston-2", "image_url": "https://s3-media3.fl.yelpcdn.com/bphoto/sJz2SwUF2Lh-xC9gJWQREw/o.jpg", "categories": [{"alias": "foodstands", "title": "Food Stands"}, {"alias": "armenian", "title": "Armenian"}], "rating": 4.0}, {"transactions": [], "distance": 1859.027813528, "price": "$$", "display_phone": "(617) 266-6662", "phone": "+16172666662", "url": "https://www.yelp.com/biz/the-lower-depths-boston?adjust_creative=gBcvfFpabk3CnzmXKdYe3w&utm_campaign=yelp_api_v3&utm_medium=api_v3_business_search&utm_source=gBcvfFpabk3CnzmXKdYe3w", "name": "The Lower Depths", "location": {"display_address": ["476 Commonwealth Ave", "Boston, MA 02115"], "country": "US", "state": "MA", "address3": "", "address2": "", "address1": "476 Commonwealth Ave", "city": "Boston", "zip_code": "02115"}, "is_closed": false, "review_count": 433, "coordinates": {"latitude": 42.34851, "longitude": -71.093849}, "id": "the-lower-depths-boston", "image_url": "https://s3-media2.fl.yelpcdn.com/bphoto/VkPW9zm0971k0LxUR2DSwQ/o.jpg", "categories": [{"alias": "pubs", "title": "Pubs"}, {"alias": "tradamerican", "title": "American (Traditional)"}], "rating": 4.0}, {"transactions": ["pickup"], "distance": 1984.55923034, "price": "$", "display_phone": "(617) 536-0448", "phone": "+16175360448", "url": "https://www.yelp.com/biz/uburger-boston?adjust_creative=gBcvfFpabk3CnzmXKdYe3w&utm_campaign=yelp_api_v3&utm_medium=api_v3_business_search&utm_source=gBcvfFpabk3CnzmXKdYe3w", "name": "Uburger", "location": {"display_address": ["636 Beacon St", "Kenmore Sq", "Boston, MA 02215"], "country": "US", "state": "MA", "address3": "Kenmore Sq", "address2": "", "address1": "636 Beacon St", "city": "Boston", "zip_code": "02215"}, "is_closed": false, "review_count": 405, "coordinates": {"latitude": 42.34957, "longitude": -71.09527}, "id": "uburger-boston", "image_url": "https://s3-media3.fl.yelpcdn.com/bphoto/MlsvOSsHFIMUbjPmP_09zw/o.jpg", "categories": [{"alias": "burgers", "title": "Burgers"}, {"alias": "hotdogs", "title": "Fast Food"}, {"alias": "sandwiches", "title": "Sandwiches"}], "rating": 4.0}, {"transactions": [], "distance": 955.7184681159999, "price": "$$", "display_phone": "(617) 477-5828", "phone": "+16174775828", "url": "https://www.yelp.com/biz/blr-by-shojo-boston-2?adjust_creative=gBcvfFpabk3CnzmXKdYe3w&utm_campaign=yelp_api_v3&utm_medium=api_v3_business_search&utm_source=gBcvfFpabk3CnzmXKdYe3w", "name": "BLR By Shojo", "location": {"display_address": ["13A Hudson St", "Boston, MA 02111"], "country": "US", "state": "MA", "address3": "", "address2": "", "address1": "13A Hudson St", "city": "Boston", "zip_code": "02111"}, "is_closed": false, "review_count": 160, "coordinates": {"latitude": 42.3507995605469, "longitude": -71.0602569580078}, "id": "blr-by-shojo-boston-2", "image_url": "https://s3-media4.fl.yelpcdn.com/bphoto/70FOahAHIHT7UmUH6U7GWQ/o.jpg", "categories": [{"alias": "chinese", "title": "Chinese"}], "rating": 4.0}, {"transactions": [], "distance": 1011.8429131439999, "price": "$$", "display_phone": "(617) 227-2175", "phone": "+16172272175", "url": "https://www.yelp.com/biz/75-chestnut-boston?adjust_creative=gBcvfFpabk3CnzmXKdYe3w&utm_campaign=yelp_api_v3&utm_medium=api_v3_business_search&utm_source=gBcvfFpabk3CnzmXKdYe3w", "name": "75 Chestnut", "location": {"display_address": ["75 Chestnut St", "Boston, MA 02108"], "country": "US", "state": "MA", "address3": "", "address2": "", "address1": "75 Chestnut St", "city": "Boston", "zip_code": "02108"}, "is_closed": false, "review_count": 357, "coordinates": {"latitude": 42.35693359375, "longitude": -71.0709838867188}, "id": "75-chestnut-boston", "image_url": "https://s3-media3.fl.yelpcdn.com/bphoto/vB2LY202JYrIQ5Vernsomw/o.jpg", "categories": [{"alias": "newamerican", "title": "American (New)"}, {"alias": "diners", "title": "Diners"}, {"alias": "steak", "title": "Steakhouses"}], "rating": 4.0}, {"transactions": [], "distance": 2278.90268832, "price": "$", "display_phone": "(617) 227-7606", "phone": "+16172277606", "url": "https://www.yelp.com/biz/caff%C3%A9-vittoria-boston-3?adjust_creative=gBcvfFpabk3CnzmXKdYe3w&utm_campaign=yelp_api_v3&utm_medium=api_v3_business_search&utm_source=gBcvfFpabk3CnzmXKdYe3w", "name": "Caff\u00e9 Vittoria", "location": {"display_address": ["296 Hanover St", "Boston, MA 02113"], "country": "US", "state": "MA", "address3": "", "address2": "", "address1": "296 Hanover St", "city": "Boston", "zip_code": "02113"}, "is_closed": false, "review_count": 647, "coordinates": {"latitude": 42.36418, "longitude": -71.05448}, "id": "caff\u00e9-vittoria-boston-3", "image_url": "https://s3-media1.fl.yelpcdn.com/bphoto/3xTVcBhCaLteaYyuS2Emhw/o.jpg", "categories": [{"alias": "coffee", "title": "Coffee & Tea"}, {"alias": "italian", "title": "Italian"}], "rating": 4.0}, {"transactions": [], "distance": 2259.364978852, "price": "$", "display_phone": "(617) 425-4444", "phone": "+16174254444", "url": "https://www.yelp.com/biz/tasty-burger-boston?adjust_creative=gBcvfFpabk3CnzmXKdYe3w&utm_campaign=yelp_api_v3&utm_medium=api_v3_business_search&utm_source=gBcvfFpabk3CnzmXKdYe3w", "name": "Tasty Burger", "location": {"display_address": ["1301 Boylston St", "Boston, MA 02215"], "country": "US", "state": "MA", "address3": "", "address2": "", "address1": "1301 Boylston St", "city": "Boston", "zip_code": "02215"}, "is_closed": false, "review_count": 863, "coordinates": {"latitude": 42.3446525, "longitude": -71.0979707}, "id": "tasty-burger-boston", "image_url": "https://s3-media4.fl.yelpcdn.com/bphoto/gjlIvYF8tUy1hDEcXM5N5w/o.jpg", "categories": [{"alias": "burgers", "title": "Burgers"}, {"alias": "hotdog", "title": "Hot Dogs"}, {"alias": "hotdogs", "title": "Fast Food"}], "rating": 4.0}, {"transactions": [], "distance": 2346.905671888, "price": "$$", "display_phone": "(617) 227-7280", "phone": "+16172277280", "url": "https://www.yelp.com/biz/boston-sail-loft-boston?adjust_creative=gBcvfFpabk3CnzmXKdYe3w&utm_campaign=yelp_api_v3&utm_medium=api_v3_business_search&utm_source=gBcvfFpabk3CnzmXKdYe3w", "name": "Boston Sail Loft", "location": {"display_address": ["80 Atlantic Ave", "Boston, MA 02110"], "country": "US", "state": "MA", "address3": "", "address2": "", "address1": "80 Atlantic Ave", "city": "Boston", "zip_code": "02110"}, "is_closed": false, "review_count": 362, "coordinates": {"latitude": 42.362543759667, "longitude": -71.050748116975}, "id": "boston-sail-loft-boston", "image_url": "https://s3-media2.fl.yelpcdn.com/bphoto/jddeJbF4o6MWkZfPvatOkw/o.jpg", "categories": [{"alias": "bars", "title": "Bars"}, {"alias": "tradamerican", "title": "American (Traditional)"}], "rating": 4.0}, {"transactions": [], "distance": 2560.3477690019995, "price": "$$$", "display_phone": "(857) 277-1895", "phone": "+18572771895", "url": "https://www.yelp.com/biz/il-molo-boston?adjust_creative=gBcvfFpabk3CnzmXKdYe3w&utm_campaign=yelp_api_v3&utm_medium=api_v3_business_search&utm_source=gBcvfFpabk3CnzmXKdYe3w", "name": "il Molo", "location": {"display_address": ["326 Commercial St", "Boston, MA 02109"], "country": "US", "state": "MA", "address3": "", "address2": "", "address1": "326 Commercial St", "city": "Boston", "zip_code": "02109"}, "is_closed": false, "review_count": 59, "coordinates": {"latitude": 42.36541, "longitude": -71.05141}, "id": "il-molo-boston", "image_url": "https://s3-media2.fl.yelpcdn.com/bphoto/iybwPjh2W0sMmGLq7bba8A/o.jpg", "categories": [{"alias": "seafood", "title": "Seafood"}], "rating": 4.5}, {"transactions": [], "distance": 678.610880602, "price": "$", "display_phone": "(617) 536-7669", "phone": "+16175367669", "url": "https://www.yelp.com/biz/charlies-sandwich-shoppe-boston?adjust_creative=gBcvfFpabk3CnzmXKdYe3w&utm_campaign=yelp_api_v3&utm_medium=api_v3_business_search&utm_source=gBcvfFpabk3CnzmXKdYe3w", "name": "Charlie's Sandwich Shoppe", "location": {"display_address": ["429 Columbus Ave", "Boston, MA 02116"], "country": "US", "state": "MA", "address3": "", "address2": "", "address1": "429 Columbus Ave", "city": "Boston", "zip_code": "02116"}, "is_closed": false, "review_count": 233, "coordinates": {"latitude": 42.344109, "longitude": -71.077773}, "id": "charlies-sandwich-shoppe-boston", "image_url": "https://s3-media4.fl.yelpcdn.com/bphoto/YPcRPT694ymmp1jCvpxlVw/o.jpg", "categories": [{"alias": "sandwiches", "title": "Sandwiches"}, {"alias": "breakfast_brunch", "title": "Breakfast & Brunch"}, {"alias": "diners", "title": "Diners"}], "rating": 4.0}, {"transactions": [], "distance": 1419.1657406059999, "price": "$", "display_phone": "(617) 236-1500", "phone": "+16172361500", "url": "https://www.yelp.com/biz/pavement-coffeehouse-boston?adjust_creative=gBcvfFpabk3CnzmXKdYe3w&utm_campaign=yelp_api_v3&utm_medium=api_v3_business_search&utm_source=gBcvfFpabk3CnzmXKdYe3w", "name": "Pavement Coffeehouse", "location": {"display_address": ["1096 Boylston St", "Boston, MA 02215"], "country": "US", "state": "MA", "address3": "", "address2": "", "address1": "1096 Boylston St", "city": "Boston", "zip_code": "02215"}, "is_closed": false, "review_count": 330, "coordinates": {"latitude": 42.3469565156457, "longitude": -71.0884725931989}, "id": "pavement-coffeehouse-boston", "image_url": "https://s3-media1.fl.yelpcdn.com/bphoto/dO9gTYfKWHVD0pvTZpJ2-A/o.jpg", "categories": [{"alias": "coffee", "title": "Coffee & Tea"}, {"alias": "sandwiches", "title": "Sandwiches"}, {"alias": "bagels", "title": "Bagels"}], "rating": 4.0}, {"transactions": [], "distance": 2325.654498122, "price": "$$", "display_phone": "(617) 765-8636", "phone": "+16177658636", "url": "https://www.yelp.com/biz/lincoln-tavern-and-restaurant-boston?adjust_creative=gBcvfFpabk3CnzmXKdYe3w&utm_campaign=yelp_api_v3&utm_medium=api_v3_business_search&utm_source=gBcvfFpabk3CnzmXKdYe3w", "name": "Lincoln Tavern and Restaurant", "location": {"display_address": ["425 W Broadway", "Boston, MA 02127"], "country": "US", "state": "MA", "address3": "", "address2": "", "address1": "425 W Broadway", "city": "Boston", "zip_code": "02127"}, "is_closed": false, "review_count": 470, "coordinates": {"latitude": 42.33632, "longitude": -71.04763}, "id": "lincoln-tavern-and-restaurant-boston", "image_url": "https://s3-media3.fl.yelpcdn.com/bphoto/dolqflLk3Q7JpLthmo-6Pg/o.jpg", "categories": [{"alias": "newamerican", "title": "American (New)"}, {"alias": "pizza", "title": "Pizza"}, {"alias": "burgers", "title": "Burgers"}], "rating": 4.0}, {"transactions": [], "distance": 987.939305657, "price": "$$$", "display_phone": "(617) 692-8888", "phone": "+16176928888", "url": "https://www.yelp.com/biz/legal-crossing-boston?adjust_creative=gBcvfFpabk3CnzmXKdYe3w&utm_campaign=yelp_api_v3&utm_medium=api_v3_business_search&utm_source=gBcvfFpabk3CnzmXKdYe3w", "name": "Legal Crossing", "location": {"display_address": ["558 Washington St", "Boston, MA 02111"], "country": "US", "state": "MA", "address3": "", "address2": "", "address1": "558 Washington St", "city": "Boston", "zip_code": "02111"}, "is_closed": false, "review_count": 242, "coordinates": {"latitude": 42.35338, "longitude": -71.06201}, "id": "legal-crossing-boston", "image_url": "https://s3-media3.fl.yelpcdn.com/bphoto/54kNn6xfOqDDLOwrtqzF6A/o.jpg", "categories": [{"alias": "seafood", "title": "Seafood"}, {"alias": "italian", "title": "Italian"}], "rating": 4.0}, {"transactions": [], "distance": 1584.90619545, "price": "$$", "display_phone": "(857) 350-3344", "phone": "+18573503344", "url": "https://www.yelp.com/biz/the-tip-tap-room-boston?adjust_creative=gBcvfFpabk3CnzmXKdYe3w&utm_campaign=yelp_api_v3&utm_medium=api_v3_business_search&utm_source=gBcvfFpabk3CnzmXKdYe3w", "name": "The Tip Tap Room", "location": {"display_address": ["138 Cambridge St", "Boston, MA 02114"], "country": "US", "state": "MA", "address3": "", "address2": "", "address1": "138 Cambridge St", "city": "Boston", "zip_code": "02114"}, "is_closed": false, "review_count": 504, "coordinates": {"latitude": 42.36105, "longitude": -71.063986}, "id": "the-tip-tap-room-boston", "image_url": "https://s3-media1.fl.yelpcdn.com/bphoto/F-q37O7201QO8CO0dZ7jcQ/o.jpg", "categories": [{"alias": "newamerican", "title": "American (New)"}, {"alias": "bars", "title": "Bars"}], "rating": 4.0}, {"transactions": [], "distance": 988.0150894776, "price": "$", "display_phone": "(617) 670-6040", "phone": "+16176706040", "url": "https://www.yelp.com/biz/patisserie-on-newbury-boston?adjust_creative=gBcvfFpabk3CnzmXKdYe3w&utm_campaign=yelp_api_v3&utm_medium=api_v3_business_search&utm_source=gBcvfFpabk3CnzmXKdYe3w", "name": "Patisserie on Newbury", "location": {"display_address": ["257 Newbury St", "Boston, MA 02116"], "country": "US", "state": "MA", "address3": "", "address2": "", "address1": "257 Newbury St", "city": "Boston", "zip_code": "02116"}, "is_closed": false, "review_count": 91, "coordinates": {"latitude": 42.3494751, "longitude": -71.0830638}, "id": "patisserie-on-newbury-boston", "image_url": "https://s3-media2.fl.yelpcdn.com/bphoto/taNJPz5lGUBqqq9t6St03w/o.jpg", "categories": [{"alias": "desserts", "title": "Desserts"}, {"alias": "breakfast_brunch", "title": "Breakfast & Brunch"}, {"alias": "sandwiches", "title": "Sandwiches"}], "rating": 4.0}, {"transactions": [], "distance": 715.2097988657999, "price": "$$$", "display_phone": "(617) 536-1234", "phone": "+16175361234", "url": "https://www.yelp.com/biz/porto-boston?adjust_creative=gBcvfFpabk3CnzmXKdYe3w&utm_campaign=yelp_api_v3&utm_medium=api_v3_business_search&utm_source=gBcvfFpabk3CnzmXKdYe3w", "name": "Porto", "location": {"display_address": ["Ring Rd", "Boston, MA 02199"], "country": "US", "state": "MA", "address3": "", "address2": "", "address1": "Ring Rd", "city": "Boston", "zip_code": "02199"}, "is_closed": false, "review_count": 122, "coordinates": {"latitude": 42.3474013, "longitude": -71.0799231}, "id": "porto-boston", "image_url": "https://s3-media1.fl.yelpcdn.com/bphoto/NDIW1cVyYSFXOK2S3TOxCg/o.jpg", "categories": [{"alias": "seafood", "title": "Seafood"}, {"alias": "mediterranean", "title": "Mediterranean"}, {"alias": "greek", "title": "Greek"}], "rating": 4.0}, {"transactions": [], "distance": 711.1315864651999, "price": "$$", "display_phone": "(617) 266-4600", "phone": "+16172664600", "url": "https://www.yelp.com/biz/tremont-647-boston?adjust_creative=gBcvfFpabk3CnzmXKdYe3w&utm_campaign=yelp_api_v3&utm_medium=api_v3_business_search&utm_source=gBcvfFpabk3CnzmXKdYe3w", "name": "Tremont 647", "location": {"display_address": ["647 Tremont St", "Boston, MA 02118"], "country": "US", "state": "MA", "address3": "", "address2": "", "address1": "647 Tremont St", "city": "Boston", "zip_code": "02118"}, "is_closed": false, "review_count": 689, "coordinates": {"latitude": 42.3422470092773, "longitude": -71.0754318237305}, "id": "tremont-647-boston", "image_url": "https://s3-media2.fl.yelpcdn.com/bphoto/fP-63-DZDsHFEUbTP8ZfCw/o.jpg", "categories": [{"alias": "bars", "title": "Bars"}, {"alias": "tradamerican", "title": "American (Traditional)"}, {"alias": "breakfast_brunch", "title": "Breakfast & Brunch"}], "rating": 3.5}, {"transactions": [], "distance": 3376.8324167439996, "price": "$", "display_phone": "(617) 265-7067", "phone": "+16172657067", "url": "https://www.yelp.com/biz/paraiso-restaurant-boston?adjust_creative=gBcvfFpabk3CnzmXKdYe3w&utm_campaign=yelp_api_v3&utm_medium=api_v3_business_search&utm_source=gBcvfFpabk3CnzmXKdYe3w", "name": "Paraiso Restaurant", "location": {"display_address": ["750 Dudley St", "Boston, MA 02125"], "country": "US", "state": "MA", "address3": "", "address2": "", "address1": "750 Dudley St", "city": "Boston", "zip_code": "02125"}, "is_closed": false, "review_count": 58, "coordinates": {"latitude": 42.3176535218954, "longitude": -71.0663495957851}, "id": "paraiso-restaurant-boston", "image_url": "https://s3-media4.fl.yelpcdn.com/bphoto/BTr6VyHF7n2_QYIklT7EnQ/o.jpg", "categories": [{"alias": "spanish", "title": "Spanish"}, {"alias": "dominican", "title": "Dominican"}, {"alias": "puertorican", "title": "Puerto Rican"}], "rating": 4.5}, {"transactions": [], "distance": 1113.039821684, "price": "$$", "display_phone": "(857) 957-0217", "phone": "+18579570217", "url": "https://www.yelp.com/biz/george-howell-coffee-boston-4?adjust_creative=gBcvfFpabk3CnzmXKdYe3w&utm_campaign=yelp_api_v3&utm_medium=api_v3_business_search&utm_source=gBcvfFpabk3CnzmXKdYe3w", "name": "George Howell Coffee", "location": {"display_address": ["505 Washington St", "Boston, MA 02135"], "country": "US", "state": "MA", "address3": null, "address2": "", "address1": "505 Washington St", "city": "Boston", "zip_code": "02135"}, "is_closed": false, "review_count": 72, "coordinates": {"latitude": 42.354744, "longitude": -71.06143}, "id": "george-howell-coffee-boston-4", "image_url": "https://s3-media2.fl.yelpcdn.com/bphoto/G9Yr-d5PMq2IEj1ENv7uFA/o.jpg", "categories": [{"alias": "coffee", "title": "Coffee & Tea"}], "rating": 4.0}, {"transactions": [], "distance": 1811.1438330359997, "price": "$", "display_phone": "(857) 284-7462", "phone": "+18572847462", "url": "https://www.yelp.com/biz/espresso-love-boston?adjust_creative=gBcvfFpabk3CnzmXKdYe3w&utm_campaign=yelp_api_v3&utm_medium=api_v3_business_search&utm_source=gBcvfFpabk3CnzmXKdYe3w", "name": "Espresso Love", "location": {"display_address": ["33 Broad St", "Boston, MA 02109"], "country": "US", "state": "MA", "address3": "", "address2": "", "address1": "33 Broad St", "city": "Boston", "zip_code": "02109"}, "is_closed": false, "review_count": 110, "coordinates": {"latitude": 42.358437, "longitude": -71.054497}, "id": "espresso-love-boston", "image_url": "https://s3-media3.fl.yelpcdn.com/bphoto/IrKoPVvDtFeBTeq2YRzxJQ/o.jpg", "categories": [{"alias": "coffee", "title": "Coffee & Tea"}, {"alias": "sandwiches", "title": "Sandwiches"}], "rating": 4.0}, {"transactions": ["delivery", "pickup"], "distance": 1876.840310516, "price": "$$", "display_phone": "(857) 991-1483", "phone": "+18579911483", "url": "https://www.yelp.com/biz/koy-boston?adjust_creative=gBcvfFpabk3CnzmXKdYe3w&utm_campaign=yelp_api_v3&utm_medium=api_v3_business_search&utm_source=gBcvfFpabk3CnzmXKdYe3w", "name": "Koy", "location": {"display_address": ["16 North St", "Boston, MA 02109"], "country": "US", "state": "MA", "address3": "", "address2": null, "address1": "16 North St", "city": "Boston", "zip_code": "02109"}, "is_closed": false, "review_count": 243, "coordinates": {"latitude": 42.3605931357964, "longitude": -71.056273070639}, "id": "koy-boston", "image_url": "https://s3-media1.fl.yelpcdn.com/bphoto/EWOtR6_NWH8G9k1WjSKrjg/o.jpg", "categories": [{"alias": "korean", "title": "Korean"}, {"alias": "asianfusion", "title": "Asian Fusion"}], "rating": 4.0}, {"transactions": [], "distance": 4669.7739196679995, "price": "$$", "display_phone": "(617) 567-7412", "phone": "+16175677412", "url": "https://www.yelp.com/biz/rinos-place-boston?adjust_creative=gBcvfFpabk3CnzmXKdYe3w&utm_campaign=yelp_api_v3&utm_medium=api_v3_business_search&utm_source=gBcvfFpabk3CnzmXKdYe3w", "name": "Rino's Place", "location": {"display_address": ["258 Saratoga St", "Boston, MA 02128"], "country": "US", "state": "MA", "address3": "", "address2": "", "address1": "258 Saratoga St", "city": "Boston", "zip_code": "02128"}, "is_closed": false, "review_count": 627, "coordinates": {"latitude": 42.378294552494, "longitude": -71.032104213469}, "id": "rinos-place-boston", "image_url": "https://s3-media2.fl.yelpcdn.com/bphoto/8kl75QCK843rW0Y9sXYVsA/o.jpg", "categories": [{"alias": "italian", "title": "Italian"}], "rating": 4.0}, {"transactions": [], "distance": 1305.5507461976, "display_phone": "(617) 727-7030", "phone": "+16177277030", "url": "https://www.yelp.com/biz/massachusetts-state-house-boston?adjust_creative=gBcvfFpabk3CnzmXKdYe3w&utm_campaign=yelp_api_v3&utm_medium=api_v3_business_search&utm_source=gBcvfFpabk3CnzmXKdYe3w", "name": "Massachusetts State House", "location": {"display_address": ["24 Beacon St", "Boston, MA 02133"], "country": "US", "state": "MA", "address3": "", "address2": "", "address1": "24 Beacon St", "city": "Boston", "zip_code": "02133"}, "is_closed": false, "review_count": 39, "coordinates": {"latitude": 42.358169210446, "longitude": -71.0636807080273}, "id": "massachusetts-state-house-boston", "image_url": "https://s3-media2.fl.yelpcdn.com/bphoto/lfOquQrQEu4zq_5EXktqGA/o.jpg", "categories": [{"alias": "landmarks", "title": "Landmarks & Historical Buildings"}], "rating": 4.5}, {"transactions": ["delivery"], "distance": 420.70682310499996, "price": "$$", "display_phone": "(617) 542-3456", "phone": "+16175423456", "url": "https://www.yelp.com/biz/maggianos-little-italy-boston?adjust_creative=gBcvfFpabk3CnzmXKdYe3w&utm_campaign=yelp_api_v3&utm_medium=api_v3_business_search&utm_source=gBcvfFpabk3CnzmXKdYe3w", "name": "Maggiano's Little Italy", "location": {"display_address": ["4 Columbus Ave", "Boston, MA 02116"], "country": "US", "state": "MA", "address3": "", "address2": "", "address1": "4 Columbus Ave", "city": "Boston", "zip_code": "02116"}, "is_closed": false, "review_count": 676, "coordinates": {"latitude": 42.3513145744801, "longitude": -71.0684162378311}, "id": "maggianos-little-italy-boston", "image_url": "https://s3-media1.fl.yelpcdn.com/bphoto/yGBVAmENBagMhGkI4LIaHg/o.jpg", "categories": [{"alias": "italian", "title": "Italian"}, {"alias": "bars", "title": "Bars"}], "rating": 3.5}, {"transactions": ["delivery"], "distance": 2271.252207828, "price": "$", "display_phone": "(617) 266-9210", "phone": "+16172669210", "url": "https://www.yelp.com/biz/regina-pizzeria-boston-8?adjust_creative=gBcvfFpabk3CnzmXKdYe3w&utm_campaign=yelp_api_v3&utm_medium=api_v3_business_search&utm_source=gBcvfFpabk3CnzmXKdYe3w", "name": "Regina Pizzeria", "location": {"display_address": ["1330 Boylston St", "Boston, MA 02215"], "country": "US", "state": "MA", "address3": "", "address2": "", "address1": "1330 Boylston St", "city": "Boston", "zip_code": "02215"}, "is_closed": false, "review_count": 75, "coordinates": {"latitude": 42.3442548214725, "longitude": -71.0984469096914}, "id": "regina-pizzeria-boston-8", "image_url": "https://s3-media4.fl.yelpcdn.com/bphoto/JWQvzn7F6ddCYAqVLQSwjw/o.jpg", "categories": [{"alias": "pizza", "title": "Pizza"}, {"alias": "italian", "title": "Italian"}], "rating": 4.0}], "total": 24838}