{"region": {"center": {"latitude": 42.34784169448538, "longitude": -71.07124328613281}}, "businesses": [{"transactions": ["delivery", "pickup"], "distance": 960.4169362460001, "price": "$$", "display_phone": "(617) 421-9588", "phone": "+16174219588", "url": "https://www.yelp.com/biz/shuns-kitchen-boston-2?adjust_creative=gBcvfFpabk3CnzmXKdYe3w&utm_campaign=yelp_api_v3&utm_medium=api_v3_business_search&utm_source=gBcvfFpabk3CnzmXKdYe3w", "name": "Shun's Kitchen", "location": {"display_address": ["520 Columbus Ave", "Boston, MA 02118"], "country": "US", "state": "MA", "address3": "", "address2": "", "address1": "520 Columbus Ave", "city": "Boston", "zip_code": "02118"}, "is_closed": false, "review_count": 46, "coordinates": {"latitude": 42.3419134834615, "longitude": -71.0797398537397}, "id": "shuns-kitchen-boston-2", "image_url": "https://s3-media1.fl.yelpcdn.com/bphoto/cUT7PIdEjlpKwFzVNSyJbQ/o.jpg", "categories": [{"alias": "japanese", "title": "Japanese"}, {"alias": "chinese", "title": "Chinese"}, {"alias": "asianfusion", "title": "Asian Fusion"}], "rating": 4.0}, {"transactions": [], "distance": 1061.085820332, "price": "$$$", "display_phone": "(857) 239-8064", "phone": "+18572398064", "url": "https://www.yelp.com/biz/select-oyster-bar-boston?adjust_creative=gBcvfFpabk3CnzmXKdYe3w&utm_campaign=yelp_api_v3&utm_medium=api_v3_business_search&utm_source=gBcvfFpabk3CnzmXKdYe3w", "name": "Select Oyster Bar", "location": {"display_address": ["50 Gloucester St", "Boston, MA 02115"], "country": "US", "state": "MA", "address3": "", "address2": "", "address1": "50 Gloucester St", "city": "Boston", "zip_code": "02115"}, "is_closed": false, "review_count": 202, "coordinates": {"latitude": 42.3486099, "longitude": -71.0841064}, "id": "select-oyster-bar-boston", "image_url": "https://s3-media2.fl.yelpcdn.com/bphoto/DPAjGnhnN6NRLIN9ZKeddA/o.jpg", "categories": [{"alias": "seafood", "title": "Seafood"}], "rating": 3.5}, {"transactions": [], "distance": 1585.6862425479999, "price": "$$", "display_phone": "(617) 204-9280", "phone": "+16172049280", "url": "https://www.yelp.com/biz/pret-a-manger-boston-2?adjust_creative=gBcvfFpabk3CnzmXKdYe3w&utm_campaign=yelp_api_v3&utm_medium=api_v3_business_search&utm_source=gBcvfFpabk3CnzmXKdYe3w", "name": "Pret A Manger", "location": {"display_address": ["185 Franklin Street", "Boston, MA 02110"], "country": "US", "state": "MA", "address3": "", "address2": "", "address1": "185 Franklin Street", "city": "Boston", "zip_code": "02110"}, "is_closed": false, "review_count": 100, "coordinates": {"latitude": 42.3556213, "longitude": -71.0554199}, "id": "pret-a-manger-boston-2", "image_url": "https://s3-media4.fl.yelpcdn.com/bphoto/qEgpeersYJ7oiYPeKZ16OA/o.jpg", "categories": [{"alias": "coffee", "title": "Coffee & Tea"}, {"alias": "sandwiches", "title": "Sandwiches"}, {"alias": "breakfast_brunch", "title": "Breakfast & Brunch"}, {"alias": "cafes", "title": "Cafes"}], "rating": 4.0}, {"transactions": [], "distance": 352.185390656, "price": "$$$$", "display_phone": "(617) 456-5300", "phone": "+16174565300", "url": "https://www.yelp.com/biz/strip-by-strega-boston?adjust_creative=gBcvfFpabk3CnzmXKdYe3w&utm_campaign=yelp_api_v3&utm_medium=api_v3_business_search&utm_source=gBcvfFpabk3CnzmXKdYe3w", "name": "Strip By Strega", "location": {"display_address": ["64 Arlington St", "Boston, MA 02116"], "country": "US", "state": "MA", "address3": "", "address2": "", "address1": "64 Arlington St", "city": "Boston", "zip_code": "02116"}, "is_closed": false, "review_count": 168, "coordinates": {"latitude": 42.3509903, "longitude": -71.0700607}, "id": "strip-by-strega-boston", "image_url": "https://s3-media2.fl.yelpcdn.com/bphoto/VrcqNpWbgpbt0s8avBISGQ/o.jpg", "categories": [{"alias": "tradamerican", "title": "American (Traditional)"}, {"alias": "steak", "title": "Steakhouses"}], "rating": 4.0}, {"transactions": [], "distance": 945.8931255479998, "price": "$$", "display_phone": "(617) 338-1688", "phone": "+16173381688", "url": "https://www.yelp.com/biz/winsor-dim-sum-caf%C3%A9-boston-2?adjust_creative=gBcvfFpabk3CnzmXKdYe3w&utm_campaign=yelp_api_v3&utm_medium=api_v3_business_search&utm_source=gBcvfFpabk3CnzmXKdYe3w", "name": "Winsor Dim Sum Caf\u00e9", "location": {"display_address": ["10 Tyler St", "Boston, MA 02111"], "country": "US", "state": "MA", "address3": "", "address2": "", "address1": "10 Tyler St", "city": "Boston", "zip_code": "02111"}, "is_closed": false, "review_count": 752, "coordinates": {"latitude": 42.351011898927, "longitude": -71.060564754751}, "id": "winsor-dim-sum-caf\u00e9-boston-2", "image_url": "https://s3-media1.fl.yelpcdn.com/bphoto/z2X4O0tiZvslk4BRA-CmGA/o.jpg", "categories": [{"alias": "dimsum", "title": "Dim Sum"}], "rating": 3.5}, {"transactions": [], "distance": 595.9080889136, "price": "$", "display_phone": "(617) 778-6772", "phone": "+16177786772", "url": "https://www.yelp.com/biz/boloco-boston-42?adjust_creative=gBcvfFpabk3CnzmXKdYe3w&utm_campaign=yelp_api_v3&utm_medium=api_v3_business_search&utm_source=gBcvfFpabk3CnzmXKdYe3w", "name": "Boloco", "location": {"display_address": ["176 Boylston St", "Boston, MA 02116"], "country": "US", "state": "MA", "address3": "", "address2": "", "address1": "176 Boylston St", "city": "Boston", "zip_code": "02116"}, "is_closed": false, "review_count": 155, "coordinates": {"latitude": 42.3522386124831, "longitude": -71.0670942440629}, "id": "boloco-boston-42", "image_url": "https://s3-media3.fl.yelpcdn.com/bphoto/3WfXn9gLmiw1LytqPyQ2_A/o.jpg", "categories": [{"alias": "mexican", "title": "Mexican"}, {"alias": "newamerican", "title": "American (New)"}], "rating": 4.0}, {"transactions": [], "distance": 1194.176870393, "price": "$", "display_phone": "(857) 317-5340", "phone": "+18573175340", "url": "https://www.yelp.com/biz/la-colombe-coffee-boston?adjust_creative=gBcvfFpabk3CnzmXKdYe3w&utm_campaign=yelp_api_v3&utm_medium=api_v3_business_search&utm_source=gBcvfFpabk3CnzmXKdYe3w", "name": "La Colombe Coffee", "location": {"display_address": ["745 Atlantic Ave", "Boston, MA 02111"], "country": "US", "state": "MA", "address3": "", "address2": "", "address1": "745 Atlantic Ave", "city": "Boston", "zip_code": "02111"}, "is_closed": false, "review_count": 44, "coordinates": {"latitude": 42.3502922058105, "longitude": -71.05712890625}, "id": "la-colombe-coffee-boston", "image_url": "https://s3-media2.fl.yelpcdn.com/bphoto/Nz_fDYbnEhT240XZaA9Iww/o.jpg", "categories": [{"alias": "coffee", "title": "Coffee & Tea"}], "rating": 4.0}, {"transactions": [], "distance": 2875.184562542, "price": "$", "display_phone": "(617) 432-0402", "phone": "+16174320402", "url": "https://www.yelp.com/biz/samis-boston-6?adjust_creative=gBcvfFpabk3CnzmXKdYe3w&utm_campaign=yelp_api_v3&utm_medium=api_v3_business_search&utm_source=gBcvfFpabk3CnzmXKdYe3w", "name": "Sami's", "location": {"display_address": ["107 Ave Louis Pasteur", "Boston, MA 02115"], "country": "US", "state": "MA", "address3": null, "address2": "", "address1": "107 Ave Louis Pasteur", "city": "Boston", "zip_code": "02115"}, "is_closed": false, "review_count": 51, "coordinates": {"latitude": 42.3373908671469, "longitude": -71.1032426066765}, "id": "samis-boston-6", "image_url": "https://s3-media3.fl.yelpcdn.com/bphoto/INaW9G9tV5sxUp4UdDji3A/o.jpg", "categories": [{"alias": "streetvendors", "title": "Street Vendors"}, {"alias": "lebanese", "title": "Lebanese"}, {"alias": "newamerican", "title": "American (New)"}], "rating": 4.5}, {"transactions": [], "distance": 1128.4888419479998, "price": "$$", "display_phone": "(617) 723-5555", "phone": "+16177235555", "url": "https://www.yelp.com/biz/tatte-bakery-and-cafe-boston?adjust_creative=gBcvfFpabk3CnzmXKdYe3w&utm_campaign=yelp_api_v3&utm_medium=api_v3_business_search&utm_source=gBcvfFpabk3CnzmXKdYe3w", "name": "Tatte Bakery & Cafe", "location": {"display_address": ["70 Charles St", "Boston, MA 02114"], "country": "US", "state": "MA", "address3": "", "address2": "", "address1": "70 Charles St", "city": "Boston", "zip_code": "02114"}, "is_closed": false, "review_count": 192, "coordinates": {"latitude": 42.3578910827637, "longitude": -71.0706329345703}, "id": "tatte-bakery-and-cafe-boston", "image_url": "https://s3-media4.fl.yelpcdn.com/bphoto/0s2H--IDOAiznY4FW1A67Q/o.jpg", "categories": [{"alias": "cafes", "title": "Cafes"}, {"alias": "bakeries", "title": "Bakeries"}], "rating": 3.5}, {"transactions": [], "distance": 918.9369380424, "price": "$", "display_phone": "(617) 542-7903", "phone": "+16175427903", "url": "https://www.yelp.com/biz/163-vietnamese-sandwiches-and-bubble-tea-boston?adjust_creative=gBcvfFpabk3CnzmXKdYe3w&utm_campaign=yelp_api_v3&utm_medium=api_v3_business_search&utm_source=gBcvfFpabk3CnzmXKdYe3w", "name": "163 Vietnamese Sandwiches & Bubble Tea", "location": {"display_address": ["66 Harrison Ave", "Boston, MA 02111"], "country": "US", "state": "MA", "address3": "", "address2": "", "address1": "66 Harrison Ave", "city": "Boston", "zip_code": "02111"}, "is_closed": false, "review_count": 294, "coordinates": {"latitude": 42.35132, "longitude": -71.06106}, "id": "163-vietnamese-sandwiches-and-bubble-tea-boston", "image_url": "https://s3-media4.fl.yelpcdn.com/bphoto/_U2Jrx7zLOHiiuF2ggOTCA/o.jpg", "categories": [{"alias": "vietnamese", "title": "Vietnamese"}, {"alias": "coffee", "title": "Coffee & Tea"}, {"alias": "delis", "title": "Delis"}], "rating": 3.5}, {"transactions": [], "distance": 727.698164612, "price": "$$$", "display_phone": "(617) 247-2400", "phone": "+16172472400", "url": "https://www.yelp.com/biz/lucca-back-bay-boston?adjust_creative=gBcvfFpabk3CnzmXKdYe3w&utm_campaign=yelp_api_v3&utm_medium=api_v3_business_search&utm_source=gBcvfFpabk3CnzmXKdYe3w", "name": "Lucca Back Bay", "location": {"display_address": ["116 Huntington Ave", "Boston, MA 02116"], "country": "US", "state": "MA", "address3": "", "address2": "", "address1": "116 Huntington Ave", "city": "Boston", "zip_code": "02116"}, "is_closed": false, "review_count": 250, "coordinates": {"latitude": 42.3465561, "longitude": -71.0799281}, "id": "lucca-back-bay-boston", "image_url": "https://s3-media4.fl.yelpcdn.com/bphoto/0wbRrXZZwGbP3LbRc3dm0A/o.jpg", "categories": [{"alias": "italian", "title": "Italian"}], "rating": 4.0}, {"transactions": [], "distance": 959.9647117059999, "price": "$$", "display_phone": "(617) 338-6223", "phone": "+16173386223", "url": "https://www.yelp.com/biz/gourmet-dumpling-house-boston-3?adjust_creative=gBcvfFpabk3CnzmXKdYe3w&utm_campaign=yelp_api_v3&utm_medium=api_v3_business_search&utm_source=gBcvfFpabk3CnzmXKdYe3w", "name": "Gourmet Dumpling House", "location": {"display_address": ["52 Beach St", "Boston, MA 02111"], "country": "US", "state": "MA", "address3": null, "address2": "", "address1": "52 Beach St", "city": "Boston", "zip_code": "02111"}, "is_closed": false, "review_count": 1382, "coordinates": {"latitude": 42.3514616954526, "longitude": -71.0606415876193}, "id": "gourmet-dumpling-house-boston-3", "image_url": "https://s3-media3.fl.yelpcdn.com/bphoto/i-UL9lD5Di0cnYgd0hXSWg/o.jpg", "categories": [{"alias": "chinese", "title": "Chinese"}], "rating": 3.5}, {"transactions": [], "distance": 1077.5825209359998, "price": "$", "display_phone": "(617) 236-1767", "phone": "+16172361767", "url": "https://www.yelp.com/biz/the-pour-house-boston?adjust_creative=gBcvfFpabk3CnzmXKdYe3w&utm_campaign=yelp_api_v3&utm_medium=api_v3_business_search&utm_source=gBcvfFpabk3CnzmXKdYe3w", "name": "The Pour House", "location": {"display_address": ["907 Boylston St", "Boston, MA 02115"], "country": "US", "state": "MA", "address3": "", "address2": "", "address1": "907 Boylston St", "city": "Boston", "zip_code": "02115"}, "is_closed": false, "review_count": 970, "coordinates": {"latitude": 42.3484840393066, "longitude": -71.0843353271484}, "id": "the-pour-house-boston", "image_url": "https://s3-media3.fl.yelpcdn.com/bphoto/NC5NJucddOU3_W0rEtxN8Q/o.jpg", "categories": [{"alias": "bars", "title": "Bars"}, {"alias": "tradamerican", "title": "American (Traditional)"}, {"alias": "newamerican", "title": "American (New)"}], "rating": 3.5}, {"transactions": [], "distance": 2421.6389153359996, "price": "$$", "display_phone": "(617) 266-0001", "phone": "+16172660001", "url": "https://www.yelp.com/biz/saloniki-greek-boston?adjust_creative=gBcvfFpabk3CnzmXKdYe3w&utm_campaign=yelp_api_v3&utm_medium=api_v3_business_search&utm_source=gBcvfFpabk3CnzmXKdYe3w", "name": "Saloniki Greek", "location": {"display_address": ["4 Kilmarnock St", "Boston, MA 02215"], "country": "US", "state": "MA", "address3": "", "address2": null, "address1": "4 Kilmarnock St", "city": "Boston", "zip_code": "02215"}, "is_closed": false, "review_count": 231, "coordinates": {"latitude": 42.3445875942707, "longitude": -71.1002963036299}, "id": "saloniki-greek-boston", "image_url": "https://s3-media1.fl.yelpcdn.com/bphoto/G7x4hzPs2fa99-J18G94Hw/o.jpg", "categories": [{"alias": "greek", "title": "Greek"}, {"alias": "salad", "title": "Salad"}, {"alias": "soup", "title": "Soup"}], "rating": 4.0}, {"transactions": ["delivery", "pickup"], "distance": 1727.9061932919997, "price": "$", "display_phone": "(617) 615-9792", "phone": "+16176159792", "url": "https://www.yelp.com/biz/flame-cafe-boston-6?adjust_creative=gBcvfFpabk3CnzmXKdYe3w&utm_campaign=yelp_api_v3&utm_medium=api_v3_business_search&utm_source=gBcvfFpabk3CnzmXKdYe3w", "name": "Flame Cafe", "location": {"display_address": ["2 Oliver St", "Boston, MA 02109"], "country": "US", "state": "MA", "address3": "", "address2": "", "address1": "2 Oliver St", "city": "Boston", "zip_code": "02109"}, "is_closed": false, "review_count": 68, "coordinates": {"latitude": 42.3571268, "longitude": -71.0543838}, "id": "flame-cafe-boston-6", "image_url": "https://s3-media2.fl.yelpcdn.com/bphoto/Sm_qWfalWmwo5azOut2IEA/o.jpg", "categories": [{"alias": "mediterranean", "title": "Mediterranean"}, {"alias": "armenian", "title": "Armenian"}, {"alias": "greek", "title": "Greek"}], "rating": 4.5}, {"transactions": [], "distance": 2514.33303692, "price": "$", "display_phone": "(857) 350-3029", "phone": "+18573503029", "url": "https://www.yelp.com/biz/my-cousins-place-boston?adjust_creative=gBcvfFpabk3CnzmXKdYe3w&utm_campaign=yelp_api_v3&utm_medium=api_v3_business_search&utm_source=gBcvfFpabk3CnzmXKdYe3w", "name": "My Cousin's Place", "location": {"display_address": ["396 Hanover St", "Boston, MA 02113"], "country": "US", "state": "MA", "address3": "", "address2": "", "address1": "396 Hanover St", "city": "Boston", "zip_code": "02113"}, "is_closed": false, "review_count": 60, "coordinates": {"latitude": 42.3659527825682, "longitude": -71.0529154596387}, "id": "my-cousins-place-boston", "image_url": "https://s3-media3.fl.yelpcdn.com/bphoto/Vf8PnD6rZMCRAseAleoi0Q/o.jpg", "categories": [{"alias": "cafes", "title": "Cafes"}, {"alias": "coffee", "title": "Coffee & Tea"}, {"alias": "tradamerican", "title": "American (Traditional)"}], "rating": 4.0}, {"transactions": [], "distance": 2256.9184601839997, "price": "$$", "display_phone": "(617) 450-9000", "phone": "+16174509000", "url": "https://www.yelp.com/biz/citizen-public-house-and-oyster-bar-boston?adjust_creative=gBcvfFpabk3CnzmXKdYe3w&utm_campaign=yelp_api_v3&utm_medium=api_v3_business_search&utm_source=gBcvfFpabk3CnzmXKdYe3w", "name": "Citizen Public House & Oyster Bar", "location": {"display_address": ["1310 Boylston St", "Boston, MA 02215"], "country": "US", "state": "MA", "address3": "", "address2": "", "address1": "1310 Boylston St", "city": "Boston", "zip_code": "02215"}, "is_closed": false, "review_count": 513, "coordinates": {"latitude": 42.3443535715342, "longitude": -71.0983946174383}, "id": "citizen-public-house-and-oyster-bar-boston", "image_url": "https://s3-media1.fl.yelpcdn.com/bphoto/E5edyo7D_R-ariIuwJ4RzQ/o.jpg", "categories": [{"alias": "gastropubs", "title": "Gastropubs"}], "rating": 3.5}, {"transactions": [], "distance": 551.2381857092, "price": "$$$", "display_phone": "(617) 536-5700", "phone": "+16175365700", "url": "https://www.yelp.com/biz/the-bar-at-taj-boston-boston?adjust_creative=gBcvfFpabk3CnzmXKdYe3w&utm_campaign=yelp_api_v3&utm_medium=api_v3_business_search&utm_source=gBcvfFpabk3CnzmXKdYe3w", "name": "The Bar at Taj Boston", "location": {"display_address": ["15 Arlington St", "Boston, MA 02116"], "country": "US", "state": "MA", "address3": "", "address2": "", "address1": "15 Arlington St", "city": "Boston", "zip_code": "02116"}, "is_closed": false, "review_count": 46, "coordinates": {"latitude": 42.35281, "longitude": -71.07158}, "id": "the-bar-at-taj-boston-boston", "image_url": "https://s3-media4.fl.yelpcdn.com/bphoto/xs886lMf3raFs3Qr5JTVMw/o.jpg", "categories": [{"alias": "bars", "title": "Bars"}], "rating": 4.0}, {"transactions": [], "distance": 1354.997975192, "price": "$$", "display_phone": "(617) 299-1504", "phone": "+16172991504", "url": "https://www.yelp.com/biz/oakleaf-cakes-boston-2?adjust_creative=gBcvfFpabk3CnzmXKdYe3w&utm_campaign=yelp_api_v3&utm_medium=api_v3_business_search&utm_source=gBcvfFpabk3CnzmXKdYe3w", "name": "Oakleaf Cakes", "location": {"display_address": ["12 Westland Ave", "Boston, MA 02115"], "country": "US", "state": "MA", "address3": "", "address2": "", "address1": "12 Westland Ave", "city": "Boston", "zip_code": "02115"}, "is_closed": false, "review_count": 120, "coordinates": {"latitude": 42.3434116, "longitude": -71.0866001}, "id": "oakleaf-cakes-boston-2", "image_url": "https://s3-media1.fl.yelpcdn.com/bphoto/cnp5HmPcT0vpWfx3AMaLXw/o.jpg", "categories": [{"alias": "bakeries", "title": "Bakeries"}, {"alias": "coffee", "title": "Coffee & Tea"}, {"alias": "desserts", "title": "Desserts"}], "rating": 4.0}, {"transactions": [], "distance": 2244.138852178, "price": "$$", "display_phone": "(617) 523-4111", "phone": "+16175234111", "url": "https://www.yelp.com/biz/beneventos-boston?adjust_creative=gBcvfFpabk3CnzmXKdYe3w&utm_campaign=yelp_api_v3&utm_medium=api_v3_business_search&utm_source=gBcvfFpabk3CnzmXKdYe3w", "name": "Benevento's", "location": {"display_address": ["111 Salem St", "Boston, MA 02113"], "country": "US", "state": "MA", "address3": "", "address2": "", "address1": "111 Salem St", "city": "Boston", "zip_code": "02113"}, "is_closed": false, "review_count": 305, "coordinates": {"latitude": 42.3642807006836, "longitude": -71.0553588867188}, "id": "beneventos-boston", "image_url": "https://s3-media4.fl.yelpcdn.com/bphoto/N04c4Itn0M7r-FQszjyQNw/o.jpg", "categories": [{"alias": "italian", "title": "Italian"}, {"alias": "pizza", "title": "Pizza"}], "rating": 4.0}, {"transactions": [], "distance": 679.954759969, "price": "$", "display_phone": "", "phone": "", "url": "https://www.yelp.com/biz/the-tam-boston?adjust_creative=gBcvfFpabk3CnzmXKdYe3w&utm_campaign=yelp_api_v3&utm_medium=api_v3_business_search&utm_source=gBcvfFpabk3CnzmXKdYe3w", "name": "The Tam", "location": {"display_address": ["222 Tremont St", "Boston, MA 02118"], "country": "US", "state": "MA", "address3": "", "address2": null, "address1": "222 Tremont St", "city": "Boston", "zip_code": "02118"}, "is_closed": false, "review_count": 295, "coordinates": {"latitude": 42.3515171507333, "longitude": -71.0646311837185}, "id": "the-tam-boston", "image_url": "https://s3-media1.fl.yelpcdn.com/bphoto/ytZ4_IVDIMCaOyT90Y2abg/o.jpg", "categories": [{"alias": "irish_pubs", "title": "Irish Pub"}], "rating": 3.5}, {"transactions": [], "distance": 1995.4602557639998, "display_phone": "", "phone": "", "url": "https://www.yelp.com/biz/citgo-sign-boston?adjust_creative=gBcvfFpabk3CnzmXKdYe3w&utm_campaign=yelp_api_v3&utm_medium=api_v3_business_search&utm_source=gBcvfFpabk3CnzmXKdYe3w", "name": "Citgo Sign", "location": {"display_address": ["666 Beacon St", "Boston, MA 02215"], "country": "US", "state": "MA", "address3": "", "address2": "", "address1": "666 Beacon St", "city": "Boston", "zip_code": "02215"}, "is_closed": false, "review_count": 38, "coordinates": {"latitude": 42.3491291, "longitude": -71.0962867}, "id": "citgo-sign-boston", "image_url": "https://s3-media2.fl.yelpcdn.com/bphoto/rNOMWdvmaiO1HCQdFNK6rw/o.jpg", "categories": [{"alias": "localflavor", "title": "Local Flavor"}, {"alias": "landmarks", "title": "Landmarks & Historical Buildings"}], "rating": 4.5}, {"transactions": [], "distance": 1619.6935279559998, "price": "$$$$", "display_phone": "(617) 778-2200", "phone": "+16177782200", "url": "https://www.yelp.com/biz/smith-and-wollensky-boston-2?adjust_creative=gBcvfFpabk3CnzmXKdYe3w&utm_campaign=yelp_api_v3&utm_medium=api_v3_business_search&utm_source=gBcvfFpabk3CnzmXKdYe3w", "name": "Smith & Wollensky", "location": {"display_address": ["294 Congress St", "Boston, MA 02210"], "country": "US", "state": "MA", "address3": "", "address2": "", "address1": "294 Congress St", "city": "Boston", "zip_code": "02210"}, "is_closed": false, "review_count": 245, "coordinates": {"latitude": 42.3531183164592, "longitude": -71.05287385159}, "id": "smith-and-wollensky-boston-2", "image_url": "https://s3-media2.fl.yelpcdn.com/bphoto/xSgTJbGb9TFb9hYFOSe5Kg/o.jpg", "categories": [{"alias": "steak", "title": "Steakhouses"}, {"alias": "seafood", "title": "Seafood"}], "rating": 3.5}, {"transactions": [], "distance": 2002.146419728, "display_phone": "(617) 223-8666", "phone": "+16172238666", "url": "https://www.yelp.com/biz/boston-harbor-islands-boston?adjust_creative=gBcvfFpabk3CnzmXKdYe3w&utm_campaign=yelp_api_v3&utm_medium=api_v3_business_search&utm_source=gBcvfFpabk3CnzmXKdYe3w", "name": "Boston Harbor Islands", "location": {"display_address": ["191W Atlantic Ave", "National Park Service", "Boston, MA 02110"], "country": "US", "state": "MA", "address3": "National Park Service", "address2": "", "address1": "191W Atlantic Ave", "city": "Boston", "zip_code": "02110"}, "is_closed": false, "review_count": 11, "coordinates": {"latitude": 42.358323, "longitude": -71.0514327}, "id": "boston-harbor-islands-boston", "image_url": "https://s3-media1.fl.yelpcdn.com/bphoto/t6jvIS1K2wzK67Oybn5q3A/o.jpg", "categories": [{"alias": "parks", "title": "Parks"}, {"alias": "landmarks", "title": "Landmarks & Historical Buildings"}, {"alias": "beaches", "title": "Beaches"}], "rating": 4.5}, {"transactions": ["delivery"], "distance": 1417.439723456, "price": "$", "display_phone": "(617) 357-9727", "phone": "+16173579727", "url": "https://www.yelp.com/biz/boloco-boston-44?adjust_creative=gBcvfFpabk3CnzmXKdYe3w&utm_campaign=yelp_api_v3&utm_medium=api_v3_business_search&utm_source=gBcvfFpabk3CnzmXKdYe3w", "name": "Boloco", "location": {"display_address": ["133 Federal St", "Boston, MA 02110"], "country": "US", "state": "MA", "address3": "", "address2": null, "address1": "133 Federal St", "city": "Boston", "zip_code": "02110"}, "is_closed": false, "review_count": 111, "coordinates": {"latitude": 42.3543117, "longitude": -71.0563778}, "id": "boloco-boston-44", "image_url": "https://s3-media2.fl.yelpcdn.com/bphoto/G-JTxWexzxMjy-OVXaHlDA/o.jpg", "categories": [{"alias": "newamerican", "title": "American (New)"}], "rating": 4.0}, {"transactions": ["delivery"], "distance": 1065.3948281819999, "price": "$$", "display_phone": "(617) 536-0230", "phone": "+16175360230", "url": "https://www.yelp.com/biz/caf%C3%A9-jaffa-boston-2?adjust_creative=gBcvfFpabk3CnzmXKdYe3w&utm_campaign=yelp_api_v3&utm_medium=api_v3_business_search&utm_source=gBcvfFpabk3CnzmXKdYe3w", "name": "Caf\u00e9 Jaffa", "location": {"display_address": ["48 Gloucester St", "Boston, MA 02115"], "country": "US", "state": "MA", "address3": "", "address2": "", "address1": "48 Gloucester St", "city": "Boston", "zip_code": "02115"}, "is_closed": false, "review_count": 338, "coordinates": {"latitude": 42.3486671447754, "longitude": -71.0841445922852}, "id": "caf\u00e9-jaffa-boston-2", "image_url": "https://s3-media1.fl.yelpcdn.com/bphoto/G9_8tcdPGcwAwE1FYPxR2w/o.jpg", "categories": [{"alias": "mideastern", "title": "Middle Eastern"}, {"alias": "salad", "title": "Salad"}, {"alias": "sandwiches", "title": "Sandwiches"}], "rating": 3.5}, {"transactions": [], "distance": 2268.36151132, "price": "$$$", "display_phone": "(617) 573-9406", "phone": "+16175739406", "url": "https://www.yelp.com/biz/ristorante-euno-boston?adjust_creative=gBcvfFpabk3CnzmXKdYe3w&utm_campaign=yelp_api_v3&utm_medium=api_v3_business_search&utm_source=gBcvfFpabk3CnzmXKdYe3w", "name": "Ristorante Euno", "location": {"display_address": ["119 Salem St", "Boston, MA 02113"], "country": "US", "state": "MA", "address3": "", "address2": "", "address1": "119 Salem St", "city": "Boston", "zip_code": "02113"}, "is_closed": false, "review_count": 174, "coordinates": {"latitude": 42.3644332885742, "longitude": -71.0553512573242}, "id": "ristorante-euno-boston", "image_url": "https://s3-media1.fl.yelpcdn.com/bphoto/m8tzHDZy_XuwA35yBoJmpg/o.jpg", "categories": [{"alias": "italian", "title": "Italian"}, {"alias": "mediterranean", "title": "Mediterranean"}, {"alias": "pastashops", "title": "Pasta Shops"}], "rating": 4.0}, {"transactions": [], "distance": 1657.75377522, "display_phone": "(617) 720-1713", "phone": "+16177201713", "url": "https://www.yelp.com/biz/the-old-state-house-boston?adjust_creative=gBcvfFpabk3CnzmXKdYe3w&utm_campaign=yelp_api_v3&utm_medium=api_v3_business_search&utm_source=gBcvfFpabk3CnzmXKdYe3w", "name": "The Old State House", "location": {"display_address": ["206 Washington St", "Boston, MA 02108"], "country": "US", "state": "MA", "address3": "", "address2": null, "address1": "206 Washington St", "city": "Boston", "zip_code": "02108"}, "is_closed": false, "review_count": 55, "coordinates": {"latitude": 42.358739412865, "longitude": -71.0574688454484}, "id": "the-old-state-house-boston", "image_url": "https://s3-media1.fl.yelpcdn.com/bphoto/l2CiL_qSFDws_vUGFXBkGQ/o.jpg", "categories": [{"alias": "landmarks", "title": "Landmarks & Historical Buildings"}, {"alias": "museums", "title": "Museums"}], "rating": 4.0}, {"transactions": [], "distance": 1120.4000898938, "price": "$", "display_phone": "(617) 338-6500", "phone": "+16173386500", "url": "https://www.yelp.com/biz/lamberts-marketplace-boston-5?adjust_creative=gBcvfFpabk3CnzmXKdYe3w&utm_campaign=yelp_api_v3&utm_medium=api_v3_business_search&utm_source=gBcvfFpabk3CnzmXKdYe3w", "name": "Lambert's Marketplace", "location": {"display_address": ["140 Tremont St", "Boston, MA 02111"], "country": "US", "state": "MA", "address3": "", "address2": null, "address1": "140 Tremont St", "city": "Boston", "zip_code": "02111"}, "is_closed": false, "review_count": 137, "coordinates": {"latitude": 42.355712, "longitude": -71.06273}, "id": "lamberts-marketplace-boston-5", "image_url": "https://s3-media4.fl.yelpcdn.com/bphoto/nHEGQHgsm7PuF80ZdcpZLA/o.jpg", "categories": [{"alias": "grocery", "title": "Grocery"}, {"alias": "delis", "title": "Delis"}, {"alias": "sandwiches", "title": "Sandwiches"}], "rating": 3.5}, {"transactions": [], "distance": 904.2137944919999, "price": "$$", "display_phone": "(617) 338-8770", "phone": "+16173388770", "url": "https://www.yelp.com/biz/gaga-seafood-restaurant-boston?adjust_creative=gBcvfFpabk3CnzmXKdYe3w&utm_campaign=yelp_api_v3&utm_medium=api_v3_business_search&utm_source=gBcvfFpabk3CnzmXKdYe3w", "name": "Gaga Seafood Restaurant", "location": {"display_address": ["25-27 Tyler St", "Boston, MA 02111"], "country": "US", "state": "MA", "address3": "", "address2": null, "address1": "25-27 Tyler St", "city": "Boston", "zip_code": "02111"}, "is_closed": false, "review_count": 69, "coordinates": {"latitude": 42.35071, "longitude": -71.06097}, "id": "gaga-seafood-restaurant-boston", "image_url": "https://s3-media4.fl.yelpcdn.com/bphoto/RauYeTwmqPqQceW13pwM7w/o.jpg", "categories": [{"alias": "seafood", "title": "Seafood"}], "rating": 4.0}, {"transactions": ["delivery", "pickup"], "distance": 2365.395218214, "price": "$", "display_phone": "(617) 437-0966", "phone": "+16174370966", "url": "https://www.yelp.com/biz/hidyan-caf%C3%A9-boston-2?adjust_creative=gBcvfFpabk3CnzmXKdYe3w&utm_campaign=yelp_api_v3&utm_medium=api_v3_business_search&utm_source=gBcvfFpabk3CnzmXKdYe3w", "name": "Hidyan Caf\u00e9", "location": {"display_address": ["80 Kilmarnock St", "Boston, MA 02215"], "country": "US", "state": "MA", "address3": "", "address2": "", "address1": "80 Kilmarnock St", "city": "Boston", "zip_code": "02215"}, "is_closed": false, "review_count": 115, "coordinates": {"latitude": 42.34255, "longitude": -71.09912}, "id": "hidyan-caf\u00e9-boston-2", "image_url": "https://s3-media2.fl.yelpcdn.com/bphoto/G2AsdntLiP0jghqCHaUxcA/o.jpg", "categories": [{"alias": "icecream", "title": "Ice Cream & Frozen Yogurt"}, {"alias": "tradamerican", "title": "American (Traditional)"}, {"alias": "mideastern", "title": "Middle Eastern"}], "rating": 4.0}, {"transactions": ["pickup", "delivery"], "distance": 4948.493100258, "price": "$$", "display_phone": "(617) 202-3808", "phone": "+16172023808", "url": "https://www.yelp.com/biz/oppa-sushi-boston-2?adjust_creative=gBcvfFpabk3CnzmXKdYe3w&utm_campaign=yelp_api_v3&utm_medium=api_v3_business_search&utm_source=gBcvfFpabk3CnzmXKdYe3w", "name": "Oppa Sushi", "location": {"display_address": ["185 Harvard Ave", "Boston, MA 02134"], "country": "US", "state": "MA", "address3": "", "address2": "", "address1": "185 Harvard Ave", "city": "Boston", "zip_code": "02134"}, "is_closed": false, "review_count": 128, "coordinates": {"latitude": 42.350904, "longitude": -71.1313152}, "id": "oppa-sushi-boston-2", "image_url": "https://s3-media2.fl.yelpcdn.com/bphoto/4561Ili8Zu-yPSZYcAg0-w/o.jpg", "categories": [{"alias": "sushi", "title": "Sushi Bars"}, {"alias": "japanese", "title": "Japanese"}, {"alias": "seafood", "title": "Seafood"}], "rating": 4.5}, {"transactions": ["delivery"], "distance": 253.8450284292, "price": "$$$", "display_phone": "(617) 399-0015", "phone": "+16173990015", "url": "https://www.yelp.com/biz/post-390-boston?adjust_creative=gBcvfFpabk3CnzmXKdYe3w&utm_campaign=yelp_api_v3&utm_medium=api_v3_business_search&utm_source=gBcvfFpabk3CnzmXKdYe3w", "name": "Post 390", "location": {"display_address": ["406 Stuart St", "Boston, MA 02116"], "country": "US", "state": "MA", "address3": "", "address2": "", "address1": "406 Stuart St", "city": "Boston", "zip_code": "02116"}, "is_closed": false, "review_count": 547, "coordinates": {"latitude": 42.3488638811714, "longitude": -71.0740035028749}, "id": "post-390-boston", "image_url": "https://s3-media1.fl.yelpcdn.com/bphoto/rWGIl_v46gQvj_EZdYSjLQ/o.jpg", "categories": [{"alias": "bars", "title": "Bars"}, {"alias": "tradamerican", "title": "American (Traditional)"}], "rating": 3.5}, {"transactions": [], "distance": 1439.2365761357999, "price": "$$$$", "display_phone": "(617) 536-7200", "phone": "+16175367200", "url": "https://www.yelp.com/biz/uni-boston-2?adjust_creative=gBcvfFpabk3CnzmXKdYe3w&utm_campaign=yelp_api_v3&utm_medium=api_v3_business_search&utm_source=gBcvfFpabk3CnzmXKdYe3w", "name": "UNI", "location": {"display_address": ["370 Commonwealth Ave", "Boston, MA 02215"], "country": "US", "state": "MA", "address3": "", "address2": "", "address1": "370 Commonwealth Ave", "city": "Boston", "zip_code": "02215"}, "is_closed": false, "review_count": 287, "coordinates": {"latitude": 42.34859, "longitude": -71.08873}, "id": "uni-boston-2", "image_url": "https://s3-media2.fl.yelpcdn.com/bphoto/BIZdneD2AaB17mvI0d22zw/o.jpg", "categories": [{"alias": "sushi", "title": "Sushi Bars"}, {"alias": "japanese", "title": "Japanese"}, {"alias": "asianfusion", "title": "Asian Fusion"}], "rating": 3.5}, {"transactions": [], "distance": 1151.814776842, "price": "$", "display_phone": "", "phone": "", "url": "https://www.yelp.com/biz/clover-boston-2?adjust_creative=gBcvfFpabk3CnzmXKdYe3w&utm_campaign=yelp_api_v3&utm_medium=api_v3_business_search&utm_source=gBcvfFpabk3CnzmXKdYe3w", "name": "Clover", "location": {"display_address": ["138 Tremont St", "Boston, MA 02111"], "country": "US", "state": "MA", "address3": "", "address2": "", "address1": "138 Tremont St", "city": "Boston", "zip_code": "02111"}, "is_closed": false, "review_count": 67, "coordinates": {"latitude": 42.356143951416, "longitude": -71.062858581543}, "id": "clover-boston-2", "image_url": "https://s3-media2.fl.yelpcdn.com/bphoto/wovPQ5CSGRpEHQwnUUrK3Q/o.jpg", "categories": [{"alias": "foodstands", "title": "Food Stands"}], "rating": 4.0}, {"transactions": ["delivery", "pickup"], "distance": 1351.3664994819999, "price": "$$", "display_phone": "(617) 371-1230", "phone": "+16173711230", "url": "https://www.yelp.com/biz/zen-japanese-grill-and-sushi-bar-boston?adjust_creative=gBcvfFpabk3CnzmXKdYe3w&utm_campaign=yelp_api_v3&utm_medium=api_v3_business_search&utm_source=gBcvfFpabk3CnzmXKdYe3w", "name": "Zen Japanese Grill & Sushi Bar", "location": {"display_address": ["21 A Beacon St", "Boston, MA 02108"], "country": "US", "state": "MA", "address3": "", "address2": null, "address1": "21 A Beacon St", "city": "Boston", "zip_code": "02108"}, "is_closed": false, "review_count": 243, "coordinates": {"latitude": 42.3581615, "longitude": -71.0624064}, "id": "zen-japanese-grill-and-sushi-bar-boston", "image_url": "https://s3-media2.fl.yelpcdn.com/bphoto/hfLqov6qPTrl7LtX2JxtgA/o.jpg", "categories": [{"alias": "japanese", "title": "Japanese"}, {"alias": "sushi", "title": "Sushi Bars"}], "rating": 3.5}, {"transactions": [], "distance": 1134.071481474, "price": "$$", "display_phone": "(617) 426-0048", "phone": "+16174260048", "url": "https://www.yelp.com/biz/stoddards-fine-food-and-ale-boston?adjust_creative=gBcvfFpabk3CnzmXKdYe3w&utm_campaign=yelp_api_v3&utm_medium=api_v3_business_search&utm_source=gBcvfFpabk3CnzmXKdYe3w", "name": "Stoddard's Fine Food & Ale", "location": {"display_address": ["48 Temple Pl", "Boston, MA 02111"], "country": "US", "state": "MA", "address3": "", "address2": "", "address1": "48 Temple Pl", "city": "Boston", "zip_code": "02111"}, "is_closed": false, "review_count": 493, "coordinates": {"latitude": 42.3552131652832, "longitude": -71.0616226196289}, "id": "stoddards-fine-food-and-ale-boston", "image_url": "https://s3-media2.fl.yelpcdn.com/bphoto/wxRN1rnP52MKUICmi7FBHA/o.jpg", "categories": [{"alias": "tradamerican", "title": "American (Traditional)"}, {"alias": "gastropubs", "title": "Gastropubs"}, {"alias": "pubs", "title": "Pubs"}], "rating": 3.5}, {"transactions": ["delivery"], "distance": 3178.997859884, "price": "$$", "display_phone": "(617) 277-9200", "phone": "+16172779200", "url": "https://www.yelp.com/biz/penguin-pizza-boston?adjust_creative=gBcvfFpabk3CnzmXKdYe3w&utm_campaign=yelp_api_v3&utm_medium=api_v3_business_search&utm_source=gBcvfFpabk3CnzmXKdYe3w", "name": "Penguin Pizza", "location": {"display_address": ["735 Huntington Ave", "Boston, MA 02115"], "country": "US", "state": "MA", "address3": "", "address2": null, "address1": "735 Huntington Ave", "city": "Boston", "zip_code": "02115"}, "is_closed": false, "review_count": 467, "coordinates": {"latitude": 42.334502, "longitude": -71.10545}, "id": "penguin-pizza-boston", "image_url": "https://s3-media4.fl.yelpcdn.com/bphoto/3zVOt1WdWa_mTrZBPCzyHQ/o.jpg", "categories": [{"alias": "pizza", "title": "Pizza"}, {"alias": "italian", "title": "Italian"}], "rating": 4.0}, {"transactions": [], "distance": 4487.801661584, "price": "$", "display_phone": "(617) 562-8828", "phone": "+16175628828", "url": "https://www.yelp.com/biz/pho-viets-boston-3?adjust_creative=gBcvfFpabk3CnzmXKdYe3w&utm_campaign=yelp_api_v3&utm_medium=api_v3_business_search&utm_source=gBcvfFpabk3CnzmXKdYe3w", "name": "Pho Viet's", "location": {"display_address": ["1095 Commonwealth Ave", "Boston, MA 02228"], "country": "US", "state": "MA", "address3": "", "address2": "", "address1": "1095 Commonwealth Ave", "city": "Boston", "zip_code": "02228"}, "is_closed": false, "review_count": 362, "coordinates": {"latitude": 42.3523273, "longitude": -71.1247024}, "id": "pho-viets-boston-3", "image_url": "https://s3-media3.fl.yelpcdn.com/bphoto/Z3OiMwb8MtPD9WudZASl3Q/o.jpg", "categories": [{"alias": "vietnamese", "title": "Vietnamese"}], "rating": 4.0}, {"transactions": [], "distance": 1253.5541938959998, "price": "$", "display_phone": "(617) 204-9808", "phone": "+16172049808", "url": "https://www.yelp.com/biz/olgas-kafe-boston-2?adjust_creative=gBcvfFpabk3CnzmXKdYe3w&utm_campaign=yelp_api_v3&utm_medium=api_v3_business_search&utm_source=gBcvfFpabk3CnzmXKdYe3w", "name": "Olga's Kafe", "location": {"display_address": ["99 Summer St", "Boston, MA 02110"], "country": "US", "state": "MA", "address3": "", "address2": "", "address1": "99 Summer St", "city": "Boston", "zip_code": "02110"}, "is_closed": false, "review_count": 45, "coordinates": {"latitude": 42.353787, "longitude": -71.058278}, "id": "olgas-kafe-boston-2", "image_url": "https://s3-media3.fl.yelpcdn.com/bphoto/rVmPFmKvQEeYXUeJoWF5hw/o.jpg", "categories": [{"alias": "breakfast_brunch", "title": "Breakfast & Brunch"}, {"alias": "coffee", "title": "Coffee & Tea"}, {"alias": "sandwiches", "title": "Sandwiches"}], "rating": 4.0}, {"transactions": [], "distance": 1226.698010778, "price": "$", "display_phone": "(978) 846-0860", "phone": "+19788460860", "url": "https://www.yelp.com/biz/daddys-fried-dough-boston-2?adjust_creative=gBcvfFpabk3CnzmXKdYe3w&utm_campaign=yelp_api_v3&utm_medium=api_v3_business_search&utm_source=gBcvfFpabk3CnzmXKdYe3w", "name": "Daddy's Fried Dough", "location": {"display_address": ["Park Street T Station Boston Common", "Tremont St and Park St", "Boston, MA 02108"], "country": "US", "state": "MA", "address3": "Tremont St and Park St", "address2": "", "address1": "Park Street T Station Boston Common", "city": "Boston", "zip_code": "02108"}, "is_closed": false, "review_count": 23, "coordinates": {"latitude": 42.3564967, "longitude": -71.0619843}, "id": "daddys-fried-dough-boston-2", "image_url": "https://s3-media2.fl.yelpcdn.com/bphoto/D-JiXOm1cEmWJY1pM08WgA/o.jpg", "categories": [{"alias": "desserts", "title": "Desserts"}, {"alias": "donuts", "title": "Donuts"}, {"alias": "foodstands", "title": "Food Stands"}], "rating": 4.5}, {"transactions": [], "distance": 1483.5043213676, "price": "$", "display_phone": "(617) 536-6614", "phone": "+16175366614", "url": "https://www.yelp.com/biz/marlboro-market-boston-2?adjust_creative=gBcvfFpabk3CnzmXKdYe3w&utm_campaign=yelp_api_v3&utm_medium=api_v3_business_search&utm_source=gBcvfFpabk3CnzmXKdYe3w", "name": "Marlboro Market", "location": {"display_address": ["45 Massachusetts Ave", "Boston, MA 02115"], "country": "US", "state": "MA", "address3": "", "address2": "", "address1": "45 Massachusetts Ave", "city": "Boston", "zip_code": "02115"}, "is_closed": false, "review_count": 44, "coordinates": {"latitude": 42.3498956859112, "longitude": -71.0890994220972}, "id": "marlboro-market-boston-2", "image_url": "https://s3-media3.fl.yelpcdn.com/bphoto/izzo77coPvKa52nFZH1Jxg/o.jpg", "categories": [{"alias": "grocery", "title": "Grocery"}, {"alias": "beer_and_wine", "title": "Beer, Wine & Spirits"}, {"alias": "delis", "title": "Delis"}], "rating": 4.0}, {"transactions": [], "distance": 4488.144611938, "price": "$$", "display_phone": "(617) 671-5939", "phone": "+16176715939", "url": "https://www.yelp.com/biz/tarboosh-boston?adjust_creative=gBcvfFpabk3CnzmXKdYe3w&utm_campaign=yelp_api_v3&utm_medium=api_v3_business_search&utm_source=gBcvfFpabk3CnzmXKdYe3w", "name": "Tarboosh", "location": {"display_address": ["2 Brighton Ave", "Boston, MA 02134"], "country": "US", "state": "MA", "address3": "", "address2": "", "address1": "2 Brighton Ave", "city": "Boston", "zip_code": "02134"}, "is_closed": false, "review_count": 52, "coordinates": {"latitude": 42.352078, "longitude": -71.1255544}, "id": "tarboosh-boston", "image_url": "https://s3-media1.fl.yelpcdn.com/bphoto/WyMfTJ3tai9eNEQ7tpX50w/o.jpg", "categories": [{"alias": "pizza", "title": "Pizza"}, {"alias": "mediterranean", "title": "Mediterranean"}], "rating": 4.5}, {"transactions": [], "distance": 1361.5949012529998, "price": "$", "display_phone": "(617) 572-2074", "phone": "+16175722074", "url": "https://www.yelp.com/biz/five-guys-boston-2?adjust_creative=gBcvfFpabk3CnzmXKdYe3w&utm_campaign=yelp_api_v3&utm_medium=api_v3_business_search&utm_source=gBcvfFpabk3CnzmXKdYe3w", "name": "Five Guys", "location": {"display_address": ["263 Huntington Ave", "Boston, MA 02115"], "country": "US", "state": "MA", "address3": "", "address2": "", "address1": "263 Huntington Ave", "city": "Boston", "zip_code": "02115"}, "is_closed": false, "review_count": 45, "coordinates": {"latitude": 42.34242, "longitude": -71.08564}, "id": "five-guys-boston-2", "image_url": "https://s3-media4.fl.yelpcdn.com/bphoto/Hu9BMSUSvlfxGenrFJUSiw/o.jpg", "categories": [{"alias": "burgers", "title": "Burgers"}, {"alias": "hotdogs", "title": "Fast Food"}], "rating": 4.0}, {"transactions": ["delivery"], "distance": 480.0032933664, "price": "$$", "display_phone": "(617) 236-2063", "phone": "+16172362063", "url": "https://www.yelp.com/biz/stephis-on-tremont-boston?adjust_creative=gBcvfFpabk3CnzmXKdYe3w&utm_campaign=yelp_api_v3&utm_medium=api_v3_business_search&utm_source=gBcvfFpabk3CnzmXKdYe3w", "name": "Stephi's on Tremont", "location": {"display_address": ["571 Tremont St", "Boston, MA 02118"], "country": "US", "state": "MA", "address3": "", "address2": "", "address1": "571 Tremont St", "city": "Boston", "zip_code": "02118"}, "is_closed": false, "review_count": 409, "coordinates": {"latitude": 42.3436382, "longitude": -71.07257}, "id": "stephis-on-tremont-boston", "image_url": "https://s3-media2.fl.yelpcdn.com/bphoto/e6pdrh7EOjpzx9n_lVhpLQ/o.jpg", "categories": [{"alias": "newamerican", "title": "American (New)"}], "rating": 3.5}, {"transactions": [], "distance": 2489.1238523579996, "price": "$$", "display_phone": "(617) 266-1300", "phone": "+16172661300", "url": "https://www.yelp.com/biz/sweet-cheeks-q-boston?adjust_creative=gBcvfFpabk3CnzmXKdYe3w&utm_campaign=yelp_api_v3&utm_medium=api_v3_business_search&utm_source=gBcvfFpabk3CnzmXKdYe3w", "name": "Sweet Cheeks Q", "location": {"display_address": ["1381 Boylston St", "Boston, MA 02215"], "country": "US", "state": "MA", "address3": "", "address2": "", "address1": "1381 Boylston St", "city": "Boston", "zip_code": "02215"}, "is_closed": false, "review_count": 1148, "coordinates": {"latitude": 42.3438762985484, "longitude": -71.101050100398}, "id": "sweet-cheeks-q-boston", "image_url": "https://s3-media4.fl.yelpcdn.com/bphoto/dEI03PQc0LzR2C20W_b3lw/o.jpg", "categories": [{"alias": "southern", "title": "Southern"}, {"alias": "bars", "title": "Bars"}, {"alias": "bbq", "title": "Barbeque"}], "rating": 3.5}, {"transactions": [], "distance": 1238.8978540489998, "price": "$$", "display_phone": "(617) 351-2500", "phone": "+16173512500", "url": "https://www.yelp.com/biz/sonsie-boston?adjust_creative=gBcvfFpabk3CnzmXKdYe3w&utm_campaign=yelp_api_v3&utm_medium=api_v3_business_search&utm_source=gBcvfFpabk3CnzmXKdYe3w", "name": "Sonsie", "location": {"display_address": ["327 Newbury St", "Boston, MA 02115"], "country": "US", "state": "MA", "address3": "", "address2": "", "address1": "327 Newbury St", "city": "Boston", "zip_code": "02115"}, "is_closed": false, "review_count": 961, "coordinates": {"latitude": 42.34884, "longitude": -71.08625}, "id": "sonsie-boston", "image_url": "https://s3-media4.fl.yelpcdn.com/bphoto/F5gBtjLQ66I0hytDgbaLzA/o.jpg", "categories": [{"alias": "newamerican", "title": "American (New)"}, {"alias": "wine_bars", "title": "Wine Bars"}, {"alias": "breakfast_brunch", "title": "Breakfast & Brunch"}], "rating": 3.5}, {"transactions": [], "distance": 1473.87541484, "display_phone": "(617) 572-6420", "phone": "+16175726420", "url": "https://www.yelp.com/biz/john-hancock-tower-boston?adjust_creative=gBcvfFpabk3CnzmXKdYe3w&utm_campaign=yelp_api_v3&utm_medium=api_v3_business_search&utm_source=gBcvfFpabk3CnzmXKdYe3w", "name": "John Hancock Tower", "location": {"display_address": ["200 Clarendon St", "Boston, MA 02228"], "country": "US", "state": "MA", "address3": "", "address2": null, "address1": "200 Clarendon St", "city": "Boston", "zip_code": "02228"}, "is_closed": false, "review_count": 18, "coordinates": {"latitude": 42.34926, "longitude": -71.07511}, "id": "john-hancock-tower-boston", "image_url": "https://s3-media3.fl.yelpcdn.com/bphoto/N0oHXa4-S5mXgkP6ftsw2A/o.jpg", "categories": [{"alias": "landmarks", "title": "Landmarks & Historical Buildings"}], "rating": 4.5}, {"transactions": [], "distance": 1118.6066896779998, "price": "$", "display_phone": "(201) 694-9060", "phone": "+12016949060", "url": "https://www.yelp.com/biz/the-bacon-truck-boston?adjust_creative=gBcvfFpabk3CnzmXKdYe3w&utm_campaign=yelp_api_v3&utm_medium=api_v3_business_search&utm_source=gBcvfFpabk3CnzmXKdYe3w", "name": "The Bacon Truck", "location": {"display_address": ["560 Harrison Ave", "Boston, MA 02118"], "country": "US", "state": "MA", "address3": "", "address2": "", "address1": "560 Harrison Ave", "city": "Boston", "zip_code": "02118"}, "is_closed": false, "review_count": 41, "coordinates": {"latitude": 42.3377967, "longitude": -71.0705763}, "id": "the-bacon-truck-boston", "image_url": "https://s3-media3.fl.yelpcdn.com/bphoto/NIGvkAS9mS2sYu-HZvYmjw/o.jpg", "categories": [{"alias": "foodtrucks", "title": "Food Trucks"}, {"alias": "sandwiches", "title": "Sandwiches"}], "rating": 4.0}, {"transactions": [], "distance": 865.05806949, "price": "$", "display_phone": "(617) 423-0838", "phone": "+16174230838", "url": "https://www.yelp.com/biz/hong-kong-eatery-boston?adjust_creative=gBcvfFpabk3CnzmXKdYe3w&utm_campaign=yelp_api_v3&utm_medium=api_v3_business_search&utm_source=gBcvfFpabk3CnzmXKdYe3w", "name": "Hong Kong Eatery", "location": {"display_address": ["79 Harrison Ave", "Boston, MA 02111"], "country": "US", "state": "MA", "address3": "", "address2": "", "address1": "79 Harrison Ave", "city": "Boston", "zip_code": "02111"}, "is_closed": false, "review_count": 365, "coordinates": {"latitude": 42.3510131835938, "longitude": -71.0616302490234}, "id": "hong-kong-eatery-boston", "image_url": "https://s3-media4.fl.yelpcdn.com/bphoto/LXHrfmoTFbx6XQ3bWzG4fQ/o.jpg", "categories": [{"alias": "cantonese", "title": "Cantonese"}, {"alias": "noodles", "title": "Noodles"}, {"alias": "bbq", "title": "Barbeque"}], "rating": 3.5}], "total": 24840}