{"region": {"center": {"latitude": 42.34784169448538, "longitude": -71.07124328613281}}, "businesses": [{"transactions": [], "distance": 2215.598333816, "price": "$", "display_phone": "(617) 227-0786", "phone": "+16172270786", "url": "https://www.yelp.com/biz/polcaris-coffee-boston?adjust_creative=gBcvfFpabk3CnzmXKdYe3w&utm_campaign=yelp_api_v3&utm_medium=api_v3_business_search&utm_source=gBcvfFpabk3CnzmXKdYe3w", "name": "Polcari's Coffee", "location": {"display_address": ["105 Salem St", "Boston, MA 02113"], "country": "US", "state": "MA", "address3": "", "address2": "", "address1": "105 Salem St", "city": "Boston", "zip_code": "02113"}, "is_closed": false, "review_count": 150, "coordinates": {"latitude": 42.36401, "longitude": -71.0555}, "id": "polcaris-coffee-boston", "image_url": "https://s3-media3.fl.yelpcdn.com/bphoto/ob7DEup7JUK2N1q0tm41Ig/o.jpg", "categories": [{"alias": "coffee", "title": "Coffee & Tea"}], "rating": 5.0}, {"transactions": [], "distance": 1829.0916755179999, "price": "$$", "display_phone": "(617) 269-0497", "phone": "+16172690497", "url": "https://www.yelp.com/biz/grandten-distilling-boston?adjust_creative=gBcvfFpabk3CnzmXKdYe3w&utm_campaign=yelp_api_v3&utm_medium=api_v3_business_search&utm_source=gBcvfFpabk3CnzmXKdYe3w", "name": "GrandTen Distilling", "location": {"display_address": ["383 Dorchester Ave", "Boston, MA 02127"], "country": "US", "state": "MA", "address3": "", "address2": "", "address1": "383 Dorchester Ave", "city": "Boston", "zip_code": "02127"}, "is_closed": false, "review_count": 69, "coordinates": {"latitude": 42.3350791931152, "longitude": -71.0572052001953}, "id": "grandten-distilling-boston", "image_url": "https://s3-media2.fl.yelpcdn.com/bphoto/MOIMe60yXqzwEEN-OyUupg/o.jpg", "categories": [{"alias": "beer_and_wine", "title": "Beer, Wine & Spirits"}, {"alias": "distilleries", "title": "Distilleries"}, {"alias": "cocktailbars", "title": "Cocktail Bars"}], "rating": 5.0}, {"transactions": [], "distance": 1586.8164820299999, "display_phone": "(617) 423-1500", "phone": "+16174231500", "url": "https://www.yelp.com/biz/norman-b-leventhal-park-boston?adjust_creative=gBcvfFpabk3CnzmXKdYe3w&utm_campaign=yelp_api_v3&utm_medium=api_v3_business_search&utm_source=gBcvfFpabk3CnzmXKdYe3w", "name": "Norman B Leventhal Park", "location": {"display_address": ["50 Federal St", "Fl 5", "Post Office Square", "Boston, MA 02110"], "country": "US", "state": "MA", "address3": "Post Office Square", "address2": "Fl 5", "address1": "50 Federal St", "city": "Boston", "zip_code": "02110"}, "is_closed": false, "review_count": 36, "coordinates": {"latitude": 42.3564508909879, "longitude": -71.0558366775513}, "id": "norman-b-leventhal-park-boston", "image_url": "https://s3-media2.fl.yelpcdn.com/bphoto/ZBVUG7GtI89aUaUVS2mY9Q/o.jpg", "categories": [{"alias": "parks", "title": "Parks"}], "rating": 5.0}, {"transactions": ["pickup"], "distance": 1466.744590234, "price": "$", "display_phone": "(617) 227-7471", "phone": "+16172277471", "url": "https://www.yelp.com/biz/piperi-mediterranean-grill-boston?adjust_creative=gBcvfFpabk3CnzmXKdYe3w&utm_campaign=yelp_api_v3&utm_medium=api_v3_business_search&utm_source=gBcvfFpabk3CnzmXKdYe3w", "name": "Piperi Mediterranean Grill", "location": {"display_address": ["One Beacon St", "Boston, MA 02108"], "country": "US", "state": "MA", "address3": "", "address2": null, "address1": "One Beacon St", "city": "Boston", "zip_code": "02108"}, "is_closed": false, "review_count": 404, "coordinates": {"latitude": 42.3585362, "longitude": -71.0607882}, "id": "piperi-mediterranean-grill-boston", "image_url": "https://s3-media2.fl.yelpcdn.com/bphoto/reBo11Eo2AP_Escs0VtK3w/o.jpg", "categories": [{"alias": "mediterranean", "title": "Mediterranean"}, {"alias": "salad", "title": "Salad"}, {"alias": "sandwiches", "title": "Sandwiches"}], "rating": 4.5}, {"transactions": [], "distance": 1246.016528138, "price": "$$$$", "display_phone": "(617) 654-9900", "phone": "+16176549900", "url": "https://www.yelp.com/biz/o-ya-boston?adjust_creative=gBcvfFpabk3CnzmXKdYe3w&utm_campaign=yelp_api_v3&utm_medium=api_v3_business_search&utm_source=gBcvfFpabk3CnzmXKdYe3w", "name": "O Ya", "location": {"display_address": ["9 East St Pl", "Boston, MA 02111"], "country": "US", "state": "MA", "address3": "", "address2": "", "address1": "9 East St Pl", "city": "Boston", "zip_code": "02111"}, "is_closed": false, "review_count": 569, "coordinates": {"latitude": 42.3514083135866, "longitude": -71.056866645813}, "id": "o-ya-boston", "image_url": "https://s3-media4.fl.yelpcdn.com/bphoto/twwtpCru5XgOyVCdECSO1w/o.jpg", "categories": [{"alias": "japanese", "title": "Japanese"}], "rating": 4.5}, {"transactions": [], "distance": 2173.795566382, "display_phone": "(877) 733-7699", "phone": "+18777337699", "url": "https://www.yelp.com/biz/fenway-park-boston?adjust_creative=gBcvfFpabk3CnzmXKdYe3w&utm_campaign=yelp_api_v3&utm_medium=api_v3_business_search&utm_source=gBcvfFpabk3CnzmXKdYe3w", "name": "Fenway Park", "location": {"display_address": ["4 Yawkey Way", "Boston, MA 02115"], "country": "US", "state": "MA", "address3": "", "address2": null, "address1": "4 Yawkey Way", "city": "Boston", "zip_code": "02115"}, "is_closed": false, "review_count": 1035, "coordinates": {"latitude": 42.346358323693, "longitude": -71.0976150974312}, "id": "fenway-park-boston", "image_url": "https://s3-media4.fl.yelpcdn.com/bphoto/AZHCm4TqxljG3uzTZjO0TA/o.jpg", "categories": [{"alias": "parks", "title": "Parks"}], "rating": 4.5}, {"transactions": [], "distance": 1333.2638384919999, "price": "$", "display_phone": "(252) 622-6732", "phone": "+12526226732", "url": "https://www.yelp.com/biz/boston-brewin-coffee-boston?adjust_creative=gBcvfFpabk3CnzmXKdYe3w&utm_campaign=yelp_api_v3&utm_medium=api_v3_business_search&utm_source=gBcvfFpabk3CnzmXKdYe3w", "name": "Boston Brewin Coffee", "location": {"display_address": ["45 Bromfield St", "Boston, MA 02108"], "country": "US", "state": "MA", "address3": "", "address2": "", "address1": "45 Bromfield St", "city": "Boston", "zip_code": "02108"}, "is_closed": false, "review_count": 128, "coordinates": {"latitude": 42.3568821698427, "longitude": -71.0604950040579}, "id": "boston-brewin-coffee-boston", "image_url": "https://s3-media3.fl.yelpcdn.com/bphoto/jmdxvhtdNurfHP3iPMZDEg/o.jpg", "categories": [{"alias": "coffee", "title": "Coffee & Tea"}], "rating": 4.5}, {"transactions": ["delivery", "pickup"], "distance": 1531.12768534, "price": "$$", "display_phone": "(857) 263-8598", "phone": "+18572638598", "url": "https://www.yelp.com/biz/cocobeet-boston?adjust_creative=gBcvfFpabk3CnzmXKdYe3w&utm_campaign=yelp_api_v3&utm_medium=api_v3_business_search&utm_source=gBcvfFpabk3CnzmXKdYe3w", "name": "Cocobeet", "location": {"display_address": ["100 City Hall Plz", "Boston, MA 02108"], "country": "US", "state": "MA", "address3": "", "address2": "", "address1": "100 City Hall Plz", "city": "Boston", "zip_code": "02108"}, "is_closed": false, "review_count": 163, "coordinates": {"latitude": 42.359302047671, "longitude": -71.0593623143009}, "id": "cocobeet-boston", "image_url": "https://s3-media4.fl.yelpcdn.com/bphoto/o2_XecGERwKSXIbo5T4BjA/o.jpg", "categories": [{"alias": "juicebars", "title": "Juice Bars & Smoothies"}, {"alias": "salad", "title": "Salad"}, {"alias": "vegan", "title": "Vegan"}], "rating": 4.5}, {"transactions": [], "distance": 706.2499593498, "price": "$$", "display_phone": "(617) 936-3282", "phone": "+16179363282", "url": "https://www.yelp.com/biz/fuji-at-ink-block-boston?adjust_creative=gBcvfFpabk3CnzmXKdYe3w&utm_campaign=yelp_api_v3&utm_medium=api_v3_business_search&utm_source=gBcvfFpabk3CnzmXKdYe3w", "name": "Fuji at Ink Block", "location": {"display_address": ["352 Harrison Ave", "Ste B", "Boston, MA 02118"], "country": "US", "state": "MA", "address3": null, "address2": "Ste B", "address1": "352 Harrison Ave", "city": "Boston", "zip_code": "02118"}, "is_closed": false, "review_count": 135, "coordinates": {"latitude": 42.345077, "longitude": -71.063505}, "id": "fuji-at-ink-block-boston", "image_url": "https://s3-media2.fl.yelpcdn.com/bphoto/9s1y1UrSKOZUVG1ebeqvNw/o.jpg", "categories": [{"alias": "japanese", "title": "Japanese"}, {"alias": "asianfusion", "title": "Asian Fusion"}, {"alias": "sushi", "title": "Sushi Bars"}], "rating": 4.5}, {"transactions": [], "distance": 2208.47796992, "display_phone": "(617) 635-4505", "phone": "+16176354505", "url": "https://www.yelp.com/biz/christopher-columbus-waterfront-park-boston?adjust_creative=gBcvfFpabk3CnzmXKdYe3w&utm_campaign=yelp_api_v3&utm_medium=api_v3_business_search&utm_source=gBcvfFpabk3CnzmXKdYe3w", "name": "Christopher Columbus Waterfront Park", "location": {"display_address": ["Atlantic Ave & Richmond St", "Boston, MA 02109"], "country": "US", "state": "MA", "address3": "", "address2": "", "address1": "Atlantic Ave & Richmond St", "city": "Boston", "zip_code": "02109"}, "is_closed": false, "review_count": 78, "coordinates": {"latitude": 42.3616582704001, "longitude": -71.0519084931724}, "id": "christopher-columbus-waterfront-park-boston", "image_url": "https://s3-media1.fl.yelpcdn.com/bphoto/CJQYO95icJdpBTZdIR7GAQ/o.jpg", "categories": [{"alias": "parks", "title": "Parks"}, {"alias": "playgrounds", "title": "Playgrounds"}], "rating": 4.5}, {"transactions": [], "distance": 744.074486584, "price": "$$", "display_phone": "(617) 585-9534", "phone": "+16175859534", "url": "https://www.yelp.com/biz/davidstea-boston-4?adjust_creative=gBcvfFpabk3CnzmXKdYe3w&utm_campaign=yelp_api_v3&utm_medium=api_v3_business_search&utm_source=gBcvfFpabk3CnzmXKdYe3w", "name": "DavidsTea", "location": {"display_address": ["661 Tremont St", "Boston, MA 02118"], "country": "US", "state": "MA", "address3": "", "address2": null, "address1": "661 Tremont St", "city": "Boston", "zip_code": "02118"}, "is_closed": false, "review_count": 50, "coordinates": {"latitude": 42.3420601, "longitude": -71.0757675}, "id": "davidstea-boston-4", "image_url": "https://s3-media3.fl.yelpcdn.com/bphoto/knoN2HCsegoB87LzlL18yQ/o.jpg", "categories": [{"alias": "coffee", "title": "Coffee & Tea"}], "rating": 5.0}, {"transactions": ["delivery", "pickup"], "distance": 301.8778406844, "price": "$", "display_phone": "(617) 423-3447", "phone": "+16174233447", "url": "https://www.yelp.com/biz/mike-and-pattys-boston?adjust_creative=gBcvfFpabk3CnzmXKdYe3w&utm_campaign=yelp_api_v3&utm_medium=api_v3_business_search&utm_source=gBcvfFpabk3CnzmXKdYe3w", "name": "Mike & Patty's", "location": {"display_address": ["12 Church St", "Boston, MA 02116"], "country": "US", "state": "MA", "address3": "", "address2": "", "address1": "12 Church St", "city": "Boston", "zip_code": "02116"}, "is_closed": false, "review_count": 1106, "coordinates": {"latitude": 42.3485697036883, "longitude": -71.0677027702332}, "id": "mike-and-pattys-boston", "image_url": "https://s3-media2.fl.yelpcdn.com/bphoto/5yjX0pGQKxWpqvMxtmlFXQ/o.jpg", "categories": [{"alias": "sandwiches", "title": "Sandwiches"}, {"alias": "breakfast_brunch", "title": "Breakfast & Brunch"}], "rating": 4.5}, {"transactions": [], "distance": 1113.706249378, "display_phone": "(617) 727-9547", "phone": "+16177279547", "url": "https://www.yelp.com/biz/the-esplanade-boston-2?adjust_creative=gBcvfFpabk3CnzmXKdYe3w&utm_campaign=yelp_api_v3&utm_medium=api_v3_business_search&utm_source=gBcvfFpabk3CnzmXKdYe3w", "name": "The Esplanade", "location": {"display_address": ["Storrow Dr", "Boston, MA 02116"], "country": "US", "state": "MA", "address3": "", "address2": "", "address1": "Storrow Dr", "city": "Boston", "zip_code": "02116"}, "is_closed": false, "review_count": 78, "coordinates": {"latitude": 42.357735, "longitude": -71.073371}, "id": "the-esplanade-boston-2", "image_url": "https://s3-media2.fl.yelpcdn.com/bphoto/FJfX6WP5Ns5nZEhifJzYDg/o.jpg", "categories": [{"alias": "parks", "title": "Parks"}], "rating": 4.5}, {"transactions": [], "distance": 1946.8185979999998, "price": "$", "display_phone": "(978) 270-4558", "phone": "+19782704558", "url": "https://www.yelp.com/biz/harrys-cheese-and-cold-cuts-boston?adjust_creative=gBcvfFpabk3CnzmXKdYe3w&utm_campaign=yelp_api_v3&utm_medium=api_v3_business_search&utm_source=gBcvfFpabk3CnzmXKdYe3w", "name": "Harry's Cheese and Cold Cuts", "location": {"display_address": ["98 Blackstone St", "Boston, MA 02109"], "country": "US", "state": "MA", "address3": "", "address2": "", "address1": "98 Blackstone St", "city": "Boston", "zip_code": "02109"}, "is_closed": false, "review_count": 38, "coordinates": {"latitude": 42.3614769, "longitude": -71.0563299}, "id": "harrys-cheese-and-cold-cuts-boston", "image_url": "https://s3-media3.fl.yelpcdn.com/bphoto/x02uk-vqOJ_A1mxrwTK0gw/o.jpg", "categories": [{"alias": "meats", "title": "Meat Shops"}, {"alias": "delis", "title": "Delis"}], "rating": 5.0}, {"transactions": ["delivery"], "distance": 1358.70058373, "price": "$$", "display_phone": "(617) 357-6861", "phone": "+16173576861", "url": "https://www.yelp.com/biz/sam-lagrassas-boston-3?adjust_creative=gBcvfFpabk3CnzmXKdYe3w&utm_campaign=yelp_api_v3&utm_medium=api_v3_business_search&utm_source=gBcvfFpabk3CnzmXKdYe3w", "name": "Sam LaGrassa's", "location": {"display_address": ["44 Province St", "Boston, MA 02108"], "country": "US", "state": "MA", "address3": "", "address2": "", "address1": "44 Province St", "city": "Boston", "zip_code": "02108"}, "is_closed": false, "review_count": 760, "coordinates": {"latitude": 42.3568611, "longitude": -71.0598373}, "id": "sam-lagrassas-boston-3", "image_url": "https://s3-media4.fl.yelpcdn.com/bphoto/JcSU7Vgu3iQPrJ60FMLiUA/o.jpg", "categories": [{"alias": "delis", "title": "Delis"}, {"alias": "sandwiches", "title": "Sandwiches"}], "rating": 4.5}, {"transactions": [], "distance": 1809.2240513499999, "price": "$", "display_phone": "(617) 422-0082", "phone": "+16174220082", "url": "https://www.yelp.com/biz/wheelhouse-boston-3?adjust_creative=gBcvfFpabk3CnzmXKdYe3w&utm_campaign=yelp_api_v3&utm_medium=api_v3_business_search&utm_source=gBcvfFpabk3CnzmXKdYe3w", "name": "Wheelhouse", "location": {"display_address": ["63 Broad St", "Boston, MA 02109"], "country": "US", "state": "MA", "address3": "", "address2": "", "address1": "63 Broad St", "city": "Boston", "zip_code": "02109"}, "is_closed": false, "review_count": 228, "coordinates": {"latitude": 42.3579261, "longitude": -71.0539618}, "id": "wheelhouse-boston-3", "image_url": "https://s3-media2.fl.yelpcdn.com/bphoto/x5r5XHjEOgX52yAKX9jJVQ/o.jpg", "categories": [{"alias": "breakfast_brunch", "title": "Breakfast & Brunch"}, {"alias": "burgers", "title": "Burgers"}, {"alias": "sandwiches", "title": "Sandwiches"}], "rating": 4.5}, {"transactions": [], "distance": 2121.050735354, "price": "$$$", "display_phone": "(617) 742-3474", "phone": "+16177423474", "url": "https://www.yelp.com/biz/neptune-oyster-boston?adjust_creative=gBcvfFpabk3CnzmXKdYe3w&utm_campaign=yelp_api_v3&utm_medium=api_v3_business_search&utm_source=gBcvfFpabk3CnzmXKdYe3w", "name": "Neptune Oyster", "location": {"display_address": ["63 Salem St", "Boston, MA 02113"], "country": "US", "state": "MA", "address3": "", "address2": "", "address1": "63 Salem St", "city": "Boston", "zip_code": "02113"}, "is_closed": false, "review_count": 3463, "coordinates": {"latitude": 42.3632711771092, "longitude": -71.0560575975533}, "id": "neptune-oyster-boston", "image_url": "https://s3-media3.fl.yelpcdn.com/bphoto/oF9AqeZFT3Kg0N4peP_-4A/o.jpg", "categories": [{"alias": "seafood", "title": "Seafood"}, {"alias": "soup", "title": "Soup"}, {"alias": "tradamerican", "title": "American (Traditional)"}], "rating": 4.5}, {"transactions": [], "distance": 1139.870094428, "price": "$$$$", "display_phone": "(617) 262-8900", "phone": "+16172628900", "url": "https://www.yelp.com/biz/the-capital-grille-boston?adjust_creative=gBcvfFpabk3CnzmXKdYe3w&utm_campaign=yelp_api_v3&utm_medium=api_v3_business_search&utm_source=gBcvfFpabk3CnzmXKdYe3w", "name": "The Capital Grille", "location": {"display_address": ["900 Boylston St", "Boston, MA 02115"], "country": "US", "state": "MA", "address3": "", "address2": "", "address1": "900 Boylston St", "city": "Boston", "zip_code": "02115"}, "is_closed": false, "review_count": 739, "coordinates": {"latitude": 42.3478110031284, "longitude": -71.0851110928626}, "id": "the-capital-grille-boston", "image_url": "https://s3-media2.fl.yelpcdn.com/bphoto/Waumia4HU4Z92t85cfdnZQ/o.jpg", "categories": [{"alias": "steak", "title": "Steakhouses"}, {"alias": "seafood", "title": "Seafood"}, {"alias": "wine_bars", "title": "Wine Bars"}], "rating": 4.5}, {"transactions": [], "distance": 1127.342187198, "price": "$", "display_phone": "", "phone": "", "url": "https://www.yelp.com/biz/render-coffee-boston?adjust_creative=gBcvfFpabk3CnzmXKdYe3w&utm_campaign=yelp_api_v3&utm_medium=api_v3_business_search&utm_source=gBcvfFpabk3CnzmXKdYe3w", "name": "Render Coffee", "location": {"display_address": ["563 Columbus Ave", "Boston, MA 02118"], "country": "US", "state": "MA", "address3": "", "address2": "", "address1": "563 Columbus Ave", "city": "Boston", "zip_code": "02118"}, "is_closed": false, "review_count": 385, "coordinates": {"latitude": 42.3411102, "longitude": -71.0815582}, "id": "render-coffee-boston", "image_url": "https://s3-media4.fl.yelpcdn.com/bphoto/0zf3d7GyDZciVB88BskC6Q/o.jpg", "categories": [{"alias": "cafes", "title": "Cafes"}, {"alias": "coffee", "title": "Coffee & Tea"}], "rating": 4.5}, {"transactions": ["delivery", "pickup"], "distance": 1389.2817452119998, "price": "$", "display_phone": "(857) 265-3017", "phone": "+18572653017", "url": "https://www.yelp.com/biz/shawarma-falafel-boston?adjust_creative=gBcvfFpabk3CnzmXKdYe3w&utm_campaign=yelp_api_v3&utm_medium=api_v3_business_search&utm_source=gBcvfFpabk3CnzmXKdYe3w", "name": "Shawarma Falafel", "location": {"display_address": ["26 Province St", "Boston, MA 02108"], "country": "US", "state": "MA", "address3": "", "address2": "", "address1": "26 Province St", "city": "Boston", "zip_code": "02108"}, "is_closed": false, "review_count": 298, "coordinates": {"latitude": 42.357013, "longitude": -71.0597644}, "id": "shawarma-falafel-boston", "image_url": "https://s3-media1.fl.yelpcdn.com/bphoto/OfLDCca8S20_NCD9_oCXEQ/o.jpg", "categories": [{"alias": "mideastern", "title": "Middle Eastern"}], "rating": 4.5}, {"transactions": [], "distance": 328.3279873204, "price": "$$", "display_phone": "(617) 266-2600", "phone": "+16172662600", "url": "https://www.yelp.com/biz/barcelona-wine-bar-south-end-boston-6?adjust_creative=gBcvfFpabk3CnzmXKdYe3w&utm_campaign=yelp_api_v3&utm_medium=api_v3_business_search&utm_source=gBcvfFpabk3CnzmXKdYe3w", "name": "Barcelona Wine Bar South End", "location": {"display_address": ["525 Tremont St", "Boston, MA 02116"], "country": "US", "state": "MA", "address3": "", "address2": null, "address1": "525 Tremont St", "city": "Boston", "zip_code": "02116"}, "is_closed": false, "review_count": 560, "coordinates": {"latitude": 42.3449355147724, "longitude": -71.0705436362457}, "id": "barcelona-wine-bar-south-end-boston-6", "image_url": "https://s3-media2.fl.yelpcdn.com/bphoto/j3VIANro3KJMJV-sTdmVYg/o.jpg", "categories": [{"alias": "spanish", "title": "Spanish"}, {"alias": "wine_bars", "title": "Wine Bars"}, {"alias": "tapasmallplates", "title": "Tapas/Small Plates"}], "rating": 4.5}, {"transactions": [], "distance": 649.13453103, "price": "$$$", "display_phone": "(617) 267-0691", "phone": "+16172670691", "url": "https://www.yelp.com/biz/saltie-girl-boston?adjust_creative=gBcvfFpabk3CnzmXKdYe3w&utm_campaign=yelp_api_v3&utm_medium=api_v3_business_search&utm_source=gBcvfFpabk3CnzmXKdYe3w", "name": "Saltie Girl", "location": {"display_address": ["281 Dartmouth St", "Boston, MA 02116"], "country": "US", "state": "MA", "address3": null, "address2": "", "address1": "281 Dartmouth St", "city": "Boston", "zip_code": "02116"}, "is_closed": false, "review_count": 199, "coordinates": {"latitude": 42.3511377, "longitude": -71.0776626}, "id": "saltie-girl-boston", "image_url": "https://s3-media1.fl.yelpcdn.com/bphoto/YbBUekue-2E--iW6tsWrgA/o.jpg", "categories": [{"alias": "seafood", "title": "Seafood"}, {"alias": "wine_bars", "title": "Wine Bars"}, {"alias": "cocktailbars", "title": "Cocktail Bars"}], "rating": 4.5}, {"transactions": [], "distance": 460.33870353279997, "price": "$$$$", "display_phone": "(617) 423-7847", "phone": "+16174237847", "url": "https://www.yelp.com/biz/stir-boston?adjust_creative=gBcvfFpabk3CnzmXKdYe3w&utm_campaign=yelp_api_v3&utm_medium=api_v3_business_search&utm_source=gBcvfFpabk3CnzmXKdYe3w", "name": "Stir", "location": {"display_address": ["102 Waltham St", "Boston, MA 02118"], "country": "US", "state": "MA", "address3": "", "address2": "", "address1": "102 Waltham St", "city": "Boston", "zip_code": "02118"}, "is_closed": false, "review_count": 39, "coordinates": {"latitude": 42.343705187098, "longitude": -71.071367852053}, "id": "stir-boston", "image_url": "https://s3-media2.fl.yelpcdn.com/bphoto/2v-780t_VpaUh_IMXsQZmw/o.jpg", "categories": [{"alias": "newamerican", "title": "American (New)"}, {"alias": "cookingclasses", "title": "Cooking Classes"}], "rating": 4.5}, {"transactions": [], "distance": 1411.0119551224, "price": "$$", "display_phone": "", "phone": "", "url": "https://www.yelp.com/biz/the-coffee-trike-boston?adjust_creative=gBcvfFpabk3CnzmXKdYe3w&utm_campaign=yelp_api_v3&utm_medium=api_v3_business_search&utm_source=gBcvfFpabk3CnzmXKdYe3w", "name": "The Coffee Trike", "location": {"display_address": ["Boston, MA 02111"], "country": "US", "state": "MA", "address3": "", "address2": null, "address1": "", "city": "Boston", "zip_code": "02111"}, "is_closed": false, "review_count": 33, "coordinates": {"latitude": 42.3527578278786, "longitude": -71.0554103851318}, "id": "the-coffee-trike-boston", "image_url": "https://s3-media1.fl.yelpcdn.com/bphoto/4pGV3POoIMDrg72itmyyIg/o.jpg", "categories": [{"alias": "coffee", "title": "Coffee & Tea"}], "rating": 5.0}, {"transactions": [], "distance": 1403.0527066579998, "price": "$", "display_phone": "(617) 247-8100", "phone": "+16172478100", "url": "https://www.yelp.com/biz/blunch-boston?adjust_creative=gBcvfFpabk3CnzmXKdYe3w&utm_campaign=yelp_api_v3&utm_medium=api_v3_business_search&utm_source=gBcvfFpabk3CnzmXKdYe3w", "name": "Blunch", "location": {"display_address": ["59 E Springfield St", "Boston, MA 02118"], "country": "US", "state": "MA", "address3": "", "address2": "", "address1": "59 E Springfield St", "city": "Boston", "zip_code": "02118"}, "is_closed": false, "review_count": 360, "coordinates": {"latitude": 42.3354929990873, "longitude": -71.0747301578522}, "id": "blunch-boston", "image_url": "https://s3-media2.fl.yelpcdn.com/bphoto/KbIlb1Sjk8ExHou_e0Q5cg/o.jpg", "categories": [{"alias": "breakfast_brunch", "title": "Breakfast & Brunch"}, {"alias": "coffee", "title": "Coffee & Tea"}, {"alias": "sandwiches", "title": "Sandwiches"}], "rating": 4.5}, {"transactions": [], "distance": 1148.4013023283999, "price": "$$$", "display_phone": "(617) 536-9500", "phone": "+16175369500", "url": "https://www.yelp.com/biz/srv-boston-boston?adjust_creative=gBcvfFpabk3CnzmXKdYe3w&utm_campaign=yelp_api_v3&utm_medium=api_v3_business_search&utm_source=gBcvfFpabk3CnzmXKdYe3w", "name": "SRV Boston", "location": {"display_address": ["569 Columbus Ave", "Boston, MA 02118"], "country": "US", "state": "MA", "address3": "", "address2": "", "address1": "569 Columbus Ave", "city": "Boston", "zip_code": "02118"}, "is_closed": false, "review_count": 178, "coordinates": {"latitude": 42.3409180006501, "longitude": -71.0816150531173}, "id": "srv-boston-boston", "image_url": "https://s3-media1.fl.yelpcdn.com/bphoto/POA-BHjYiWrZrFGemN0CXA/o.jpg", "categories": [{"alias": "italian", "title": "Italian"}, {"alias": "wine_bars", "title": "Wine Bars"}], "rating": 4.5}, {"transactions": [], "distance": 496.9288187068, "price": "$$$$", "display_phone": "(617) 421-1200", "phone": "+16174211200", "url": "https://www.yelp.com/biz/ostra-boston?adjust_creative=gBcvfFpabk3CnzmXKdYe3w&utm_campaign=yelp_api_v3&utm_medium=api_v3_business_search&utm_source=gBcvfFpabk3CnzmXKdYe3w", "name": "Ostra", "location": {"display_address": ["1 Charles St S", "Boston, MA 02116"], "country": "US", "state": "MA", "address3": "", "address2": "", "address1": "1 Charles St S", "city": "Boston", "zip_code": "02116"}, "is_closed": false, "review_count": 266, "coordinates": {"latitude": 42.3510951212984, "longitude": -71.0670912265778}, "id": "ostra-boston", "image_url": "https://s3-media1.fl.yelpcdn.com/bphoto/0wh4eAi4urEGzpyYMY8tTQ/o.jpg", "categories": [{"alias": "seafood", "title": "Seafood"}, {"alias": "mediterranean", "title": "Mediterranean"}], "rating": 4.5}, {"transactions": [], "distance": 1391.9443982419998, "price": "$", "display_phone": "(857) 256-2173", "phone": "+18572562173", "url": "https://www.yelp.com/biz/the-well-coffee-house-boston-4?adjust_creative=gBcvfFpabk3CnzmXKdYe3w&utm_campaign=yelp_api_v3&utm_medium=api_v3_business_search&utm_source=gBcvfFpabk3CnzmXKdYe3w", "name": "The Well Coffee House", "location": {"display_address": ["2 S Station", "Ste A6", "Boston, MA 02011"], "country": "US", "state": "MA", "address3": "", "address2": "Ste A6", "address1": "2 S Station", "city": "Boston", "zip_code": "02011"}, "is_closed": false, "review_count": 45, "coordinates": {"latitude": 42.3516830317191, "longitude": -71.0551238669604}, "id": "the-well-coffee-house-boston-4", "image_url": "https://s3-media4.fl.yelpcdn.com/bphoto/p0HzVmDd8j-cCVrbhNdI1A/o.jpg", "categories": [{"alias": "coffee", "title": "Coffee & Tea"}], "rating": 5.0}, {"transactions": [], "distance": 1155.9130255256, "price": "$$", "display_phone": "", "phone": "", "url": "https://www.yelp.com/biz/gracenote-boston-4?adjust_creative=gBcvfFpabk3CnzmXKdYe3w&utm_campaign=yelp_api_v3&utm_medium=api_v3_business_search&utm_source=gBcvfFpabk3CnzmXKdYe3w", "name": "Gracenote", "location": {"display_address": ["108 Lincoln St", "Boston, MA 02111"], "country": "US", "state": "MA", "address3": "", "address2": "", "address1": "108 Lincoln St", "city": "Boston", "zip_code": "02111"}, "is_closed": false, "review_count": 72, "coordinates": {"latitude": 42.3515995758639, "longitude": -71.0581312420251}, "id": "gracenote-boston-4", "image_url": "https://s3-media1.fl.yelpcdn.com/bphoto/FwPWtJNicg_L_GiA7VIIrQ/o.jpg", "categories": [{"alias": "coffee", "title": "Coffee & Tea"}], "rating": 4.5}, {"transactions": [], "distance": 2462.040591366, "display_phone": "(617) 523-6676", "phone": "+16175236676", "url": "https://www.yelp.com/biz/old-north-church-boston?adjust_creative=gBcvfFpabk3CnzmXKdYe3w&utm_campaign=yelp_api_v3&utm_medium=api_v3_business_search&utm_source=gBcvfFpabk3CnzmXKdYe3w", "name": "Old North Church", "location": {"display_address": ["193 Salem St", "Boston, MA 02113"], "country": "US", "state": "MA", "address3": "", "address2": "", "address1": "193 Salem St", "city": "Boston", "zip_code": "02113"}, "is_closed": false, "review_count": 83, "coordinates": {"latitude": 42.36649, "longitude": -71.0545099}, "id": "old-north-church-boston", "image_url": "https://s3-media4.fl.yelpcdn.com/bphoto/zNaofdeDC3Ap02y11uf4vA/o.jpg", "categories": [{"alias": "landmarks", "title": "Landmarks & Historical Buildings"}], "rating": 4.5}, {"transactions": [], "distance": 1761.524984024, "price": "$", "display_phone": "(617) 901-6017", "phone": "+16179016017", "url": "https://www.yelp.com/biz/zo-boston?adjust_creative=gBcvfFpabk3CnzmXKdYe3w&utm_campaign=yelp_api_v3&utm_medium=api_v3_business_search&utm_source=gBcvfFpabk3CnzmXKdYe3w", "name": "Zo", "location": {"display_address": ["3 Center Plz", "Boston, MA 02108"], "country": "US", "state": "MA", "address3": "", "address2": "", "address1": "3 Center Plz", "city": "Boston", "zip_code": "02108"}, "is_closed": false, "review_count": 313, "coordinates": {"latitude": 42.3592757928467, "longitude": -71.0564072857827}, "id": "zo-boston", "image_url": "https://s3-media3.fl.yelpcdn.com/bphoto/7szOXamzcPfxTNEPFTcyTg/o.jpg", "categories": [{"alias": "greek", "title": "Greek"}, {"alias": "salad", "title": "Salad"}], "rating": 4.5}, {"transactions": [], "distance": 2311.33893602, "price": "$$", "display_phone": "(617) 742-4101", "phone": "+16177424101", "url": "https://www.yelp.com/biz/monicas-mercato-boston-3?adjust_creative=gBcvfFpabk3CnzmXKdYe3w&utm_campaign=yelp_api_v3&utm_medium=api_v3_business_search&utm_source=gBcvfFpabk3CnzmXKdYe3w", "name": "Monica's Mercato", "location": {"display_address": ["130 Salem St", "Boston, MA 02113"], "country": "US", "state": "MA", "address3": "", "address2": "", "address1": "130 Salem St", "city": "Boston", "zip_code": "02113"}, "is_closed": false, "review_count": 271, "coordinates": {"latitude": 42.36511, "longitude": -71.05558}, "id": "monicas-mercato-boston-3", "image_url": "https://s3-media4.fl.yelpcdn.com/bphoto/fVoB1JLBn22PxcaL9hiwxA/o.jpg", "categories": [{"alias": "gourmet", "title": "Specialty Food"}, {"alias": "italian", "title": "Italian"}, {"alias": "pizza", "title": "Pizza"}], "rating": 4.5}, {"transactions": [], "distance": 669.8645522237999, "price": "$$", "display_phone": "(857) 350-4626", "phone": "+18573504626", "url": "https://www.yelp.com/biz/lukes-lobster-back-bay-boston?adjust_creative=gBcvfFpabk3CnzmXKdYe3w&utm_campaign=yelp_api_v3&utm_medium=api_v3_business_search&utm_source=gBcvfFpabk3CnzmXKdYe3w", "name": "Luke's Lobster Back Bay", "location": {"display_address": ["75 Exeter Street", "Boston, MA 02116"], "country": "US", "state": "MA", "address3": "", "address2": "", "address1": "75 Exeter Street", "city": "Boston", "zip_code": "02116"}, "is_closed": false, "review_count": 598, "coordinates": {"latitude": 42.3487198596183, "longitude": -71.0793047980242}, "id": "lukes-lobster-back-bay-boston", "image_url": "https://s3-media1.fl.yelpcdn.com/bphoto/fri_Oe_6JlSrKoJjAOTtZA/o.jpg", "categories": [{"alias": "seafood", "title": "Seafood"}], "rating": 4.5}, {"transactions": [], "distance": 1772.578896748, "price": "$", "display_phone": "(617) 338-6700", "phone": "+16173386700", "url": "https://www.yelp.com/biz/casa-razdora-boston?adjust_creative=gBcvfFpabk3CnzmXKdYe3w&utm_campaign=yelp_api_v3&utm_medium=api_v3_business_search&utm_source=gBcvfFpabk3CnzmXKdYe3w", "name": "Casa Razdora", "location": {"display_address": ["115 Water St", "Boston, MA 02109"], "country": "US", "state": "MA", "address3": "", "address2": "", "address1": "115 Water St", "city": "Boston", "zip_code": "02109"}, "is_closed": false, "review_count": 275, "coordinates": {"latitude": 42.3580513, "longitude": -71.0546112}, "id": "casa-razdora-boston", "image_url": "https://s3-media4.fl.yelpcdn.com/bphoto/6MDK76SqbCrL6G9oWYtPww/o.jpg", "categories": [{"alias": "italian", "title": "Italian"}, {"alias": "pizza", "title": "Pizza"}], "rating": 4.5}, {"transactions": [], "distance": 129.527810367, "price": "$$$$", "display_phone": "(617) 867-9300", "phone": "+16178679300", "url": "https://www.yelp.com/biz/mistral-boston?adjust_creative=gBcvfFpabk3CnzmXKdYe3w&utm_campaign=yelp_api_v3&utm_medium=api_v3_business_search&utm_source=gBcvfFpabk3CnzmXKdYe3w", "name": "Mistral", "location": {"display_address": ["223 Columbus Ave", "Boston, MA 02116"], "country": "US", "state": "MA", "address3": "", "address2": "", "address1": "223 Columbus Ave", "city": "Boston", "zip_code": "02116"}, "is_closed": false, "review_count": 818, "coordinates": {"latitude": 42.3481578332115, "longitude": -71.072759141675}, "id": "mistral-boston", "image_url": "https://s3-media1.fl.yelpcdn.com/bphoto/z8m4-NF9diw6igl5B938zw/o.jpg", "categories": [{"alias": "french", "title": "French"}, {"alias": "bars", "title": "Bars"}], "rating": 4.0}, {"transactions": [], "distance": 1884.7824034159999, "price": "$$", "display_phone": "(617) 338-4333", "phone": "+16173384333", "url": "https://www.yelp.com/biz/flour-bakery-caf%C3%A9-boston-4?adjust_creative=gBcvfFpabk3CnzmXKdYe3w&utm_campaign=yelp_api_v3&utm_medium=api_v3_business_search&utm_source=gBcvfFpabk3CnzmXKdYe3w", "name": "Flour Bakery + Caf\u00e9", "location": {"display_address": ["12 Farnsworth St", "Boston, MA 02210"], "country": "US", "state": "MA", "address3": "", "address2": "", "address1": "12 Farnsworth St", "city": "Boston", "zip_code": "02210"}, "is_closed": false, "review_count": 845, "coordinates": {"latitude": 42.3513679504395, "longitude": -71.0488128662109}, "id": "flour-bakery-caf\u00e9-boston-4", "image_url": "https://s3-media4.fl.yelpcdn.com/bphoto/kl0QKGbMFVZE3Rexu_tOWg/o.jpg", "categories": [{"alias": "bakeries", "title": "Bakeries"}, {"alias": "coffee", "title": "Coffee & Tea"}, {"alias": "sandwiches", "title": "Sandwiches"}], "rating": 4.5}, {"transactions": [], "distance": 1836.2022224399998, "display_phone": "(617) 635-4505", "phone": "+16176354505", "url": "https://www.yelp.com/biz/new-england-holocaust-memorial-boston?adjust_creative=gBcvfFpabk3CnzmXKdYe3w&utm_campaign=yelp_api_v3&utm_medium=api_v3_business_search&utm_source=gBcvfFpabk3CnzmXKdYe3w", "name": "New England Holocaust Memorial", "location": {"display_address": ["Congress St", "Between North St and Hanover St", "Boston, MA 02109"], "country": "US", "state": "MA", "address3": "Between North St and Hanover St", "address2": "", "address1": "Congress St", "city": "Boston", "zip_code": "02109"}, "is_closed": false, "review_count": 82, "coordinates": {"latitude": 42.3606210188223, "longitude": -71.0570919513702}, "id": "new-england-holocaust-memorial-boston", "image_url": "https://s3-media1.fl.yelpcdn.com/bphoto/bQIBMIkrpe_r3N-q1eBLJg/o.jpg", "categories": [{"alias": "landmarks", "title": "Landmarks & Historical Buildings"}], "rating": 4.5}, {"transactions": [], "distance": 815.1737920318, "price": "$$$$", "display_phone": "(617) 262-3023", "phone": "+16172623023", "url": "https://www.yelp.com/biz/l-espalier-boston?adjust_creative=gBcvfFpabk3CnzmXKdYe3w&utm_campaign=yelp_api_v3&utm_medium=api_v3_business_search&utm_source=gBcvfFpabk3CnzmXKdYe3w", "name": "L'Espalier", "location": {"display_address": ["774 Boylston St", "Boston, MA 02199"], "country": "US", "state": "MA", "address3": "", "address2": "", "address1": "774 Boylston St", "city": "Boston", "zip_code": "02199"}, "is_closed": false, "review_count": 738, "coordinates": {"latitude": 42.348879423076, "longitude": -71.0815324325072}, "id": "l-espalier-boston", "image_url": "https://s3-media1.fl.yelpcdn.com/bphoto/U3tYPwwCERJKE9pE8TLM-A/o.jpg", "categories": [{"alias": "french", "title": "French"}], "rating": 4.0}, {"transactions": [], "distance": 1964.0515716539999, "price": "$$$", "display_phone": "(617) 532-5300", "phone": "+16175325300", "url": "https://www.yelp.com/biz/island-creek-oyster-bar-boston?adjust_creative=gBcvfFpabk3CnzmXKdYe3w&utm_campaign=yelp_api_v3&utm_medium=api_v3_business_search&utm_source=gBcvfFpabk3CnzmXKdYe3w", "name": "Island Creek Oyster Bar", "location": {"display_address": ["500 Commonwealth Ave", "Boston, MA 02215"], "country": "US", "state": "MA", "address3": "", "address2": "", "address1": "500 Commonwealth Ave", "city": "Boston", "zip_code": "02215"}, "is_closed": false, "review_count": 2072, "coordinates": {"latitude": 42.348682243174, "longitude": -71.095118452365}, "id": "island-creek-oyster-bar-boston", "image_url": "https://s3-media4.fl.yelpcdn.com/bphoto/lvklNXiwAOu44sJWqxkAMQ/o.jpg", "categories": [{"alias": "seafood", "title": "Seafood"}], "rating": 4.5}, {"transactions": [], "distance": 830.8554102059999, "price": "$", "display_phone": "(617) 422-5898", "phone": "+16174225898", "url": "https://www.yelp.com/biz/cuongs-vegan-sandwiches-boston-2?adjust_creative=gBcvfFpabk3CnzmXKdYe3w&utm_campaign=yelp_api_v3&utm_medium=api_v3_business_search&utm_source=gBcvfFpabk3CnzmXKdYe3w", "name": "Cuong's Vegan Sandwiches", "location": {"display_address": ["5 Beach St", "Boston, MA 02111"], "country": "US", "state": "MA", "address3": "", "address2": "", "address1": "5 Beach St", "city": "Boston", "zip_code": "02111"}, "is_closed": false, "review_count": 47, "coordinates": {"latitude": 42.3513507, "longitude": -71.0624636}, "id": "cuongs-vegan-sandwiches-boston-2", "image_url": "https://s3-media1.fl.yelpcdn.com/bphoto/DjPIBDYAuqDMveUb7sTKxw/o.jpg", "categories": [{"alias": "sandwiches", "title": "Sandwiches"}, {"alias": "vegan", "title": "Vegan"}, {"alias": "bubbletea", "title": "Bubble Tea"}], "rating": 4.5}, {"transactions": [], "distance": 951.2474641015999, "display_phone": "(304) 563-4951", "phone": "+13045634951", "url": "https://www.yelp.com/biz/boston-common-boston?adjust_creative=gBcvfFpabk3CnzmXKdYe3w&utm_campaign=yelp_api_v3&utm_medium=api_v3_business_search&utm_source=gBcvfFpabk3CnzmXKdYe3w", "name": "Boston Common", "location": {"display_address": ["Beacon St", "Boston, MA 02139"], "country": "US", "state": "MA", "address3": "", "address2": null, "address1": "Beacon St", "city": "Boston", "zip_code": "02139"}, "is_closed": false, "review_count": 371, "coordinates": {"latitude": 42.3553726380041, "longitude": -71.0657501220703}, "id": "boston-common-boston", "image_url": "https://s3-media1.fl.yelpcdn.com/bphoto/Jhx9n_PE3WjKId1LxLpwLw/o.jpg", "categories": [{"alias": "parks", "title": "Parks"}], "rating": 4.5}, {"transactions": ["delivery"], "distance": 349.859009219, "price": "$$", "display_phone": "(617) 927-0066", "phone": "+16179270066", "url": "https://www.yelp.com/biz/picco-boston-2?adjust_creative=gBcvfFpabk3CnzmXKdYe3w&utm_campaign=yelp_api_v3&utm_medium=api_v3_business_search&utm_source=gBcvfFpabk3CnzmXKdYe3w", "name": "Picco", "location": {"display_address": ["513 Tremont St", "Boston, MA 02116"], "country": "US", "state": "MA", "address3": "", "address2": "", "address1": "513 Tremont St", "city": "Boston", "zip_code": "02116"}, "is_closed": false, "review_count": 997, "coordinates": {"latitude": 42.3447380009299, "longitude": -71.070559652418}, "id": "picco-boston-2", "image_url": "https://s3-media1.fl.yelpcdn.com/bphoto/LG0wkaRRzin3frM0DsB_Fg/o.jpg", "categories": [{"alias": "icecream", "title": "Ice Cream & Frozen Yogurt"}, {"alias": "pizza", "title": "Pizza"}, {"alias": "italian", "title": "Italian"}], "rating": 4.0}, {"transactions": [], "distance": 1552.9688431499999, "display_phone": "", "phone": "", "url": "https://www.yelp.com/biz/city-of-boston-boston-3?adjust_creative=gBcvfFpabk3CnzmXKdYe3w&utm_campaign=yelp_api_v3&utm_medium=api_v3_business_search&utm_source=gBcvfFpabk3CnzmXKdYe3w", "name": "City of Boston", "location": {"display_address": ["Boston, MA 02201"], "country": "US", "state": "MA", "address3": "", "address2": "", "address1": "", "city": "Boston", "zip_code": "02201"}, "is_closed": false, "review_count": 116, "coordinates": {"latitude": 42.3589553833008, "longitude": -71.0578079223633}, "id": "city-of-boston-boston-3", "image_url": "https://s3-media1.fl.yelpcdn.com/bphoto/5xZdVMjDriRqcf2RLAjjCA/o.jpg", "categories": [{"alias": "localflavor", "title": "Local Flavor"}], "rating": 4.5}, {"transactions": [], "distance": 1268.7742050779998, "price": "$$$", "display_phone": "(617) 536-4300", "phone": "+16175364300", "url": "https://www.yelp.com/biz/toro-boston?adjust_creative=gBcvfFpabk3CnzmXKdYe3w&utm_campaign=yelp_api_v3&utm_medium=api_v3_business_search&utm_source=gBcvfFpabk3CnzmXKdYe3w", "name": "Toro", "location": {"display_address": ["1704 Washington St", "Boston, MA 02118"], "country": "US", "state": "MA", "address3": "", "address2": null, "address1": "1704 Washington St", "city": "Boston", "zip_code": "02118"}, "is_closed": false, "review_count": 1696, "coordinates": {"latitude": 42.3369631861411, "longitude": -71.0758940796503}, "id": "toro-boston", "image_url": "https://s3-media2.fl.yelpcdn.com/bphoto/vavJneJjBulHvZAGit-bdQ/o.jpg", "categories": [{"alias": "spanish", "title": "Spanish"}], "rating": 4.0}, {"transactions": [], "distance": 1900.7575169259999, "price": "$$$$", "display_phone": "(617) 737-0099", "phone": "+16177370099", "url": "https://www.yelp.com/biz/menton-boston?adjust_creative=gBcvfFpabk3CnzmXKdYe3w&utm_campaign=yelp_api_v3&utm_medium=api_v3_business_search&utm_source=gBcvfFpabk3CnzmXKdYe3w", "name": "Menton", "location": {"display_address": ["354 Congress St", "Boston, MA 02210"], "country": "US", "state": "MA", "address3": "", "address2": "", "address1": "354 Congress St", "city": "Boston", "zip_code": "02210"}, "is_closed": false, "review_count": 363, "coordinates": {"latitude": 42.3504581, "longitude": -71.0483829}, "id": "menton-boston", "image_url": "https://s3-media2.fl.yelpcdn.com/bphoto/yyMAE_WG-RYkT18S68eqcg/o.jpg", "categories": [{"alias": "french", "title": "French"}, {"alias": "italian", "title": "Italian"}, {"alias": "wine_bars", "title": "Wine Bars"}], "rating": 4.5}, {"transactions": [], "distance": 608.445265942, "price": "$$$", "display_phone": "(617) 356-1100", "phone": "+16173561100", "url": "https://www.yelp.com/biz/kava-neo-taverna-boston-2?adjust_creative=gBcvfFpabk3CnzmXKdYe3w&utm_campaign=yelp_api_v3&utm_medium=api_v3_business_search&utm_source=gBcvfFpabk3CnzmXKdYe3w", "name": "KAVA neo-taverna", "location": {"display_address": ["315 Shawmut Ave", "Boston, MA 02118"], "country": "US", "state": "MA", "address3": "", "address2": "", "address1": "315 Shawmut Ave", "city": "Boston", "zip_code": "02118"}, "is_closed": false, "review_count": 126, "coordinates": {"latitude": 42.34239, "longitude": -71.07043}, "id": "kava-neo-taverna-boston-2", "image_url": "https://s3-media2.fl.yelpcdn.com/bphoto/J0ldIDFJerdcUfkEtXXJxw/o.jpg", "categories": [{"alias": "greek", "title": "Greek"}], "rating": 4.5}, {"transactions": ["pickup"], "distance": 1079.855391818, "price": "$$", "display_phone": "(617) 267-4300", "phone": "+16172674300", "url": "https://www.yelp.com/biz/flour-bakery-and-cafe-boston-2?adjust_creative=gBcvfFpabk3CnzmXKdYe3w&utm_campaign=yelp_api_v3&utm_medium=api_v3_business_search&utm_source=gBcvfFpabk3CnzmXKdYe3w", "name": "Flour Bakery & Cafe", "location": {"display_address": ["1595 Washington St", "Boston, MA 02118"], "country": "US", "state": "MA", "address3": "", "address2": "", "address1": "1595 Washington St", "city": "Boston", "zip_code": "02118"}, "is_closed": false, "review_count": 787, "coordinates": {"latitude": 42.338443, "longitude": -71.074548}, "id": "flour-bakery-and-cafe-boston-2", "image_url": "https://s3-media1.fl.yelpcdn.com/bphoto/GFa1WcFY1r5vgBhI3APOGQ/o.jpg", "categories": [{"alias": "bakeries", "title": "Bakeries"}, {"alias": "coffee", "title": "Coffee & Tea"}, {"alias": "sandwiches", "title": "Sandwiches"}], "rating": 4.0}, {"transactions": [], "distance": 502.53337744359993, "price": "$$", "display_phone": "(617) 303-0113", "phone": "+16173030113", "url": "https://www.yelp.com/biz/l-a-burdick-handmade-chocolates-boston-3?adjust_creative=gBcvfFpabk3CnzmXKdYe3w&utm_campaign=yelp_api_v3&utm_medium=api_v3_business_search&utm_source=gBcvfFpabk3CnzmXKdYe3w", "name": "L.A. Burdick Handmade Chocolates", "location": {"display_address": ["220 Clarendon St", "Boston, MA 02116"], "country": "US", "state": "MA", "address3": "", "address2": "", "address1": "220 Clarendon St", "city": "Boston", "zip_code": "02116"}, "is_closed": false, "review_count": 237, "coordinates": {"latitude": 42.3511188, "longitude": -71.0754537}, "id": "l-a-burdick-handmade-chocolates-boston-3", "image_url": "https://s3-media2.fl.yelpcdn.com/bphoto/utTTy8X-82UNTP4R3uU2KA/o.jpg", "categories": [{"alias": "desserts", "title": "Desserts"}, {"alias": "chocolate", "title": "Chocolatiers & Shops"}, {"alias": "coffee", "title": "Coffee & Tea"}], "rating": 4.5}, {"transactions": [], "distance": 1975.6220825179998, "price": "$$$", "display_phone": "(617) 553-5900", "phone": "+16175535900", "url": "https://www.yelp.com/biz/row-34-boston?adjust_creative=gBcvfFpabk3CnzmXKdYe3w&utm_campaign=yelp_api_v3&utm_medium=api_v3_business_search&utm_source=gBcvfFpabk3CnzmXKdYe3w", "name": "Row 34", "location": {"display_address": ["383 Congress St", "Boston, MA 02210"], "country": "US", "state": "MA", "address3": "", "address2": "", "address1": "383 Congress St", "city": "Boston", "zip_code": "02210"}, "is_closed": false, "review_count": 797, "coordinates": {"latitude": 42.3496337161869, "longitude": -71.0473232766807}, "id": "row-34-boston", "image_url": "https://s3-media3.fl.yelpcdn.com/bphoto/_ZK68w3t4BC1NRV4W-THAQ/o.jpg", "categories": [{"alias": "newamerican", "title": "American (New)"}, {"alias": "seafood", "title": "Seafood"}], "rating": 4.5}, {"transactions": [], "distance": 516.520730746, "price": "$$", "display_phone": "(617) 247-3333", "phone": "+16172473333", "url": "https://www.yelp.com/biz/thinking-cup-boston-5?adjust_creative=gBcvfFpabk3CnzmXKdYe3w&utm_campaign=yelp_api_v3&utm_medium=api_v3_business_search&utm_source=gBcvfFpabk3CnzmXKdYe3w", "name": "Thinking Cup", "location": {"display_address": ["85 Newbury St", "Boston, MA 02116"], "country": "US", "state": "MA", "address3": "", "address2": "", "address1": "85 Newbury St", "city": "Boston", "zip_code": "02116"}, "is_closed": false, "review_count": 493, "coordinates": {"latitude": 42.351734691006, "longitude": -71.0746758944958}, "id": "thinking-cup-boston-5", "image_url": "https://s3-media3.fl.yelpcdn.com/bphoto/AD0F19ft0hmUBnAiVZWi-w/o.jpg", "categories": [{"alias": "coffee", "title": "Coffee & Tea"}, {"alias": "breakfast_brunch", "title": "Breakfast & Brunch"}, {"alias": "sandwiches", "title": "Sandwiches"}], "rating": 4.5}], "total": 24839}