{"region": {"center": {"latitude": 42.34784169448538, "longitude": -71.07124328613281}}, "businesses": [{"transactions": [], "distance": 1407.1586158, "display_phone": "(617) 334-7722", "phone": "+16173347722", "url": "https://www.yelp.com/biz/alpha-locksmith-boston-3?adjust_creative=gBcvfFpabk3CnzmXKdYe3w&utm_campaign=yelp_api_v3&utm_medium=api_v3_business_search&utm_source=gBcvfFpabk3CnzmXKdYe3w", "name": "Alpha Locksmith", "location": {"display_address": ["Boston, MA 02135"], "country": "US", "state": "MA", "address3": "", "address2": null, "address1": "", "city": "Boston", "zip_code": "02135"}, "is_closed": false, "review_count": 74, "coordinates": {"latitude": 42.3416290949687, "longitude": -71.0861554078705}, "id": "alpha-locksmith-boston-3", "image_url": "https://s3-media4.fl.yelpcdn.com/bphoto/_1nJVH8l_7n4pVV1ns0LKw/o.jpg", "categories": [{"alias": "locksmiths", "title": "Keys & Locksmiths"}], "rating": 5.0}, {"transactions": [], "distance": 1503.5921998079998, "price": "$", "display_phone": "(617) 248-3957", "phone": "+16172483957", "url": "https://www.yelp.com/biz/ashburton-cafe-boston?adjust_creative=gBcvfFpabk3CnzmXKdYe3w&utm_campaign=yelp_api_v3&utm_medium=api_v3_business_search&utm_source=gBcvfFpabk3CnzmXKdYe3w", "name": "Ashburton Cafe", "location": {"display_address": ["1 Ashburton Pl", "Boston, MA 02108"], "country": "US", "state": "MA", "address3": "", "address2": "", "address1": "1 Ashburton Pl", "city": "Boston", "zip_code": "02108"}, "is_closed": false, "review_count": 20, "coordinates": {"latitude": 42.35952, "longitude": -71.06224}, "id": "ashburton-cafe-boston", "image_url": "https://s3-media1.fl.yelpcdn.com/bphoto/J1uP0Ku8Hbf38WL0KC2SnA/o.jpg", "categories": [{"alias": "cafes", "title": "Cafes"}], "rating": 4.0}, {"transactions": [], "distance": 378.77984680979995, "price": "$$", "display_phone": "(617) 457-2330", "phone": "+16174572330", "url": "https://www.yelp.com/biz/off-the-common-boston?adjust_creative=gBcvfFpabk3CnzmXKdYe3w&utm_campaign=yelp_api_v3&utm_medium=api_v3_business_search&utm_source=gBcvfFpabk3CnzmXKdYe3w", "name": "Off the Common", "location": {"display_address": ["50 Park Plz", "Boston Park Plaza", "Boston, MA 02116"], "country": "US", "state": "MA", "address3": "Boston Park Plaza", "address2": "", "address1": "50 Park Plz", "city": "Boston", "zip_code": "02116"}, "is_closed": false, "review_count": 17, "coordinates": {"latitude": 42.3510474708316, "longitude": -71.0696800944176}, "id": "off-the-common-boston", "image_url": "https://s3-media1.fl.yelpcdn.com/bphoto/S_sya4B3KTWBDx8QrpsyYA/o.jpg", "categories": [{"alias": "newamerican", "title": "American (New)"}], "rating": 4.0}, {"transactions": ["pickup"], "distance": 4460.488908708, "price": "$$", "display_phone": "(617) 506-7090", "phone": "+16175067090", "url": "https://www.yelp.com/biz/jerk-boston?adjust_creative=gBcvfFpabk3CnzmXKdYe3w&utm_campaign=yelp_api_v3&utm_medium=api_v3_business_search&utm_source=gBcvfFpabk3CnzmXKdYe3w", "name": "Jerk", "location": {"display_address": ["310 Bowdoin St", "Boston, MA 02122"], "country": "US", "state": "MA", "address3": "", "address2": "", "address1": "310 Bowdoin St", "city": "Boston", "zip_code": "02122"}, "is_closed": false, "review_count": 44, "coordinates": {"latitude": 42.3079588, "longitude": -71.0654072}, "id": "jerk-boston", "image_url": "https://s3-media3.fl.yelpcdn.com/bphoto/TND9GUBDOV-uMJbSYCADzA/o.jpg", "categories": [{"alias": "caribbean", "title": "Caribbean"}], "rating": 4.0}, {"transactions": ["delivery", "pickup"], "distance": 1631.638854106, "price": "$$", "display_phone": "(617) 210-7953", "phone": "+16172107953", "url": "https://www.yelp.com/biz/siam-bistro-boston?adjust_creative=gBcvfFpabk3CnzmXKdYe3w&utm_campaign=yelp_api_v3&utm_medium=api_v3_business_search&utm_source=gBcvfFpabk3CnzmXKdYe3w", "name": "Siam Bistro", "location": {"display_address": ["151 Pearl St", "Boston, MA 02110"], "country": "US", "state": "MA", "address3": "", "address2": "", "address1": "151 Pearl St", "city": "Boston", "zip_code": "02110"}, "is_closed": false, "review_count": 128, "coordinates": {"latitude": 42.35452, "longitude": -71.05364}, "id": "siam-bistro-boston", "image_url": "https://s3-media1.fl.yelpcdn.com/bphoto/prM54dvLg8zqRRQYfn8zXQ/o.jpg", "categories": [{"alias": "thai", "title": "Thai"}], "rating": 3.5}, {"transactions": [], "distance": 3416.4352163979997, "price": "$", "display_phone": "(617) 464-1977", "phone": "+16174641977", "url": "https://www.yelp.com/biz/sidewalk-cafe-boston?adjust_creative=gBcvfFpabk3CnzmXKdYe3w&utm_campaign=yelp_api_v3&utm_medium=api_v3_business_search&utm_source=gBcvfFpabk3CnzmXKdYe3w", "name": "Sidewalk Cafe", "location": {"display_address": ["764 E 4th St", "Boston, MA 02127"], "country": "US", "state": "MA", "address3": "", "address2": "", "address1": "764 E 4th St", "city": "Boston", "zip_code": "02127"}, "is_closed": false, "review_count": 87, "coordinates": {"latitude": 42.33496, "longitude": -71.03351}, "id": "sidewalk-cafe-boston", "image_url": "https://s3-media2.fl.yelpcdn.com/bphoto/pM-lSiFAR6rjDayi_6pR0g/o.jpg", "categories": [{"alias": "coffee", "title": "Coffee & Tea"}, {"alias": "pizza", "title": "Pizza"}, {"alias": "breakfast_brunch", "title": "Breakfast & Brunch"}], "rating": 3.5}, {"transactions": ["delivery", "pickup"], "distance": 2322.70892312, "price": "$", "display_phone": "(617) 442-9464", "phone": "+16174429464", "url": "https://www.yelp.com/biz/the-hen-house-wings-n-waffles-boston?adjust_creative=gBcvfFpabk3CnzmXKdYe3w&utm_campaign=yelp_api_v3&utm_medium=api_v3_business_search&utm_source=gBcvfFpabk3CnzmXKdYe3w", "name": "The Hen House Wings 'n Waffles", "location": {"display_address": ["1033 Massachusetts Ave", "Boston, MA 02118"], "country": "US", "state": "MA", "address3": "", "address2": "", "address1": "1033 Massachusetts Ave", "city": "Boston", "zip_code": "02118"}, "is_closed": false, "review_count": 259, "coordinates": {"latitude": 42.3271255493164, "longitude": -71.0676345825195}, "id": "the-hen-house-wings-n-waffles-boston", "image_url": "https://s3-media2.fl.yelpcdn.com/bphoto/-OnZYC0PevIVgIfHF9jZaQ/o.jpg", "categories": [{"alias": "chicken_wings", "title": "Chicken Wings"}, {"alias": "southern", "title": "Southern"}, {"alias": "comfortfood", "title": "Comfort Food"}], "rating": 3.0}, {"transactions": [], "distance": 2076.3873660699996, "price": "$$", "display_phone": "(617) 337-4699", "phone": "+16173374699", "url": "https://www.yelp.com/biz/shake-shack-boston-2?adjust_creative=gBcvfFpabk3CnzmXKdYe3w&utm_campaign=yelp_api_v3&utm_medium=api_v3_business_search&utm_source=gBcvfFpabk3CnzmXKdYe3w", "name": "Shake Shack", "location": {"display_address": ["77 Seaport Blvd", "Boston, MA 02210"], "country": "US", "state": "MA", "address3": null, "address2": "", "address1": "77 Seaport Blvd", "city": "Boston", "zip_code": "02210"}, "is_closed": false, "review_count": 34, "coordinates": {"latitude": 42.3520660935486, "longitude": -71.0466320604385}, "id": "shake-shack-boston-2", "image_url": "https://s3-media1.fl.yelpcdn.com/bphoto/7BOOM1wDKvijjqZJ6xfBFA/o.jpg", "categories": [{"alias": "hotdog", "title": "Hot Dogs"}, {"alias": "burgers", "title": "Burgers"}, {"alias": "icecream", "title": "Ice Cream & Frozen Yogurt"}], "rating": 3.5}, {"transactions": [], "distance": 431.7858254396, "display_phone": "(877) 552-2529", "phone": "+18775522529", "url": "https://www.yelp.com/biz/alavi-and-braza-law-offices-boston?adjust_creative=gBcvfFpabk3CnzmXKdYe3w&utm_campaign=yelp_api_v3&utm_medium=api_v3_business_search&utm_source=gBcvfFpabk3CnzmXKdYe3w", "name": "Alavi & Braza Law Offices", "location": {"display_address": ["20 Park Plz", "Ste 432", "Boston, MA 02116"], "country": "US", "state": "MA", "address3": "", "address2": "Ste 432", "address1": "20 Park Plz", "city": "Boston", "zip_code": "02116"}, "is_closed": false, "review_count": 59, "coordinates": {"latitude": 42.35147, "longitude": -71.06889}, "id": "alavi-and-braza-law-offices-boston", "image_url": "https://s3-media3.fl.yelpcdn.com/bphoto/Q33q2r9ao_NR6VtPU7WKjg/o.jpg", "categories": [{"alias": "realestatelawyers", "title": "Real Estate Law"}], "rating": 5.0}, {"transactions": [], "distance": 1534.3601251970001, "price": "$", "display_phone": "(617) 263-1449", "phone": "+16172631449", "url": "https://www.yelp.com/biz/the-alley-boston-2?adjust_creative=gBcvfFpabk3CnzmXKdYe3w&utm_campaign=yelp_api_v3&utm_medium=api_v3_business_search&utm_source=gBcvfFpabk3CnzmXKdYe3w", "name": "The Alley", "location": {"display_address": ["14 Pi Aly", "Boston, MA 02108"], "country": "US", "state": "MA", "address3": "", "address2": "", "address1": "14 Pi Aly", "city": "Boston", "zip_code": "02108"}, "is_closed": false, "review_count": 60, "coordinates": {"latitude": 42.3581220209599, "longitude": -71.0588139295578}, "id": "the-alley-boston-2", "image_url": "https://s3-media1.fl.yelpcdn.com/bphoto/jH0KKkFQK9Ms3h3HvIuDqg/o.jpg", "categories": [{"alias": "gaybars", "title": "Gay Bars"}, {"alias": "poolhalls", "title": "Pool Halls"}, {"alias": "danceclubs", "title": "Dance Clubs"}], "rating": 3.5}, {"transactions": [], "distance": 3282.5221959319997, "price": "$$", "display_phone": "(617) 765-8836", "phone": "+16177658836", "url": "https://www.yelp.com/biz/sixth-gear-cask-and-kitchen-boston?adjust_creative=gBcvfFpabk3CnzmXKdYe3w&utm_campaign=yelp_api_v3&utm_medium=api_v3_business_search&utm_source=gBcvfFpabk3CnzmXKdYe3w", "name": "Sixth Gear - Cask & Kitchen", "location": {"display_address": ["81 L St", "Boston, MA 02127"], "country": "US", "state": "MA", "address3": "", "address2": null, "address1": "81 L St", "city": "Boston", "zip_code": "02127"}, "is_closed": false, "review_count": 70, "coordinates": {"latitude": 42.33456, "longitude": -71.0356}, "id": "sixth-gear-cask-and-kitchen-boston", "image_url": "https://s3-media1.fl.yelpcdn.com/bphoto/ASL99Bd7RKK5w4-qjKgewQ/o.jpg", "categories": [{"alias": "wine_bars", "title": "Wine Bars"}, {"alias": "newamerican", "title": "American (New)"}, {"alias": "champagne_bars", "title": "Champagne Bars"}], "rating": 3.5}, {"transactions": [], "distance": 4916.4155744439995, "price": "$$", "display_phone": "(617) 955-2064", "phone": "+16179552064", "url": "https://www.yelp.com/biz/habibis-lounge-boston?adjust_creative=gBcvfFpabk3CnzmXKdYe3w&utm_campaign=yelp_api_v3&utm_medium=api_v3_business_search&utm_source=gBcvfFpabk3CnzmXKdYe3w", "name": "Habibi's Lounge", "location": {"display_address": ["1217A Commonwealth Ave", "Boston, MA 02134"], "country": "US", "state": "MA", "address3": "", "address2": "", "address1": "1217A Commonwealth Ave", "city": "Boston", "zip_code": "02134"}, "is_closed": false, "review_count": 96, "coordinates": {"latitude": 42.3507878, "longitude": -71.1306375}, "id": "habibis-lounge-boston", "image_url": "https://s3-media2.fl.yelpcdn.com/bphoto/DTLgtf8GEz3Y8nFzKqLdnA/o.jpg", "categories": [{"alias": "hookah_bars", "title": "Hookah Bars"}], "rating": 4.0}, {"transactions": [], "distance": 1795.2742922300001, "price": "$", "display_phone": "(617) 936-4453", "phone": "+16179364453", "url": "https://www.yelp.com/biz/piadina-cafe-and-coffee-bar-boston-2?adjust_creative=gBcvfFpabk3CnzmXKdYe3w&utm_campaign=yelp_api_v3&utm_medium=api_v3_business_search&utm_source=gBcvfFpabk3CnzmXKdYe3w", "name": "Piadina Cafe & Coffee Bar", "location": {"display_address": ["75 State St", "Boston, MA 02109"], "country": "US", "state": "MA", "address3": "", "address2": "", "address1": "75 State St", "city": "Boston", "zip_code": "02109"}, "is_closed": false, "review_count": 43, "coordinates": {"latitude": 42.358897, "longitude": -71.055322}, "id": "piadina-cafe-and-coffee-bar-boston-2", "image_url": "https://s3-media2.fl.yelpcdn.com/bphoto/y55ZfT8w79YjMYcm2x1utA/o.jpg", "categories": [{"alias": "cafes", "title": "Cafes"}, {"alias": "coffee", "title": "Coffee & Tea"}, {"alias": "italian", "title": "Italian"}], "rating": 3.5}, {"transactions": [], "distance": 1036.9054063649999, "price": "$", "display_phone": "", "phone": "", "url": "https://www.yelp.com/biz/bbqsmith-boston?adjust_creative=gBcvfFpabk3CnzmXKdYe3w&utm_campaign=yelp_api_v3&utm_medium=api_v3_business_search&utm_source=gBcvfFpabk3CnzmXKdYe3w", "name": "BBQsmith", "location": {"display_address": ["Surface Rd & Beach St", "Boston, MA 02111"], "country": "US", "state": "MA", "address3": "", "address2": "", "address1": "Surface Rd & Beach St", "city": "Boston", "zip_code": "02111"}, "is_closed": false, "review_count": 28, "coordinates": {"latitude": 42.3512556820976, "longitude": -71.0595032572746}, "id": "bbqsmith-boston", "image_url": "https://s3-media1.fl.yelpcdn.com/bphoto/YCZiPb5uIDLhNxpahv5TFw/o.jpg", "categories": [{"alias": "streetvendors", "title": "Street Vendors"}, {"alias": "bbq", "title": "Barbeque"}], "rating": 3.5}, {"transactions": [], "distance": 857.6244475629999, "display_phone": "", "phone": "", "url": "https://www.yelp.com/biz/titus-sparrow-park-boston?adjust_creative=gBcvfFpabk3CnzmXKdYe3w&utm_campaign=yelp_api_v3&utm_medium=api_v3_business_search&utm_source=gBcvfFpabk3CnzmXKdYe3w", "name": "Titus Sparrow Park", "location": {"display_address": ["West Newton At Columbus", "Boston, MA 02118"], "country": "US", "state": "MA", "address3": "", "address2": null, "address1": "West Newton At Columbus", "city": "Boston", "zip_code": "02118"}, "is_closed": false, "review_count": 5, "coordinates": {"latitude": 42.3434551248909, "longitude": -71.0798263549805}, "id": "titus-sparrow-park-boston", "image_url": "https://s3-media2.fl.yelpcdn.com/bphoto/dN2zoyo_u3COMv3KaiklkA/o.jpg", "categories": [{"alias": "parks", "title": "Parks"}], "rating": 5.0}, {"transactions": [], "distance": 1779.5653635559997, "price": "$", "display_phone": "(617) 737-4688", "phone": "+16177374688", "url": "https://www.yelp.com/biz/starbucks-boston-63?adjust_creative=gBcvfFpabk3CnzmXKdYe3w&utm_campaign=yelp_api_v3&utm_medium=api_v3_business_search&utm_source=gBcvfFpabk3CnzmXKdYe3w", "name": "Starbucks", "location": {"display_address": ["1 International Pl", "Boston, MA 02110"], "country": "US", "state": "MA", "address3": "", "address2": "", "address1": "1 International Pl", "city": "Boston", "zip_code": "02110"}, "is_closed": false, "review_count": 17, "coordinates": {"latitude": 42.355936, "longitude": -71.052562}, "id": "starbucks-boston-63", "image_url": "https://s3-media2.fl.yelpcdn.com/bphoto/ExXj37Sv6xmZuH7L8S0uzA/o.jpg", "categories": [{"alias": "coffee", "title": "Coffee & Tea"}], "rating": 4.0}, {"transactions": ["delivery", "pickup"], "distance": 2218.716269132, "price": "$", "display_phone": "(617) 266-4919", "phone": "+16172664919", "url": "https://www.yelp.com/biz/college-pizza-boston?adjust_creative=gBcvfFpabk3CnzmXKdYe3w&utm_campaign=yelp_api_v3&utm_medium=api_v3_business_search&utm_source=gBcvfFpabk3CnzmXKdYe3w", "name": "College Pizza", "location": {"display_address": ["50 Queensberry St", "Boston, MA 02215"], "country": "US", "state": "MA", "address3": "", "address2": "", "address1": "50 Queensberry St", "city": "Boston", "zip_code": "02215"}, "is_closed": false, "review_count": 105, "coordinates": {"latitude": 42.342595, "longitude": -71.0973862}, "id": "college-pizza-boston", "image_url": "https://s3-media4.fl.yelpcdn.com/bphoto/VuumSLp8eS6nYYH-tR_xvw/o.jpg", "categories": [{"alias": "pizza", "title": "Pizza"}, {"alias": "burgers", "title": "Burgers"}, {"alias": "sandwiches", "title": "Sandwiches"}], "rating": 3.5}, {"transactions": [], "distance": 7693.224079598, "price": "$", "display_phone": "(617) 202-5074", "phone": "+16172025074", "url": "https://www.yelp.com/biz/teresa-market-boston?adjust_creative=gBcvfFpabk3CnzmXKdYe3w&utm_campaign=yelp_api_v3&utm_medium=api_v3_business_search&utm_source=gBcvfFpabk3CnzmXKdYe3w", "name": "Teresa Market", "location": {"display_address": ["571 Washington St", "Boston, MA 02135"], "country": "US", "state": "MA", "address3": "", "address2": "", "address1": "571 Washington St", "city": "Boston", "zip_code": "02135"}, "is_closed": false, "review_count": 38, "coordinates": {"latitude": 42.35027, "longitude": -71.16485}, "id": "teresa-market-boston", "image_url": "https://s3-media1.fl.yelpcdn.com/bphoto/3uY9wLFr5lCsEBvSvJ2EoA/o.jpg", "categories": [{"alias": "mexican", "title": "Mexican"}, {"alias": "latin", "title": "Latin American"}], "rating": 5.0}, {"transactions": [], "distance": 5053.48531532, "price": "$$", "display_phone": "(617) 567-9539", "phone": "+16175679539", "url": "https://www.yelp.com/biz/jevelis-restaurant-boston?adjust_creative=gBcvfFpabk3CnzmXKdYe3w&utm_campaign=yelp_api_v3&utm_medium=api_v3_business_search&utm_source=gBcvfFpabk3CnzmXKdYe3w", "name": "Jeveli's Restaurant", "location": {"display_address": ["387 Chelsea St", "Boston, MA 02128"], "country": "US", "state": "MA", "address3": "", "address2": null, "address1": "387 Chelsea St", "city": "Boston", "zip_code": "02128"}, "is_closed": false, "review_count": 139, "coordinates": {"latitude": 42.3794701, "longitude": -71.0273923}, "id": "jevelis-restaurant-boston", "image_url": "https://s3-media2.fl.yelpcdn.com/bphoto/584EqFCE3snAEJzig2d5Bw/o.jpg", "categories": [{"alias": "italian", "title": "Italian"}], "rating": 3.5}, {"transactions": [], "distance": 2746.586709294, "price": "$", "display_phone": "(617) 268-3117", "phone": "+16172683117", "url": "https://www.yelp.com/biz/java-house-boston?adjust_creative=gBcvfFpabk3CnzmXKdYe3w&utm_campaign=yelp_api_v3&utm_medium=api_v3_business_search&utm_source=gBcvfFpabk3CnzmXKdYe3w", "name": "Java House", "location": {"display_address": ["566 E Broadway", "Boston, MA 02127"], "country": "US", "state": "MA", "address3": "", "address2": "", "address1": "566 E Broadway", "city": "Boston", "zip_code": "02127"}, "is_closed": false, "review_count": 30, "coordinates": {"latitude": 42.335352875187, "longitude": -71.04241036192}, "id": "java-house-boston", "image_url": "https://s3-media4.fl.yelpcdn.com/bphoto/s83O0CkUHoVBF5j9LxDxGA/o.jpg", "categories": [{"alias": "coffee", "title": "Coffee & Tea"}], "rating": 4.0}, {"transactions": [], "distance": 1534.818545696, "price": "$$", "display_phone": "(617) 401-2421", "phone": "+16174012421", "url": "https://www.yelp.com/biz/render-coffee-boston-2?adjust_creative=gBcvfFpabk3CnzmXKdYe3w&utm_campaign=yelp_api_v3&utm_medium=api_v3_business_search&utm_source=gBcvfFpabk3CnzmXKdYe3w", "name": "Render Coffee", "location": {"display_address": ["121 Devonshire St", "Boston, MA 02109"], "country": "US", "state": "MA", "address3": "", "address2": "", "address1": "121 Devonshire St", "city": "Boston", "zip_code": "02109"}, "is_closed": false, "review_count": 20, "coordinates": {"latitude": 42.3570752385778, "longitude": -71.0573615133762}, "id": "render-coffee-boston-2", "image_url": "https://s3-media3.fl.yelpcdn.com/bphoto/pWihgj_eZ0uCeV0WMnm7rQ/o.jpg", "categories": [{"alias": "coffee", "title": "Coffee & Tea"}], "rating": 4.0}, {"transactions": [], "distance": 352.6820490734, "price": "$$$", "display_phone": "(617) 423-5040", "phone": "+16174235040", "url": "https://www.yelp.com/biz/%C3%A9tant-boston-2?adjust_creative=gBcvfFpabk3CnzmXKdYe3w&utm_campaign=yelp_api_v3&utm_medium=api_v3_business_search&utm_source=gBcvfFpabk3CnzmXKdYe3w", "name": "\u00e9tant", "location": {"display_address": ["524 Tremont St", "Boston, MA 02116"], "country": "US", "state": "MA", "address3": "", "address2": "", "address1": "524 Tremont St", "city": "Boston", "zip_code": "02116"}, "is_closed": false, "review_count": 107, "coordinates": {"latitude": 42.34465, "longitude": -71.07002}, "id": "\u00e9tant-boston-2", "image_url": "https://s3-media3.fl.yelpcdn.com/bphoto/sffsiYnrASXNKKQCSaTcJQ/o.jpg", "categories": [{"alias": "skincare", "title": "Skin Care"}, {"alias": "massage_therapy", "title": "Massage Therapy"}, {"alias": "waxing", "title": "Waxing"}], "rating": 4.5}, {"transactions": [], "distance": 567.8539774732, "price": "$$$", "display_phone": "(617) 350-6996", "phone": "+16173506996", "url": "https://www.yelp.com/biz/formaggio-kitchen-south-end-boston?adjust_creative=gBcvfFpabk3CnzmXKdYe3w&utm_campaign=yelp_api_v3&utm_medium=api_v3_business_search&utm_source=gBcvfFpabk3CnzmXKdYe3w", "name": "Formaggio Kitchen South End", "location": {"display_address": ["268 Shawmut Ave", "Boston, MA 02118"], "country": "US", "state": "MA", "address3": "", "address2": "", "address1": "268 Shawmut Ave", "city": "Boston", "zip_code": "02118"}, "is_closed": false, "review_count": 186, "coordinates": {"latitude": 42.34312, "longitude": -71.06858}, "id": "formaggio-kitchen-south-end-boston", "image_url": "https://s3-media3.fl.yelpcdn.com/bphoto/xSNFhaOcuFhGVVsyp0OsNQ/o.jpg", "categories": [{"alias": "grocery", "title": "Grocery"}, {"alias": "cheese", "title": "Cheese Shops"}], "rating": 4.5}, {"transactions": [], "distance": 2047.384484326, "price": "$$", "display_phone": "(617) 266-8863", "phone": "+16172668863", "url": "https://www.yelp.com/biz/sleep-a-rama-boston-2?adjust_creative=gBcvfFpabk3CnzmXKdYe3w&utm_campaign=yelp_api_v3&utm_medium=api_v3_business_search&utm_source=gBcvfFpabk3CnzmXKdYe3w", "name": "Sleep-A-Rama", "location": {"display_address": ["1260 Boylston St", "Boston, MA 02115"], "country": "US", "state": "MA", "address3": "", "address2": null, "address1": "1260 Boylston St", "city": "Boston", "zip_code": "02115"}, "is_closed": false, "review_count": 115, "coordinates": {"latitude": 42.3450646, "longitude": -71.0958711}, "id": "sleep-a-rama-boston-2", "image_url": "https://s3-media2.fl.yelpcdn.com/bphoto/C7xJ_-_okatAfNkkgTMYfg/o.jpg", "categories": [{"alias": "mattresses", "title": "Mattresses"}], "rating": 4.5}, {"transactions": [], "distance": 1452.111022548, "price": "$$", "display_phone": "(617) 367-7399", "phone": "+16173677399", "url": "https://www.yelp.com/biz/serjeo-boston?adjust_creative=gBcvfFpabk3CnzmXKdYe3w&utm_campaign=yelp_api_v3&utm_medium=api_v3_business_search&utm_source=gBcvfFpabk3CnzmXKdYe3w", "name": "Serjeo", "location": {"display_address": ["333 Washington St", "Fl 5, Ste 525", "Boston, MA 02108"], "country": "US", "state": "MA", "address3": "", "address2": "Fl 5, Ste 525", "address1": "333 Washington St", "city": "Boston", "zip_code": "02108"}, "is_closed": false, "review_count": 90, "coordinates": {"latitude": 42.357026, "longitude": -71.058675}, "id": "serjeo-boston", "image_url": "https://s3-media2.fl.yelpcdn.com/bphoto/IpOmg4DXTWtltxClk7Gtsg/o.jpg", "categories": [{"alias": "jewelry", "title": "Jewelry"}, {"alias": "jewelryrepair", "title": "Jewelry Repair"}, {"alias": "appraisalservices", "title": "Appraisal Services"}], "rating": 5.0}, {"transactions": [], "distance": 930.1346292019999, "price": "$", "display_phone": "(617) 262-6900", "phone": "+16172626900", "url": "https://www.yelp.com/biz/crazy-doughs-pizza-boston-5?adjust_creative=gBcvfFpabk3CnzmXKdYe3w&utm_campaign=yelp_api_v3&utm_medium=api_v3_business_search&utm_source=gBcvfFpabk3CnzmXKdYe3w", "name": "Crazy Dough's Pizza", "location": {"display_address": ["800 Boylston St", "Boston, MA 02199"], "country": "US", "state": "MA", "address3": "", "address2": "", "address1": "800 Boylston St", "city": "Boston", "zip_code": "02199"}, "is_closed": false, "review_count": 17, "coordinates": {"latitude": 42.347357, "longitude": -71.08254}, "id": "crazy-doughs-pizza-boston-5", "image_url": "https://s3-media3.fl.yelpcdn.com/bphoto/JxhkWTBcFjR_PSrf3QzR5g/o.jpg", "categories": [{"alias": "pizza", "title": "Pizza"}], "rating": 3.5}, {"transactions": [], "distance": 667.7922051058, "price": "$$", "display_phone": "(617) 927-5304", "phone": "+16179275304", "url": "https://www.yelp.com/biz/champions-boston-sports-bar-and-restaurant-boston-2?adjust_creative=gBcvfFpabk3CnzmXKdYe3w&utm_campaign=yelp_api_v3&utm_medium=api_v3_business_search&utm_source=gBcvfFpabk3CnzmXKdYe3w", "name": "Champion's Boston Sports Bar & Restaurant", "location": {"display_address": ["110 Huntington Ave", "Boston, MA 02116"], "country": "US", "state": "MA", "address3": "", "address2": "", "address1": "110 Huntington Ave", "city": "Boston", "zip_code": "02116"}, "is_closed": false, "review_count": 195, "coordinates": {"latitude": 42.3468795418739, "longitude": -71.0798015445471}, "id": "champions-boston-sports-bar-and-restaurant-boston-2", "image_url": "https://s3-media3.fl.yelpcdn.com/bphoto/DCPKSF2BsMpGwbnKqrGQ-w/o.jpg", "categories": [{"alias": "sportsbars", "title": "Sports Bars"}, {"alias": "newamerican", "title": "American (New)"}], "rating": 3.0}, {"transactions": [], "distance": 1880.3047367339998, "price": "$", "display_phone": "(617) 426-1870", "phone": "+16174261870", "url": "https://www.yelp.com/biz/an-tain-boston?adjust_creative=gBcvfFpabk3CnzmXKdYe3w&utm_campaign=yelp_api_v3&utm_medium=api_v3_business_search&utm_source=gBcvfFpabk3CnzmXKdYe3w", "name": "An Tain", "location": {"display_address": ["31 India St", "Boston, MA 02110"], "country": "US", "state": "MA", "address3": "", "address2": "", "address1": "31 India St", "city": "Boston", "zip_code": "02110"}, "is_closed": false, "review_count": 61, "coordinates": {"latitude": 42.3582305908203, "longitude": -71.0531387329102}, "id": "an-tain-boston", "image_url": "https://s3-media2.fl.yelpcdn.com/bphoto/ESNQ8QWCZ5Ve4PeHfbo8zw/o.jpg", "categories": [{"alias": "divebars", "title": "Dive Bars"}], "rating": 3.5}, {"transactions": ["delivery", "pickup"], "distance": 1346.806595526, "price": "$$", "display_phone": "(617) 982-7118", "phone": "+16179827118", "url": "https://www.yelp.com/biz/farandole-boston?adjust_creative=gBcvfFpabk3CnzmXKdYe3w&utm_campaign=yelp_api_v3&utm_medium=api_v3_business_search&utm_source=gBcvfFpabk3CnzmXKdYe3w", "name": "Farandole", "location": {"display_address": ["175 Massachusetts Ave", "Boston, MA 02115"], "country": "US", "state": "MA", "address3": "", "address2": "", "address1": "175 Massachusetts Ave", "city": "Boston", "zip_code": "02115"}, "is_closed": false, "review_count": 85, "coordinates": {"latitude": 42.3458242, "longitude": -71.0874054}, "id": "farandole-boston", "image_url": "https://s3-media4.fl.yelpcdn.com/bphoto/0mDM-JEyVkVBodjq4onEAw/o.jpg", "categories": [{"alias": "korean", "title": "Korean"}, {"alias": "asianfusion", "title": "Asian Fusion"}, {"alias": "mexican", "title": "Mexican"}], "rating": 3.5}, {"transactions": ["delivery"], "distance": 762.3209742898, "price": "$$", "display_phone": "(617) 267-8554", "phone": "+16172678554", "url": "https://www.yelp.com/biz/uno-pizzeria-and-grill-boston-2?adjust_creative=gBcvfFpabk3CnzmXKdYe3w&utm_campaign=yelp_api_v3&utm_medium=api_v3_business_search&utm_source=gBcvfFpabk3CnzmXKdYe3w", "name": "Uno Pizzeria & Grill", "location": {"display_address": ["731 Boylston St.", "Boston, MA 02116"], "country": "US", "state": "MA", "address3": "", "address2": "", "address1": "731 Boylston St.", "city": "Boston", "zip_code": "02116"}, "is_closed": false, "review_count": 158, "coordinates": {"latitude": 42.3495712, "longitude": -71.0802917}, "id": "uno-pizzeria-and-grill-boston-2", "image_url": "https://s3-media4.fl.yelpcdn.com/bphoto/MfzrIIssyiM2smOTO3D_yw/o.jpg", "categories": [{"alias": "pizza", "title": "Pizza"}, {"alias": "gluten_free", "title": "Gluten-Free"}, {"alias": "tradamerican", "title": "American (Traditional)"}], "rating": 3.0}, {"transactions": [], "distance": 2464.0659457559996, "display_phone": "", "phone": "", "url": "https://www.yelp.com/biz/paul-revere-mall-boston?adjust_creative=gBcvfFpabk3CnzmXKdYe3w&utm_campaign=yelp_api_v3&utm_medium=api_v3_business_search&utm_source=gBcvfFpabk3CnzmXKdYe3w", "name": "Paul Revere Mall", "location": {"display_address": ["Hanover St", "Boston, MA 02113"], "country": "US", "state": "MA", "address3": "", "address2": "", "address1": "Hanover St", "city": "Boston", "zip_code": "02113"}, "is_closed": false, "review_count": 16, "coordinates": {"latitude": 42.3657738363233, "longitude": -71.0536158084869}, "id": "paul-revere-mall-boston", "image_url": "https://s3-media3.fl.yelpcdn.com/bphoto/R-o_NezXuUm224VWjDLSug/o.jpg", "categories": [{"alias": "parks", "title": "Parks"}], "rating": 4.0}, {"transactions": [], "distance": 1406.4208299704, "price": "$$", "display_phone": "(617) 720-2724", "phone": "+16177202724", "url": "https://www.yelp.com/biz/brag-boston-ring-and-gem-boston-2?adjust_creative=gBcvfFpabk3CnzmXKdYe3w&utm_campaign=yelp_api_v3&utm_medium=api_v3_business_search&utm_source=gBcvfFpabk3CnzmXKdYe3w", "name": "BRAG - Boston Ring And Gem", "location": {"display_address": ["333 Washington St", "Ste 203-8", "Boston, MA 02108"], "country": "US", "state": "MA", "address3": "", "address2": "Ste 203-8", "address1": "333 Washington St", "city": "Boston", "zip_code": "02108"}, "is_closed": false, "review_count": 99, "coordinates": {"latitude": 42.3567547513243, "longitude": -71.0590953603744}, "id": "brag-boston-ring-and-gem-boston-2", "image_url": "https://s3-media4.fl.yelpcdn.com/bphoto/enFZzySxc2K9jBthA2Z7NQ/o.jpg", "categories": [{"alias": "jewelry", "title": "Jewelry"}], "rating": 5.0}, {"transactions": [], "distance": 662.8472343679999, "price": "$$", "display_phone": "(617) 423-0468", "phone": "+16174230468", "url": "https://www.yelp.com/biz/chaba-florists-boston?adjust_creative=gBcvfFpabk3CnzmXKdYe3w&utm_campaign=yelp_api_v3&utm_medium=api_v3_business_search&utm_source=gBcvfFpabk3CnzmXKdYe3w", "name": "Chaba Florists", "location": {"display_address": ["71 Stuart St", "Boston, MA 02116"], "country": "US", "state": "MA", "address3": "", "address2": "", "address1": "71 Stuart St", "city": "Boston", "zip_code": "02116"}, "is_closed": false, "review_count": 83, "coordinates": {"latitude": 42.3512153625488, "longitude": -71.0644989013672}, "id": "chaba-florists-boston", "image_url": "https://s3-media2.fl.yelpcdn.com/bphoto/x5FL1IH_bW_9ThMHlYpHHw/o.jpg", "categories": [{"alias": "florists", "title": "Florists"}], "rating": 5.0}, {"transactions": [], "distance": 549.4603317177999, "display_phone": "(617) 719-7476", "phone": "+16177197476", "url": "https://www.yelp.com/biz/john-davis-therapeutic-massage-boston-2?adjust_creative=gBcvfFpabk3CnzmXKdYe3w&utm_campaign=yelp_api_v3&utm_medium=api_v3_business_search&utm_source=gBcvfFpabk3CnzmXKdYe3w", "name": "John Davis Therapeutic Massage", "location": {"display_address": ["581 Boylston St", "Ste 503", "Boston, MA 02116"], "country": "US", "state": "MA", "address3": "", "address2": "Ste 503", "address1": "581 Boylston St", "city": "Boston", "zip_code": "02116"}, "is_closed": false, "review_count": 31, "coordinates": {"latitude": 42.3505401611328, "longitude": -71.0767211914062}, "id": "john-davis-therapeutic-massage-boston-2", "image_url": "https://s3-media4.fl.yelpcdn.com/bphoto/pTGcVjLnFre_wU9HKs_sKw/o.jpg", "categories": [{"alias": "massage_therapy", "title": "Massage Therapy"}], "rating": 5.0}, {"transactions": [], "distance": 996.6403954878, "display_phone": "(617) 970-3836", "phone": "+16179703836", "url": "https://www.yelp.com/biz/georges-shoe-repair-boston?adjust_creative=gBcvfFpabk3CnzmXKdYe3w&utm_campaign=yelp_api_v3&utm_medium=api_v3_business_search&utm_source=gBcvfFpabk3CnzmXKdYe3w", "name": "George's Shoe Repair", "location": {"display_address": ["120 Union Park St", "Boston, MA 02118"], "country": "US", "state": "MA", "address3": "", "address2": "", "address1": "120 Union Park St", "city": "Boston", "zip_code": "02118"}, "is_closed": false, "review_count": 113, "coordinates": {"latitude": 42.33996, "longitude": -71.06551}, "id": "georges-shoe-repair-boston", "image_url": "https://s3-media1.fl.yelpcdn.com/bphoto/RAlth075U6vfJIaBRqfYfw/o.jpg", "categories": [{"alias": "shoerepair", "title": "Shoe Repair"}], "rating": 5.0}, {"transactions": ["delivery", "pickup"], "distance": 1175.678553164, "price": "$", "display_phone": "(617) 523-3974", "phone": "+16175233974", "url": "https://www.yelp.com/biz/ninos-pizza-boston?adjust_creative=gBcvfFpabk3CnzmXKdYe3w&utm_campaign=yelp_api_v3&utm_medium=api_v3_business_search&utm_source=gBcvfFpabk3CnzmXKdYe3w", "name": "Nino's Pizza", "location": {"display_address": ["79 Charles St", "Boston, MA 02114"], "country": "US", "state": "MA", "address3": "", "address2": "", "address1": "79 Charles St", "city": "Boston", "zip_code": "02114"}, "is_closed": false, "review_count": 64, "coordinates": {"latitude": 42.3583984375, "longitude": -71.0704116821289}, "id": "ninos-pizza-boston", "image_url": "https://s3-media1.fl.yelpcdn.com/bphoto/7UcvLKTRQKrpR0gRbyfm2A/o.jpg", "categories": [{"alias": "pizza", "title": "Pizza"}, {"alias": "sandwiches", "title": "Sandwiches"}], "rating": 3.5}, {"transactions": [], "distance": 4496.14351454, "price": "$", "display_phone": "(617) 783-9188", "phone": "+16177839188", "url": "https://www.yelp.com/biz/misono-grill-boston?adjust_creative=gBcvfFpabk3CnzmXKdYe3w&utm_campaign=yelp_api_v3&utm_medium=api_v3_business_search&utm_source=gBcvfFpabk3CnzmXKdYe3w", "name": "Misono Grill", "location": {"display_address": ["1095 Commonwealth Ave", "Ste 207", "Boston, MA 02215"], "country": "US", "state": "MA", "address3": "", "address2": "Ste 207", "address1": "1095 Commonwealth Ave", "city": "Boston", "zip_code": "02215"}, "is_closed": false, "review_count": 87, "coordinates": {"latitude": 42.3523280591284, "longitude": -71.1256170272827}, "id": "misono-grill-boston", "image_url": "https://s3-media4.fl.yelpcdn.com/bphoto/RldXOdvOlhJB5FNHWswiog/o.jpg", "categories": [{"alias": "korean", "title": "Korean"}, {"alias": "soup", "title": "Soup"}, {"alias": "seafood", "title": "Seafood"}], "rating": 3.5}, {"transactions": [], "distance": 1664.734448404, "price": "$$", "display_phone": "(617) 989-9988", "phone": "+16179899988", "url": "https://www.yelp.com/biz/zc-boston-boston?adjust_creative=gBcvfFpabk3CnzmXKdYe3w&utm_campaign=yelp_api_v3&utm_medium=api_v3_business_search&utm_source=gBcvfFpabk3CnzmXKdYe3w", "name": "ZC Boston", "location": {"display_address": ["801 Massachusetts Ave", "Boston, MA 02118"], "country": "US", "state": "MA", "address3": "", "address2": "", "address1": "801 Massachusetts Ave", "city": "Boston", "zip_code": "02118"}, "is_closed": false, "review_count": 69, "coordinates": {"latitude": 42.3329126089811, "longitude": -71.0727788507938}, "id": "zc-boston-boston", "image_url": "https://s3-media3.fl.yelpcdn.com/bphoto/WhlbwTG0DmPwhxIV9f7WRQ/o.jpg", "categories": [{"alias": "sushi", "title": "Sushi Bars"}, {"alias": "japanese", "title": "Japanese"}, {"alias": "asianfusion", "title": "Asian Fusion"}], "rating": 3.5}, {"transactions": [], "distance": 2315.501654864, "price": "$", "display_phone": "(617) 723-9888", "phone": "+16177239888", "url": "https://www.yelp.com/biz/china-house-boston?adjust_creative=gBcvfFpabk3CnzmXKdYe3w&utm_campaign=yelp_api_v3&utm_medium=api_v3_business_search&utm_source=gBcvfFpabk3CnzmXKdYe3w", "name": "China House", "location": {"display_address": ["331 Hanover St", "Boston, MA 02113"], "country": "US", "state": "MA", "address3": "", "address2": "", "address1": "331 Hanover St", "city": "Boston", "zip_code": "02113"}, "is_closed": false, "review_count": 52, "coordinates": {"latitude": 42.3642082214355, "longitude": -71.053840637207}, "id": "china-house-boston", "image_url": "https://s3-media2.fl.yelpcdn.com/bphoto/MAdElRDMIjP2FbLtDScuSA/o.jpg", "categories": [{"alias": "chinese", "title": "Chinese"}], "rating": 3.5}, {"transactions": [], "distance": 1339.948956385, "price": "$$", "display_phone": "(617) 315-7448", "phone": "+16173157448", "url": "https://www.yelp.com/biz/south-boston-yoga-boston?adjust_creative=gBcvfFpabk3CnzmXKdYe3w&utm_campaign=yelp_api_v3&utm_medium=api_v3_business_search&utm_source=gBcvfFpabk3CnzmXKdYe3w", "name": "South Boston Yoga", "location": {"display_address": ["36 W Broadway", "Boston, MA 02127"], "country": "US", "state": "MA", "address3": "", "address2": "", "address1": "36 W Broadway", "city": "Boston", "zip_code": "02127"}, "is_closed": false, "review_count": 92, "coordinates": {"latitude": 42.3425748995968, "longitude": -71.0565769672394}, "id": "south-boston-yoga-boston", "image_url": "https://s3-media3.fl.yelpcdn.com/bphoto/AQ-_9wLyog1gUQFTTZuK9A/o.jpg", "categories": [{"alias": "yoga", "title": "Yoga"}, {"alias": "massage", "title": "Massage"}, {"alias": "pilates", "title": "Pilates"}], "rating": 4.5}, {"transactions": [], "distance": 1421.32241714, "price": "$", "display_phone": "(617) 227-8952", "phone": "+16172278952", "url": "https://www.yelp.com/biz/the-hub-pub-boston-2?adjust_creative=gBcvfFpabk3CnzmXKdYe3w&utm_campaign=yelp_api_v3&utm_medium=api_v3_business_search&utm_source=gBcvfFpabk3CnzmXKdYe3w", "name": "The Hub Pub", "location": {"display_address": ["18 Province St", "Boston, MA 02108"], "country": "US", "state": "MA", "address3": "", "address2": "", "address1": "18 Province St", "city": "Boston", "zip_code": "02108"}, "is_closed": false, "review_count": 175, "coordinates": {"latitude": 42.3573133349419, "longitude": -71.059564948082}, "id": "the-hub-pub-boston-2", "image_url": "https://s3-media1.fl.yelpcdn.com/bphoto/1YCQyInIiKoW_a1ucrdmGQ/o.jpg", "categories": [{"alias": "pubs", "title": "Pubs"}], "rating": 3.0}, {"transactions": ["delivery", "pickup"], "distance": 2893.976825722, "price": "$$", "display_phone": "(617) 445-7799", "phone": "+16174457799", "url": "https://www.yelp.com/biz/crispy-dough-pizzeria-boston-2?adjust_creative=gBcvfFpabk3CnzmXKdYe3w&utm_campaign=yelp_api_v3&utm_medium=api_v3_business_search&utm_source=gBcvfFpabk3CnzmXKdYe3w", "name": "Crispy Dough Pizzeria", "location": {"display_address": ["1514 Tremont St", "Boston, MA 02120"], "country": "US", "state": "MA", "address3": "", "address2": "", "address1": "1514 Tremont St", "city": "Boston", "zip_code": "02120"}, "is_closed": false, "review_count": 71, "coordinates": {"latitude": 42.332418, "longitude": -71.099604}, "id": "crispy-dough-pizzeria-boston-2", "image_url": "https://s3-media4.fl.yelpcdn.com/bphoto/jcQ2LHR55kMGMAJIEn1nfw/o.jpg", "categories": [{"alias": "pizza", "title": "Pizza"}, {"alias": "halal", "title": "Halal"}, {"alias": "salad", "title": "Salad"}], "rating": 3.5}, {"transactions": [], "distance": 4938.3346243099995, "price": "$$", "display_phone": "(617) 506-6294", "phone": "+16175066294", "url": "https://www.yelp.com/biz/pho-le-boston?adjust_creative=gBcvfFpabk3CnzmXKdYe3w&utm_campaign=yelp_api_v3&utm_medium=api_v3_business_search&utm_source=gBcvfFpabk3CnzmXKdYe3w", "name": "Pho Le", "location": {"display_address": ["1356 Dorchester Ave", "Boston, MA 02122"], "country": "US", "state": "MA", "address3": "", "address2": "", "address1": "1356 Dorchester Ave", "city": "Boston", "zip_code": "02122"}, "is_closed": false, "review_count": 154, "coordinates": {"latitude": 42.3043608, "longitude": -71.0590262}, "id": "pho-le-boston", "image_url": "https://s3-media4.fl.yelpcdn.com/bphoto/qqidKbGk3fWCTN5J6Qwb-Q/o.jpg", "categories": [{"alias": "vietnamese", "title": "Vietnamese"}], "rating": 3.5}, {"transactions": [], "distance": 1246.491283438, "price": "$", "display_phone": "(617) 204-1085", "phone": "+16172041085", "url": "https://www.yelp.com/biz/pret-a-manger-boston-5?adjust_creative=gBcvfFpabk3CnzmXKdYe3w&utm_campaign=yelp_api_v3&utm_medium=api_v3_business_search&utm_source=gBcvfFpabk3CnzmXKdYe3w", "name": "Pret a Manger", "location": {"display_address": ["101 Arch St", "Boston, MA 02110"], "country": "US", "state": "MA", "address3": "", "address2": null, "address1": "101 Arch St", "city": "Boston", "zip_code": "02110"}, "is_closed": false, "review_count": 52, "coordinates": {"latitude": 42.3549885, "longitude": -71.0595567136307}, "id": "pret-a-manger-boston-5", "image_url": "https://s3-media2.fl.yelpcdn.com/bphoto/nUOz0svSzXCo71gyU8yprA/o.jpg", "categories": [{"alias": "coffee", "title": "Coffee & Tea"}, {"alias": "breakfast_brunch", "title": "Breakfast & Brunch"}, {"alias": "sandwiches", "title": "Sandwiches"}], "rating": 3.5}, {"transactions": [], "distance": 2502.4565905219997, "price": "$$", "display_phone": "(617) 536-7280", "phone": "+16175367280", "url": "https://www.yelp.com/biz/total-skin-care-boston-3?adjust_creative=gBcvfFpabk3CnzmXKdYe3w&utm_campaign=yelp_api_v3&utm_medium=api_v3_business_search&utm_source=gBcvfFpabk3CnzmXKdYe3w", "name": "Total Skin Care", "location": {"display_address": ["627 Commonwealth Ave", "Boston, MA 02215"], "country": "US", "state": "MA", "address3": "", "address2": "", "address1": "627 Commonwealth Ave", "city": "Boston", "zip_code": "02215"}, "is_closed": false, "review_count": 51, "coordinates": {"latitude": 42.3498116, "longitude": -71.1015778}, "id": "total-skin-care-boston-3", "image_url": "https://s3-media1.fl.yelpcdn.com/bphoto/PlHURTghTVHSp5BTrTVD-A/o.jpg", "categories": [{"alias": "skincare", "title": "Skin Care"}, {"alias": "medicalspa", "title": "Medical Spas"}, {"alias": "waxing", "title": "Waxing"}], "rating": 5.0}, {"transactions": [], "distance": 4128.8271092039995, "price": "$$", "display_phone": "", "phone": "", "url": "https://www.yelp.com/biz/sam-adams-boston?adjust_creative=gBcvfFpabk3CnzmXKdYe3w&utm_campaign=yelp_api_v3&utm_medium=api_v3_business_search&utm_source=gBcvfFpabk3CnzmXKdYe3w", "name": "Sam Adams", "location": {"display_address": ["Boston Logan International Airport", "1 Harborside Dr, Ste 200 S", "Boston, MA 02128"], "country": "US", "state": "MA", "address3": "1 Harborside Dr, Ste 200 S", "address2": "", "address1": "Boston Logan International Airport", "city": "Boston", "zip_code": "02128"}, "is_closed": false, "review_count": 12, "coordinates": {"latitude": 42.363214962034, "longitude": -71.025507859156}, "id": "sam-adams-boston", "image_url": "https://s3-media3.fl.yelpcdn.com/bphoto/R0gGJkwqhI0hGfQmMZ5PFQ/o.jpg", "categories": [{"alias": "tradamerican", "title": "American (Traditional)"}, {"alias": "breweries", "title": "Breweries"}], "rating": 4.5}, {"transactions": [], "distance": 586.2416203904, "price": "$$$", "display_phone": "(800) 457-4901", "phone": "+18004574901", "url": "https://www.yelp.com/biz/winston-flowers-back-bay-boston-3?adjust_creative=gBcvfFpabk3CnzmXKdYe3w&utm_campaign=yelp_api_v3&utm_medium=api_v3_business_search&utm_source=gBcvfFpabk3CnzmXKdYe3w", "name": "Winston Flowers - Back Bay", "location": {"display_address": ["131 Newbury St", "Boston, MA 02116"], "country": "US", "state": "MA", "address3": "", "address2": "", "address1": "131 Newbury St", "city": "Boston", "zip_code": "02116"}, "is_closed": false, "review_count": 111, "coordinates": {"latitude": 42.3512019217015, "longitude": -71.0767464828033}, "id": "winston-flowers-back-bay-boston-3", "image_url": "https://s3-media2.fl.yelpcdn.com/bphoto/kazCXLgKwsF63lSD4Fzrvw/o.jpg", "categories": [{"alias": "florists", "title": "Florists"}, {"alias": "homedecor", "title": "Home Decor"}], "rating": 4.5}, {"transactions": [], "distance": 1448.6852848636, "price": "$$", "display_phone": "(617) 742-7080", "phone": "+16177427080", "url": "https://www.yelp.com/biz/bouvier-jewelers-boston?adjust_creative=gBcvfFpabk3CnzmXKdYe3w&utm_campaign=yelp_api_v3&utm_medium=api_v3_business_search&utm_source=gBcvfFpabk3CnzmXKdYe3w", "name": "Bouvier Jewelers", "location": {"display_address": ["333 Washington St", "Ste 218", "Boston, MA 02108"], "country": "US", "state": "MA", "address3": "", "address2": "Ste 218", "address1": "333 Washington St", "city": "Boston", "zip_code": "02108"}, "is_closed": false, "review_count": 50, "coordinates": {"latitude": 42.35689, "longitude": -71.05909}, "id": "bouvier-jewelers-boston", "image_url": "https://s3-media2.fl.yelpcdn.com/bphoto/JaepSYuyT3SLBKSmuXU6Hw/o.jpg", "categories": [{"alias": "jewelry", "title": "Jewelry"}], "rating": 5.0}, {"transactions": [], "distance": 690.531744784, "price": "$$$", "display_phone": "(617) 426-2640", "phone": "+16174262640", "url": "https://www.yelp.com/biz/kent-newton-salon-boston?adjust_creative=gBcvfFpabk3CnzmXKdYe3w&utm_campaign=yelp_api_v3&utm_medium=api_v3_business_search&utm_source=gBcvfFpabk3CnzmXKdYe3w", "name": "Kent Newton Salon", "location": {"display_address": ["1315 Washington St", "Boston, MA 02118"], "country": "US", "state": "MA", "address3": "", "address2": "", "address1": "1315 Washington St", "city": "Boston", "zip_code": "02118"}, "is_closed": false, "review_count": 63, "coordinates": {"latitude": 42.3419451, "longitude": -71.0685849}, "id": "kent-newton-salon-boston", "image_url": "https://s3-media3.fl.yelpcdn.com/bphoto/eaN4ACtt49qUQVmpWuCiTg/o.jpg", "categories": [{"alias": "hair", "title": "Hair Salons"}], "rating": 5.0}, {"transactions": [], "distance": 524.1526555478, "price": "$$", "display_phone": "(617) 778-6993", "phone": "+16177786993", "url": "https://www.yelp.com/biz/globe-bar-and-cafe-boston?adjust_creative=gBcvfFpabk3CnzmXKdYe3w&utm_campaign=yelp_api_v3&utm_medium=api_v3_business_search&utm_source=gBcvfFpabk3CnzmXKdYe3w", "name": "Globe Bar and Cafe", "location": {"display_address": ["565 Boylston St", "Boston, MA 02116"], "country": "US", "state": "MA", "address3": "", "address2": null, "address1": "565 Boylston St", "city": "Boston", "zip_code": "02116"}, "is_closed": false, "review_count": 292, "coordinates": {"latitude": 42.3506393432617, "longitude": -71.0763473510742}, "id": "globe-bar-and-cafe-boston", "image_url": "https://s3-media2.fl.yelpcdn.com/bphoto/vrD-hFDl-9tQWFVWRJikjQ/o.jpg", "categories": [{"alias": "newamerican", "title": "American (New)"}, {"alias": "tradamerican", "title": "American (Traditional)"}], "rating": 3.0}], "total": 24838}