{"total": 24836, "region": {"center": {"longitude": -71.07124328613281, "latitude": 42.34784169448538}}, "businesses": [{"rating": 4.0, "is_closed": false, "distance": 670.4518003897999, "name": "J.J. Foley's Cafe", "id": "j-j-foleys-cafe-boston-5", "image_url": "https://s3-media4.fl.yelpcdn.com/bphoto/CxwCM79084NpEuqI484zRA/o.jpg", "url": "https://www.yelp.com/biz/j-j-foleys-cafe-boston-5?adjust_creative=gBcvfFpabk3CnzmXKdYe3w&utm_campaign=yelp_api_v3&utm_medium=api_v3_business_search&utm_source=gBcvfFpabk3CnzmXKdYe3w", "phone": "+16177289101", "coordinates": {"longitude": -71.0653314573811, "latitude": 42.3436886733629}, "categories": [{"alias": "irish", "title": "Irish"}, {"alias": "irish_pubs", "title": "Irish Pub"}, {"alias": "breakfast_brunch", "title": "Breakfast & Brunch"}], "review_count": 179, "location": {"city": "Boston", "address1": "117 E Berkeley St", "address3": "", "address2": null, "zip_code": "02118", "country": "US", "display_address": ["117 E Berkeley St", "Boston, MA 02118"], "state": "MA"}, "price": "$$", "transactions": ["pickup"], "display_phone": "(617) 728-9101"}, {"rating": 4.5, "is_closed": false, "distance": 3630.5551675199995, "name": "Italian Express Pizzeria", "id": "italian-express-pizzeria-boston-2", "image_url": "https://s3-media1.fl.yelpcdn.com/bphoto/ZP4B7Noz9a8R0xvSSAbySA/o.jpg", "url": "https://www.yelp.com/biz/italian-express-pizzeria-boston-2?adjust_creative=gBcvfFpabk3CnzmXKdYe3w&utm_campaign=yelp_api_v3&utm_medium=api_v3_business_search&utm_source=gBcvfFpabk3CnzmXKdYe3w", "phone": "+16175610038", "coordinates": {"longitude": -71.035738156977, "latitude": 42.367273879279}, "categories": [{"alias": "italian", "title": "Italian"}, {"alias": "pizza", "title": "Pizza"}], "review_count": 283, "location": {"city": "Boston", "address1": "336 Sumner St", "address3": "", "address2": "", "zip_code": "02128", "country": "US", "display_address": ["336 Sumner St", "Boston, MA 02128"], "state": "MA"}, "price": "$$", "transactions": [], "display_phone": "(617) 561-0038"}, {"rating": 4.0, "is_closed": false, "distance": 1054.936532192, "name": "The Paramount", "id": "the-paramount-boston", "image_url": "https://s3-media1.fl.yelpcdn.com/bphoto/sG3L8ZZyEqMvMoRrarwtPA/o.jpg", "url": "https://www.yelp.com/biz/the-paramount-boston?adjust_creative=gBcvfFpabk3CnzmXKdYe3w&utm_campaign=yelp_api_v3&utm_medium=api_v3_business_search&utm_source=gBcvfFpabk3CnzmXKdYe3w", "phone": "+16177201152", "coordinates": {"longitude": -71.070088, "latitude": 42.357291}, "categories": [{"alias": "breakfast_brunch", "title": "Breakfast & Brunch"}, {"alias": "newamerican", "title": "American (New)"}, {"alias": "sandwiches", "title": "Sandwiches"}], "review_count": 1155, "location": {"city": "Boston", "address1": "44 Charles St", "address3": "", "address2": "", "zip_code": "02114", "country": "US", "display_address": ["44 Charles St", "Boston, MA 02114"], "state": "MA"}, "price": "$$", "transactions": [], "display_phone": "(617) 720-1152"}, {"rating": 4.0, "is_closed": false, "distance": 2275.70010172, "name": "Equal Exchange Cafe", "id": "equal-exchange-cafe-boston-3", "image_url": "https://s3-media1.fl.yelpcdn.com/bphoto/3PQBirJV16PpLyn5gVrCqg/o.jpg", "url": "https://www.yelp.com/biz/equal-exchange-cafe-boston-3?adjust_creative=gBcvfFpabk3CnzmXKdYe3w&utm_campaign=yelp_api_v3&utm_medium=api_v3_business_search&utm_source=gBcvfFpabk3CnzmXKdYe3w", "phone": "+16173728777", "coordinates": {"longitude": -71.0596208607181, "latitude": 42.3664193831436}, "categories": [{"alias": "coffee", "title": "Coffee & Tea"}, {"alias": "sandwiches", "title": "Sandwiches"}], "review_count": 173, "location": {"city": "Boston", "address1": "226 Causeway St", "address3": "", "address2": "", "zip_code": "02114", "country": "US", "display_address": ["226 Causeway St", "Boston, MA 02114"], "state": "MA"}, "price": "$", "transactions": [], "display_phone": "(617) 372-8777"}, {"rating": 4.0, "is_closed": false, "distance": 1020.9426043059999, "name": "Five Horses Tavern", "id": "five-horses-tavern-boston-2", "image_url": "https://s3-media4.fl.yelpcdn.com/bphoto/b7d-CjWXvn6nxJzeln7zZA/o.jpg", "url": "https://www.yelp.com/biz/five-horses-tavern-boston-2?adjust_creative=gBcvfFpabk3CnzmXKdYe3w&utm_campaign=yelp_api_v3&utm_medium=api_v3_business_search&utm_source=gBcvfFpabk3CnzmXKdYe3w", "phone": "+16179363930", "coordinates": {"longitude": -71.0805253552637, "latitude": 42.3417445441842}, "categories": [{"alias": "bars", "title": "Bars"}, {"alias": "tradamerican", "title": "American (Traditional)"}, {"alias": "breakfast_brunch", "title": "Breakfast & Brunch"}], "review_count": 251, "location": {"city": "Boston", "address1": "535 Columbus Ave", "address3": "", "address2": "", "zip_code": "02118", "country": "US", "display_address": ["535 Columbus Ave", "Boston, MA 02118"], "state": "MA"}, "price": "$$", "transactions": [], "display_phone": "(617) 936-3930"}, {"rating": 4.5, "is_closed": false, "distance": 1393.7315703119998, "name": "Oath Craft Pizza", "id": "oath-craft-pizza-boston", "image_url": "https://s3-media1.fl.yelpcdn.com/bphoto/o59hLJVFuIcOGxwyzgBJ1A/o.jpg", "url": "https://www.yelp.com/biz/oath-craft-pizza-boston?adjust_creative=gBcvfFpabk3CnzmXKdYe3w&utm_campaign=yelp_api_v3&utm_medium=api_v3_business_search&utm_source=gBcvfFpabk3CnzmXKdYe3w", "phone": "+18573056222", "coordinates": {"longitude": -71.0561760794073, "latitude": 42.3510954711486}, "categories": [{"alias": "pizza", "title": "Pizza"}, {"alias": "salad", "title": "Salad"}, {"alias": "bakeries", "title": "Bakeries"}], "review_count": 70, "location": {"city": "Boston", "address1": "700 Atlantic Ave", "address3": "", "address2": "", "zip_code": "02111", "country": "US", "display_address": ["700 Atlantic Ave", "Boston, MA 02111"], "state": "MA"}, "price": "$", "transactions": [], "display_phone": "(857) 305-6222"}, {"rating": 4.0, "is_closed": false, "distance": 1118.6066896779998, "name": "Roxy's Gourmet Grilled Cheese", "id": "roxys-gourmet-grilled-cheese-boston-2", "image_url": "https://s3-media1.fl.yelpcdn.com/bphoto/kyO84ajIjt1I3rlZkBbMeA/o.jpg", "url": "https://www.yelp.com/biz/roxys-gourmet-grilled-cheese-boston-2?adjust_creative=gBcvfFpabk3CnzmXKdYe3w&utm_campaign=yelp_api_v3&utm_medium=api_v3_business_search&utm_source=gBcvfFpabk3CnzmXKdYe3w", "phone": "+16172025864", "coordinates": {"longitude": -71.0746994018555, "latitude": 42.3396186828613}, "categories": [{"alias": "sandwiches", "title": "Sandwiches"}, {"alias": "foodtrucks", "title": "Food Trucks"}], "review_count": 259, "location": {"city": "Boston", "address1": "", "address3": "", "address2": "", "zip_code": "02118", "country": "US", "display_address": ["Boston, MA 02118"], "state": "MA"}, "price": "$", "transactions": [], "display_phone": "(617) 202-5864"}, {"rating": 4.0, "is_closed": false, "distance": 990.744948546, "name": "Beantown Pho & Grill", "id": "beantown-pho-and-grill-boston-2", "image_url": "https://s3-media3.fl.yelpcdn.com/bphoto/DVCjvLcOkl8yfWOYRBUi7g/o.jpg", "url": "https://www.yelp.com/biz/beantown-pho-and-grill-boston-2?adjust_creative=gBcvfFpabk3CnzmXKdYe3w&utm_campaign=yelp_api_v3&utm_medium=api_v3_business_search&utm_source=gBcvfFpabk3CnzmXKdYe3w", "phone": "+18572638440", "coordinates": {"longitude": -71.0835298150778, "latitude": 42.3492707312107}, "categories": [{"alias": "vietnamese", "title": "Vietnamese"}, {"alias": "thai", "title": "Thai"}, {"alias": "asianfusion", "title": "Asian Fusion"}], "review_count": 218, "location": {"city": "Boston", "address1": "272 Newbury St", "address3": "", "address2": "", "zip_code": "02116", "country": "US", "display_address": ["272 Newbury St", "Boston, MA 02116"], "state": "MA"}, "price": "$$", "transactions": ["delivery", "pickup"], "display_phone": "(857) 263-8440"}, {"rating": 4.0, "is_closed": false, "distance": 1071.7865955798, "name": "Newbury Street", "id": "newbury-street-boston", "image_url": "https://s3-media1.fl.yelpcdn.com/bphoto/82Nu0Iwqmb3o_sHplRwCGQ/o.jpg", "url": "https://www.yelp.com/biz/newbury-street-boston?adjust_creative=gBcvfFpabk3CnzmXKdYe3w&utm_campaign=yelp_api_v3&utm_medium=api_v3_business_search&utm_source=gBcvfFpabk3CnzmXKdYe3w", "phone": "", "coordinates": {"longitude": -71.0841545358009, "latitude": 42.3492157403417}, "categories": [{"alias": "landmarks", "title": "Landmarks & Historical Buildings"}], "review_count": 77, "location": {"city": "Boston", "address1": "10 Newbury St", "address3": "", "address2": "", "zip_code": "02228", "country": "US", "display_address": ["10 Newbury St", "Boston, MA 02228"], "state": "MA"}, "transactions": [], "display_phone": ""}, {"rating": 4.0, "is_closed": false, "distance": 2417.17798579, "name": "Prezza", "id": "prezza-boston-2", "image_url": "https://s3-media4.fl.yelpcdn.com/bphoto/xym03KktvhsUdm6I87I9dQ/o.jpg", "url": "https://www.yelp.com/biz/prezza-boston-2?adjust_creative=gBcvfFpabk3CnzmXKdYe3w&utm_campaign=yelp_api_v3&utm_medium=api_v3_business_search&utm_source=gBcvfFpabk3CnzmXKdYe3w", "phone": "+16172271577", "coordinates": {"longitude": -71.0527, "latitude": 42.36473}, "categories": [{"alias": "italian", "title": "Italian"}], "review_count": 274, "location": {"city": "Boston", "address1": "24 Fleet St", "address3": "", "address2": "", "zip_code": "02113", "country": "US", "display_address": ["24 Fleet St", "Boston, MA 02113"], "state": "MA"}, "price": "$$$", "transactions": [], "display_phone": "(617) 227-1577"}, {"rating": 4.0, "is_closed": false, "distance": 884.8850256362, "name": "Stella", "id": "stella-boston", "image_url": "https://s3-media3.fl.yelpcdn.com/bphoto/CWSANGC-qaTOyPdEV57wpA/o.jpg", "url": "https://www.yelp.com/biz/stella-boston?adjust_creative=gBcvfFpabk3CnzmXKdYe3w&utm_campaign=yelp_api_v3&utm_medium=api_v3_business_search&utm_source=gBcvfFpabk3CnzmXKdYe3w", "phone": "+16172477747", "coordinates": {"longitude": -71.0725, "latitude": 42.33994}, "categories": [{"alias": "italian", "title": "Italian"}, {"alias": "wine_bars", "title": "Wine Bars"}, {"alias": "vegetarian", "title": "Vegetarian"}], "review_count": 697, "location": {"city": "Boston", "address1": "1525 Washington St", "address3": "", "address2": "", "zip_code": "02118", "country": "US", "display_address": ["1525 Washington St", "Boston, MA 02118"], "state": "MA"}, "price": "$$$", "transactions": [], "display_phone": "(617) 247-7747"}, {"rating": 4.5, "is_closed": false, "distance": 1734.4668287359998, "name": "Sabroso Taqueria", "id": "sabroso-taqueria-boston-4", "image_url": "https://s3-media4.fl.yelpcdn.com/bphoto/JFJdicvJl4ZryIqCKoFFnA/o.jpg", "url": "https://www.yelp.com/biz/sabroso-taqueria-boston-4?adjust_creative=gBcvfFpabk3CnzmXKdYe3w&utm_campaign=yelp_api_v3&utm_medium=api_v3_business_search&utm_source=gBcvfFpabk3CnzmXKdYe3w", "phone": "+18579911015", "coordinates": {"longitude": -71.0546494, "latitude": 42.3573494}, "categories": [{"alias": "mexican", "title": "Mexican"}], "review_count": 65, "location": {"city": "Boston", "address1": "2 Oliver St", "address3": "", "address2": "", "zip_code": "02109", "country": "US", "display_address": ["2 Oliver St", "Boston, MA 02109"], "state": "MA"}, "price": "$", "transactions": [], "display_phone": "(857) 991-1015"}, {"rating": 4.0, "is_closed": false, "distance": 2093.197244238, "name": "Bleacher Bar", "id": "bleacher-bar-boston", "image_url": "https://s3-media1.fl.yelpcdn.com/bphoto/Tmg_ECZVm-0Oky8s6iDEfA/o.jpg", "url": "https://www.yelp.com/biz/bleacher-bar-boston?adjust_creative=gBcvfFpabk3CnzmXKdYe3w&utm_campaign=yelp_api_v3&utm_medium=api_v3_business_search&utm_source=gBcvfFpabk3CnzmXKdYe3w", "phone": "+16172622424", "coordinates": {"longitude": -71.096686816461, "latitude": 42.3469855442944}, "categories": [{"alias": "sportsbars", "title": "Sports Bars"}], "review_count": 342, "location": {"city": "Boston", "address1": "82 Lansdowne St", "address3": "Fenway Park", "address2": "", "zip_code": "02228", "country": "US", "display_address": ["82 Lansdowne St", "Fenway Park", "Boston, MA 02228"], "state": "MA"}, "price": "$$", "transactions": [], "display_phone": "(617) 262-2424"}, {"rating": 4.0, "is_closed": false, "distance": 787.6257697412, "name": "Irashai Sushi and Teriyaki", "id": "irashai-sushi-and-teriyaki-boston", "image_url": "https://s3-media3.fl.yelpcdn.com/bphoto/biJpEmbXQyEoWeyKhtanQw/o.jpg", "url": "https://www.yelp.com/biz/irashai-sushi-and-teriyaki-boston?adjust_creative=gBcvfFpabk3CnzmXKdYe3w&utm_campaign=yelp_api_v3&utm_medium=api_v3_business_search&utm_source=gBcvfFpabk3CnzmXKdYe3w", "phone": "+16173506888", "coordinates": {"longitude": -71.0625458, "latitude": 42.3509865}, "categories": [{"alias": "japanese", "title": "Japanese"}, {"alias": "sushi", "title": "Sushi Bars"}], "review_count": 312, "location": {"city": "Boston", "address1": "8 Kneeland St", "address3": "", "address2": "", "zip_code": "02111", "country": "US", "display_address": ["8 Kneeland St", "Boston, MA 02111"], "state": "MA"}, "price": "$$", "transactions": ["delivery", "pickup"], "display_phone": "(617) 350-6888"}, {"rating": 4.0, "is_closed": false, "distance": 806.4375864022, "name": "Teatro", "id": "teatro-boston", "image_url": "https://s3-media1.fl.yelpcdn.com/bphoto/otjPQL626Lysub9emueiwA/o.jpg", "url": "https://www.yelp.com/biz/teatro-boston?adjust_creative=gBcvfFpabk3CnzmXKdYe3w&utm_campaign=yelp_api_v3&utm_medium=api_v3_business_search&utm_source=gBcvfFpabk3CnzmXKdYe3w", "phone": "+16177786841", "coordinates": {"longitude": -71.064342, "latitude": 42.352997}, "categories": [{"alias": "italian", "title": "Italian"}], "review_count": 476, "location": {"city": "Boston", "address1": "177 Tremont St", "address3": "", "address2": "", "zip_code": "02111", "country": "US", "display_address": ["177 Tremont St", "Boston, MA 02111"], "state": "MA"}, "price": "$$$", "transactions": [], "display_phone": "(617) 778-6841"}, {"rating": 4.0, "is_closed": false, "distance": 1939.1228950539999, "name": "Meritage Restaurant", "id": "meritage-restaurant-boston-2", "image_url": "https://s3-media1.fl.yelpcdn.com/bphoto/BQjnAknZxyGtfwud-OER7A/o.jpg", "url": "https://www.yelp.com/biz/meritage-restaurant-boston-2?adjust_creative=gBcvfFpabk3CnzmXKdYe3w&utm_campaign=yelp_api_v3&utm_medium=api_v3_business_search&utm_source=gBcvfFpabk3CnzmXKdYe3w", "phone": "+16174393995", "coordinates": {"longitude": -71.0505545, "latitude": 42.3562283}, "categories": [{"alias": "newamerican", "title": "American (New)"}, {"alias": "seafood", "title": "Seafood"}, {"alias": "wine_bars", "title": "Wine Bars"}], "review_count": 281, "location": {"city": "Boston", "address1": "70 Rowes Wharf", "address3": "", "address2": "", "zip_code": "02110", "country": "US", "display_address": ["70 Rowes Wharf", "Boston, MA 02110"], "state": "MA"}, "price": "$$$$", "transactions": [], "display_phone": "(617) 439-3995"}, {"rating": 4.0, "is_closed": false, "distance": 2241.2111408499995, "name": "Limoncello Ristorante", "id": "limoncello-ristorante-boston-2", "image_url": "https://s3-media2.fl.yelpcdn.com/bphoto/cYxXeSHPRWKJkhegfnw_1Q/o.jpg", "url": "https://www.yelp.com/biz/limoncello-ristorante-boston-2?adjust_creative=gBcvfFpabk3CnzmXKdYe3w&utm_campaign=yelp_api_v3&utm_medium=api_v3_business_search&utm_source=gBcvfFpabk3CnzmXKdYe3w", "phone": "+16175234480", "coordinates": {"longitude": -71.0539465, "latitude": 42.3634326}, "categories": [{"alias": "italian", "title": "Italian"}, {"alias": "wine_bars", "title": "Wine Bars"}], "review_count": 429, "location": {"city": "Boston", "address1": "190 North St", "address3": "", "address2": "", "zip_code": "02113", "country": "US", "display_address": ["190 North St", "Boston, MA 02113"], "state": "MA"}, "price": "$$", "transactions": [], "display_phone": "(617) 523-4480"}, {"rating": 4.0, "is_closed": false, "distance": 1550.888610266, "name": "Boston Shawarma", "id": "boston-shawarma-boston-2", "image_url": "https://s3-media2.fl.yelpcdn.com/bphoto/PbLGnEXFMCnxmCZuJw6tgA/o.jpg", "url": "https://www.yelp.com/biz/boston-shawarma-boston-2?adjust_creative=gBcvfFpabk3CnzmXKdYe3w&utm_campaign=yelp_api_v3&utm_medium=api_v3_business_search&utm_source=gBcvfFpabk3CnzmXKdYe3w", "phone": "+16176700460", "coordinates": {"longitude": -71.08766, "latitude": 42.34118}, "categories": [{"alias": "mediterranean", "title": "Mediterranean"}], "review_count": 285, "location": {"city": "Boston", "address1": "315 Huntington Ave", "address3": "", "address2": null, "zip_code": "02115", "country": "US", "display_address": ["315 Huntington Ave", "Boston, MA 02115"], "state": "MA"}, "price": "$", "transactions": ["delivery", "pickup"], "display_phone": "(617) 670-0460"}, {"rating": 4.0, "is_closed": false, "distance": 454.2061686222, "name": "The Butcher Shop", "id": "the-butcher-shop-boston", "image_url": "https://s3-media2.fl.yelpcdn.com/bphoto/XvBOhZLjCfnjvRTjRCqI5Q/o.jpg", "url": "https://www.yelp.com/biz/the-butcher-shop-boston?adjust_creative=gBcvfFpabk3CnzmXKdYe3w&utm_campaign=yelp_api_v3&utm_medium=api_v3_business_search&utm_source=gBcvfFpabk3CnzmXKdYe3w", "phone": "+16174234800", "coordinates": {"longitude": -71.071454, "latitude": 42.34376}, "categories": [{"alias": "steak", "title": "Steakhouses"}, {"alias": "butcher", "title": "Butcher"}, {"alias": "modern_european", "title": "Modern European"}], "review_count": 442, "location": {"city": "Boston", "address1": "552 Tremont St", "address3": "", "address2": "", "zip_code": "02118", "country": "US", "display_address": ["552 Tremont St", "Boston, MA 02118"], "state": "MA"}, "price": "$$$", "transactions": [], "display_phone": "(617) 423-4800"}, {"rating": 4.5, "is_closed": false, "distance": 1583.5185581284, "name": "Rondo's Sub Shop", "id": "rondos-sub-shop-boston", "image_url": "https://s3-media2.fl.yelpcdn.com/bphoto/YZ6iUllMSunvzyegaNPQaA/o.jpg", "url": "https://www.yelp.com/biz/rondos-sub-shop-boston?adjust_creative=gBcvfFpabk3CnzmXKdYe3w&utm_campaign=yelp_api_v3&utm_medium=api_v3_business_search&utm_source=gBcvfFpabk3CnzmXKdYe3w", "phone": "+16172690274", "coordinates": {"longitude": -71.0542193055153, "latitude": 42.3410537838936}, "categories": [{"alias": "sandwiches", "title": "Sandwiches"}, {"alias": "cheesesteaks", "title": "Cheesesteaks"}, {"alias": "burgers", "title": "Burgers"}], "review_count": 65, "location": {"city": "Boston", "address1": "134 W Broadway", "address3": "", "address2": "", "zip_code": "02127", "country": "US", "display_address": ["134 W Broadway", "Boston, MA 02127"], "state": "MA"}, "price": "$", "transactions": [], "display_phone": "(617) 269-0274"}, {"rating": 4.0, "is_closed": false, "distance": 2524.73500601, "name": "PS Gourmet Coffee", "id": "ps-gourmet-coffee-boston-3", "image_url": "https://s3-media1.fl.yelpcdn.com/bphoto/pMDuDrQ6sVRKmKznmxAaYA/o.jpg", "url": "https://www.yelp.com/biz/ps-gourmet-coffee-boston-3?adjust_creative=gBcvfFpabk3CnzmXKdYe3w&utm_campaign=yelp_api_v3&utm_medium=api_v3_business_search&utm_source=gBcvfFpabk3CnzmXKdYe3w", "phone": "+16172694020", "coordinates": {"longitude": -71.0457916259766, "latitude": 42.335147857666}, "categories": [{"alias": "coffee", "title": "Coffee & Tea"}, {"alias": "delis", "title": "Delis"}, {"alias": "sandwiches", "title": "Sandwiches"}], "review_count": 86, "location": {"city": "Boston", "address1": "106 Dorchester St", "address3": "", "address2": "", "zip_code": "02127", "country": "US", "display_address": ["106 Dorchester St", "Boston, MA 02127"], "state": "MA"}, "price": "$", "transactions": [], "display_phone": "(617) 269-4020"}, {"rating": 4.0, "is_closed": false, "distance": 1126.927943082, "name": "Cafe 26", "id": "cafe-26-boston-2", "image_url": "https://s3-media3.fl.yelpcdn.com/bphoto/wS5MydeTWfVDuSPNFLXTiQ/o.jpg", "url": "https://www.yelp.com/biz/cafe-26-boston-2?adjust_creative=gBcvfFpabk3CnzmXKdYe3w&utm_campaign=yelp_api_v3&utm_medium=api_v3_business_search&utm_source=gBcvfFpabk3CnzmXKdYe3w", "phone": "+16172922626", "coordinates": {"longitude": -71.0620498657227, "latitude": 42.3554000854492}, "categories": [{"alias": "cafes", "title": "Cafes"}], "review_count": 96, "location": {"city": "Boston", "address1": "26 Temple Pl", "address3": "", "address2": "", "zip_code": "02111", "country": "US", "display_address": ["26 Temple Pl", "Boston, MA 02111"], "state": "MA"}, "price": "$", "transactions": [], "display_phone": "(617) 292-2626"}, {"rating": 4.0, "is_closed": false, "distance": 1399.9033892119999, "name": "Mooo Restaurant", "id": "mooo-restaurant-boston", "image_url": "https://s3-media2.fl.yelpcdn.com/bphoto/8D-wH7Rxk9VKHvzdYIblzQ/o.jpg", "url": "https://www.yelp.com/biz/mooo-restaurant-boston?adjust_creative=gBcvfFpabk3CnzmXKdYe3w&utm_campaign=yelp_api_v3&utm_medium=api_v3_business_search&utm_source=gBcvfFpabk3CnzmXKdYe3w", "phone": "+16176702515", "coordinates": {"longitude": -71.06197, "latitude": 42.3584}, "categories": [{"alias": "steak", "title": "Steakhouses"}, {"alias": "wine_bars", "title": "Wine Bars"}, {"alias": "breakfast_brunch", "title": "Breakfast & Brunch"}], "review_count": 649, "location": {"city": "Boston", "address1": "15 Beacon St", "address3": "", "address2": "", "zip_code": "02108", "country": "US", "display_address": ["15 Beacon St", "Boston, MA 02108"], "state": "MA"}, "price": "$$$$", "transactions": [], "display_phone": "(617) 670-2515"}, {"rating": 4.0, "is_closed": false, "distance": 1962.456715714, "name": "Red's Best Seafood at the Boston Public Market", "id": "reds-best-seafood-at-the-boston-public-market-boston", "image_url": "https://s3-media4.fl.yelpcdn.com/bphoto/hhmhWl4DOAeqTlIv0n7Z0w/o.jpg", "url": "https://www.yelp.com/biz/reds-best-seafood-at-the-boston-public-market-boston?adjust_creative=gBcvfFpabk3CnzmXKdYe3w&utm_campaign=yelp_api_v3&utm_medium=api_v3_business_search&utm_source=gBcvfFpabk3CnzmXKdYe3w", "phone": "+16178301672", "coordinates": {"longitude": -71.0568845, "latitude": 42.3619445}, "categories": [{"alias": "farmersmarket", "title": "Farmers Market"}, {"alias": "seafood", "title": "Seafood"}, {"alias": "seafoodmarkets", "title": "Seafood Markets"}], "review_count": 50, "location": {"city": "Boston", "address1": "100 Hanover St", "address3": "", "address2": "", "zip_code": "02108", "country": "US", "display_address": ["100 Hanover St", "Boston, MA 02108"], "state": "MA"}, "price": "$$", "transactions": [], "display_phone": "(617) 830-1672"}, {"rating": 4.0, "is_closed": false, "distance": 2493.489508976, "name": "Nico Ristorante", "id": "nico-ristorante-boston", "image_url": "https://s3-media2.fl.yelpcdn.com/bphoto/t-y3RPuSr8WldBLtfeMRgA/o.jpg", "url": "https://www.yelp.com/biz/nico-ristorante-boston?adjust_creative=gBcvfFpabk3CnzmXKdYe3w&utm_campaign=yelp_api_v3&utm_medium=api_v3_business_search&utm_source=gBcvfFpabk3CnzmXKdYe3w", "phone": "+16177420404", "coordinates": {"longitude": -71.0528222, "latitude": 42.3656649}, "categories": [{"alias": "italian", "title": "Italian"}, {"alias": "wine_bars", "title": "Wine Bars"}], "review_count": 394, "location": {"city": "Boston", "address1": "417 Hanover St", "address3": "", "address2": "", "zip_code": "02113", "country": "US", "display_address": ["417 Hanover St", "Boston, MA 02113"], "state": "MA"}, "price": "$$$", "transactions": [], "display_phone": "(617) 742-0404"}, {"rating": 4.0, "is_closed": false, "distance": 2209.3886954259997, "name": "Ward 8", "id": "ward-8-boston", "image_url": "https://s3-media2.fl.yelpcdn.com/bphoto/geSeN9h_kDkO2zNRoCNUgQ/o.jpg", "url": "https://www.yelp.com/biz/ward-8-boston?adjust_creative=gBcvfFpabk3CnzmXKdYe3w&utm_campaign=yelp_api_v3&utm_medium=api_v3_business_search&utm_source=gBcvfFpabk3CnzmXKdYe3w", "phone": "+16178234478", "coordinates": {"longitude": -71.0586472, "latitude": 42.3653984}, "categories": [{"alias": "cocktailbars", "title": "Cocktail Bars"}, {"alias": "newamerican", "title": "American (New)"}], "review_count": 301, "location": {"city": "Boston", "address1": "90 N Washington St", "address3": "", "address2": "", "zip_code": "02113", "country": "US", "display_address": ["90 N Washington St", "Boston, MA 02113"], "state": "MA"}, "price": "$$", "transactions": [], "display_phone": "(617) 823-4478"}, {"rating": 4.0, "is_closed": false, "distance": 1930.72117465, "name": "Caff\u00e8 Nero", "id": "caff\u00e8-nero-boston-20", "image_url": "https://s3-media3.fl.yelpcdn.com/bphoto/xE_j7dmIY4PUWa14pUGtTg/o.jpg", "url": "https://www.yelp.com/biz/caff%C3%A8-nero-boston-20?adjust_creative=gBcvfFpabk3CnzmXKdYe3w&utm_campaign=yelp_api_v3&utm_medium=api_v3_business_search&utm_source=gBcvfFpabk3CnzmXKdYe3w", "phone": "+18572335385", "coordinates": {"longitude": -71.04759, "latitude": 42.35064}, "categories": [{"alias": "cafes", "title": "Cafes"}, {"alias": "coffee", "title": "Coffee & Tea"}], "review_count": 52, "location": {"city": "Boston", "address1": "368 Congress St", "address3": "", "address2": "", "zip_code": "02210", "country": "US", "display_address": ["368 Congress St", "Boston, MA 02210"], "state": "MA"}, "price": "$", "transactions": [], "display_phone": "(857) 233-5385"}, {"rating": 4.0, "is_closed": false, "distance": 822.0255570818, "name": "My Thai Vegan Cafe", "id": "my-thai-vegan-cafe-boston-3", "image_url": "https://s3-media2.fl.yelpcdn.com/bphoto/uPmmRH49AMkLB0wR5OsNKQ/o.jpg", "url": "https://www.yelp.com/biz/my-thai-vegan-cafe-boston-3?adjust_creative=gBcvfFpabk3CnzmXKdYe3w&utm_campaign=yelp_api_v3&utm_medium=api_v3_business_search&utm_source=gBcvfFpabk3CnzmXKdYe3w", "phone": "+16174512395", "coordinates": {"longitude": -71.0625569522381, "latitude": 42.3514661192894}, "categories": [{"alias": "thai", "title": "Thai"}, {"alias": "vegan", "title": "Vegan"}], "review_count": 635, "location": {"city": "Boston", "address1": "3 Beach St", "address3": "", "address2": "Fl 2", "zip_code": "02111", "country": "US", "display_address": ["3 Beach St", "Fl 2", "Boston, MA 02111"], "state": "MA"}, "price": "$$", "transactions": [], "display_phone": "(617) 451-2395"}, {"rating": 4.0, "is_closed": false, "distance": 2279.2029911639997, "name": "Loco Taqueria and Oyster Bar", "id": "loco-taqueria-and-oyster-bar-boston", "image_url": "https://s3-media3.fl.yelpcdn.com/bphoto/FxdrTZ6PkHo-jzTkwPnr_w/o.jpg", "url": "https://www.yelp.com/biz/loco-taqueria-and-oyster-bar-boston?adjust_creative=gBcvfFpabk3CnzmXKdYe3w&utm_campaign=yelp_api_v3&utm_medium=api_v3_business_search&utm_source=gBcvfFpabk3CnzmXKdYe3w", "phone": "+16179175626", "coordinates": {"longitude": -71.0477377406966, "latitude": 42.3369670759542}, "categories": [{"alias": "cocktailbars", "title": "Cocktail Bars"}, {"alias": "seafood", "title": "Seafood"}, {"alias": "mexican", "title": "Mexican"}], "review_count": 315, "location": {"city": "Boston", "address1": "412 W Broadway", "address3": "", "address2": "", "zip_code": "02127", "country": "US", "display_address": ["412 W Broadway", "Boston, MA 02127"], "state": "MA"}, "price": "$$", "transactions": [], "display_phone": "(617) 917-5626"}, {"rating": 4.0, "is_closed": false, "distance": 2362.098968026, "name": "Rod Dee Thai 2", "id": "rod-dee-thai-2-boston", "image_url": "https://s3-media4.fl.yelpcdn.com/bphoto/YHsMJdyl2meriCuRqCWo2A/o.jpg", "url": "https://www.yelp.com/biz/rod-dee-thai-2-boston?adjust_creative=gBcvfFpabk3CnzmXKdYe3w&utm_campaign=yelp_api_v3&utm_medium=api_v3_business_search&utm_source=gBcvfFpabk3CnzmXKdYe3w", "phone": "+16178590969", "coordinates": {"longitude": -71.0992394306382, "latitude": 42.3430470265358}, "categories": [{"alias": "thai", "title": "Thai"}], "review_count": 260, "location": {"city": "Boston", "address1": "94 Peterborough St", "address3": "", "address2": "", "zip_code": "02215", "country": "US", "display_address": ["94 Peterborough St", "Boston, MA 02215"], "state": "MA"}, "price": "$", "transactions": [], "display_phone": "(617) 859-0969"}, {"rating": 4.5, "is_closed": false, "distance": 1530.926839708, "name": "Tous Les Jours", "id": "tous-les-jours-boston", "image_url": "https://s3-media2.fl.yelpcdn.com/bphoto/FheoMZjY3AVRvzTfV3Oe_g/o.jpg", "url": "https://www.yelp.com/biz/tous-les-jours-boston?adjust_creative=gBcvfFpabk3CnzmXKdYe3w&utm_campaign=yelp_api_v3&utm_medium=api_v3_business_search&utm_source=gBcvfFpabk3CnzmXKdYe3w", "phone": "+16179739788", "coordinates": {"longitude": -71.0597985814401, "latitude": 42.3587061906637}, "categories": [{"alias": "bakeries", "title": "Bakeries"}, {"alias": "coffee", "title": "Coffee & Tea"}, {"alias": "desserts", "title": "Desserts"}], "review_count": 34, "location": {"city": "Boston", "address1": "24 Tremont St", "address3": "", "address2": "", "zip_code": "02108", "country": "US", "display_address": ["24 Tremont St", "Boston, MA 02108"], "state": "MA"}, "price": "$", "transactions": [], "display_phone": "(617) 973-9788"}, {"rating": 4.0, "is_closed": false, "distance": 1839.992861876, "name": "Flat Black Coffee Company", "id": "flat-black-coffee-company-boston-2", "image_url": "https://s3-media4.fl.yelpcdn.com/bphoto/8l6cVLpT7qu1MbnfWpsOJw/o.jpg", "url": "https://www.yelp.com/biz/flat-black-coffee-company-boston-2?adjust_creative=gBcvfFpabk3CnzmXKdYe3w&utm_campaign=yelp_api_v3&utm_medium=api_v3_business_search&utm_source=gBcvfFpabk3CnzmXKdYe3w", "phone": "+16179511440", "coordinates": {"longitude": -71.05373, "latitude": 42.35803}, "categories": [{"alias": "coffee", "title": "Coffee & Tea"}], "review_count": 163, "location": {"city": "Boston", "address1": "50 Broad St", "address3": "", "address2": null, "zip_code": "02109", "country": "US", "display_address": ["50 Broad St", "Boston, MA 02109"], "state": "MA"}, "price": "$", "transactions": [], "display_phone": "(617) 951-1440"}, {"rating": 4.0, "is_closed": false, "distance": 1485.2610769116, "name": "Ma Maison", "id": "ma-maison-boston", "image_url": "https://s3-media1.fl.yelpcdn.com/bphoto/2zDVK36NGAAW6LGKDJgiqQ/o.jpg", "url": "https://www.yelp.com/biz/ma-maison-boston?adjust_creative=gBcvfFpabk3CnzmXKdYe3w&utm_campaign=yelp_api_v3&utm_medium=api_v3_business_search&utm_source=gBcvfFpabk3CnzmXKdYe3w", "phone": "+16177258855", "coordinates": {"longitude": -71.0680064, "latitude": 42.3609838}, "categories": [{"alias": "french", "title": "French"}], "review_count": 58, "location": {"city": "Boston", "address1": "272 Cambridge St", "address3": "", "address2": null, "zip_code": "02114", "country": "US", "display_address": ["272 Cambridge St", "Boston, MA 02114"], "state": "MA"}, "price": "$$", "transactions": [], "display_phone": "(617) 725-8855"}, {"rating": 3.5, "is_closed": false, "distance": 1165.4570876484, "name": "Bukowski Tavern", "id": "bukowski-tavern-boston", "image_url": "https://s3-media2.fl.yelpcdn.com/bphoto/sJUyfUF4lJslqqBBOLdWaA/o.jpg", "url": "https://www.yelp.com/biz/bukowski-tavern-boston?adjust_creative=gBcvfFpabk3CnzmXKdYe3w&utm_campaign=yelp_api_v3&utm_medium=api_v3_business_search&utm_source=gBcvfFpabk3CnzmXKdYe3w", "phone": "+16174379999", "coordinates": {"longitude": -71.085402407346, "latitude": 42.34726832024}, "categories": [{"alias": "tradamerican", "title": "American (Traditional)"}, {"alias": "divebars", "title": "Dive Bars"}], "review_count": 615, "location": {"city": "Boston", "address1": "50 Dalton St", "address3": "", "address2": "", "zip_code": "02115", "country": "US", "display_address": ["50 Dalton St", "Boston, MA 02115"], "state": "MA"}, "price": "$$", "transactions": [], "display_phone": "(617) 437-9999"}, {"rating": 4.0, "is_closed": false, "distance": 1562.266965934, "name": "Falafel King", "id": "falafel-king-boston-2", "image_url": "https://s3-media2.fl.yelpcdn.com/bphoto/ghJAiyjeUBsHY0K3UWQzIg/o.jpg", "url": "https://www.yelp.com/biz/falafel-king-boston-2?adjust_creative=gBcvfFpabk3CnzmXKdYe3w&utm_campaign=yelp_api_v3&utm_medium=api_v3_business_search&utm_source=gBcvfFpabk3CnzmXKdYe3w", "phone": "+16172276400", "coordinates": {"longitude": -71.0578912496567, "latitude": 42.3578462497398}, "categories": [{"alias": "mideastern", "title": "Middle Eastern"}, {"alias": "falafel", "title": "Falafel"}], "review_count": 177, "location": {"city": "Boston", "address1": "260 Washington St", "address3": "", "address2": "", "zip_code": "02108", "country": "US", "display_address": ["260 Washington St", "Boston, MA 02108"], "state": "MA"}, "price": "$", "transactions": [], "display_phone": "(617) 227-6400"}, {"rating": 4.5, "is_closed": false, "distance": 3432.8149179839997, "name": "The Brewer's Fork", "id": "the-brewers-fork-boston", "image_url": "https://s3-media4.fl.yelpcdn.com/bphoto/FFKeVx74qkhw9CNkEpv8EQ/o.jpg", "url": "https://www.yelp.com/biz/the-brewers-fork-boston?adjust_creative=gBcvfFpabk3CnzmXKdYe3w&utm_campaign=yelp_api_v3&utm_medium=api_v3_business_search&utm_source=gBcvfFpabk3CnzmXKdYe3w", "phone": "+16173375703", "coordinates": {"longitude": -71.0566809028387, "latitude": 42.3766634613276}, "categories": [{"alias": "pizza", "title": "Pizza"}, {"alias": "gastropubs", "title": "Gastropubs"}, {"alias": "wine_bars", "title": "Wine Bars"}], "review_count": 181, "location": {"city": "Boston", "address1": "7 Moulton St", "address3": "", "address2": "", "zip_code": "02129", "country": "US", "display_address": ["7 Moulton St", "Boston, MA 02129"], "state": "MA"}, "price": "$$", "transactions": [], "display_phone": "(617) 337-5703"}, {"rating": 4.0, "is_closed": false, "distance": 1167.6904331399999, "name": "Santouka Back Bay", "id": "santouka-back-bay-boston-2", "image_url": "https://s3-media1.fl.yelpcdn.com/bphoto/ChTI_-JPvxYIuJmNDh-yiA/o.jpg", "url": "https://www.yelp.com/biz/santouka-back-bay-boston-2?adjust_creative=gBcvfFpabk3CnzmXKdYe3w&utm_campaign=yelp_api_v3&utm_medium=api_v3_business_search&utm_source=gBcvfFpabk3CnzmXKdYe3w", "phone": "+18573105194", "coordinates": {"longitude": -71.0854271426797, "latitude": 42.3484762870602}, "categories": [{"alias": "ramen", "title": "Ramen"}, {"alias": "soup", "title": "Soup"}, {"alias": "noodles", "title": "Noodles"}], "review_count": 174, "location": {"city": "Boston", "address1": "66 Hereford St", "address3": null, "address2": "", "zip_code": "02115", "country": "US", "display_address": ["66 Hereford St", "Boston, MA 02115"], "state": "MA"}, "price": "$$", "transactions": [], "display_phone": "(857) 310-5194"}, {"rating": 4.0, "is_closed": false, "distance": 2897.324896658, "name": "Yankee Lobster", "id": "yankee-lobster-boston", "image_url": "https://s3-media1.fl.yelpcdn.com/bphoto/x-VIxmn-n0ZVvSi_pYKOZg/o.jpg", "url": "https://www.yelp.com/biz/yankee-lobster-boston?adjust_creative=gBcvfFpabk3CnzmXKdYe3w&utm_campaign=yelp_api_v3&utm_medium=api_v3_business_search&utm_source=gBcvfFpabk3CnzmXKdYe3w", "phone": "+16173459799", "coordinates": {"longitude": -71.035987943405, "latitude": 42.347921583679}, "categories": [{"alias": "seafood", "title": "Seafood"}, {"alias": "salad", "title": "Salad"}, {"alias": "sandwiches", "title": "Sandwiches"}], "review_count": 1052, "location": {"city": "Boston", "address1": "300 Northern Ave", "address3": "", "address2": "", "zip_code": "02210", "country": "US", "display_address": ["300 Northern Ave", "Boston, MA 02210"], "state": "MA"}, "price": "$$", "transactions": [], "display_phone": "(617) 345-9799"}, {"rating": 4.5, "is_closed": false, "distance": 2415.784458284, "name": "sweetgreen", "id": "sweetgreen-boston-9", "image_url": "https://s3-media1.fl.yelpcdn.com/bphoto/ux-y55BcToqmHWu3vdh-NA/o.jpg", "url": "https://www.yelp.com/biz/sweetgreen-boston-9?adjust_creative=gBcvfFpabk3CnzmXKdYe3w&utm_campaign=yelp_api_v3&utm_medium=api_v3_business_search&utm_source=gBcvfFpabk3CnzmXKdYe3w", "phone": "+18572332673", "coordinates": {"longitude": -71.1003998163073, "latitude": 42.3450966663993}, "categories": [{"alias": "salad", "title": "Salad"}, {"alias": "vegetarian", "title": "Vegetarian"}], "review_count": 38, "location": {"city": "Boston", "address1": "132 Brookline Ave", "address3": null, "address2": null, "zip_code": "02215", "country": "US", "display_address": ["132 Brookline Ave", "Boston, MA 02215"], "state": "MA"}, "price": "$$", "transactions": [], "display_phone": "(857) 233-2673"}, {"rating": 4.0, "is_closed": false, "distance": 2072.076587946, "name": "Rustico", "id": "rustico-boston-2", "image_url": "https://s3-media2.fl.yelpcdn.com/bphoto/OIle7wi2LHMXPppKNSG7cA/o.jpg", "url": "https://www.yelp.com/biz/rustico-boston-2?adjust_creative=gBcvfFpabk3CnzmXKdYe3w&utm_campaign=yelp_api_v3&utm_medium=api_v3_business_search&utm_source=gBcvfFpabk3CnzmXKdYe3w", "phone": "+16177428770", "coordinates": {"longitude": -71.0595052689314, "latitude": 42.3640825599432}, "categories": [{"alias": "salad", "title": "Salad"}, {"alias": "sandwiches", "title": "Sandwiches"}, {"alias": "pizza", "title": "Pizza"}], "review_count": 122, "location": {"city": "Boston", "address1": "85 Canal St", "address3": "", "address2": "", "zip_code": "02114", "country": "US", "display_address": ["85 Canal St", "Boston, MA 02114"], "state": "MA"}, "price": "$", "transactions": [], "display_phone": "(617) 742-8770"}, {"rating": 4.0, "is_closed": false, "distance": 2355.329923052, "name": "Panza", "id": "panza-boston", "image_url": "https://s3-media2.fl.yelpcdn.com/bphoto/POLprOT9M5PZhBGLZ5dwjg/o.jpg", "url": "https://www.yelp.com/biz/panza-boston?adjust_creative=gBcvfFpabk3CnzmXKdYe3w&utm_campaign=yelp_api_v3&utm_medium=api_v3_business_search&utm_source=gBcvfFpabk3CnzmXKdYe3w", "phone": "+16175579248", "coordinates": {"longitude": -71.05382, "latitude": 42.3646699}, "categories": [{"alias": "italian", "title": "Italian"}], "review_count": 940, "location": {"city": "Boston", "address1": "326 Hanover St", "address3": "", "address2": "", "zip_code": "02113", "country": "US", "display_address": ["326 Hanover St", "Boston, MA 02113"], "state": "MA"}, "price": "$$", "transactions": [], "display_phone": "(617) 557-9248"}, {"rating": 4.0, "is_closed": false, "distance": 1596.6013657904, "name": "Sip Cafe", "id": "sip-cafe-boston", "image_url": "https://s3-media2.fl.yelpcdn.com/bphoto/08VGO6PwC2tNXutGD0KU-g/o.jpg", "url": "https://www.yelp.com/biz/sip-cafe-boston?adjust_creative=gBcvfFpabk3CnzmXKdYe3w&utm_campaign=yelp_api_v3&utm_medium=api_v3_business_search&utm_source=gBcvfFpabk3CnzmXKdYe3w", "phone": "+16173383080", "coordinates": {"longitude": -71.0553216934204, "latitude": 42.3560703332238}, "categories": [{"alias": "sandwiches", "title": "Sandwiches"}, {"alias": "coffee", "title": "Coffee & Tea"}, {"alias": "cafes", "title": "Cafes"}], "review_count": 144, "location": {"city": "Boston", "address1": "0 Post Office Sq", "address3": "", "address2": "", "zip_code": "02109", "country": "US", "display_address": ["0 Post Office Sq", "Boston, MA 02109"], "state": "MA"}, "price": "$", "transactions": [], "display_phone": "(617) 338-3080"}, {"rating": 4.0, "is_closed": false, "distance": 681.9894968112, "name": "Peter's Park Dog Run", "id": "peters-park-dog-run-boston", "image_url": "https://s3-media3.fl.yelpcdn.com/bphoto/MfJ0cW5a5RC_5WNxnUeDYg/o.jpg", "url": "https://www.yelp.com/biz/peters-park-dog-run-boston?adjust_creative=gBcvfFpabk3CnzmXKdYe3w&utm_campaign=yelp_api_v3&utm_medium=api_v3_business_search&utm_source=gBcvfFpabk3CnzmXKdYe3w", "phone": "", "coordinates": {"longitude": -71.0677356272936, "latitude": 42.3424076288939}, "categories": [{"alias": "dog_parks", "title": "Dog Parks"}], "review_count": 57, "location": {"city": "Boston", "address1": "1277 Washington St", "address3": "", "address2": "", "zip_code": "02118", "country": "US", "display_address": ["1277 Washington St", "Boston, MA 02118"], "state": "MA"}, "transactions": [], "display_phone": ""}, {"rating": 4.0, "is_closed": false, "distance": 745.622349796, "name": "The Elephant Walk", "id": "the-elephant-walk-boston-2", "image_url": "https://s3-media1.fl.yelpcdn.com/bphoto/t5iQHvzz_kxOrcGjh2JSjw/o.jpg", "url": "https://www.yelp.com/biz/the-elephant-walk-boston-2?adjust_creative=gBcvfFpabk3CnzmXKdYe3w&utm_campaign=yelp_api_v3&utm_medium=api_v3_business_search&utm_source=gBcvfFpabk3CnzmXKdYe3w", "phone": "+16172471500", "coordinates": {"longitude": -71.0703278, "latitude": 42.3411293}, "categories": [{"alias": "cambodian", "title": "Cambodian"}, {"alias": "french", "title": "French"}], "review_count": 82, "location": {"city": "Boston", "address1": "1415 Washington St", "address3": "", "address2": "", "zip_code": "02118", "country": "US", "display_address": ["1415 Washington St", "Boston, MA 02118"], "state": "MA"}, "price": "$$", "transactions": ["delivery", "pickup"], "display_phone": "(617) 247-1500"}, {"rating": 4.0, "is_closed": false, "distance": 1655.1625768859997, "name": "Cafe Fleuri", "id": "cafe-fleuri-boston", "image_url": "https://s3-media3.fl.yelpcdn.com/bphoto/3-4H9WS4o7tEs8u7jIrb_A/o.jpg", "url": "https://www.yelp.com/biz/cafe-fleuri-boston?adjust_creative=gBcvfFpabk3CnzmXKdYe3w&utm_campaign=yelp_api_v3&utm_medium=api_v3_business_search&utm_source=gBcvfFpabk3CnzmXKdYe3w", "phone": "+16174511900", "coordinates": {"longitude": -71.0541609674692, "latitude": 42.3564959317446}, "categories": [{"alias": "breakfast_brunch", "title": "Breakfast & Brunch"}], "review_count": 238, "location": {"city": "Boston", "address1": "250 Franklin St", "address3": "", "address2": "", "zip_code": "02110", "country": "US", "display_address": ["250 Franklin St", "Boston, MA 02110"], "state": "MA"}, "price": "$$$", "transactions": [], "display_phone": "(617) 451-1900"}, {"rating": 4.0, "is_closed": false, "distance": 1580.34371655, "name": "The Oceanaire Seafood Room", "id": "the-oceanaire-seafood-room-boston", "image_url": "https://s3-media2.fl.yelpcdn.com/bphoto/9nTUNxOr1LUPO9Vr-A0ldA/o.jpg", "url": "https://www.yelp.com/biz/the-oceanaire-seafood-room-boston?adjust_creative=gBcvfFpabk3CnzmXKdYe3w&utm_campaign=yelp_api_v3&utm_medium=api_v3_business_search&utm_source=gBcvfFpabk3CnzmXKdYe3w", "phone": "+16177422277", "coordinates": {"longitude": -71.0592725872993, "latitude": 42.3589680639953}, "categories": [{"alias": "seafood", "title": "Seafood"}], "review_count": 533, "location": {"city": "Boston", "address1": "40 Court St", "address3": "", "address2": "", "zip_code": "02108", "country": "US", "display_address": ["40 Court St", "Boston, MA 02108"], "state": "MA"}, "price": "$$$", "transactions": [], "display_phone": "(617) 742-2277"}, {"rating": 4.5, "is_closed": false, "distance": 2396.91800453, "name": "Tapestry", "id": "tapestry-boston", "image_url": "https://s3-media4.fl.yelpcdn.com/bphoto/DhfysfX6PiE2-K-AChRzuw/o.jpg", "url": "https://www.yelp.com/biz/tapestry-boston?adjust_creative=gBcvfFpabk3CnzmXKdYe3w&utm_campaign=yelp_api_v3&utm_medium=api_v3_business_search&utm_source=gBcvfFpabk3CnzmXKdYe3w", "phone": "+16174214470", "coordinates": {"longitude": -71.0994869470596, "latitude": 42.3424683399553}, "categories": [{"alias": "pizza", "title": "Pizza"}, {"alias": "cocktailbars", "title": "Cocktail Bars"}, {"alias": "newamerican", "title": "American (New)"}], "review_count": 103, "location": {"city": "Boston", "address1": "69 Kilmarnock St", "address3": "", "address2": "", "zip_code": "02215", "country": "US", "display_address": ["69 Kilmarnock St", "Boston, MA 02215"], "state": "MA"}, "price": "$$", "transactions": [], "display_phone": "(617) 421-4470"}, {"rating": 4.5, "is_closed": false, "distance": 2843.2699019359998, "name": "Pete's Dockside", "id": "petes-dockside-boston-2", "image_url": "https://s3-media2.fl.yelpcdn.com/bphoto/S3a_qyUjtNfgEfmgug2GJw/o.jpg", "url": "https://www.yelp.com/biz/petes-dockside-boston-2?adjust_creative=gBcvfFpabk3CnzmXKdYe3w&utm_campaign=yelp_api_v3&utm_medium=api_v3_business_search&utm_source=gBcvfFpabk3CnzmXKdYe3w", "phone": "+16174231110", "coordinates": {"longitude": -71.0372238, "latitude": 42.3451843}, "categories": [{"alias": "tradamerican", "title": "American (Traditional)"}, {"alias": "seafood", "title": "Seafood"}, {"alias": "breakfast_brunch", "title": "Breakfast & Brunch"}], "review_count": 58, "location": {"city": "Boston", "address1": "12 Channel St", "address3": "", "address2": "", "zip_code": "02210", "country": "US", "display_address": ["12 Channel St", "Boston, MA 02210"], "state": "MA"}, "price": "$", "transactions": [], "display_phone": "(617) 423-1110"}, {"rating": 4.0, "is_closed": false, "distance": 879.314729748, "name": "Mei Sum", "id": "mei-sum-boston", "image_url": "https://s3-media3.fl.yelpcdn.com/bphoto/R0wvbRC46NE1JvcSLcBUlA/o.jpg", "url": "https://www.yelp.com/biz/mei-sum-boston?adjust_creative=gBcvfFpabk3CnzmXKdYe3w&utm_campaign=yelp_api_v3&utm_medium=api_v3_business_search&utm_source=gBcvfFpabk3CnzmXKdYe3w", "phone": "+16173574050", "coordinates": {"longitude": -71.0616044, "latitude": 42.3515936}, "categories": [{"alias": "bakeries", "title": "Bakeries"}, {"alias": "sandwiches", "title": "Sandwiches"}], "review_count": 117, "location": {"city": "Boston", "address1": "36 Beach St", "address3": "", "address2": "", "zip_code": "02111", "country": "US", "display_address": ["36 Beach St", "Boston, MA 02111"], "state": "MA"}, "price": "$", "transactions": [], "display_phone": "(617) 357-4050"}, {"rating": 4.5, "is_closed": false, "distance": 2284.39295173, "name": "Scopa", "id": "scopa-boston", "image_url": "https://s3-media2.fl.yelpcdn.com/bphoto/BnroASO77OjKG9qVZHMNCQ/o.jpg", "url": "https://www.yelp.com/biz/scopa-boston?adjust_creative=gBcvfFpabk3CnzmXKdYe3w&utm_campaign=yelp_api_v3&utm_medium=api_v3_business_search&utm_source=gBcvfFpabk3CnzmXKdYe3w", "phone": "+18573172871", "coordinates": {"longitude": -71.0541152, "latitude": 42.3640246614391}, "categories": [{"alias": "pizza", "title": "Pizza"}, {"alias": "italian", "title": "Italian"}, {"alias": "salad", "title": "Salad"}], "review_count": 88, "location": {"city": "Boston", "address1": "319 Hanover St", "address3": "", "address2": "", "zip_code": "02113", "country": "US", "display_address": ["319 Hanover St", "Boston, MA 02113"], "state": "MA"}, "price": "$$", "transactions": [], "display_phone": "(857) 317-2871"}]}