{"total": 24838, "region": {"center": {"longitude": -71.07124328613281, "latitude": 42.34784169448538}}, "businesses": [{"rating": 4.0, "is_closed": false, "distance": 1343.5251029857998, "name": "Pho Basil", "id": "pho-basil-boston", "image_url": "https://s3-media1.fl.yelpcdn.com/bphoto/sRASmyQ-S7MRgZfCi4q4OA/o.jpg", "url": "https://www.yelp.com/biz/pho-basil-boston?adjust_creative=gBcvfFpabk3CnzmXKdYe3w&utm_campaign=yelp_api_v3&utm_medium=api_v3_business_search&utm_source=gBcvfFpabk3CnzmXKdYe3w", "phone": "+16172625377", "coordinates": {"longitude": -71.0873718261719, "latitude": 42.3457679748535}, "categories": [{"alias": "vietnamese", "title": "Vietnamese"}, {"alias": "thai", "title": "Thai"}, {"alias": "seafood", "title": "Seafood"}], "review_count": 809, "location": {"city": "Boston", "address1": "177 Massachusetts Ave", "address3": "", "address2": "Ste A", "zip_code": "02115", "country": "US", "display_address": ["177 Massachusetts Ave", "Ste A", "Boston, MA 02115"], "state": "MA"}, "price": "$$", "transactions": ["delivery"], "display_phone": "(617) 262-5377"}, {"rating": 4.0, "is_closed": false, "distance": 543.8161510302, "name": "Coppa", "id": "coppa-boston-2", "image_url": "https://s3-media1.fl.yelpcdn.com/bphoto/WxgO4Te0H5ycUqkOWSVA6A/o.jpg", "url": "https://www.yelp.com/biz/coppa-boston-2?adjust_creative=gBcvfFpabk3CnzmXKdYe3w&utm_campaign=yelp_api_v3&utm_medium=api_v3_business_search&utm_source=gBcvfFpabk3CnzmXKdYe3w", "phone": "+16173910902", "coordinates": {"longitude": -71.0684599315418, "latitude": 42.3434049842376}, "categories": [{"alias": "italian", "title": "Italian"}, {"alias": "tapasmallplates", "title": "Tapas/Small Plates"}, {"alias": "wine_bars", "title": "Wine Bars"}], "review_count": 664, "location": {"city": "Boston", "address1": "253 Shawmut Ave", "address3": "", "address2": "", "zip_code": "02118", "country": "US", "display_address": ["253 Shawmut Ave", "Boston, MA 02118"], "state": "MA"}, "price": "$$$", "transactions": ["delivery"], "display_phone": "(617) 391-0902"}, {"rating": 4.5, "is_closed": false, "distance": 727.475753824, "name": "Bar Mezzana", "id": "bar-mezzana-boston", "image_url": "https://s3-media1.fl.yelpcdn.com/bphoto/yO0puhFHIH1Qt8mZNkW82w/o.jpg", "url": "https://www.yelp.com/biz/bar-mezzana-boston?adjust_creative=gBcvfFpabk3CnzmXKdYe3w&utm_campaign=yelp_api_v3&utm_medium=api_v3_business_search&utm_source=gBcvfFpabk3CnzmXKdYe3w", "phone": "+16175301770", "coordinates": {"longitude": -71.0635791144088, "latitude": 42.3445756001492}, "categories": [{"alias": "italian", "title": "Italian"}, {"alias": "seafood", "title": "Seafood"}, {"alias": "cocktailbars", "title": "Cocktail Bars"}], "review_count": 107, "location": {"city": "Boston", "address1": "360 Harrison Ave", "address3": "", "address2": "", "zip_code": "02118", "country": "US", "display_address": ["360 Harrison Ave", "Boston, MA 02118"], "state": "MA"}, "price": "$$$", "transactions": [], "display_phone": "(617) 530-1770"}, {"rating": 4.5, "is_closed": false, "distance": 780.9674795459999, "name": "Man\u00e1 Escondido Caf\u00e9", "id": "man\u00e1-escondido-caf\u00e9-boston-3", "image_url": "https://s3-media3.fl.yelpcdn.com/bphoto/9W8OM45CBQSueiFD9272pg/o.jpg", "url": "https://www.yelp.com/biz/man%C3%A1-escondido-caf%C3%A9-boston-3?adjust_creative=gBcvfFpabk3CnzmXKdYe3w&utm_campaign=yelp_api_v3&utm_medium=api_v3_business_search&utm_source=gBcvfFpabk3CnzmXKdYe3w", "phone": "+16172660900", "coordinates": {"longitude": -71.0755717009306, "latitude": 42.3412831127644}, "categories": [{"alias": "spanish", "title": "Spanish"}, {"alias": "puertorican", "title": "Puerto Rican"}], "review_count": 51, "location": {"city": "Boston", "address1": "68 Aguadilla St", "address3": "", "address2": "", "zip_code": "02118", "country": "US", "display_address": ["68 Aguadilla St", "Boston, MA 02118"], "state": "MA"}, "price": "$", "transactions": [], "display_phone": "(617) 266-0900"}, {"rating": 4.5, "is_closed": false, "distance": 1344.1454391821999, "name": "Bonapita", "id": "bonapita-boston-2", "image_url": "https://s3-media1.fl.yelpcdn.com/bphoto/LTaBaGs5rirNMG4DmvNaHg/o.jpg", "url": "https://www.yelp.com/biz/bonapita-boston-2?adjust_creative=gBcvfFpabk3CnzmXKdYe3w&utm_campaign=yelp_api_v3&utm_medium=api_v3_business_search&utm_source=gBcvfFpabk3CnzmXKdYe3w", "phone": "+18573504606", "coordinates": {"longitude": -71.0586968, "latitude": 42.3556009}, "categories": [{"alias": "mediterranean", "title": "Mediterranean"}, {"alias": "bakeries", "title": "Bakeries"}, {"alias": "fooddeliveryservices", "title": "Food Delivery Services"}], "review_count": 147, "location": {"city": "Boston", "address1": "49 Franklin St", "address3": "", "address2": "", "zip_code": "02110", "country": "US", "display_address": ["49 Franklin St", "Boston, MA 02110"], "state": "MA"}, "price": "$", "transactions": ["delivery", "pickup"], "display_phone": "(857) 350-4606"}, {"rating": 4.5, "is_closed": false, "distance": 4331.3759057259995, "name": "Roast Beast", "id": "roast-beast-boston", "image_url": "https://s3-media1.fl.yelpcdn.com/bphoto/IEiinc3arYe03yP-LX2rZQ/o.jpg", "url": "https://www.yelp.com/biz/roast-beast-boston?adjust_creative=gBcvfFpabk3CnzmXKdYe3w&utm_campaign=yelp_api_v3&utm_medium=api_v3_business_search&utm_source=gBcvfFpabk3CnzmXKdYe3w", "phone": "+16178778690", "coordinates": {"longitude": -71.1236789566271, "latitude": 42.351783181146}, "categories": [{"alias": "sandwiches", "title": "Sandwiches"}, {"alias": "burgers", "title": "Burgers"}, {"alias": "delis", "title": "Delis"}], "review_count": 385, "location": {"city": "Boston", "address1": "1080 Commonwealth Ave", "address3": "", "address2": "", "zip_code": "02215", "country": "US", "display_address": ["1080 Commonwealth Ave", "Boston, MA 02215"], "state": "MA"}, "price": "$", "transactions": [], "display_phone": "(617) 877-8690"}, {"rating": 4.0, "is_closed": false, "distance": 656.6841863709999, "name": "sweetgreen", "id": "sweetgreen-boston", "image_url": "https://s3-media1.fl.yelpcdn.com/bphoto/03XMn6TiWyWTQMf_fZuh_Q/o.jpg", "url": "https://www.yelp.com/biz/sweetgreen-boston?adjust_creative=gBcvfFpabk3CnzmXKdYe3w&utm_campaign=yelp_api_v3&utm_medium=api_v3_business_search&utm_source=gBcvfFpabk3CnzmXKdYe3w", "phone": "+16179363464", "coordinates": {"longitude": -71.078664958477, "latitude": 42.3500286700385}, "categories": [{"alias": "salad", "title": "Salad"}, {"alias": "vegetarian", "title": "Vegetarian"}], "review_count": 446, "location": {"city": "Boston", "address1": "659 Boylston St", "address3": "", "address2": "", "zip_code": "02116", "country": "US", "display_address": ["659 Boylston St", "Boston, MA 02116"], "state": "MA"}, "price": "$$", "transactions": [], "display_phone": "(617) 936-3464"}, {"rating": 4.0, "is_closed": false, "distance": 950.476525868, "name": "Egg Puffs", "id": "egg-puffs-boston", "image_url": "https://s3-media1.fl.yelpcdn.com/bphoto/hqtmnPThMN7tBlBxz3tDGA/o.jpg", "url": "https://www.yelp.com/biz/egg-puffs-boston?adjust_creative=gBcvfFpabk3CnzmXKdYe3w&utm_campaign=yelp_api_v3&utm_medium=api_v3_business_search&utm_source=gBcvfFpabk3CnzmXKdYe3w", "phone": "", "coordinates": {"longitude": -71.0608778893948, "latitude": 42.3516293312528}, "categories": [{"alias": "desserts", "title": "Desserts"}, {"alias": "chinese", "title": "Chinese"}], "review_count": 146, "location": {"city": "Boston", "address1": "42 Beach St", "address3": "", "address2": "", "zip_code": "02111", "country": "US", "display_address": ["42 Beach St", "Boston, MA 02111"], "state": "MA"}, "price": "$", "transactions": [], "display_phone": ""}, {"rating": 4.5, "is_closed": false, "distance": 1523.532566144, "name": "The Charles River", "id": "the-charles-river-boston", "image_url": "https://s3-media4.fl.yelpcdn.com/bphoto/9-DD7MSpMbtypl-MabdPxw/o.jpg", "url": "https://www.yelp.com/biz/the-charles-river-boston?adjust_creative=gBcvfFpabk3CnzmXKdYe3w&utm_campaign=yelp_api_v3&utm_medium=api_v3_business_search&utm_source=gBcvfFpabk3CnzmXKdYe3w", "phone": "", "coordinates": {"longitude": -71.0749053955078, "latitude": 42.3612747192383}, "categories": [{"alias": "active", "title": "Active Life"}, {"alias": "localflavor", "title": "Local Flavor"}], "review_count": 39, "location": {"city": "Boston", "address1": "Storrow Dr", "address3": "", "address2": null, "zip_code": "02114", "country": "US", "display_address": ["Storrow Dr", "Boston, MA 02114"], "state": "MA"}, "transactions": [], "display_phone": ""}, {"rating": 4.5, "is_closed": false, "distance": 1437.4815425856, "name": "J.P. Licks", "id": "j-p-licks-boston-3", "image_url": "https://s3-media3.fl.yelpcdn.com/bphoto/9ao8QaXJnxfvFeORtf7_zg/o.jpg", "url": "https://www.yelp.com/biz/j-p-licks-boston-3?adjust_creative=gBcvfFpabk3CnzmXKdYe3w&utm_campaign=yelp_api_v3&utm_medium=api_v3_business_search&utm_source=gBcvfFpabk3CnzmXKdYe3w", "phone": "+18572335805", "coordinates": {"longitude": -71.0887018, "latitude": 42.3470193}, "categories": [{"alias": "icecream", "title": "Ice Cream & Frozen Yogurt"}, {"alias": "coffee", "title": "Coffee & Tea"}, {"alias": "kosher", "title": "Kosher"}], "review_count": 119, "location": {"city": "Boston", "address1": "1106 Boylston St", "address3": "", "address2": "", "zip_code": "02215", "country": "US", "display_address": ["1106 Boylston St", "Boston, MA 02215"], "state": "MA"}, "price": "$", "transactions": [], "display_phone": "(857) 233-5805"}, {"rating": 4.0, "is_closed": false, "distance": 439.44879441, "name": "B & G Oysters", "id": "b-and-g-oysters-boston", "image_url": "https://s3-media2.fl.yelpcdn.com/bphoto/OZjIHnVj5ffvkp2_578UyQ/o.jpg", "url": "https://www.yelp.com/biz/b-and-g-oysters-boston?adjust_creative=gBcvfFpabk3CnzmXKdYe3w&utm_campaign=yelp_api_v3&utm_medium=api_v3_business_search&utm_source=gBcvfFpabk3CnzmXKdYe3w", "phone": "+16174230550", "coordinates": {"longitude": -71.0712432861328, "latitude": 42.343879699707}, "categories": [{"alias": "seafood", "title": "Seafood"}, {"alias": "italian", "title": "Italian"}], "review_count": 843, "location": {"city": "Boston", "address1": "550 Tremont St", "address3": "", "address2": "", "zip_code": "02116", "country": "US", "display_address": ["550 Tremont St", "Boston, MA 02116"], "state": "MA"}, "price": "$$$", "transactions": [], "display_phone": "(617) 423-0550"}, {"rating": 4.5, "is_closed": false, "distance": 2424.698753478, "name": "Theo's Cozy Corner", "id": "theos-cozy-corner-boston", "image_url": "https://s3-media1.fl.yelpcdn.com/bphoto/xrE5mnueu7LtoCqHXZ-UNw/o.jpg", "url": "https://www.yelp.com/biz/theos-cozy-corner-boston?adjust_creative=gBcvfFpabk3CnzmXKdYe3w&utm_campaign=yelp_api_v3&utm_medium=api_v3_business_search&utm_source=gBcvfFpabk3CnzmXKdYe3w", "phone": "+16172410202", "coordinates": {"longitude": -71.05511, "latitude": 42.36609}, "categories": [{"alias": "italian", "title": "Italian"}], "review_count": 269, "location": {"city": "Boston", "address1": "162 Salem St", "address3": "", "address2": "", "zip_code": "02113", "country": "US", "display_address": ["162 Salem St", "Boston, MA 02113"], "state": "MA"}, "price": "$", "transactions": [], "display_phone": "(617) 241-0202"}, {"rating": 4.0, "is_closed": false, "distance": 498.23405782040004, "name": "Fogo de Ch\u00e3o Brazilian Steakhouse", "id": "fogo-de-ch\u00e3o-brazilian-steakhouse-boston-4", "image_url": "https://s3-media2.fl.yelpcdn.com/bphoto/feRE6V5OndC5SA2XMmvHzA/o.jpg", "url": "https://www.yelp.com/biz/fogo-de-ch%C3%A3o-brazilian-steakhouse-boston-4?adjust_creative=gBcvfFpabk3CnzmXKdYe3w&utm_campaign=yelp_api_v3&utm_medium=api_v3_business_search&utm_source=gBcvfFpabk3CnzmXKdYe3w", "phone": "+16175856300", "coordinates": {"longitude": -71.077162199668, "latitude": 42.34880756427}, "categories": [{"alias": "brazilian", "title": "Brazilian"}, {"alias": "steak", "title": "Steakhouses"}, {"alias": "seafood", "title": "Seafood"}], "review_count": 510, "location": {"city": "Boston", "address1": "200 Dartmouth St", "address3": "", "address2": "", "zip_code": "02116", "country": "US", "display_address": ["200 Dartmouth St", "Boston, MA 02116"], "state": "MA"}, "price": "$$$", "transactions": [], "display_phone": "(617) 585-6300"}, {"rating": 4.5, "is_closed": false, "distance": 1164.4224590558001, "name": "The Christian Science Plaza", "id": "the-christian-science-plaza-boston", "image_url": "https://s3-media3.fl.yelpcdn.com/bphoto/slRwOpMD7GGYloXzNTM6tQ/o.jpg", "url": "https://www.yelp.com/biz/the-christian-science-plaza-boston?adjust_creative=gBcvfFpabk3CnzmXKdYe3w&utm_campaign=yelp_api_v3&utm_medium=api_v3_business_search&utm_source=gBcvfFpabk3CnzmXKdYe3w", "phone": "+16174502000", "coordinates": {"longitude": -71.084479140845, "latitude": 42.344110284178}, "categories": [{"alias": "churches", "title": "Churches"}, {"alias": "museums", "title": "Museums"}, {"alias": "landmarks", "title": "Landmarks & Historical Buildings"}], "review_count": 76, "location": {"city": "Boston", "address1": "210 Massachusetts Ave", "address3": "", "address2": "", "zip_code": "02115", "country": "US", "display_address": ["210 Massachusetts Ave", "Boston, MA 02115"], "state": "MA"}, "transactions": [], "display_phone": "(617) 450-2000"}, {"rating": 4.5, "is_closed": false, "distance": 147.20143096904, "name": "Billy's Sub Shop", "id": "billys-sub-shop-boston", "image_url": "https://s3-media4.fl.yelpcdn.com/bphoto/EVcB58jnRZbBDmSFQTjYSw/o.jpg", "url": "https://www.yelp.com/biz/billys-sub-shop-boston?adjust_creative=gBcvfFpabk3CnzmXKdYe3w&utm_campaign=yelp_api_v3&utm_medium=api_v3_business_search&utm_source=gBcvfFpabk3CnzmXKdYe3w", "phone": "+16174261822", "coordinates": {"longitude": -71.07046, "latitude": 42.34662}, "categories": [{"alias": "diners", "title": "Diners"}, {"alias": "sandwiches", "title": "Sandwiches"}, {"alias": "salad", "title": "Salad"}], "review_count": 127, "location": {"city": "Boston", "address1": "57 Berkeley St", "address3": "", "address2": "", "zip_code": "02116", "country": "US", "display_address": ["57 Berkeley St", "Boston, MA 02116"], "state": "MA"}, "price": "$", "transactions": [], "display_phone": "(617) 426-1822"}, {"rating": 4.0, "is_closed": false, "distance": 1893.4548148079998, "name": "Drink", "id": "drink-boston", "image_url": "https://s3-media4.fl.yelpcdn.com/bphoto/j32zPQjRn2AsdGGMoyv04A/o.jpg", "url": "https://www.yelp.com/biz/drink-boston?adjust_creative=gBcvfFpabk3CnzmXKdYe3w&utm_campaign=yelp_api_v3&utm_medium=api_v3_business_search&utm_source=gBcvfFpabk3CnzmXKdYe3w", "phone": "+16176951806", "coordinates": {"longitude": -71.04846, "latitude": 42.35067}, "categories": [{"alias": "lounges", "title": "Lounges"}, {"alias": "newamerican", "title": "American (New)"}], "review_count": 1333, "location": {"city": "Boston", "address1": "348 Congress St", "address3": "", "address2": "", "zip_code": "02228", "country": "US", "display_address": ["348 Congress St", "Boston, MA 02228"], "state": "MA"}, "price": "$$$", "transactions": [], "display_phone": "(617) 695-1806"}, {"rating": 4.5, "is_closed": false, "distance": 1274.7105775359998, "name": "Archie's New York Deli", "id": "archies-new-york-deli-boston", "image_url": "https://s3-media3.fl.yelpcdn.com/bphoto/NdtoWl_cvLVUmftNazlYdg/o.jpg", "url": "https://www.yelp.com/biz/archies-new-york-deli-boston?adjust_creative=gBcvfFpabk3CnzmXKdYe3w&utm_campaign=yelp_api_v3&utm_medium=api_v3_business_search&utm_source=gBcvfFpabk3CnzmXKdYe3w", "phone": "+16173305145", "coordinates": {"longitude": -71.0592011686825, "latitude": 42.3550721034927}, "categories": [{"alias": "delis", "title": "Delis"}, {"alias": "breakfast_brunch", "title": "Breakfast & Brunch"}, {"alias": "sandwiches", "title": "Sandwiches"}], "review_count": 102, "location": {"city": "Boston", "address1": "101 Arch St", "address3": "", "address2": "", "zip_code": "02110", "country": "US", "display_address": ["101 Arch St", "Boston, MA 02110"], "state": "MA"}, "price": "$", "transactions": [], "display_phone": "(617) 330-5145"}, {"rating": 4.0, "is_closed": false, "distance": 1487.2941883203998, "name": "Grotto", "id": "grotto-boston", "image_url": "https://s3-media4.fl.yelpcdn.com/bphoto/-EfHjU10XYGCe92VbIreuA/o.jpg", "url": "https://www.yelp.com/biz/grotto-boston?adjust_creative=gBcvfFpabk3CnzmXKdYe3w&utm_campaign=yelp_api_v3&utm_medium=api_v3_business_search&utm_source=gBcvfFpabk3CnzmXKdYe3w", "phone": "+16172273434", "coordinates": {"longitude": -71.063289740014, "latitude": 42.3598607550211}, "categories": [{"alias": "italian", "title": "Italian"}], "review_count": 674, "location": {"city": "Boston", "address1": "37 Bowdoin St", "address3": "", "address2": "", "zip_code": "02114", "country": "US", "display_address": ["37 Bowdoin St", "Boston, MA 02114"], "state": "MA"}, "price": "$$$", "transactions": [], "display_phone": "(617) 227-3434"}, {"rating": 4.5, "is_closed": false, "distance": 1750.8524848799998, "name": "Pita Thyme", "id": "pita-thyme-boston", "image_url": "https://s3-media2.fl.yelpcdn.com/bphoto/nWlkjHjgorsR_kES-CJncA/o.jpg", "url": "https://www.yelp.com/biz/pita-thyme-boston?adjust_creative=gBcvfFpabk3CnzmXKdYe3w&utm_campaign=yelp_api_v3&utm_medium=api_v3_business_search&utm_source=gBcvfFpabk3CnzmXKdYe3w", "phone": "+16177427482", "coordinates": {"longitude": -71.0550380316331, "latitude": 42.3580650427804}, "categories": [{"alias": "lebanese", "title": "Lebanese"}, {"alias": "mediterranean", "title": "Mediterranean"}], "review_count": 100, "location": {"city": "Boston", "address1": "102 Water St", "address3": "", "address2": null, "zip_code": "02109", "country": "US", "display_address": ["102 Water St", "Boston, MA 02109"], "state": "MA"}, "price": "$", "transactions": ["delivery"], "display_phone": "(617) 742-7482"}, {"rating": 4.0, "is_closed": false, "distance": 827.354130102, "name": "Gaslight Brasserie", "id": "gaslight-brasserie-boston-4", "image_url": "https://s3-media2.fl.yelpcdn.com/bphoto/LoHqXfoS9vVxjhag4fOIOQ/o.jpg", "url": "https://www.yelp.com/biz/gaslight-brasserie-boston-4?adjust_creative=gBcvfFpabk3CnzmXKdYe3w&utm_campaign=yelp_api_v3&utm_medium=api_v3_business_search&utm_source=gBcvfFpabk3CnzmXKdYe3w", "phone": "+16174220224", "coordinates": {"longitude": -71.0673901926598, "latitude": 42.3409677894859}, "categories": [{"alias": "modern_european", "title": "Modern European"}, {"alias": "newamerican", "title": "American (New)"}, {"alias": "brasseries", "title": "Brasseries"}], "review_count": 1609, "location": {"city": "Boston", "address1": "560 Harrison Ave", "address3": "", "address2": "", "zip_code": "02118", "country": "US", "display_address": ["560 Harrison Ave", "Boston, MA 02118"], "state": "MA"}, "price": "$$", "transactions": ["delivery"], "display_phone": "(617) 422-0224"}, {"rating": 4.0, "is_closed": false, "distance": 1009.90752086, "name": "La Voile", "id": "la-voile-boston", "image_url": "https://s3-media2.fl.yelpcdn.com/bphoto/F1vTpWnJsE2x2MSc3iADJg/o.jpg", "url": "https://www.yelp.com/biz/la-voile-boston?adjust_creative=gBcvfFpabk3CnzmXKdYe3w&utm_campaign=yelp_api_v3&utm_medium=api_v3_business_search&utm_source=gBcvfFpabk3CnzmXKdYe3w", "phone": "+16175874200", "coordinates": {"longitude": -71.0832099, "latitude": 42.34967}, "categories": [{"alias": "french", "title": "French"}], "review_count": 404, "location": {"city": "Boston", "address1": "261 Newbury St", "address3": "", "address2": "", "zip_code": "02116", "country": "US", "display_address": ["261 Newbury St", "Boston, MA 02116"], "state": "MA"}, "price": "$$$", "transactions": [], "display_phone": "(617) 587-4200"}, {"rating": 4.5, "is_closed": false, "distance": 1194.5808952, "name": "Farmer Horse Coffee", "id": "farmer-horse-coffee-boston", "image_url": "https://s3-media4.fl.yelpcdn.com/bphoto/_20wwfhepoAQLOr-44Lslw/o.jpg", "url": "https://www.yelp.com/biz/farmer-horse-coffee-boston?adjust_creative=gBcvfFpabk3CnzmXKdYe3w&utm_campaign=yelp_api_v3&utm_medium=api_v3_business_search&utm_source=gBcvfFpabk3CnzmXKdYe3w", "phone": "+16174871513", "coordinates": {"longitude": -71.083393, "latitude": 42.341943}, "categories": [{"alias": "coffee", "title": "Coffee & Tea"}], "review_count": 109, "location": {"city": "Boston", "address1": "374 Massachusetts Ave", "address3": "", "address2": "", "zip_code": "02115", "country": "US", "display_address": ["374 Massachusetts Ave", "Boston, MA 02115"], "state": "MA"}, "price": "$", "transactions": [], "display_phone": "(617) 487-1513"}, {"rating": 4.0, "is_closed": false, "distance": 500.18963122799994, "name": "Dig Inn", "id": "dig-inn-boston", "image_url": "https://s3-media1.fl.yelpcdn.com/bphoto/fygMLbVNUGdOFnMvmViSeg/o.jpg", "url": "https://www.yelp.com/biz/dig-inn-boston?adjust_creative=gBcvfFpabk3CnzmXKdYe3w&utm_campaign=yelp_api_v3&utm_medium=api_v3_business_search&utm_source=gBcvfFpabk3CnzmXKdYe3w", "phone": "+16179043711", "coordinates": {"longitude": -71.0761795043945, "latitude": 42.3506851196289}, "categories": [{"alias": "newamerican", "title": "American (New)"}, {"alias": "breakfast_brunch", "title": "Breakfast & Brunch"}], "review_count": 220, "location": {"city": "Boston", "address1": "557 Boylston St", "address3": "", "address2": null, "zip_code": "02116", "country": "US", "display_address": ["557 Boylston St", "Boston, MA 02116"], "state": "MA"}, "price": "$$", "transactions": [], "display_phone": "(617) 904-3711"}, {"rating": 4.0, "is_closed": false, "distance": 2036.70506502, "name": "Eastern Standard Kitchen and Drinks", "id": "eastern-standard-kitchen-and-drinks-boston-3", "image_url": "https://s3-media1.fl.yelpcdn.com/bphoto/AJJUNPdbEuFwH2PSRMQgoA/o.jpg", "url": "https://www.yelp.com/biz/eastern-standard-kitchen-and-drinks-boston-3?adjust_creative=gBcvfFpabk3CnzmXKdYe3w&utm_campaign=yelp_api_v3&utm_medium=api_v3_business_search&utm_source=gBcvfFpabk3CnzmXKdYe3w", "phone": "+16175329100", "coordinates": {"longitude": -71.0960168391466, "latitude": 42.348740324378}, "categories": [{"alias": "newamerican", "title": "American (New)"}, {"alias": "lounges", "title": "Lounges"}, {"alias": "breakfast_brunch", "title": "Breakfast & Brunch"}], "review_count": 1554, "location": {"city": "Boston", "address1": "528 Commonwealth Ave", "address3": "", "address2": "", "zip_code": "02215", "country": "US", "display_address": ["528 Commonwealth Ave", "Boston, MA 02215"], "state": "MA"}, "price": "$$$", "transactions": [], "display_phone": "(617) 532-9100"}, {"rating": 4.0, "is_closed": false, "distance": 1874.4681433560002, "name": "Bostonia Public House", "id": "bostonia-public-house-boston-4", "image_url": "https://s3-media3.fl.yelpcdn.com/bphoto/SS2qfGN1S6tZTWWmn5gTuA/o.jpg", "url": "https://www.yelp.com/biz/bostonia-public-house-boston-4?adjust_creative=gBcvfFpabk3CnzmXKdYe3w&utm_campaign=yelp_api_v3&utm_medium=api_v3_business_search&utm_source=gBcvfFpabk3CnzmXKdYe3w", "phone": "+16179489800", "coordinates": {"longitude": -71.0542373657227, "latitude": 42.3589973449707}, "categories": [{"alias": "newamerican", "title": "American (New)"}, {"alias": "lounges", "title": "Lounges"}], "review_count": 641, "location": {"city": "Boston", "address1": "131 State St", "address3": "", "address2": "", "zip_code": "02109", "country": "US", "display_address": ["131 State St", "Boston, MA 02109"], "state": "MA"}, "price": "$$", "transactions": [], "display_phone": "(617) 948-9800"}, {"rating": 4.0, "is_closed": false, "distance": 598.3120888188, "name": "Lolita Cocina & Tequila Bar", "id": "lolita-cocina-and-tequila-bar-boston-2", "image_url": "https://s3-media3.fl.yelpcdn.com/bphoto/VlNwiC3KdAmFaj1my6jzkQ/o.jpg", "url": "https://www.yelp.com/biz/lolita-cocina-and-tequila-bar-boston-2?adjust_creative=gBcvfFpabk3CnzmXKdYe3w&utm_campaign=yelp_api_v3&utm_medium=api_v3_business_search&utm_source=gBcvfFpabk3CnzmXKdYe3w", "phone": "+16173695609", "coordinates": {"longitude": -71.077508474716, "latitude": 42.3505860446405}, "categories": [{"alias": "mexican", "title": "Mexican"}, {"alias": "lounges", "title": "Lounges"}, {"alias": "cocktailbars", "title": "Cocktail Bars"}], "review_count": 1265, "location": {"city": "Boston", "address1": "271 Dartmouth St", "address3": "", "address2": null, "zip_code": "02116", "country": "US", "display_address": ["271 Dartmouth St", "Boston, MA 02116"], "state": "MA"}, "price": "$$", "transactions": [], "display_phone": "(617) 369-5609"}, {"rating": 4.0, "is_closed": false, "distance": 903.5405431964, "name": "Beard Papa's", "id": "beard-papas-boston-4", "image_url": "https://s3-media3.fl.yelpcdn.com/bphoto/ilUeevTf4rJUDNdGVLf-8w/o.jpg", "url": "https://www.yelp.com/biz/beard-papas-boston-4?adjust_creative=gBcvfFpabk3CnzmXKdYe3w&utm_campaign=yelp_api_v3&utm_medium=api_v3_business_search&utm_source=gBcvfFpabk3CnzmXKdYe3w", "phone": "+18572637169", "coordinates": {"longitude": -71.0613861, "latitude": 42.3516426}, "categories": [{"alias": "japanese", "title": "Japanese"}, {"alias": "desserts", "title": "Desserts"}, {"alias": "bakeries", "title": "Bakeries"}], "review_count": 269, "location": {"city": "Boston", "address1": "31 Harrison Ave", "address3": "", "address2": "Unit A", "zip_code": "02111", "country": "US", "display_address": ["31 Harrison Ave", "Unit A", "Boston, MA 02111"], "state": "MA"}, "price": "$", "transactions": ["pickup"], "display_phone": "(857) 263-7169"}, {"rating": 4.0, "is_closed": false, "distance": 679.036390098, "name": "Anchovies", "id": "anchovies-boston", "image_url": "https://s3-media3.fl.yelpcdn.com/bphoto/5DBU9QMsfTWZIgboy5jQZQ/o.jpg", "url": "https://www.yelp.com/biz/anchovies-boston?adjust_creative=gBcvfFpabk3CnzmXKdYe3w&utm_campaign=yelp_api_v3&utm_medium=api_v3_business_search&utm_source=gBcvfFpabk3CnzmXKdYe3w", "phone": "+16172665088", "coordinates": {"longitude": -71.077598, "latitude": 42.343939}, "categories": [{"alias": "italian", "title": "Italian"}, {"alias": "bars", "title": "Bars"}, {"alias": "salad", "title": "Salad"}], "review_count": 319, "location": {"city": "Boston", "address1": "433 Columbus Ave", "address3": "", "address2": "", "zip_code": "02116", "country": "US", "display_address": ["433 Columbus Ave", "Boston, MA 02116"], "state": "MA"}, "price": "$$", "transactions": [], "display_phone": "(617) 266-5088"}, {"rating": 4.0, "is_closed": false, "distance": 578.80878704, "name": "Franklin Caf\u00e9", "id": "franklin-caf\u00e9-boston-4", "image_url": "https://s3-media2.fl.yelpcdn.com/bphoto/EvYP2X4T_zALhHIGkPxeIw/o.jpg", "url": "https://www.yelp.com/biz/franklin-caf%C3%A9-boston-4?adjust_creative=gBcvfFpabk3CnzmXKdYe3w&utm_campaign=yelp_api_v3&utm_medium=api_v3_business_search&utm_source=gBcvfFpabk3CnzmXKdYe3w", "phone": "+16173500010", "coordinates": {"longitude": -71.06895, "latitude": 42.34291}, "categories": [{"alias": "lounges", "title": "Lounges"}, {"alias": "newamerican", "title": "American (New)"}], "review_count": 479, "location": {"city": "Boston", "address1": "278 Shawmut Ave", "address3": "", "address2": "", "zip_code": "02118", "country": "US", "display_address": ["278 Shawmut Ave", "Boston, MA 02118"], "state": "MA"}, "price": "$$", "transactions": [], "display_phone": "(617) 350-0010"}, {"rating": 4.0, "is_closed": false, "distance": 941.1749430030001, "name": "Kaze Shabu Shabu", "id": "kaze-shabu-shabu-boston", "image_url": "https://s3-media3.fl.yelpcdn.com/bphoto/3J50wWMn__4MsGII7cKAwg/o.jpg", "url": "https://www.yelp.com/biz/kaze-shabu-shabu-boston?adjust_creative=gBcvfFpabk3CnzmXKdYe3w&utm_campaign=yelp_api_v3&utm_medium=api_v3_business_search&utm_source=gBcvfFpabk3CnzmXKdYe3w", "phone": "+16173388283", "coordinates": {"longitude": -71.0614931, "latitude": 42.3522693}, "categories": [{"alias": "japanese", "title": "Japanese"}, {"alias": "hotpot", "title": "Hot Pot"}], "review_count": 479, "location": {"city": "Boston", "address1": "1 Harrison Ave", "address3": "", "address2": null, "zip_code": "02111", "country": "US", "display_address": ["1 Harrison Ave", "Boston, MA 02111"], "state": "MA"}, "price": "$$", "transactions": [], "display_phone": "(617) 338-8283"}, {"rating": 4.0, "is_closed": false, "distance": 1441.516978729, "name": "Mul's Diner", "id": "muls-diner-boston", "image_url": "https://s3-media2.fl.yelpcdn.com/bphoto/G-15DXUOeD1sVf90KSM1KQ/o.jpg", "url": "https://www.yelp.com/biz/muls-diner-boston?adjust_creative=gBcvfFpabk3CnzmXKdYe3w&utm_campaign=yelp_api_v3&utm_medium=api_v3_business_search&utm_source=gBcvfFpabk3CnzmXKdYe3w", "phone": "+16172685748", "coordinates": {"longitude": -71.055726479847, "latitude": 42.3417995548894}, "categories": [{"alias": "diners", "title": "Diners"}], "review_count": 235, "location": {"city": "Boston", "address1": "75 W Broadway", "address3": "", "address2": "", "zip_code": "02127", "country": "US", "display_address": ["75 W Broadway", "Boston, MA 02127"], "state": "MA"}, "price": "$", "transactions": [], "display_phone": "(617) 268-5748"}, {"rating": 4.0, "is_closed": false, "distance": 1277.3713959184, "name": "Mike's City Diner", "id": "mikes-city-diner-boston", "image_url": "https://s3-media4.fl.yelpcdn.com/bphoto/jaQYClwKVh6c2SSKAkaxqA/o.jpg", "url": "https://www.yelp.com/biz/mikes-city-diner-boston?adjust_creative=gBcvfFpabk3CnzmXKdYe3w&utm_campaign=yelp_api_v3&utm_medium=api_v3_business_search&utm_source=gBcvfFpabk3CnzmXKdYe3w", "phone": "+16172679393", "coordinates": {"longitude": -71.0760727, "latitude": 42.3369865}, "categories": [{"alias": "diners", "title": "Diners"}], "review_count": 449, "location": {"city": "Boston", "address1": "1714 Washington St", "address3": "", "address2": "", "zip_code": "02118", "country": "US", "display_address": ["1714 Washington St", "Boston, MA 02118"], "state": "MA"}, "price": "$", "transactions": [], "display_phone": "(617) 267-9393"}, {"rating": 5.0, "is_closed": false, "distance": 4302.873689656, "name": "Roy's Cold Cuts", "id": "roys-cold-cuts-boston", "image_url": "https://s3-media3.fl.yelpcdn.com/bphoto/96PanjQAbcD7sq0nG4WrZw/o.jpg", "url": "https://www.yelp.com/biz/roys-cold-cuts-boston?adjust_creative=gBcvfFpabk3CnzmXKdYe3w&utm_campaign=yelp_api_v3&utm_medium=api_v3_business_search&utm_source=gBcvfFpabk3CnzmXKdYe3w", "phone": "+16175679760", "coordinates": {"longitude": -71.0346527099609, "latitude": 42.3755264282227}, "categories": [{"alias": "delis", "title": "Delis"}, {"alias": "pizza", "title": "Pizza"}, {"alias": "sandwiches", "title": "Sandwiches"}], "review_count": 69, "location": {"city": "Boston", "address1": "198 Marion St", "address3": "", "address2": "", "zip_code": "02128", "country": "US", "display_address": ["198 Marion St", "Boston, MA 02128"], "state": "MA"}, "price": "$", "transactions": ["delivery", "pickup"], "display_phone": "(617) 567-9760"}, {"rating": 4.0, "is_closed": false, "distance": 865.5547761875999, "name": "Abe & Louie's", "id": "abe-and-louies-boston-2", "image_url": "https://s3-media2.fl.yelpcdn.com/bphoto/kyy_EkakIG8EzSbnKlBCgg/o.jpg", "url": "https://www.yelp.com/biz/abe-and-louies-boston-2?adjust_creative=gBcvfFpabk3CnzmXKdYe3w&utm_campaign=yelp_api_v3&utm_medium=api_v3_business_search&utm_source=gBcvfFpabk3CnzmXKdYe3w", "phone": "+16175366300", "coordinates": {"longitude": -71.0815887451172, "latitude": 42.3492240905762}, "categories": [{"alias": "steak", "title": "Steakhouses"}], "review_count": 966, "location": {"city": "Boston", "address1": "793 Boylston St", "address3": "", "address2": "", "zip_code": "02116", "country": "US", "display_address": ["793 Boylston St", "Boston, MA 02116"], "state": "MA"}, "price": "$$$", "transactions": [], "display_phone": "(617) 536-6300"}, {"rating": 4.5, "is_closed": false, "distance": 724.8368546523999, "name": "Commonwealth Avenue Mall", "id": "commonwealth-avenue-mall-boston", "image_url": "https://s3-media3.fl.yelpcdn.com/bphoto/yWYOsJq54B2k-kETfhh93g/o.jpg", "url": "https://www.yelp.com/biz/commonwealth-avenue-mall-boston?adjust_creative=gBcvfFpabk3CnzmXKdYe3w&utm_campaign=yelp_api_v3&utm_medium=api_v3_business_search&utm_source=gBcvfFpabk3CnzmXKdYe3w", "phone": "+16176354500", "coordinates": {"longitude": -71.094223, "latitude": 42.348503}, "categories": [{"alias": "parks", "title": "Parks"}], "review_count": 19, "location": {"city": "Boston", "address1": "484 Commonwealth Ave", "address3": "", "address2": "", "zip_code": "02116", "country": "US", "display_address": ["484 Commonwealth Ave", "Boston, MA 02116"], "state": "MA"}, "transactions": [], "display_phone": "(617) 635-4500"}, {"rating": 4.5, "is_closed": false, "distance": 1900.952890802, "name": "Croke Park/Whitey's", "id": "croke-park-whiteys-boston", "image_url": "https://s3-media2.fl.yelpcdn.com/bphoto/Afl64EKLNX8ZwDUd-CuMXw/o.jpg", "url": "https://www.yelp.com/biz/croke-park-whiteys-boston?adjust_creative=gBcvfFpabk3CnzmXKdYe3w&utm_campaign=yelp_api_v3&utm_medium=api_v3_business_search&utm_source=gBcvfFpabk3CnzmXKdYe3w", "phone": "+16174644869", "coordinates": {"longitude": -71.0513278841972, "latitude": 42.3391748964787}, "categories": [{"alias": "divebars", "title": "Dive Bars"}], "review_count": 81, "location": {"city": "Boston", "address1": "268 W Broadway", "address3": "", "address2": null, "zip_code": "02127", "country": "US", "display_address": ["268 W Broadway", "Boston, MA 02127"], "state": "MA"}, "price": "$", "transactions": [], "display_phone": "(617) 464-4869"}, {"rating": 4.0, "is_closed": false, "distance": 1370.297004968, "name": "Moonshine 152", "id": "moonshine-152-boston", "image_url": "https://s3-media1.fl.yelpcdn.com/bphoto/k0V3tncNKee3qz-fIkgA5Q/o.jpg", "url": "https://www.yelp.com/biz/moonshine-152-boston?adjust_creative=gBcvfFpabk3CnzmXKdYe3w&utm_campaign=yelp_api_v3&utm_medium=api_v3_business_search&utm_source=gBcvfFpabk3CnzmXKdYe3w", "phone": "+16177524191", "coordinates": {"longitude": -71.0569151, "latitude": 42.34133}, "categories": [{"alias": "newamerican", "title": "American (New)"}, {"alias": "asianfusion", "title": "Asian Fusion"}], "review_count": 182, "location": {"city": "Boston", "address1": "152 Dorchester Ave", "address3": "", "address2": "", "zip_code": "02127", "country": "US", "display_address": ["152 Dorchester Ave", "Boston, MA 02127"], "state": "MA"}, "price": "$$", "transactions": [], "display_phone": "(617) 752-4191"}, {"rating": 4.0, "is_closed": false, "distance": 1119.051189386, "name": "Figaro's", "id": "figaros-boston", "image_url": "https://s3-media1.fl.yelpcdn.com/bphoto/mYwg9eTtAJLp1mbr0HcyKw/o.jpg", "url": "https://www.yelp.com/biz/figaros-boston?adjust_creative=gBcvfFpabk3CnzmXKdYe3w&utm_campaign=yelp_api_v3&utm_medium=api_v3_business_search&utm_source=gBcvfFpabk3CnzmXKdYe3w", "phone": "+16174262121", "coordinates": {"longitude": -71.0583190917969, "latitude": 42.3506813049316}, "categories": [{"alias": "delis", "title": "Delis"}], "review_count": 112, "location": {"city": "Boston", "address1": "105 Beach St", "address3": "", "address2": "", "zip_code": "02111", "country": "US", "display_address": ["105 Beach St", "Boston, MA 02111"], "state": "MA"}, "price": "$", "transactions": [], "display_phone": "(617) 426-2121"}, {"rating": 4.0, "is_closed": false, "distance": 1304.9774992895998, "name": "Chacarero", "id": "chacarero-boston-2", "image_url": "https://s3-media2.fl.yelpcdn.com/bphoto/9O-63qgm1QuHqYiyEA7x1A/o.jpg", "url": "https://www.yelp.com/biz/chacarero-boston-2?adjust_creative=gBcvfFpabk3CnzmXKdYe3w&utm_campaign=yelp_api_v3&utm_medium=api_v3_business_search&utm_source=gBcvfFpabk3CnzmXKdYe3w", "phone": "+16175420392", "coordinates": {"longitude": -71.0586917750412, "latitude": 42.3550350322331}, "categories": [{"alias": "sandwiches", "title": "Sandwiches"}, {"alias": "latin", "title": "Latin American"}], "review_count": 347, "location": {"city": "Boston", "address1": "101 Arch St", "address3": "", "address2": "", "zip_code": "02108", "country": "US", "display_address": ["101 Arch St", "Boston, MA 02108"], "state": "MA"}, "price": "$", "transactions": [], "display_phone": "(617) 542-0392"}, {"rating": 4.0, "is_closed": false, "distance": 2180.917539618, "name": "Thinking Cup", "id": "thinking-cup-boston-3", "image_url": "https://s3-media3.fl.yelpcdn.com/bphoto/DZ6Uhr2MpbQnUKTkXOXxFg/o.jpg", "url": "https://www.yelp.com/biz/thinking-cup-boston-3?adjust_creative=gBcvfFpabk3CnzmXKdYe3w&utm_campaign=yelp_api_v3&utm_medium=api_v3_business_search&utm_source=gBcvfFpabk3CnzmXKdYe3w", "phone": "+18572335277", "coordinates": {"longitude": -71.0550363743384, "latitude": 42.3633754209916}, "categories": [{"alias": "coffee", "title": "Coffee & Tea"}, {"alias": "sandwiches", "title": "Sandwiches"}, {"alias": "bagels", "title": "Bagels"}], "review_count": 405, "location": {"city": "Boston", "address1": "236 Hanover St", "address3": "", "address2": "", "zip_code": "02113", "country": "US", "display_address": ["236 Hanover St", "Boston, MA 02113"], "state": "MA"}, "price": "$", "transactions": [], "display_phone": "(857) 233-5277"}, {"rating": 4.0, "is_closed": false, "distance": 1359.442811338, "name": "Marliave", "id": "marliave-boston", "image_url": "https://s3-media1.fl.yelpcdn.com/bphoto/70ssmmwKqe3PLkbxlv2F4Q/o.jpg", "url": "https://www.yelp.com/biz/marliave-boston?adjust_creative=gBcvfFpabk3CnzmXKdYe3w&utm_campaign=yelp_api_v3&utm_medium=api_v3_business_search&utm_source=gBcvfFpabk3CnzmXKdYe3w", "phone": "+16174220004", "coordinates": {"longitude": -71.060306250729, "latitude": 42.357014071346}, "categories": [{"alias": "french", "title": "French"}, {"alias": "italian", "title": "Italian"}], "review_count": 1045, "location": {"city": "Boston", "address1": "10 Bosworth St", "address3": "", "address2": "", "zip_code": "02108", "country": "US", "display_address": ["10 Bosworth St", "Boston, MA 02108"], "state": "MA"}, "price": "$$$", "transactions": [], "display_phone": "(617) 422-0004"}, {"rating": 4.5, "is_closed": false, "distance": 2367.871992474, "name": "HarborWalk", "id": "harborwalk-boston", "image_url": "https://s3-media2.fl.yelpcdn.com/bphoto/oWrU1eO0T6YV_T7UQLmWZg/o.jpg", "url": "https://www.yelp.com/biz/harborwalk-boston?adjust_creative=gBcvfFpabk3CnzmXKdYe3w&utm_campaign=yelp_api_v3&utm_medium=api_v3_business_search&utm_source=gBcvfFpabk3CnzmXKdYe3w", "phone": "+16174821722", "coordinates": {"longitude": -71.05526, "latitude": 42.36549}, "categories": [{"alias": "parks", "title": "Parks"}], "review_count": 42, "location": {"city": "Boston", "address1": "", "address3": "", "address2": "", "zip_code": "02113", "country": "US", "display_address": ["Boston, MA 02113"], "state": "MA"}, "transactions": [], "display_phone": "(617) 482-1722"}, {"rating": 4.0, "is_closed": false, "distance": 1520.97999197, "name": "Corner Tavern", "id": "corner-tavern-boston", "image_url": "https://s3-media2.fl.yelpcdn.com/bphoto/6HoLVAEkWjVAzTObv1JOqg/o.jpg", "url": "https://www.yelp.com/biz/corner-tavern-boston?adjust_creative=gBcvfFpabk3CnzmXKdYe3w&utm_campaign=yelp_api_v3&utm_medium=api_v3_business_search&utm_source=gBcvfFpabk3CnzmXKdYe3w", "phone": "+16172625555", "coordinates": {"longitude": -71.0894393920898, "latitude": 42.3501434326172}, "categories": [{"alias": "bars", "title": "Bars"}, {"alias": "newamerican", "title": "American (New)"}], "review_count": 214, "location": {"city": "Boston", "address1": "421 Marlborough St", "address3": "", "address2": "", "zip_code": "02115", "country": "US", "display_address": ["421 Marlborough St", "Boston, MA 02115"], "state": "MA"}, "price": "$$", "transactions": [], "display_phone": "(617) 262-5555"}, {"rating": 4.5, "is_closed": false, "distance": 932.761554884, "name": "Shakespeare on the Common", "id": "shakespeare-on-the-common-boston", "image_url": "https://s3-media2.fl.yelpcdn.com/bphoto/zeGb5gazAlmM608hAEgNng/o.jpg", "url": "https://www.yelp.com/biz/shakespeare-on-the-common-boston?adjust_creative=gBcvfFpabk3CnzmXKdYe3w&utm_campaign=yelp_api_v3&utm_medium=api_v3_business_search&utm_source=gBcvfFpabk3CnzmXKdYe3w", "phone": "+16174260863", "coordinates": {"longitude": -71.05785, "latitude": 42.35865}, "categories": [{"alias": "parks", "title": "Parks"}, {"alias": "theater", "title": "Performing Arts"}], "review_count": 38, "location": {"city": "Boston", "address1": "Boston Common", "address3": "", "address2": null, "zip_code": "02116", "country": "US", "display_address": ["Boston Common", "Boston, MA 02116"], "state": "MA"}, "transactions": [], "display_phone": "(617) 426-0863"}, {"rating": 4.0, "is_closed": false, "distance": 1464.6036208584, "name": "Ruth's Chris Steak House", "id": "ruths-chris-steak-house-boston-2", "image_url": "https://s3-media1.fl.yelpcdn.com/bphoto/z8PjolPi1_FXGexEayGpaw/o.jpg", "url": "https://www.yelp.com/biz/ruths-chris-steak-house-boston-2?adjust_creative=gBcvfFpabk3CnzmXKdYe3w&utm_campaign=yelp_api_v3&utm_medium=api_v3_business_search&utm_source=gBcvfFpabk3CnzmXKdYe3w", "phone": "+16177428401", "coordinates": {"longitude": -71.0596454143524, "latitude": 42.3578462497398}, "categories": [{"alias": "steak", "title": "Steakhouses"}, {"alias": "seafood", "title": "Seafood"}, {"alias": "tradamerican", "title": "American (Traditional)"}], "review_count": 655, "location": {"city": "Boston", "address1": "45 School St", "address3": "", "address2": "", "zip_code": "02108", "country": "US", "display_address": ["45 School St", "Boston, MA 02108"], "state": "MA"}, "price": "$$$$", "transactions": [], "display_phone": "(617) 742-8401"}, {"rating": 4.0, "is_closed": false, "distance": 2316.205097378, "name": "Dino's", "id": "dinos-boston-2", "image_url": "https://s3-media4.fl.yelpcdn.com/bphoto/1BxwmbQ-NyY8XHAa7KC_vg/o.jpg", "url": "https://www.yelp.com/biz/dinos-boston-2?adjust_creative=gBcvfFpabk3CnzmXKdYe3w&utm_campaign=yelp_api_v3&utm_medium=api_v3_business_search&utm_source=gBcvfFpabk3CnzmXKdYe3w", "phone": "+16172271991", "coordinates": {"longitude": -71.0554091475888, "latitude": 42.3650794946373}, "categories": [{"alias": "italian", "title": "Italian"}, {"alias": "delis", "title": "Delis"}], "review_count": 288, "location": {"city": "Boston", "address1": "141 Salem St", "address3": "", "address2": "", "zip_code": "02113", "country": "US", "display_address": ["141 Salem St", "Boston, MA 02113"], "state": "MA"}, "price": "$$", "transactions": ["pickup"], "display_phone": "(617) 227-1991"}, {"rating": 4.0, "is_closed": false, "distance": 1212.5120971063998, "name": "Lucy Ethiopian Cafe", "id": "lucy-ethiopian-cafe-boston-2", "image_url": "https://s3-media3.fl.yelpcdn.com/bphoto/PLPkzA6YoqOujL6gtL5_UQ/o.jpg", "url": "https://www.yelp.com/biz/lucy-ethiopian-cafe-boston-2?adjust_creative=gBcvfFpabk3CnzmXKdYe3w&utm_campaign=yelp_api_v3&utm_medium=api_v3_business_search&utm_source=gBcvfFpabk3CnzmXKdYe3w", "phone": "+16175360415", "coordinates": {"longitude": -71.0841231, "latitude": 42.3423687}, "categories": [{"alias": "ethiopian", "title": "Ethiopian"}, {"alias": "coffee", "title": "Coffee & Tea"}], "review_count": 305, "location": {"city": "Boston", "address1": "334 Massachusetts Ave", "address3": "", "address2": "", "zip_code": "02115", "country": "US", "display_address": ["334 Massachusetts Ave", "Boston, MA 02115"], "state": "MA"}, "price": "$$", "transactions": [], "display_phone": "(617) 536-0415"}, {"rating": 4.0, "is_closed": false, "distance": 1893.4548148079998, "name": "Sportello", "id": "sportello-boston", "image_url": "https://s3-media3.fl.yelpcdn.com/bphoto/geHArT2KZffi1WN9HkeKNg/o.jpg", "url": "https://www.yelp.com/biz/sportello-boston?adjust_creative=gBcvfFpabk3CnzmXKdYe3w&utm_campaign=yelp_api_v3&utm_medium=api_v3_business_search&utm_source=gBcvfFpabk3CnzmXKdYe3w", "phone": "+16177371234", "coordinates": {"longitude": -71.04846, "latitude": 42.35067}, "categories": [{"alias": "italian", "title": "Italian"}], "review_count": 685, "location": {"city": "Boston", "address1": "348 Congress St", "address3": "", "address2": "", "zip_code": "02210", "country": "US", "display_address": ["348 Congress St", "Boston, MA 02210"], "state": "MA"}, "price": "$$$", "transactions": [], "display_phone": "(617) 737-1234"}, {"rating": 4.5, "is_closed": false, "distance": 2387.0801091099997, "name": "Mei Mei Street Kitchen", "id": "mei-mei-street-kitchen-boston-4", "image_url": "https://s3-media3.fl.yelpcdn.com/bphoto/MbEEx7IFp-vgwMSeeAyMsQ/o.jpg", "url": "https://www.yelp.com/biz/mei-mei-street-kitchen-boston-4?adjust_creative=gBcvfFpabk3CnzmXKdYe3w&utm_campaign=yelp_api_v3&utm_medium=api_v3_business_search&utm_source=gBcvfFpabk3CnzmXKdYe3w", "phone": "+18572504959", "coordinates": {"longitude": -71.1020126342773, "latitude": 42.3475456237793}, "categories": [{"alias": "foodtrucks", "title": "Food Trucks"}, {"alias": "asianfusion", "title": "Asian Fusion"}], "review_count": 171, "location": {"city": "Boston", "address1": "", "address3": "", "address2": "", "zip_code": "02215", "country": "US", "display_address": ["Boston, MA 02215"], "state": "MA"}, "price": "$", "transactions": [], "display_phone": "(857) 250-4959"}, {"rating": 4.0, "is_closed": false, "distance": 2424.42001579, "name": "Locale", "id": "locale-boston", "image_url": "https://s3-media2.fl.yelpcdn.com/bphoto/82p_oNvNIARbWkeJi53NFw/o.jpg", "url": "https://www.yelp.com/biz/locale-boston?adjust_creative=gBcvfFpabk3CnzmXKdYe3w&utm_campaign=yelp_api_v3&utm_medium=api_v3_business_search&utm_source=gBcvfFpabk3CnzmXKdYe3w", "phone": "+16177429600", "coordinates": {"longitude": -71.053187, "latitude": 42.3650849}, "categories": [{"alias": "italian", "title": "Italian"}, {"alias": "pizza", "title": "Pizza"}], "review_count": 225, "location": {"city": "Boston", "address1": "352 Hanover St", "address3": "", "address2": "", "zip_code": "02113", "country": "US", "display_address": ["352 Hanover St", "Boston, MA 02113"], "state": "MA"}, "price": "$$", "transactions": [], "display_phone": "(617) 742-9600"}]}