{"total": 24837, "region": {"center": {"longitude": -71.07124328613281, "latitude": 42.34784169448538}}, "businesses": [{"rating": 3.5, "is_closed": false, "distance": 188.54150349699998, "name": "Red Lantern", "id": "red-lantern-boston", "image_url": "https://s3-media2.fl.yelpcdn.com/bphoto/ruevXFXLxhcBoBcFikvlrA/o.jpg", "url": "https://www.yelp.com/biz/red-lantern-boston?adjust_creative=gBcvfFpabk3CnzmXKdYe3w&utm_campaign=yelp_api_v3&utm_medium=api_v3_business_search&utm_source=gBcvfFpabk3CnzmXKdYe3w", "phone": "+16172623900", "coordinates": {"longitude": -71.073356628418, "latitude": 42.348503112793}, "categories": [{"alias": "asianfusion", "title": "Asian Fusion"}, {"alias": "sushi", "title": "Sushi Bars"}, {"alias": "cocktailbars", "title": "Cocktail Bars"}], "review_count": 535, "location": {"city": "Boston", "address1": "39 Stanhope St", "address3": "", "address2": "", "zip_code": "02116", "country": "US", "display_address": ["39 Stanhope St", "Boston, MA 02116"], "state": "MA"}, "price": "$$$", "transactions": ["delivery"], "display_phone": "(617) 262-3900"}, {"rating": 4.0, "is_closed": false, "distance": 2953.43823724, "name": "Todd English's Figs", "id": "todd-englishs-figs-boston", "image_url": "https://s3-media4.fl.yelpcdn.com/bphoto/qSd3xWgsYXHs0Z-CEI5RZw/o.jpg", "url": "https://www.yelp.com/biz/todd-englishs-figs-boston?adjust_creative=gBcvfFpabk3CnzmXKdYe3w&utm_campaign=yelp_api_v3&utm_medium=api_v3_business_search&utm_source=gBcvfFpabk3CnzmXKdYe3w", "phone": "+16172422229", "coordinates": {"longitude": -71.062565, "latitude": 42.373618}, "categories": [{"alias": "pizza", "title": "Pizza"}, {"alias": "italian", "title": "Italian"}], "review_count": 315, "location": {"city": "Boston", "address1": "67 Main St", "address3": "", "address2": "", "zip_code": "02129", "country": "US", "display_address": ["67 Main St", "Boston, MA 02129"], "state": "MA"}, "price": "$$", "transactions": ["delivery", "pickup"], "display_phone": "(617) 242-2229"}, {"rating": 3.5, "is_closed": false, "distance": 1236.6508130739999, "name": "Parish Cafe", "id": "parish-cafe-boston-2", "image_url": "https://s3-media3.fl.yelpcdn.com/bphoto/xFm9MRsoyHC8RYl-gqAC2w/o.jpg", "url": "https://www.yelp.com/biz/parish-cafe-boston-2?adjust_creative=gBcvfFpabk3CnzmXKdYe3w&utm_campaign=yelp_api_v3&utm_medium=api_v3_business_search&utm_source=gBcvfFpabk3CnzmXKdYe3w", "phone": "+16173910501", "coordinates": {"longitude": -71.0805817, "latitude": 42.3393478}, "categories": [{"alias": "newamerican", "title": "American (New)"}, {"alias": "sandwiches", "title": "Sandwiches"}, {"alias": "bars", "title": "Bars"}], "review_count": 229, "location": {"city": "Boston", "address1": "493 Massachusetts Ave", "address3": null, "address2": null, "zip_code": "02118", "country": "US", "display_address": ["493 Massachusetts Ave", "Boston, MA 02118"], "state": "MA"}, "price": "$$", "transactions": [], "display_phone": "(617) 391-0501"}, {"rating": 3.5, "is_closed": false, "distance": 2695.291410804, "name": "Del Frisco's Double Eagle Steak House", "id": "del-friscos-double-eagle-steak-house-boston-3", "image_url": "https://s3-media4.fl.yelpcdn.com/bphoto/hm3IlPXwhtO7bs_3mbYcjw/o.jpg", "url": "https://www.yelp.com/biz/del-friscos-double-eagle-steak-house-boston-3?adjust_creative=gBcvfFpabk3CnzmXKdYe3w&utm_campaign=yelp_api_v3&utm_medium=api_v3_business_search&utm_source=gBcvfFpabk3CnzmXKdYe3w", "phone": "+16179511368", "coordinates": {"longitude": -71.0384720380287, "latitude": 42.348867116523}, "categories": [{"alias": "seafood", "title": "Seafood"}, {"alias": "steak", "title": "Steakhouses"}], "review_count": 660, "location": {"city": "Boston", "address1": "250 Northern Ave", "address3": "", "address2": "Ste 200", "zip_code": "02210", "country": "US", "display_address": ["250 Northern Ave", "Ste 200", "Boston, MA 02210"], "state": "MA"}, "price": "$$$$", "transactions": [], "display_phone": "(617) 951-1368"}, {"rating": 4.0, "is_closed": false, "distance": 2427.123546056, "name": "Anthony's Cafe", "id": "anthonys-cafe-boston", "image_url": "https://s3-media4.fl.yelpcdn.com/bphoto/Hw5sGFWdKldns8z9iqnL3w/o.jpg", "url": "https://www.yelp.com/biz/anthonys-cafe-boston?adjust_creative=gBcvfFpabk3CnzmXKdYe3w&utm_campaign=yelp_api_v3&utm_medium=api_v3_business_search&utm_source=gBcvfFpabk3CnzmXKdYe3w", "phone": "+16177422987", "coordinates": {"longitude": -71.0513610839844, "latitude": 42.3639907836914}, "categories": [{"alias": "italian", "title": "Italian"}, {"alias": "breakfast_brunch", "title": "Breakfast & Brunch"}], "review_count": 114, "location": {"city": "Boston", "address1": "252 Commercial St", "address3": "", "address2": "", "zip_code": "02109", "country": "US", "display_address": ["252 Commercial St", "Boston, MA 02109"], "state": "MA"}, "price": "$", "transactions": [], "display_phone": "(617) 742-2987"}, {"rating": 4.5, "is_closed": false, "distance": 2482.246016, "name": "Baltic Deli & Cafe", "id": "baltic-deli-and-cafe-boston", "image_url": "https://s3-media3.fl.yelpcdn.com/bphoto/V_zy7by-ctvtltQloctj8w/o.jpg", "url": "https://www.yelp.com/biz/baltic-deli-and-cafe-boston?adjust_creative=gBcvfFpabk3CnzmXKdYe3w&utm_campaign=yelp_api_v3&utm_medium=api_v3_business_search&utm_source=gBcvfFpabk3CnzmXKdYe3w", "phone": "+16172682435", "coordinates": {"longitude": -71.05669, "latitude": 42.32826}, "categories": [{"alias": "delis", "title": "Delis"}, {"alias": "importedfood", "title": "Imported Food"}], "review_count": 34, "location": {"city": "Boston", "address1": "632 Dorchester Ave", "address3": "", "address2": "", "zip_code": "02127", "country": "US", "display_address": ["632 Dorchester Ave", "Boston, MA 02127"], "state": "MA"}, "price": "$", "transactions": [], "display_phone": "(617) 268-2435"}, {"rating": 3.5, "is_closed": false, "distance": 2339.846462912, "name": "Trattoria Di Monica", "id": "trattoria-di-monica-boston", "image_url": "https://s3-media3.fl.yelpcdn.com/bphoto/wZ_u_7Qe0pOwILsTUa5UnA/o.jpg", "url": "https://www.yelp.com/biz/trattoria-di-monica-boston?adjust_creative=gBcvfFpabk3CnzmXKdYe3w&utm_campaign=yelp_api_v3&utm_medium=api_v3_business_search&utm_source=gBcvfFpabk3CnzmXKdYe3w", "phone": "+16177205472", "coordinates": {"longitude": -71.05523, "latitude": 42.36522}, "categories": [{"alias": "italian", "title": "Italian"}], "review_count": 380, "location": {"city": "Boston", "address1": "67 Prince St", "address3": "", "address2": null, "zip_code": "02113", "country": "US", "display_address": ["67 Prince St", "Boston, MA 02113"], "state": "MA"}, "price": "$$$", "transactions": [], "display_phone": "(617) 720-5472"}, {"rating": 3.5, "is_closed": false, "distance": 979.4092403879998, "name": "Great Taste Bakery & Restaurant", "id": "great-taste-bakery-and-restaurant-boston", "image_url": "https://s3-media2.fl.yelpcdn.com/bphoto/a4PUpcJ2bkoQWhxLykMVIw/o.jpg", "url": "https://www.yelp.com/biz/great-taste-bakery-and-restaurant-boston?adjust_creative=gBcvfFpabk3CnzmXKdYe3w&utm_campaign=yelp_api_v3&utm_medium=api_v3_business_search&utm_source=gBcvfFpabk3CnzmXKdYe3w", "phone": "+16174268899", "coordinates": {"longitude": -71.0601959228516, "latitude": 42.3510971069336}, "categories": [{"alias": "bakeries", "title": "Bakeries"}, {"alias": "dimsum", "title": "Dim Sum"}, {"alias": "cantonese", "title": "Cantonese"}], "review_count": 244, "location": {"city": "Boston", "address1": "63 Beach St", "address3": "", "address2": "", "zip_code": "02111", "country": "US", "display_address": ["63 Beach St", "Boston, MA 02111"], "state": "MA"}, "price": "$", "transactions": [], "display_phone": "(617) 426-8899"}, {"rating": 4.5, "is_closed": false, "distance": 4757.59206292, "name": "Dolphin Bay", "id": "dolphin-bay-boston", "image_url": "https://s3-media3.fl.yelpcdn.com/bphoto/vjjE90A28GWCjg31h0fG5A/o.jpg", "url": "https://www.yelp.com/biz/dolphin-bay-boston?adjust_creative=gBcvfFpabk3CnzmXKdYe3w&utm_campaign=yelp_api_v3&utm_medium=api_v3_business_search&utm_source=gBcvfFpabk3CnzmXKdYe3w", "phone": "+16175621668", "coordinates": {"longitude": -71.128802412403, "latitude": 42.3524595116339}, "categories": [{"alias": "taiwanese", "title": "Taiwanese"}, {"alias": "bubbletea", "title": "Bubble Tea"}], "review_count": 239, "location": {"city": "Boston", "address1": "72 Brighton Ave", "address3": "", "address2": "", "zip_code": "02134", "country": "US", "display_address": ["72 Brighton Ave", "Boston, MA 02134"], "state": "MA"}, "price": "$", "transactions": [], "display_phone": "(617) 562-1668"}, {"rating": 3.5, "is_closed": false, "distance": 2753.372652338, "name": "Legal Harborside", "id": "legal-harborside-boston-6", "image_url": "https://s3-media4.fl.yelpcdn.com/bphoto/KK2qO--580Yc_IjTt4ymBQ/o.jpg", "url": "https://www.yelp.com/biz/legal-harborside-boston-6?adjust_creative=gBcvfFpabk3CnzmXKdYe3w&utm_campaign=yelp_api_v3&utm_medium=api_v3_business_search&utm_source=gBcvfFpabk3CnzmXKdYe3w", "phone": "+16174772900", "coordinates": {"longitude": -71.0378647, "latitude": 42.3485739}, "categories": [{"alias": "seafood", "title": "Seafood"}, {"alias": "tradamerican", "title": "American (Traditional)"}, {"alias": "wine_bars", "title": "Wine Bars"}], "review_count": 917, "location": {"city": "Boston", "address1": "270 Northern Ave", "address3": "", "address2": "", "zip_code": "02210", "country": "US", "display_address": ["270 Northern Ave", "Boston, MA 02210"], "state": "MA"}, "price": "$$$", "transactions": [], "display_phone": "(617) 477-2900"}, {"rating": 3.5, "is_closed": false, "distance": 1864.446461308, "name": "Pastoral - Artisan Pizza, Kitchen & Bar", "id": "pastoral-artisan-pizza-kitchen-and-bar-boston", "image_url": "https://s3-media4.fl.yelpcdn.com/bphoto/JLbyHv19ZDgf-MJ53YQ6ug/o.jpg", "url": "https://www.yelp.com/biz/pastoral-artisan-pizza-kitchen-and-bar-boston?adjust_creative=gBcvfFpabk3CnzmXKdYe3w&utm_campaign=yelp_api_v3&utm_medium=api_v3_business_search&utm_source=gBcvfFpabk3CnzmXKdYe3w", "phone": "+16173450005", "coordinates": {"longitude": -71.0488574567263, "latitude": 42.3505763940776}, "categories": [{"alias": "pizza", "title": "Pizza"}, {"alias": "beerbar", "title": "Beer Bar"}, {"alias": "cocktailbars", "title": "Cocktail Bars"}], "review_count": 307, "location": {"city": "Boston", "address1": "345 Congress St", "address3": "", "address2": "", "zip_code": "02210", "country": "US", "display_address": ["345 Congress St", "Boston, MA 02210"], "state": "MA"}, "price": "$$", "transactions": [], "display_phone": "(617) 345-0005"}, {"rating": 4.0, "is_closed": false, "distance": 1967.7915168799998, "name": "Harborside Inn", "id": "harborside-inn-boston", "image_url": "https://s3-media4.fl.yelpcdn.com/bphoto/eEwUjOeWsn-9z5A_8MgTaQ/o.jpg", "url": "https://www.yelp.com/biz/harborside-inn-boston?adjust_creative=gBcvfFpabk3CnzmXKdYe3w&utm_campaign=yelp_api_v3&utm_medium=api_v3_business_search&utm_source=gBcvfFpabk3CnzmXKdYe3w", "phone": "+16177237500", "coordinates": {"longitude": -71.05278, "latitude": 42.35915}, "categories": [{"alias": "hotels", "title": "Hotels"}, {"alias": "lounges", "title": "Lounges"}], "review_count": 153, "location": {"city": "Boston", "address1": "185 State St", "address3": "", "address2": "", "zip_code": "02109", "country": "US", "display_address": ["185 State St", "Boston, MA 02109"], "state": "MA"}, "price": "$$", "transactions": [], "display_phone": "(617) 723-7500"}, {"rating": 4.5, "is_closed": false, "distance": 510.3438585184, "name": "Bon Me", "id": "bon-me-boston-14", "image_url": "https://s3-media3.fl.yelpcdn.com/bphoto/tq9tUjSMl7j_wTECvFqX_g/o.jpg", "url": "https://www.yelp.com/biz/bon-me-boston-14?adjust_creative=gBcvfFpabk3CnzmXKdYe3w&utm_campaign=yelp_api_v3&utm_medium=api_v3_business_search&utm_source=gBcvfFpabk3CnzmXKdYe3w", "phone": "+16176528462", "coordinates": {"longitude": -71.075655, "latitude": 42.351175}, "categories": [{"alias": "foodtrucks", "title": "Food Trucks"}, {"alias": "vietnamese", "title": "Vietnamese"}], "review_count": 20, "location": {"city": "Boston", "address1": "220 Clarendon St", "address3": "", "address2": "", "zip_code": "02116", "country": "US", "display_address": ["220 Clarendon St", "Boston, MA 02116"], "state": "MA"}, "price": "$", "transactions": [], "display_phone": "(617) 652-8462"}, {"rating": 4.5, "is_closed": false, "distance": 3494.841295594, "name": "Mirisola's", "id": "mirisolas-boston", "image_url": "https://s3-media2.fl.yelpcdn.com/bphoto/DDb5SFAUmo5aQguW9gvJlw/o.jpg", "url": "https://www.yelp.com/biz/mirisolas-boston?adjust_creative=gBcvfFpabk3CnzmXKdYe3w&utm_campaign=yelp_api_v3&utm_medium=api_v3_business_search&utm_source=gBcvfFpabk3CnzmXKdYe3w", "phone": "+16172699701", "coordinates": {"longitude": -71.0350112915039, "latitude": 42.331371307373}, "categories": [{"alias": "italian", "title": "Italian"}, {"alias": "pizza", "title": "Pizza"}], "review_count": 53, "location": {"city": "Boston", "address1": "200 L St", "address3": "", "address2": "", "zip_code": "02127", "country": "US", "display_address": ["200 L St", "Boston, MA 02127"], "state": "MA"}, "price": "$", "transactions": [], "display_phone": "(617) 269-9701"}, {"rating": 4.0, "is_closed": false, "distance": 4167.322843872, "name": "Brown Sugar Cafe", "id": "brown-sugar-cafe-boston-2", "image_url": "https://s3-media2.fl.yelpcdn.com/bphoto/JIsq9skASZW2J2U0igebRg/o.jpg", "url": "https://www.yelp.com/biz/brown-sugar-cafe-boston-2?adjust_creative=gBcvfFpabk3CnzmXKdYe3w&utm_campaign=yelp_api_v3&utm_medium=api_v3_business_search&utm_source=gBcvfFpabk3CnzmXKdYe3w", "phone": "+16177874242", "coordinates": {"longitude": -71.121633890381, "latitude": 42.352041047903}, "categories": [{"alias": "thai", "title": "Thai"}], "review_count": 761, "location": {"city": "Boston", "address1": "1033 Commonwealth Ave", "address3": "", "address2": null, "zip_code": "02215", "country": "US", "display_address": ["1033 Commonwealth Ave", "Boston, MA 02215"], "state": "MA"}, "price": "$$", "transactions": [], "display_phone": "(617) 787-4242"}, {"rating": 4.0, "is_closed": false, "distance": 586.956392658, "name": "Blaze Fast Fire'd Pizza", "id": "blaze-fast-fired-pizza-boston-4", "image_url": "https://s3-media3.fl.yelpcdn.com/bphoto/sT_20M0dWhOZWteQ2Qte6A/o.jpg", "url": "https://www.yelp.com/biz/blaze-fast-fired-pizza-boston-4?adjust_creative=gBcvfFpabk3CnzmXKdYe3w&utm_campaign=yelp_api_v3&utm_medium=api_v3_business_search&utm_source=gBcvfFpabk3CnzmXKdYe3w", "phone": "+16174205200", "coordinates": {"longitude": -71.0655469447374, "latitude": 42.3511449247599}, "categories": [{"alias": "salad", "title": "Salad"}, {"alias": "hotdogs", "title": "Fast Food"}, {"alias": "pizza", "title": "Pizza"}], "review_count": 43, "location": {"city": "Boston", "address1": "123 Stuart St", "address3": null, "address2": null, "zip_code": "02116", "country": "US", "display_address": ["123 Stuart St", "Boston, MA 02116"], "state": "MA"}, "price": "$", "transactions": [], "display_phone": "(617) 420-5200"}, {"rating": 4.0, "is_closed": false, "distance": 871.807802384, "name": "Capital One Caf\u00e9", "id": "capital-one-caf\u00e9-boston-4", "image_url": "https://s3-media4.fl.yelpcdn.com/bphoto/SZACJAvjH32at8zm9UTKqQ/o.jpg", "url": "https://www.yelp.com/biz/capital-one-caf%C3%A9-boston-4?adjust_creative=gBcvfFpabk3CnzmXKdYe3w&utm_campaign=yelp_api_v3&utm_medium=api_v3_business_search&utm_source=gBcvfFpabk3CnzmXKdYe3w", "phone": "+16172360585", "coordinates": {"longitude": -71.081711, "latitude": 42.349119}, "categories": [{"alias": "banks", "title": "Banks & Credit Unions"}, {"alias": "coffee", "title": "Coffee & Tea"}, {"alias": "internetcafe", "title": "Internet Cafes"}], "review_count": 45, "location": {"city": "Boston", "address1": "799 Boylston St", "address3": "", "address2": null, "zip_code": "02116", "country": "US", "display_address": ["799 Boylston St", "Boston, MA 02116"], "state": "MA"}, "price": "$", "transactions": [], "display_phone": "(617) 236-0585"}, {"rating": 3.5, "is_closed": false, "distance": 2225.8308394039996, "name": "Strega Waterfront", "id": "strega-waterfront-boston", "image_url": "https://s3-media3.fl.yelpcdn.com/bphoto/ROdulDjqoHIohVn0jChC0g/o.jpg", "url": "https://www.yelp.com/biz/strega-waterfront-boston?adjust_creative=gBcvfFpabk3CnzmXKdYe3w&utm_campaign=yelp_api_v3&utm_medium=api_v3_business_search&utm_source=gBcvfFpabk3CnzmXKdYe3w", "phone": "+16173453992", "coordinates": {"longitude": -71.045152, "latitude": 42.353216}, "categories": [{"alias": "italian", "title": "Italian"}], "review_count": 391, "location": {"city": "Boston", "address1": "One Marina Park Dr", "address3": "56 Northern Ave On GPS", "address2": "", "zip_code": "02210", "country": "US", "display_address": ["One Marina Park Dr", "56 Northern Ave On GPS", "Boston, MA 02210"], "state": "MA"}, "price": "$$$", "transactions": [], "display_phone": "(617) 345-3992"}, {"rating": 4.0, "is_closed": false, "distance": 2330.275717932, "name": "Corner Cafe", "id": "corner-cafe-boston", "image_url": "https://s3-media2.fl.yelpcdn.com/bphoto/JSdMluF73gNsqRTYDsAalA/o.jpg", "url": "https://www.yelp.com/biz/corner-cafe-boston?adjust_creative=gBcvfFpabk3CnzmXKdYe3w&utm_campaign=yelp_api_v3&utm_medium=api_v3_business_search&utm_source=gBcvfFpabk3CnzmXKdYe3w", "phone": "+16175238997", "coordinates": {"longitude": -71.0561828613281, "latitude": 42.3656005859375}, "categories": [{"alias": "divebars", "title": "Dive Bars"}, {"alias": "newamerican", "title": "American (New)"}], "review_count": 50, "location": {"city": "Boston", "address1": "87 Prince St", "address3": "", "address2": "", "zip_code": "02113", "country": "US", "display_address": ["87 Prince St", "Boston, MA 02113"], "state": "MA"}, "price": "$", "transactions": [], "display_phone": "(617) 523-8997"}, {"rating": 3.5, "is_closed": false, "distance": 992.501382222, "name": "New Jumbo Seafood Restaurant", "id": "new-jumbo-seafood-restaurant-boston", "image_url": "https://s3-media2.fl.yelpcdn.com/bphoto/cPSizy1W-JRCGo-Jf44saw/o.jpg", "url": "https://www.yelp.com/biz/new-jumbo-seafood-restaurant-boston?adjust_creative=gBcvfFpabk3CnzmXKdYe3w&utm_campaign=yelp_api_v3&utm_medium=api_v3_business_search&utm_source=gBcvfFpabk3CnzmXKdYe3w", "phone": "+16175422823", "coordinates": {"longitude": -71.0600296407938, "latitude": 42.3509638756514}, "categories": [{"alias": "seafood", "title": "Seafood"}, {"alias": "chinese", "title": "Chinese"}], "review_count": 281, "location": {"city": "Boston", "address1": "5 Hudson St", "address3": "", "address2": "", "zip_code": "02111", "country": "US", "display_address": ["5 Hudson St", "Boston, MA 02111"], "state": "MA"}, "price": "$$", "transactions": ["delivery", "pickup"], "display_phone": "(617) 542-2823"}, {"rating": 3.5, "is_closed": false, "distance": 690.884351178, "name": "Papa Razzi", "id": "papa-razzi-boston", "image_url": "https://s3-media3.fl.yelpcdn.com/bphoto/qazZJFqU743CtOqeMnA1-A/o.jpg", "url": "https://www.yelp.com/biz/papa-razzi-boston?adjust_creative=gBcvfFpabk3CnzmXKdYe3w&utm_campaign=yelp_api_v3&utm_medium=api_v3_business_search&utm_source=gBcvfFpabk3CnzmXKdYe3w", "phone": "+16175369200", "coordinates": {"longitude": -71.07863, "latitude": 42.3509}, "categories": [{"alias": "italian", "title": "Italian"}], "review_count": 424, "location": {"city": "Boston", "address1": "159 Newbury St", "address3": "", "address2": "", "zip_code": "02116", "country": "US", "display_address": ["159 Newbury St", "Boston, MA 02116"], "state": "MA"}, "price": "$$", "transactions": ["delivery"], "display_phone": "(617) 536-9200"}, {"rating": 4.0, "is_closed": false, "distance": 2165.8819588, "name": "Crudo", "id": "crudo-boston", "image_url": "https://s3-media1.fl.yelpcdn.com/bphoto/Iw6yW3A4G8ig2AvY-FMBig/o.jpg", "url": "https://www.yelp.com/biz/crudo-boston?adjust_creative=gBcvfFpabk3CnzmXKdYe3w&utm_campaign=yelp_api_v3&utm_medium=api_v3_business_search&utm_source=gBcvfFpabk3CnzmXKdYe3w", "phone": "+16173676500", "coordinates": {"longitude": -71.0559069509264, "latitude": 42.3636849645937}, "categories": [{"alias": "japanese", "title": "Japanese"}, {"alias": "sushi", "title": "Sushi Bars"}, {"alias": "asianfusion", "title": "Asian Fusion"}], "review_count": 120, "location": {"city": "Boston", "address1": "78 Salem St", "address3": "", "address2": "", "zip_code": "02113", "country": "US", "display_address": ["78 Salem St", "Boston, MA 02113"], "state": "MA"}, "price": "$$$", "transactions": [], "display_phone": "(617) 367-6500"}, {"rating": 3.5, "is_closed": false, "distance": 424.419570485, "name": "Addis Red Sea", "id": "addis-red-sea-boston", "image_url": "https://s3-media1.fl.yelpcdn.com/bphoto/wXPFb5LFweZNdaKJP3xY4w/o.jpg", "url": "https://www.yelp.com/biz/addis-red-sea-boston?adjust_creative=gBcvfFpabk3CnzmXKdYe3w&utm_campaign=yelp_api_v3&utm_medium=api_v3_business_search&utm_source=gBcvfFpabk3CnzmXKdYe3w", "phone": "+16174268727", "coordinates": {"longitude": -71.0710641039558, "latitude": 42.3440274039135}, "categories": [{"alias": "ethiopian", "title": "Ethiopian"}], "review_count": 542, "location": {"city": "Boston", "address1": "544 Tremont St", "address3": "", "address2": "", "zip_code": "02116", "country": "US", "display_address": ["544 Tremont St", "Boston, MA 02116"], "state": "MA"}, "price": "$$", "transactions": [], "display_phone": "(617) 426-8727"}, {"rating": 4.0, "is_closed": false, "distance": 470.0572020182, "name": "Copley Square", "id": "copley-square-boston", "image_url": "https://s3-media4.fl.yelpcdn.com/bphoto/q4lc642vPHA7FypIznD8PA/o.jpg", "url": "https://www.yelp.com/biz/copley-square-boston?adjust_creative=gBcvfFpabk3CnzmXKdYe3w&utm_campaign=yelp_api_v3&utm_medium=api_v3_business_search&utm_source=gBcvfFpabk3CnzmXKdYe3w", "phone": "", "coordinates": {"longitude": -71.0761142, "latitude": 42.3500639}, "categories": [{"alias": "parks", "title": "Parks"}], "review_count": 40, "location": {"city": "Boston", "address1": "560 Boylston St", "address3": "", "address2": null, "zip_code": "02116", "country": "US", "display_address": ["560 Boylston St", "Boston, MA 02116"], "state": "MA"}, "transactions": [], "display_phone": ""}, {"rating": 3.5, "is_closed": false, "distance": 640.8605922219999, "name": "South End Buttery", "id": "south-end-buttery-boston", "image_url": "https://s3-media1.fl.yelpcdn.com/bphoto/lrGefy48sLoX0tvx74gdgA/o.jpg", "url": "https://www.yelp.com/biz/south-end-buttery-boston?adjust_creative=gBcvfFpabk3CnzmXKdYe3w&utm_campaign=yelp_api_v3&utm_medium=api_v3_business_search&utm_source=gBcvfFpabk3CnzmXKdYe3w", "phone": "+16174821015", "coordinates": {"longitude": -71.0704467, "latitude": 42.342109}, "categories": [{"alias": "bakeries", "title": "Bakeries"}, {"alias": "tradamerican", "title": "American (Traditional)"}, {"alias": "breakfast_brunch", "title": "Breakfast & Brunch"}], "review_count": 730, "location": {"city": "Boston", "address1": "314 Shawmut Ave", "address3": "", "address2": null, "zip_code": "02118", "country": "US", "display_address": ["314 Shawmut Ave", "Boston, MA 02118"], "state": "MA"}, "price": "$$", "transactions": [], "display_phone": "(617) 482-1015"}, {"rating": 4.0, "is_closed": false, "distance": 1895.590408988, "name": "Bon Me", "id": "bon-me-boston-8", "image_url": "https://s3-media1.fl.yelpcdn.com/bphoto/xhcwuV9pKqWOCxsLYbMgKQ/o.jpg", "url": "https://www.yelp.com/biz/bon-me-boston-8?adjust_creative=gBcvfFpabk3CnzmXKdYe3w&utm_campaign=yelp_api_v3&utm_medium=api_v3_business_search&utm_source=gBcvfFpabk3CnzmXKdYe3w", "phone": "+16179452615", "coordinates": {"longitude": -71.051518, "latitude": 42.356684}, "categories": [{"alias": "vietnamese", "title": "Vietnamese"}, {"alias": "foodtrucks", "title": "Food Trucks"}, {"alias": "asianfusion", "title": "Asian Fusion"}], "review_count": 43, "location": {"city": "Boston", "address1": "Purchase St High St", "address3": "", "address2": "", "zip_code": "02110", "country": "US", "display_address": ["Purchase St High St", "Boston, MA 02110"], "state": "MA"}, "price": "$", "transactions": [], "display_phone": "(617) 945-2615"}, {"rating": 4.0, "is_closed": false, "distance": 711.1315864651999, "name": "Sister Sorel", "id": "sister-sorel-boston-2", "image_url": "https://s3-media2.fl.yelpcdn.com/bphoto/SGJnoaYarP3hpyhGHGpG2A/o.jpg", "url": "https://www.yelp.com/biz/sister-sorel-boston-2?adjust_creative=gBcvfFpabk3CnzmXKdYe3w&utm_campaign=yelp_api_v3&utm_medium=api_v3_business_search&utm_source=gBcvfFpabk3CnzmXKdYe3w", "phone": "+16172664600", "coordinates": {"longitude": -71.075429, "latitude": 42.342247}, "categories": [{"alias": "bars", "title": "Bars"}, {"alias": "newamerican", "title": "American (New)"}, {"alias": "breakfast_brunch", "title": "Breakfast & Brunch"}], "review_count": 67, "location": {"city": "Boston", "address1": "647 Tremont St", "address3": "", "address2": null, "zip_code": "02118", "country": "US", "display_address": ["647 Tremont St", "Boston, MA 02118"], "state": "MA"}, "price": "$$", "transactions": [], "display_phone": "(617) 266-4600"}, {"rating": 4.0, "is_closed": false, "distance": 1714.12251806, "name": "Coffee Central", "id": "coffee-central-boston", "image_url": "https://s3-media2.fl.yelpcdn.com/bphoto/7d-PxyElLV80_4auZQNPCQ/o.jpg", "url": "https://www.yelp.com/biz/coffee-central-boston?adjust_creative=gBcvfFpabk3CnzmXKdYe3w&utm_campaign=yelp_api_v3&utm_medium=api_v3_business_search&utm_source=gBcvfFpabk3CnzmXKdYe3w", "phone": "", "coordinates": {"longitude": -71.0693701, "latitude": 42.3625449}, "categories": [{"alias": "coffee", "title": "Coffee & Tea"}], "review_count": 29, "location": {"city": "Boston", "address1": "55 Fruit St", "address3": "Massachusetts General Hospital", "address2": "", "zip_code": "02114", "country": "US", "display_address": ["55 Fruit St", "Massachusetts General Hospital", "Boston, MA 02114"], "state": "MA"}, "price": "$", "transactions": [], "display_phone": ""}, {"rating": 3.5, "is_closed": false, "distance": 567.17325884, "name": "Abby Lane Food & Spirits", "id": "abby-lane-food-and-spirits-boston", "image_url": "https://s3-media1.fl.yelpcdn.com/bphoto/_gVk6CyTvi6adC7WbIYxPA/o.jpg", "url": "https://www.yelp.com/biz/abby-lane-food-and-spirits-boston?adjust_creative=gBcvfFpabk3CnzmXKdYe3w&utm_campaign=yelp_api_v3&utm_medium=api_v3_business_search&utm_source=gBcvfFpabk3CnzmXKdYe3w", "phone": "+16174512229", "coordinates": {"longitude": -71.065249890089, "latitude": 42.35017798841}, "categories": [{"alias": "newamerican", "title": "American (New)"}], "review_count": 312, "location": {"city": "Boston", "address1": "255 Tremont St", "address3": "", "address2": "", "zip_code": "02116", "country": "US", "display_address": ["255 Tremont St", "Boston, MA 02116"], "state": "MA"}, "price": "$$", "transactions": [], "display_phone": "(617) 451-2229"}, {"rating": 3.5, "is_closed": false, "distance": 2161.4633548959996, "name": "Lucca Restaurant & Bar", "id": "lucca-restaurant-and-bar-boston", "image_url": "https://s3-media4.fl.yelpcdn.com/bphoto/wOzVPYKv75sxC-6NlZCZQQ/o.jpg", "url": "https://www.yelp.com/biz/lucca-restaurant-and-bar-boston?adjust_creative=gBcvfFpabk3CnzmXKdYe3w&utm_campaign=yelp_api_v3&utm_medium=api_v3_business_search&utm_source=gBcvfFpabk3CnzmXKdYe3w", "phone": "+16177429200", "coordinates": {"longitude": -71.0550955, "latitude": 42.3631864}, "categories": [{"alias": "italian", "title": "Italian"}, {"alias": "wine_bars", "title": "Wine Bars"}, {"alias": "cocktailbars", "title": "Cocktail Bars"}], "review_count": 366, "location": {"city": "Boston", "address1": "226 Hanover St", "address3": "", "address2": "", "zip_code": "02113", "country": "US", "display_address": ["226 Hanover St", "Boston, MA 02113"], "state": "MA"}, "price": "$$$", "transactions": [], "display_phone": "(617) 742-9200"}, {"rating": 4.0, "is_closed": false, "distance": 2542.6001284159997, "name": "Morton's The Steakhouse", "id": "mortons-the-steakhouse-boston-7", "image_url": "https://s3-media2.fl.yelpcdn.com/bphoto/YyMckZfV-nUHh6pKyPtViA/o.jpg", "url": "https://www.yelp.com/biz/mortons-the-steakhouse-boston-7?adjust_creative=gBcvfFpabk3CnzmXKdYe3w&utm_campaign=yelp_api_v3&utm_medium=api_v3_business_search&utm_source=gBcvfFpabk3CnzmXKdYe3w", "phone": "+16175260410", "coordinates": {"longitude": -71.0403496026993, "latitude": 42.349116820038}, "categories": [{"alias": "steak", "title": "Steakhouses"}, {"alias": "seafood", "title": "Seafood"}], "review_count": 262, "location": {"city": "Boston", "address1": "2 Seaport Ln", "address3": "", "address2": "", "zip_code": "02210", "country": "US", "display_address": ["2 Seaport Ln", "Boston, MA 02210"], "state": "MA"}, "price": "$$$$", "transactions": [], "display_phone": "(617) 526-0410"}, {"rating": 4.0, "is_closed": false, "distance": 322.7808498348, "name": "Cha Cha Cha Taqueria", "id": "cha-cha-cha-taqueria-boston-2", "image_url": "https://s3-media2.fl.yelpcdn.com/bphoto/NgoVaqczMKfkO8qe5XeFaA/o.jpg", "url": "https://www.yelp.com/biz/cha-cha-cha-taqueria-boston-2?adjust_creative=gBcvfFpabk3CnzmXKdYe3w&utm_campaign=yelp_api_v3&utm_medium=api_v3_business_search&utm_source=gBcvfFpabk3CnzmXKdYe3w", "phone": "+16177853516", "coordinates": {"longitude": -71.074943, "latitude": 42.347446}, "categories": [{"alias": "mexican", "title": "Mexican"}], "review_count": 57, "location": {"city": "Boston", "address1": "145 Dartmouth St", "address3": "", "address2": "", "zip_code": "02116", "country": "US", "display_address": ["145 Dartmouth St", "Boston, MA 02116"], "state": "MA"}, "price": "$", "transactions": [], "display_phone": "(617) 785-3516"}, {"rating": 4.0, "is_closed": false, "distance": 2416.11662606, "name": "La Summa", "id": "la-summa-boston", "image_url": "https://s3-media3.fl.yelpcdn.com/bphoto/9PAdgseBKoSn9SEfaXtl6Q/o.jpg", "url": "https://www.yelp.com/biz/la-summa-boston?adjust_creative=gBcvfFpabk3CnzmXKdYe3w&utm_campaign=yelp_api_v3&utm_medium=api_v3_business_search&utm_source=gBcvfFpabk3CnzmXKdYe3w", "phone": "+16175239503", "coordinates": {"longitude": -71.05255, "latitude": 42.36468}, "categories": [{"alias": "italian", "title": "Italian"}, {"alias": "seafood", "title": "Seafood"}, {"alias": "beerbar", "title": "Beer Bar"}], "review_count": 248, "location": {"city": "Boston", "address1": "30 Fleet St", "address3": "", "address2": "", "zip_code": "02113", "country": "US", "display_address": ["30 Fleet St", "Boston, MA 02113"], "state": "MA"}, "price": "$$", "transactions": [], "display_phone": "(617) 523-9503"}, {"rating": 4.0, "is_closed": false, "distance": 2204.596885576, "name": "Thaitation", "id": "thaitation-boston", "image_url": "https://s3-media4.fl.yelpcdn.com/bphoto/Qt30mqTRj3ev-ALCJ01ZKw/o.jpg", "url": "https://www.yelp.com/biz/thaitation-boston?adjust_creative=gBcvfFpabk3CnzmXKdYe3w&utm_campaign=yelp_api_v3&utm_medium=api_v3_business_search&utm_source=gBcvfFpabk3CnzmXKdYe3w", "phone": "+16175859909", "coordinates": {"longitude": -71.0969619750977, "latitude": 42.3423309326172}, "categories": [{"alias": "thai", "title": "Thai"}], "review_count": 257, "location": {"city": "Boston", "address1": "129 Jersey St", "address3": "", "address2": "", "zip_code": "02215", "country": "US", "display_address": ["129 Jersey St", "Boston, MA 02215"], "state": "MA"}, "price": "$$", "transactions": ["delivery", "pickup"], "display_phone": "(617) 585-9909"}, {"rating": 4.0, "is_closed": false, "distance": 2876.397683034, "name": "Mei Mei Restaurant", "id": "mei-mei-restaurant-boston", "image_url": "https://s3-media4.fl.yelpcdn.com/bphoto/l2sKiBMONIFEr6glyTIzsA/o.jpg", "url": "https://www.yelp.com/biz/mei-mei-restaurant-boston?adjust_creative=gBcvfFpabk3CnzmXKdYe3w&utm_campaign=yelp_api_v3&utm_medium=api_v3_business_search&utm_source=gBcvfFpabk3CnzmXKdYe3w", "phone": "+18572504959", "coordinates": {"longitude": -71.1062359253643, "latitude": 42.3474142084205}, "categories": [{"alias": "foodtrucks", "title": "Food Trucks"}, {"alias": "asianfusion", "title": "Asian Fusion"}, {"alias": "chinese", "title": "Chinese"}], "review_count": 167, "location": {"city": "Boston", "address1": "506 Park Dr", "address3": "", "address2": "", "zip_code": "02215", "country": "US", "display_address": ["506 Park Dr", "Boston, MA 02215"], "state": "MA"}, "price": "$$", "transactions": [], "display_phone": "(857) 250-4959"}, {"rating": 4.0, "is_closed": false, "distance": 2179.953384024, "name": "Caffe Paradiso", "id": "caffe-paradiso-boston", "image_url": "https://s3-media1.fl.yelpcdn.com/bphoto/a8EZjU8RaAQYmdzM6zwbAA/o.jpg", "url": "https://www.yelp.com/biz/caffe-paradiso-boston?adjust_creative=gBcvfFpabk3CnzmXKdYe3w&utm_campaign=yelp_api_v3&utm_medium=api_v3_business_search&utm_source=gBcvfFpabk3CnzmXKdYe3w", "phone": "+16177421768", "coordinates": {"longitude": -71.0548, "latitude": 42.36322}, "categories": [{"alias": "desserts", "title": "Desserts"}, {"alias": "coffee", "title": "Coffee & Tea"}, {"alias": "cocktailbars", "title": "Cocktail Bars"}], "review_count": 157, "location": {"city": "Boston", "address1": "255 Hanover St", "address3": "", "address2": "", "zip_code": "02113", "country": "US", "display_address": ["255 Hanover St", "Boston, MA 02113"], "state": "MA"}, "price": "$$", "transactions": [], "display_phone": "(617) 742-1768"}, {"rating": 3.5, "is_closed": false, "distance": 1621.9807219639997, "name": "Trade", "id": "trade-boston", "image_url": "https://s3-media4.fl.yelpcdn.com/bphoto/7wd-rhTharObgmLOviiCiw/o.jpg", "url": "https://www.yelp.com/biz/trade-boston?adjust_creative=gBcvfFpabk3CnzmXKdYe3w&utm_campaign=yelp_api_v3&utm_medium=api_v3_business_search&utm_source=gBcvfFpabk3CnzmXKdYe3w", "phone": "+16174511234", "coordinates": {"longitude": -71.053072, "latitude": 42.353533}, "categories": [{"alias": "newamerican", "title": "American (New)"}], "review_count": 441, "location": {"city": "Boston", "address1": "540 Atlantic Ave", "address3": "", "address2": "", "zip_code": "02110", "country": "US", "display_address": ["540 Atlantic Ave", "Boston, MA 02110"], "state": "MA"}, "price": "$$$", "transactions": [], "display_phone": "(617) 451-1234"}, {"rating": 4.0, "is_closed": false, "distance": 2021.4066789799997, "name": "City Tap House", "id": "city-tap-house-boston", "image_url": "https://s3-media3.fl.yelpcdn.com/bphoto/whtUekQ5F4KZ6sSUr3zS9Q/o.jpg", "url": "https://www.yelp.com/biz/city-tap-house-boston?adjust_creative=gBcvfFpabk3CnzmXKdYe3w&utm_campaign=yelp_api_v3&utm_medium=api_v3_business_search&utm_source=gBcvfFpabk3CnzmXKdYe3w", "phone": "+16179042748", "coordinates": {"longitude": -71.0470911, "latitude": 42.3499185}, "categories": [{"alias": "breakfast_brunch", "title": "Breakfast & Brunch"}, {"alias": "cocktailbars", "title": "Cocktail Bars"}, {"alias": "newamerican", "title": "American (New)"}], "review_count": 58, "location": {"city": "Boston", "address1": "10 Boston Wharf Rd", "address3": null, "address2": "", "zip_code": "02210", "country": "US", "display_address": ["10 Boston Wharf Rd", "Boston, MA 02210"], "state": "MA"}, "price": "$$", "transactions": [], "display_phone": "(617) 904-2748"}, {"rating": 4.0, "is_closed": false, "distance": 1453.8980980576, "name": "Cafe de Boston - Eatery & Catering", "id": "cafe-de-boston-eatery-and-catering-boston-4", "image_url": "https://s3-media3.fl.yelpcdn.com/bphoto/Jmx4PpIkUFoYuc2aA-cdkw/o.jpg", "url": "https://www.yelp.com/biz/cafe-de-boston-eatery-and-catering-boston-4?adjust_creative=gBcvfFpabk3CnzmXKdYe3w&utm_campaign=yelp_api_v3&utm_medium=api_v3_business_search&utm_source=gBcvfFpabk3CnzmXKdYe3w", "phone": "+16174821006", "coordinates": {"longitude": -71.0565126, "latitude": 42.3550833}, "categories": [{"alias": "tradamerican", "title": "American (Traditional)"}, {"alias": "breakfast_brunch", "title": "Breakfast & Brunch"}, {"alias": "sandwiches", "title": "Sandwiches"}], "review_count": 149, "location": {"city": "Boston", "address1": "75 Federal St", "address3": "", "address2": "", "zip_code": "02110", "country": "US", "display_address": ["75 Federal St", "Boston, MA 02110"], "state": "MA"}, "price": "$", "transactions": ["delivery", "pickup"], "display_phone": "(617) 482-1006"}, {"rating": 3.5, "is_closed": false, "distance": 821.1204159856001, "name": "Petit Robert Bistro", "id": "petit-robert-bistro-boston-3", "image_url": "https://s3-media2.fl.yelpcdn.com/bphoto/Na0r6p93_7ZY5aC_SXlhTQ/o.jpg", "url": "https://www.yelp.com/biz/petit-robert-bistro-boston-3?adjust_creative=gBcvfFpabk3CnzmXKdYe3w&utm_campaign=yelp_api_v3&utm_medium=api_v3_business_search&utm_source=gBcvfFpabk3CnzmXKdYe3w", "phone": "+16178670600", "coordinates": {"longitude": -71.0785827636719, "latitude": 42.342830657959}, "categories": [{"alias": "french", "title": "French"}, {"alias": "breakfast_brunch", "title": "Breakfast & Brunch"}, {"alias": "wine_bars", "title": "Wine Bars"}], "review_count": 339, "location": {"city": "Boston", "address1": "480 Columbus Ave", "address3": "", "address2": "", "zip_code": "02118", "country": "US", "display_address": ["480 Columbus Ave", "Boston, MA 02118"], "state": "MA"}, "price": "$$", "transactions": ["delivery"], "display_phone": "(617) 867-0600"}, {"rating": 4.0, "is_closed": false, "distance": 2948.789980518, "name": "Nud Pob Thai Cuisine", "id": "nud-pob-thai-cuisine-boston", "image_url": "https://s3-media4.fl.yelpcdn.com/bphoto/yRFILpH5LQrtOTQBTDPscw/o.jpg", "url": "https://www.yelp.com/biz/nud-pob-thai-cuisine-boston?adjust_creative=gBcvfFpabk3CnzmXKdYe3w&utm_campaign=yelp_api_v3&utm_medium=api_v3_business_search&utm_source=gBcvfFpabk3CnzmXKdYe3w", "phone": "+16172329992", "coordinates": {"longitude": -71.1070277453648, "latitude": 42.3498264818139}, "categories": [{"alias": "thai", "title": "Thai"}], "review_count": 250, "location": {"city": "Boston", "address1": "738 Commonwealth Ave", "address3": "", "address2": "", "zip_code": "02215", "country": "US", "display_address": ["738 Commonwealth Ave", "Boston, MA 02215"], "state": "MA"}, "price": "$", "transactions": ["delivery", "pickup"], "display_phone": "(617) 232-9992"}, {"rating": 3.5, "is_closed": false, "distance": 1360.6433789779999, "name": "Highball Lounge", "id": "highball-lounge-boston", "image_url": "https://s3-media1.fl.yelpcdn.com/bphoto/3hOjz0no2AxivEanJ-wrlw/o.jpg", "url": "https://www.yelp.com/biz/highball-lounge-boston?adjust_creative=gBcvfFpabk3CnzmXKdYe3w&utm_campaign=yelp_api_v3&utm_medium=api_v3_business_search&utm_source=gBcvfFpabk3CnzmXKdYe3w", "phone": "+16177720202", "coordinates": {"longitude": -71.0608754, "latitude": 42.3573824}, "categories": [{"alias": "cocktailbars", "title": "Cocktail Bars"}], "review_count": 189, "location": {"city": "Boston", "address1": "90 Tremont St", "address3": "", "address2": "Fl 2", "zip_code": "02108", "country": "US", "display_address": ["90 Tremont St", "Fl 2", "Boston, MA 02108"], "state": "MA"}, "price": "$$", "transactions": [], "display_phone": "(617) 772-0202"}, {"rating": 5.0, "is_closed": false, "distance": 1635.7016329360001, "name": "Saigon Alley", "id": "saigon-alley-boston", "image_url": "https://s3-media4.fl.yelpcdn.com/bphoto/lziS7uNjflDYFIXBe34uNw/o.jpg", "url": "https://www.yelp.com/biz/saigon-alley-boston?adjust_creative=gBcvfFpabk3CnzmXKdYe3w&utm_campaign=yelp_api_v3&utm_medium=api_v3_business_search&utm_source=gBcvfFpabk3CnzmXKdYe3w", "phone": "+13392244404", "coordinates": {"longitude": -71.0547743438, "latitude": 42.3561009969}, "categories": [{"alias": "vietnamese", "title": "Vietnamese"}, {"alias": "foodtrucks", "title": "Food Trucks"}], "review_count": 15, "location": {"city": "Boston", "address1": "", "address3": "", "address2": "", "zip_code": "02116", "country": "US", "display_address": ["Boston, MA 02116"], "state": "MA"}, "price": "$", "transactions": [], "display_phone": "(339) 224-4404"}, {"rating": 4.0, "is_closed": false, "distance": 1829.326478224, "name": "Pho Countryside Boston", "id": "pho-countryside-boston-boston", "image_url": "https://s3-media4.fl.yelpcdn.com/bphoto/tDR3qPW8RW8ZDJ6S7OeF_g/o.jpg", "url": "https://www.yelp.com/biz/pho-countryside-boston-boston?adjust_creative=gBcvfFpabk3CnzmXKdYe3w&utm_campaign=yelp_api_v3&utm_medium=api_v3_business_search&utm_source=gBcvfFpabk3CnzmXKdYe3w", "phone": "+18579903679", "coordinates": {"longitude": -71.09348, "latitude": 42.34851}, "categories": [{"alias": "vietnamese", "title": "Vietnamese"}], "review_count": 39, "location": {"city": "Boston", "address1": "468 Commonwealth Ave", "address3": null, "address2": "", "zip_code": "02215", "country": "US", "display_address": ["468 Commonwealth Ave", "Boston, MA 02215"], "state": "MA"}, "price": "$$", "transactions": [], "display_phone": "(857) 990-3679"}, {"rating": 3.5, "is_closed": false, "distance": 189.4370368334, "name": "Precinct Kitchen + Bar", "id": "precinct-kitchen-bar-boston", "image_url": "https://s3-media3.fl.yelpcdn.com/bphoto/wJeZnVwmDAwkc4ryteQkqA/o.jpg", "url": "https://www.yelp.com/biz/precinct-kitchen-bar-boston?adjust_creative=gBcvfFpabk3CnzmXKdYe3w&utm_campaign=yelp_api_v3&utm_medium=api_v3_business_search&utm_source=gBcvfFpabk3CnzmXKdYe3w", "phone": "+16175323827", "coordinates": {"longitude": -71.0723568, "latitude": 42.3493362}, "categories": [{"alias": "bars", "title": "Bars"}, {"alias": "tradamerican", "title": "American (Traditional)"}], "review_count": 162, "location": {"city": "Boston", "address1": "154 Berkeley St", "address3": "", "address2": "", "zip_code": "02116", "country": "US", "display_address": ["154 Berkeley St", "Boston, MA 02116"], "state": "MA"}, "price": "$$", "transactions": [], "display_phone": "(617) 532-3827"}, {"rating": 3.5, "is_closed": false, "distance": 97.5317734839, "name": "Trophy Room", "id": "trophy-room-boston-3", "image_url": "https://s3-media3.fl.yelpcdn.com/bphoto/Ny2YN21wSjy5ONFaO8HqIw/o.jpg", "url": "https://www.yelp.com/biz/trophy-room-boston-3?adjust_creative=gBcvfFpabk3CnzmXKdYe3w&utm_campaign=yelp_api_v3&utm_medium=api_v3_business_search&utm_source=gBcvfFpabk3CnzmXKdYe3w", "phone": "+16174824428", "coordinates": {"longitude": -71.0711350197154, "latitude": 42.3469703698508}, "categories": [{"alias": "newamerican", "title": "American (New)"}, {"alias": "cocktailbars", "title": "Cocktail Bars"}], "review_count": 148, "location": {"city": "Boston", "address1": "26 Chandler St", "address3": "", "address2": "", "zip_code": "02116", "country": "US", "display_address": ["26 Chandler St", "Boston, MA 02116"], "state": "MA"}, "price": "$$", "transactions": [], "display_phone": "(617) 482-4428"}, {"rating": 3.5, "is_closed": false, "distance": 2029.5138901639998, "name": "Cornwall's", "id": "cornwalls-boston", "image_url": "https://s3-media1.fl.yelpcdn.com/bphoto/znHC-Rosu9AKrRvSck0NYQ/o.jpg", "url": "https://www.yelp.com/biz/cornwalls-boston?adjust_creative=gBcvfFpabk3CnzmXKdYe3w&utm_campaign=yelp_api_v3&utm_medium=api_v3_business_search&utm_source=gBcvfFpabk3CnzmXKdYe3w", "phone": "+16172623749", "coordinates": {"longitude": -71.0959, "latitude": 42.34939}, "categories": [{"alias": "pubs", "title": "Pubs"}], "review_count": 192, "location": {"city": "Boston", "address1": "654 Beacon St", "address3": "", "address2": "", "zip_code": "02215", "country": "US", "display_address": ["654 Beacon St", "Boston, MA 02215"], "state": "MA"}, "price": "$$", "transactions": [], "display_phone": "(617) 262-3749"}, {"rating": 4.5, "is_closed": false, "distance": 5237.761504548, "name": "The Glenville Stops", "id": "the-glenville-stops-boston", "image_url": "https://s3-media1.fl.yelpcdn.com/bphoto/GwTKiZw1_1dajAdSJqXd_Q/o.jpg", "url": "https://www.yelp.com/biz/the-glenville-stops-boston?adjust_creative=gBcvfFpabk3CnzmXKdYe3w&utm_campaign=yelp_api_v3&utm_medium=api_v3_business_search&utm_source=gBcvfFpabk3CnzmXKdYe3w", "phone": "+16179033638", "coordinates": {"longitude": -71.134942010915, "latitude": 42.3494633823329}, "categories": [{"alias": "newamerican", "title": "American (New)"}, {"alias": "gastropubs", "title": "Gastropubs"}, {"alias": "wine_bars", "title": "Wine Bars"}], "review_count": 201, "location": {"city": "Boston", "address1": "87 Glenville Ave", "address3": "", "address2": "", "zip_code": "02134", "country": "US", "display_address": ["87 Glenville Ave", "Boston, MA 02134"], "state": "MA"}, "price": "$$", "transactions": [], "display_phone": "(617) 903-3638"}, {"rating": 4.5, "is_closed": false, "distance": 1832.939768392, "name": "Boston National Historical Park", "id": "boston-national-historical-park-boston", "image_url": "https://s3-media3.fl.yelpcdn.com/bphoto/_F4ijFc8i_8SrmqRnPIOTw/o.jpg", "url": "https://www.yelp.com/biz/boston-national-historical-park-boston?adjust_creative=gBcvfFpabk3CnzmXKdYe3w&utm_campaign=yelp_api_v3&utm_medium=api_v3_business_search&utm_source=gBcvfFpabk3CnzmXKdYe3w", "phone": "+16172425601", "coordinates": {"longitude": -71.0562391217041, "latitude": 42.3600406170855}, "categories": [{"alias": "parks", "title": "Parks"}], "review_count": 15, "location": {"city": "Boston", "address1": "Charlestown Navy Yard", "address3": "", "address2": null, "zip_code": "02455", "country": "US", "display_address": ["Charlestown Navy Yard", "Boston, MA 02455"], "state": "MA"}, "transactions": [], "display_phone": "(617) 242-5601"}, {"rating": 4.0, "is_closed": false, "distance": 1432.225534706, "name": "D'Guru Restaurant", "id": "d-guru-restaurant-boston", "image_url": "https://s3-media3.fl.yelpcdn.com/bphoto/x2rx_IUgEOWkHXnndn0qJg/o.jpg", "url": "https://www.yelp.com/biz/d-guru-restaurant-boston?adjust_creative=gBcvfFpabk3CnzmXKdYe3w&utm_campaign=yelp_api_v3&utm_medium=api_v3_business_search&utm_source=gBcvfFpabk3CnzmXKdYe3w", "phone": "+16173194392", "coordinates": {"longitude": -71.0574984, "latitude": 42.3558752}, "categories": [{"alias": "indpak", "title": "Indian"}, {"alias": "halal", "title": "Halal"}], "review_count": 110, "location": {"city": "Boston", "address1": "187 Devonshire St", "address3": "", "address2": "", "zip_code": "02110", "country": "US", "display_address": ["187 Devonshire St", "Boston, MA 02110"], "state": "MA"}, "price": "$", "transactions": [], "display_phone": "(617) 319-4392"}]}