{"region": {"center": {"latitude": 42.34784169448538, "longitude": -71.07124328613281}}, "businesses": [{"transactions": [], "distance": 1328.3436676836, "price": "$$", "display_phone": "(617) 266-0003", "phone": "+16172660003", "url": "https://www.yelp.com/biz/teranga-boston?adjust_creative=gBcvfFpabk3CnzmXKdYe3w&utm_campaign=yelp_api_v3&utm_medium=api_v3_business_search&utm_source=gBcvfFpabk3CnzmXKdYe3w", "name": "Teranga", "location": {"display_address": ["1746 Washington St", "Boston, MA 02118"], "country": "US", "state": "MA", "address3": "", "address2": "", "address1": "1746 Washington St", "city": "Boston", "zip_code": "02118"}, "is_closed": false, "review_count": 263, "coordinates": {"latitude": 42.336586869527, "longitude": -71.07665195362}, "id": "teranga-boston", "image_url": "https://s3-media2.fl.yelpcdn.com/bphoto/9ZIHN7k2b9rYcD0EqYt7SA/o.jpg", "categories": [{"alias": "bars", "title": "Bars"}, {"alias": "senegalese", "title": "Senegalese"}], "rating": 4.0}, {"transactions": ["delivery", "pickup"], "distance": 513.0281893581999, "price": "$$", "display_phone": "(617) 859-4805", "phone": "+16178594805", "url": "https://www.yelp.com/biz/mela-boston-2?adjust_creative=gBcvfFpabk3CnzmXKdYe3w&utm_campaign=yelp_api_v3&utm_medium=api_v3_business_search&utm_source=gBcvfFpabk3CnzmXKdYe3w", "name": "Mela", "location": {"display_address": ["578 Tremont St", "Boston, MA 02118"], "country": "US", "state": "MA", "address3": "", "address2": "", "address1": "578 Tremont St", "city": "Boston", "zip_code": "02118"}, "is_closed": false, "review_count": 521, "coordinates": {"latitude": 42.3433344, "longitude": -71.0725056}, "id": "mela-boston-2", "image_url": "https://s3-media4.fl.yelpcdn.com/bphoto/HKBU-l_FaUbBUOy2vkBgGg/o.jpg", "categories": [{"alias": "indpak", "title": "Indian"}], "rating": 3.5}, {"transactions": ["delivery", "pickup"], "distance": 2254.909199194, "price": "$$", "display_phone": "(857) 350-3402", "phone": "+18573503402", "url": "https://www.yelp.com/biz/rigoletto-ristorante-boston?adjust_creative=gBcvfFpabk3CnzmXKdYe3w&utm_campaign=yelp_api_v3&utm_medium=api_v3_business_search&utm_source=gBcvfFpabk3CnzmXKdYe3w", "name": "Rigoletto Ristorante", "location": {"display_address": ["115 Salem St", "Boston, MA 02113"], "country": "US", "state": "MA", "address3": "", "address2": null, "address1": "115 Salem St", "city": "Boston", "zip_code": "02113"}, "is_closed": false, "review_count": 137, "coordinates": {"latitude": 42.3643884000782, "longitude": -71.0553724343586}, "id": "rigoletto-ristorante-boston", "image_url": "https://s3-media4.fl.yelpcdn.com/bphoto/DxrPKZrmi0kW1zjbTe2Fzg/o.jpg", "categories": [{"alias": "italian", "title": "Italian"}, {"alias": "beer_and_wine", "title": "Beer, Wine & Spirits"}, {"alias": "cocktailbars", "title": "Cocktail Bars"}], "rating": 4.0}, {"transactions": [], "distance": 2328.232178, "price": "$$", "display_phone": "(857) 250-2484", "phone": "+18572502484", "url": "https://www.yelp.com/biz/blue-state-coffee-boston-2?adjust_creative=gBcvfFpabk3CnzmXKdYe3w&utm_campaign=yelp_api_v3&utm_medium=api_v3_business_search&utm_source=gBcvfFpabk3CnzmXKdYe3w", "name": "Blue State Coffee", "location": {"display_address": ["155 Seaport Blvd", "Boston, MA 02210"], "country": "US", "state": "MA", "address3": "", "address2": "", "address1": "155 Seaport Blvd", "city": "Boston", "zip_code": "02210"}, "is_closed": false, "review_count": 22, "coordinates": {"latitude": 42.3498701, "longitude": -71.0430434}, "id": "blue-state-coffee-boston-2", "image_url": "https://s3-media4.fl.yelpcdn.com/bphoto/4rkCGuOg_kn_yS2b_F3oeA/o.jpg", "categories": [{"alias": "coffee", "title": "Coffee & Tea"}], "rating": 4.5}, {"transactions": [], "distance": 733.5837302062, "price": "$", "display_phone": "(617) 832-0620", "phone": "+16178320620", "url": "https://www.yelp.com/biz/capital-one-caf%C3%A9-boston-3?adjust_creative=gBcvfFpabk3CnzmXKdYe3w&utm_campaign=yelp_api_v3&utm_medium=api_v3_business_search&utm_source=gBcvfFpabk3CnzmXKdYe3w", "name": "Capital One Caf\u00e9", "location": {"display_address": ["310 Harrison Ave", "Boston, MA 02118"], "country": "US", "state": "MA", "address3": "", "address2": null, "address1": "310 Harrison Ave", "city": "Boston", "zip_code": "02118"}, "is_closed": false, "review_count": 15, "coordinates": {"latitude": 42.3460322226822, "longitude": -71.0626633415086}, "id": "capital-one-caf\u00e9-boston-3", "image_url": "https://s3-media1.fl.yelpcdn.com/bphoto/eNcTmNthY0X_h4lrVKY92w/o.jpg", "categories": [{"alias": "coffee", "title": "Coffee & Tea"}, {"alias": "banks", "title": "Banks & Credit Unions"}, {"alias": "internetcafe", "title": "Internet Cafes"}], "rating": 4.5}, {"transactions": ["delivery"], "distance": 200.2544570444, "price": "$$", "display_phone": "(617) 338-8884", "phone": "+16173388884", "url": "https://www.yelp.com/biz/masa-boston?adjust_creative=gBcvfFpabk3CnzmXKdYe3w&utm_campaign=yelp_api_v3&utm_medium=api_v3_business_search&utm_source=gBcvfFpabk3CnzmXKdYe3w", "name": "Masa", "location": {"display_address": ["439 Tremont St", "Boston, MA 02116"], "country": "US", "state": "MA", "address3": "", "address2": "", "address1": "439 Tremont St", "city": "Boston", "zip_code": "02116"}, "is_closed": false, "review_count": 982, "coordinates": {"latitude": 42.346815, "longitude": -71.0692466}, "id": "masa-boston", "image_url": "https://s3-media2.fl.yelpcdn.com/bphoto/SXwwPiWwhGLFAxQfzG6zgw/o.jpg", "categories": [{"alias": "tapas", "title": "Tapas Bars"}, {"alias": "breakfast_brunch", "title": "Breakfast & Brunch"}, {"alias": "cocktailbars", "title": "Cocktail Bars"}], "rating": 3.5}, {"transactions": ["delivery", "pickup"], "distance": 1035.610772802, "price": "$", "display_phone": "(617) 556-2600", "phone": "+16175562600", "url": "https://www.yelp.com/biz/pita-boston-2?adjust_creative=gBcvfFpabk3CnzmXKdYe3w&utm_campaign=yelp_api_v3&utm_medium=api_v3_business_search&utm_source=gBcvfFpabk3CnzmXKdYe3w", "name": "Pita", "location": {"display_address": ["473 Albany St", "Boston, MA 02118"], "country": "US", "state": "MA", "address3": "", "address2": "", "address1": "473 Albany St", "city": "Boston", "zip_code": "02118"}, "is_closed": false, "review_count": 172, "coordinates": {"latitude": 42.33975, "longitude": -71.06499}, "id": "pita-boston-2", "image_url": "https://s3-media2.fl.yelpcdn.com/bphoto/SLITlZAM4Vpicr56DO-KLA/o.jpg", "categories": [{"alias": "mediterranean", "title": "Mediterranean"}, {"alias": "mideastern", "title": "Middle Eastern"}, {"alias": "moroccan", "title": "Moroccan"}], "rating": 4.0}, {"transactions": [], "distance": 991.389408749, "price": "$$", "display_phone": "(617) 426-8181", "phone": "+16174268181", "url": "https://www.yelp.com/biz/taiwan-caf%C3%A9-boston-2?adjust_creative=gBcvfFpabk3CnzmXKdYe3w&utm_campaign=yelp_api_v3&utm_medium=api_v3_business_search&utm_source=gBcvfFpabk3CnzmXKdYe3w", "name": "Taiwan Caf\u00e9", "location": {"display_address": ["34 Oxford St", "Boston, MA 02111"], "country": "US", "state": "MA", "address3": "", "address2": "", "address1": "34 Oxford St", "city": "Boston", "zip_code": "02111"}, "is_closed": false, "review_count": 881, "coordinates": {"latitude": 42.351503, "longitude": -71.060239}, "id": "taiwan-caf\u00e9-boston-2", "image_url": "https://s3-media3.fl.yelpcdn.com/bphoto/ufnGzrB5FrTMCMJcsfqCDQ/o.jpg", "categories": [{"alias": "taiwanese", "title": "Taiwanese"}, {"alias": "chinese", "title": "Chinese"}], "rating": 3.5}, {"transactions": [], "distance": 4925.988894368, "price": "$", "display_phone": "(617) 567-6367", "phone": "+16175676367", "url": "https://www.yelp.com/biz/taqueria-jalisco-boston-2?adjust_creative=gBcvfFpabk3CnzmXKdYe3w&utm_campaign=yelp_api_v3&utm_medium=api_v3_business_search&utm_source=gBcvfFpabk3CnzmXKdYe3w", "name": "Taqueria Jalisco", "location": {"display_address": ["291 Bennington St", "Boston, MA 02128"], "country": "US", "state": "MA", "address3": "", "address2": "", "address1": "291 Bennington St", "city": "Boston", "zip_code": "02128"}, "is_closed": false, "review_count": 205, "coordinates": {"latitude": 42.37872, "longitude": -71.02818}, "id": "taqueria-jalisco-boston-2", "image_url": "https://s3-media1.fl.yelpcdn.com/bphoto/-ZVd7j8fxquIWS8RlIy1HA/o.jpg", "categories": [{"alias": "mexican", "title": "Mexican"}], "rating": 4.5}, {"transactions": [], "distance": 804.6256304962, "price": "$$", "display_phone": "(857) 233-4094", "phone": "+18572334094", "url": "https://www.yelp.com/biz/jaho-coffee-roaster-and-wine-bar-boston?adjust_creative=gBcvfFpabk3CnzmXKdYe3w&utm_campaign=yelp_api_v3&utm_medium=api_v3_business_search&utm_source=gBcvfFpabk3CnzmXKdYe3w", "name": "Jaho Coffee Roaster & Wine Bar", "location": {"display_address": ["665 Washington St", "Boston, MA 02116"], "country": "US", "state": "MA", "address3": "", "address2": null, "address1": "665 Washington St", "city": "Boston", "zip_code": "02116"}, "is_closed": false, "review_count": 154, "coordinates": {"latitude": 42.35183, "longitude": -71.06322}, "id": "jaho-coffee-roaster-and-wine-bar-boston", "image_url": "https://s3-media1.fl.yelpcdn.com/bphoto/WQU5UrUbEGXqa2sq3SWEEg/o.jpg", "categories": [{"alias": "wine_bars", "title": "Wine Bars"}, {"alias": "coffee", "title": "Coffee & Tea"}], "rating": 4.0}, {"transactions": [], "distance": 1856.9065424740002, "price": "$$$", "display_phone": "(617) 348-1234", "phone": "+16173481234", "url": "https://www.yelp.com/biz/fin-point-boston?adjust_creative=gBcvfFpabk3CnzmXKdYe3w&utm_campaign=yelp_api_v3&utm_medium=api_v3_business_search&utm_source=gBcvfFpabk3CnzmXKdYe3w", "name": "Fin Point", "location": {"display_address": ["89 Broad St", "Boston, MA 02110"], "country": "US", "state": "MA", "address3": "", "address2": null, "address1": "89 Broad St", "city": "Boston", "zip_code": "02110"}, "is_closed": false, "review_count": 39, "coordinates": {"latitude": 42.3574703, "longitude": -71.0527829}, "id": "fin-point-boston", "image_url": "https://s3-media2.fl.yelpcdn.com/bphoto/26RHOBIQqgvtaQaCoxndDA/o.jpg", "categories": [{"alias": "seafood", "title": "Seafood"}, {"alias": "breakfast_brunch", "title": "Breakfast & Brunch"}], "rating": 5.0}, {"transactions": [], "distance": 2358.03393612, "price": "$", "display_phone": "(617) 262-7700", "phone": "+16172627700", "url": "https://www.yelp.com/biz/neighborhoods-coffee-and-crepes-boston?adjust_creative=gBcvfFpabk3CnzmXKdYe3w&utm_campaign=yelp_api_v3&utm_medium=api_v3_business_search&utm_source=gBcvfFpabk3CnzmXKdYe3w", "name": "Neighborhoods Coffee And Crepes", "location": {"display_address": ["96 Peterborough St", "Boston, MA 02215"], "country": "US", "state": "MA", "address3": "", "address2": null, "address1": "96 Peterborough St", "city": "Boston", "zip_code": "02215"}, "is_closed": false, "review_count": 258, "coordinates": {"latitude": 42.343162, "longitude": -71.099228}, "id": "neighborhoods-coffee-and-crepes-boston", "image_url": "https://s3-media2.fl.yelpcdn.com/bphoto/Bb8WsDv13twHFDr4PM3Luw/o.jpg", "categories": [{"alias": "coffee", "title": "Coffee & Tea"}, {"alias": "cafes", "title": "Cafes"}], "rating": 4.0}, {"transactions": [], "distance": 2245.102685904, "price": "$$", "display_phone": "(617) 720-1336", "phone": "+16177201336", "url": "https://www.yelp.com/biz/trattoria-il-panino-boston?adjust_creative=gBcvfFpabk3CnzmXKdYe3w&utm_campaign=yelp_api_v3&utm_medium=api_v3_business_search&utm_source=gBcvfFpabk3CnzmXKdYe3w", "name": "Trattoria Il Panino", "location": {"display_address": ["11 Parmenter St", "Boston, MA 02113"], "country": "US", "state": "MA", "address3": "", "address2": null, "address1": "11 Parmenter St", "city": "Boston", "zip_code": "02113"}, "is_closed": false, "review_count": 415, "coordinates": {"latitude": 42.3639035, "longitude": -71.054771}, "id": "trattoria-il-panino-boston", "image_url": "https://s3-media2.fl.yelpcdn.com/bphoto/gQcEPj2STAToPZum-FuiyQ/o.jpg", "categories": [{"alias": "italian", "title": "Italian"}], "rating": 4.0}, {"transactions": [], "distance": 554.4938483424, "price": "$", "display_phone": "(857) 277-1531", "phone": "+18572771531", "url": "https://www.yelp.com/biz/the-wholy-grain-boston?adjust_creative=gBcvfFpabk3CnzmXKdYe3w&utm_campaign=yelp_api_v3&utm_medium=api_v3_business_search&utm_source=gBcvfFpabk3CnzmXKdYe3w", "name": "The Wholy Grain", "location": {"display_address": ["275 Shawmut Ave", "Boston, MA 02118"], "country": "US", "state": "MA", "address3": "", "address2": "", "address1": "275 Shawmut Ave", "city": "Boston", "zip_code": "02118"}, "is_closed": false, "review_count": 133, "coordinates": {"latitude": 42.3430595, "longitude": -71.0694199}, "id": "the-wholy-grain-boston", "image_url": "https://s3-media3.fl.yelpcdn.com/bphoto/5aaToxw9SoAB2A_10fknyg/o.jpg", "categories": [{"alias": "coffee", "title": "Coffee & Tea"}, {"alias": "bakeries", "title": "Bakeries"}, {"alias": "sandwiches", "title": "Sandwiches"}], "rating": 4.0}, {"transactions": [], "distance": 531.2257209411999, "price": "$", "display_phone": "(617) 259-1619", "phone": "+16172591619", "url": "https://www.yelp.com/biz/boloco-copley-square-boston?adjust_creative=gBcvfFpabk3CnzmXKdYe3w&utm_campaign=yelp_api_v3&utm_medium=api_v3_business_search&utm_source=gBcvfFpabk3CnzmXKdYe3w", "name": "Boloco Copley Square", "location": {"display_address": ["569 Boylston St", "Boston, MA 02116"], "country": "US", "state": "MA", "address3": "", "address2": "", "address1": "569 Boylston St", "city": "Boston", "zip_code": "02116"}, "is_closed": false, "review_count": 206, "coordinates": {"latitude": 42.3506202697754, "longitude": -71.0764312744141}, "id": "boloco-copley-square-boston", "image_url": "https://s3-media1.fl.yelpcdn.com/bphoto/rv97Kqd5pgDcR4PRHFVEig/o.jpg", "categories": [{"alias": "newamerican", "title": "American (New)"}, {"alias": "mexican", "title": "Mexican"}], "rating": 4.0}, {"transactions": [], "distance": 1339.273918722, "price": "$$$", "display_phone": "(617) 315-7829", "phone": "+16173157829", "url": "https://www.yelp.com/biz/the-maiden-boston?adjust_creative=gBcvfFpabk3CnzmXKdYe3w&utm_campaign=yelp_api_v3&utm_medium=api_v3_business_search&utm_source=gBcvfFpabk3CnzmXKdYe3w", "name": "The Maiden", "location": {"display_address": ["28 W Broadway", "Boston, MA 02127"], "country": "US", "state": "MA", "address3": "", "address2": "", "address1": "28 W Broadway", "city": "Boston", "zip_code": "02127"}, "is_closed": false, "review_count": 61, "coordinates": {"latitude": 42.34276, "longitude": -71.05645}, "id": "the-maiden-boston", "image_url": "https://s3-media4.fl.yelpcdn.com/bphoto/QWAMFwR447IwcR-P1JNPCQ/o.jpg", "categories": [{"alias": "wine_bars", "title": "Wine Bars"}, {"alias": "newamerican", "title": "American (New)"}, {"alias": "burgers", "title": "Burgers"}], "rating": 4.0}, {"transactions": ["pickup"], "distance": 2207.156379912, "price": "$$$", "display_phone": "(617) 523-3112", "phone": "+16175233112", "url": "https://www.yelp.com/biz/terramia-ristorante-boston?adjust_creative=gBcvfFpabk3CnzmXKdYe3w&utm_campaign=yelp_api_v3&utm_medium=api_v3_business_search&utm_source=gBcvfFpabk3CnzmXKdYe3w", "name": "Terramia Ristorante", "location": {"display_address": ["98 Salem St", "Boston, MA 02113"], "country": "US", "state": "MA", "address3": "", "address2": "", "address1": "98 Salem St", "city": "Boston", "zip_code": "02113"}, "is_closed": false, "review_count": 214, "coordinates": {"latitude": 42.364028, "longitude": -71.055697}, "id": "terramia-ristorante-boston", "image_url": "https://s3-media1.fl.yelpcdn.com/bphoto/h4_5x1h7EdKd6TvQrlyOEA/o.jpg", "categories": [{"alias": "italian", "title": "Italian"}, {"alias": "vegetarian", "title": "Vegetarian"}, {"alias": "gluten_free", "title": "Gluten-Free"}], "rating": 4.0}, {"transactions": [], "distance": 2416.5400434139997, "display_phone": "", "phone": "", "url": "https://www.yelp.com/biz/leonard-p-zakim-bunker-hill-memorial-bridge-boston?adjust_creative=gBcvfFpabk3CnzmXKdYe3w&utm_campaign=yelp_api_v3&utm_medium=api_v3_business_search&utm_source=gBcvfFpabk3CnzmXKdYe3w", "name": "Leonard P. Zakim Bunker Hill Memorial Bridge", "location": {"display_address": ["100 Beverly St", "Boston, MA 02114"], "country": "US", "state": "MA", "address3": "", "address2": "", "address1": "100 Beverly St", "city": "Boston", "zip_code": "02114"}, "is_closed": false, "review_count": 38, "coordinates": {"latitude": 42.368736, "longitude": -71.063148}, "id": "leonard-p-zakim-bunker-hill-memorial-bridge-boston", "image_url": "https://s3-media4.fl.yelpcdn.com/bphoto/Jugt794QC4E3p3SxRWLJBA/o.jpg", "categories": [{"alias": "landmarks", "title": "Landmarks & Historical Buildings"}], "rating": 4.5}, {"transactions": ["delivery", "pickup"], "distance": 659.3367327458, "price": "$$", "display_phone": "(617) 247-9249", "phone": "+16172479249", "url": "https://www.yelp.com/biz/vejigantes-boston-2?adjust_creative=gBcvfFpabk3CnzmXKdYe3w&utm_campaign=yelp_api_v3&utm_medium=api_v3_business_search&utm_source=gBcvfFpabk3CnzmXKdYe3w", "name": "Vejigantes", "location": {"display_address": ["57 W Dedham St", "Boston, MA 02118"], "country": "US", "state": "MA", "address3": "", "address2": "", "address1": "57 W Dedham St", "city": "Boston", "zip_code": "02118"}, "is_closed": false, "review_count": 293, "coordinates": {"latitude": 42.3416595, "longitude": -71.0722504}, "id": "vejigantes-boston-2", "image_url": "https://s3-media3.fl.yelpcdn.com/bphoto/kl6AnrgqIRCIkOeL2zac4Q/o.jpg", "categories": [{"alias": "puertorican", "title": "Puerto Rican"}, {"alias": "latin", "title": "Latin American"}], "rating": 3.5}, {"transactions": [], "distance": 1542.1575223376, "price": "$$", "display_phone": "(617) 375-9663", "phone": "+16173759663", "url": "https://www.yelp.com/biz/woodys-grill-and-tap-boston-2?adjust_creative=gBcvfFpabk3CnzmXKdYe3w&utm_campaign=yelp_api_v3&utm_medium=api_v3_business_search&utm_source=gBcvfFpabk3CnzmXKdYe3w", "name": "Woody's Grill and Tap", "location": {"display_address": ["58 Hemenway St", "Boston, MA 02115"], "country": "US", "state": "MA", "address3": "", "address2": "", "address1": "58 Hemenway St", "city": "Boston", "zip_code": "02115"}, "is_closed": false, "review_count": 232, "coordinates": {"latitude": 42.344859, "longitude": -71.089571}, "id": "woodys-grill-and-tap-boston-2", "image_url": "https://s3-media4.fl.yelpcdn.com/bphoto/dFI2s3YTns-PUNnz4GEo0Q/o.jpg", "categories": [{"alias": "bars", "title": "Bars"}, {"alias": "tradamerican", "title": "American (Traditional)"}, {"alias": "pizza", "title": "Pizza"}], "rating": 4.0}, {"transactions": [], "distance": 347.3102491808, "price": "$$$", "display_phone": "(617) 426-6969", "phone": "+16174266969", "url": "https://www.yelp.com/biz/erbaluce-boston?adjust_creative=gBcvfFpabk3CnzmXKdYe3w&utm_campaign=yelp_api_v3&utm_medium=api_v3_business_search&utm_source=gBcvfFpabk3CnzmXKdYe3w", "name": "Erbaluce", "location": {"display_address": ["69 Church St", "Boston, MA 02116"], "country": "US", "state": "MA", "address3": "", "address2": "", "address1": "69 Church St", "city": "Boston", "zip_code": "02116"}, "is_closed": false, "review_count": 344, "coordinates": {"latitude": 42.350149, "longitude": -71.068389}, "id": "erbaluce-boston", "image_url": "https://s3-media4.fl.yelpcdn.com/bphoto/KIXnOKBu--36K5neskgMgA/o.jpg", "categories": [{"alias": "italian", "title": "Italian"}], "rating": 3.5}, {"transactions": [], "distance": 1302.8592216079999, "price": "$", "display_phone": "(617) 482-1113", "phone": "+16174821113", "url": "https://www.yelp.com/biz/viga-italian-eatery-and-caterer-boston-2?adjust_creative=gBcvfFpabk3CnzmXKdYe3w&utm_campaign=yelp_api_v3&utm_medium=api_v3_business_search&utm_source=gBcvfFpabk3CnzmXKdYe3w", "name": "Viga Italian Eatery & Caterer", "location": {"display_address": ["291 Devonshire St", "Boston, MA 02110"], "country": "US", "state": "MA", "address3": "", "address2": null, "address1": "291 Devonshire St", "city": "Boston", "zip_code": "02110"}, "is_closed": false, "review_count": 86, "coordinates": {"latitude": 42.35415, "longitude": -71.05796}, "id": "viga-italian-eatery-and-caterer-boston-2", "image_url": "https://s3-media2.fl.yelpcdn.com/bphoto/0jb8YkaZPANbYaSRfD7r-Q/o.jpg", "categories": [{"alias": "italian", "title": "Italian"}], "rating": 4.0}, {"transactions": ["delivery"], "distance": 1190.9293671136, "price": "$$$", "display_phone": "(617) 542-5108", "phone": "+16175425108", "url": "https://www.yelp.com/biz/les-zygomates-wine-bar-and-bistro-boston-3?adjust_creative=gBcvfFpabk3CnzmXKdYe3w&utm_campaign=yelp_api_v3&utm_medium=api_v3_business_search&utm_source=gBcvfFpabk3CnzmXKdYe3w", "name": "Les Zygomates Wine Bar & Bistro", "location": {"display_address": ["129 South St", "Boston, MA 02111"], "country": "US", "state": "MA", "address3": "", "address2": "", "address1": "129 South St", "city": "Boston", "zip_code": "02111"}, "is_closed": false, "review_count": 374, "coordinates": {"latitude": 42.351162781091, "longitude": -71.057466873432}, "id": "les-zygomates-wine-bar-and-bistro-boston-3", "image_url": "https://s3-media2.fl.yelpcdn.com/bphoto/zIVJTReqb9GDtWG2pAE7Bg/o.jpg", "categories": [{"alias": "french", "title": "French"}, {"alias": "jazzandblues", "title": "Jazz & Blues"}, {"alias": "venues", "title": "Venues & Event Spaces"}], "rating": 4.0}, {"transactions": [], "distance": 2280.8477366439997, "price": "$$$", "display_phone": "(617) 227-0295", "phone": "+16172270295", "url": "https://www.yelp.com/biz/stanza-dei-sigari-boston?adjust_creative=gBcvfFpabk3CnzmXKdYe3w&utm_campaign=yelp_api_v3&utm_medium=api_v3_business_search&utm_source=gBcvfFpabk3CnzmXKdYe3w", "name": "Stanza Dei Sigari", "location": {"display_address": ["292 Hanover St", "Boston, MA 02113"], "country": "US", "state": "MA", "address3": "", "address2": "", "address1": "292 Hanover St", "city": "Boston", "zip_code": "02113"}, "is_closed": false, "review_count": 213, "coordinates": {"latitude": 42.3642073, "longitude": -71.0542421}, "id": "stanza-dei-sigari-boston", "image_url": "https://s3-media2.fl.yelpcdn.com/bphoto/PcW-8FwtGRqlZxrh3zbIBQ/o.jpg", "categories": [{"alias": "tobaccoshops", "title": "Tobacco Shops"}, {"alias": "lounges", "title": "Lounges"}, {"alias": "hookah_bars", "title": "Hookah Bars"}], "rating": 4.0}, {"transactions": ["delivery", "pickup"], "distance": 1278.420589038, "price": "$$", "display_phone": "(617) 536-1100", "phone": "+16175361100", "url": "https://www.yelp.com/biz/darryls-corner-bar-and-kitchen-boston?adjust_creative=gBcvfFpabk3CnzmXKdYe3w&utm_campaign=yelp_api_v3&utm_medium=api_v3_business_search&utm_source=gBcvfFpabk3CnzmXKdYe3w", "name": "Darryl's Corner Bar & Kitchen", "location": {"display_address": ["604 Columbus Ave", "Boston, MA 02118"], "country": "US", "state": "MA", "address3": "", "address2": "", "address1": "604 Columbus Ave", "city": "Boston", "zip_code": "02118"}, "is_closed": false, "review_count": 512, "coordinates": {"latitude": 42.33976, "longitude": -71.08241}, "id": "darryls-corner-bar-and-kitchen-boston", "image_url": "https://s3-media3.fl.yelpcdn.com/bphoto/ASuEC7CAoygNZ02LUATGWQ/o.jpg", "categories": [{"alias": "bars", "title": "Bars"}, {"alias": "jazzandblues", "title": "Jazz & Blues"}, {"alias": "breakfast_brunch", "title": "Breakfast & Brunch"}], "rating": 3.5}, {"transactions": ["delivery", "pickup"], "distance": 1984.55923034, "price": "$$", "display_phone": "(617) 267-8888", "phone": "+16172678888", "url": "https://www.yelp.com/biz/fins-sushi-and-grill-boston?adjust_creative=gBcvfFpabk3CnzmXKdYe3w&utm_campaign=yelp_api_v3&utm_medium=api_v3_business_search&utm_source=gBcvfFpabk3CnzmXKdYe3w", "name": "Fin's Sushi and Grill", "location": {"display_address": ["636 Beacon St", "Boston, MA 02215"], "country": "US", "state": "MA", "address3": "", "address2": "", "address1": "636 Beacon St", "city": "Boston", "zip_code": "02215"}, "is_closed": false, "review_count": 311, "coordinates": {"latitude": 42.34957, "longitude": -71.09527}, "id": "fins-sushi-and-grill-boston", "image_url": "https://s3-media2.fl.yelpcdn.com/bphoto/aVlnP2BVGTNtOouS0HWinw/o.jpg", "categories": [{"alias": "sushi", "title": "Sushi Bars"}, {"alias": "japanese", "title": "Japanese"}], "rating": 4.0}, {"transactions": [], "distance": 2732.2215795199995, "price": "$", "display_phone": "(857) 366-4640", "phone": "+18573664640", "url": "https://www.yelp.com/biz/j-pace-and-son-boston-4?adjust_creative=gBcvfFpabk3CnzmXKdYe3w&utm_campaign=yelp_api_v3&utm_medium=api_v3_business_search&utm_source=gBcvfFpabk3CnzmXKdYe3w", "name": "J Pace & Son", "location": {"display_address": ["225 Northern Ave", "Boston, MA 02210"], "country": "US", "state": "MA", "address3": "", "address2": "", "address1": "225 Northern Ave", "city": "Boston", "zip_code": "02210"}, "is_closed": false, "review_count": 99, "coordinates": {"latitude": 42.3482864462329, "longitude": -71.0380000902748}, "id": "j-pace-and-son-boston-4", "image_url": "https://s3-media3.fl.yelpcdn.com/bphoto/oEQis8Oy38olwDRLgeKfnA/o.jpg", "categories": [{"alias": "grocery", "title": "Grocery"}, {"alias": "italian", "title": "Italian"}, {"alias": "delis", "title": "Delis"}], "rating": 4.0}, {"transactions": [], "distance": 668.9255988942, "price": "$$", "display_phone": "(617) 451-5997", "phone": "+16174515997", "url": "https://www.yelp.com/biz/intermission-tavern-boston-2?adjust_creative=gBcvfFpabk3CnzmXKdYe3w&utm_campaign=yelp_api_v3&utm_medium=api_v3_business_search&utm_source=gBcvfFpabk3CnzmXKdYe3w", "name": "Intermission Tavern", "location": {"display_address": ["228 Tremont St", "Boston, MA 02116"], "country": "US", "state": "MA", "address3": "", "address2": "", "address1": "228 Tremont St", "city": "Boston", "zip_code": "02116"}, "is_closed": false, "review_count": 312, "coordinates": {"latitude": 42.3513412475586, "longitude": -71.0645904541016}, "id": "intermission-tavern-boston-2", "image_url": "https://s3-media4.fl.yelpcdn.com/bphoto/331Dd0SQUYS-l78BneUu0A/o.jpg", "categories": [{"alias": "bars", "title": "Bars"}, {"alias": "tradamerican", "title": "American (Traditional)"}, {"alias": "burgers", "title": "Burgers"}], "rating": 3.5}, {"transactions": [], "distance": 1622.788127842, "price": "$", "display_phone": "(617) 482-1112", "phone": "+16174821112", "url": "https://www.yelp.com/biz/viga-eatery-and-catering-boston?adjust_creative=gBcvfFpabk3CnzmXKdYe3w&utm_campaign=yelp_api_v3&utm_medium=api_v3_business_search&utm_source=gBcvfFpabk3CnzmXKdYe3w", "name": "Viga Eatery & Catering", "location": {"display_address": ["133 Pearl St", "Boston, MA 02110"], "country": "US", "state": "MA", "address3": "", "address2": "", "address1": "133 Pearl St", "city": "Boston", "zip_code": "02110"}, "is_closed": false, "review_count": 63, "coordinates": {"latitude": 42.35474, "longitude": -71.0538399}, "id": "viga-eatery-and-catering-boston", "image_url": "https://s3-media1.fl.yelpcdn.com/bphoto/rrxpjk7ncgx5MMleEsoOkA/o.jpg", "categories": [{"alias": "italian", "title": "Italian"}, {"alias": "sandwiches", "title": "Sandwiches"}, {"alias": "catering", "title": "Caterers"}], "rating": 4.0}, {"transactions": [], "distance": 1116.0175030189998, "price": "$$$", "display_phone": "(617) 993-0750", "phone": "+16179930750", "url": "https://www.yelp.com/biz/townsman-boston?adjust_creative=gBcvfFpabk3CnzmXKdYe3w&utm_campaign=yelp_api_v3&utm_medium=api_v3_business_search&utm_source=gBcvfFpabk3CnzmXKdYe3w", "name": "Townsman", "location": {"display_address": ["120 Kingston St", "Boston, MA 02111"], "country": "US", "state": "MA", "address3": "", "address2": "", "address1": "120 Kingston St", "city": "Boston", "zip_code": "02111"}, "is_closed": false, "review_count": 208, "coordinates": {"latitude": 42.35221, "longitude": -71.05905}, "id": "townsman-boston", "image_url": "https://s3-media2.fl.yelpcdn.com/bphoto/1hP8YtmQ_MCzZRSeEvcDug/o.jpg", "categories": [{"alias": "brasseries", "title": "Brasseries"}, {"alias": "newamerican", "title": "American (New)"}], "rating": 4.0}, {"transactions": ["delivery", "pickup"], "distance": 3004.7410996279996, "price": "$$", "display_phone": "(617) 738-0888", "phone": "+16177380888", "url": "https://www.yelp.com/biz/sushi-station-boston?adjust_creative=gBcvfFpabk3CnzmXKdYe3w&utm_campaign=yelp_api_v3&utm_medium=api_v3_business_search&utm_source=gBcvfFpabk3CnzmXKdYe3w", "name": "Sushi Station", "location": {"display_address": ["1562 Tremont St", "Ste 1", "Boston, MA 02120"], "country": "US", "state": "MA", "address3": "", "address2": "Ste 1", "address1": "1562 Tremont St", "city": "Boston", "zip_code": "02120"}, "is_closed": false, "review_count": 159, "coordinates": {"latitude": 42.332906, "longitude": -71.101709}, "id": "sushi-station-boston", "image_url": "https://s3-media2.fl.yelpcdn.com/bphoto/0v0SEuT4BFtIx0TaCiC17Q/o.jpg", "categories": [{"alias": "japanese", "title": "Japanese"}, {"alias": "sushi", "title": "Sushi Bars"}], "rating": 4.0}, {"transactions": [], "distance": 4323.554191458, "price": "$$", "display_phone": "(617) 569-3787", "phone": "+16175693787", "url": "https://www.yelp.com/biz/mi-pueblito-restaurant-boston?adjust_creative=gBcvfFpabk3CnzmXKdYe3w&utm_campaign=yelp_api_v3&utm_medium=api_v3_business_search&utm_source=gBcvfFpabk3CnzmXKdYe3w", "name": "Mi Pueblito Restaurant", "location": {"display_address": ["333 Border St", "Boston, MA 02128"], "country": "US", "state": "MA", "address3": "", "address2": "", "address1": "333 Border St", "city": "Boston", "zip_code": "02128"}, "is_closed": false, "review_count": 123, "coordinates": {"latitude": 42.3790925, "longitude": -71.0398847}, "id": "mi-pueblito-restaurant-boston", "image_url": "https://s3-media1.fl.yelpcdn.com/bphoto/adLufxu5qbl_Qzj-p_V_BA/o.jpg", "categories": [{"alias": "mexican", "title": "Mexican"}, {"alias": "salvadoran", "title": "Salvadoran"}, {"alias": "seafood", "title": "Seafood"}], "rating": 4.5}, {"transactions": [], "distance": 1313.98507183, "price": "$$", "display_phone": "(617) 752-4206", "phone": "+16177524206", "url": "https://www.yelp.com/biz/worden-hall-boston?adjust_creative=gBcvfFpabk3CnzmXKdYe3w&utm_campaign=yelp_api_v3&utm_medium=api_v3_business_search&utm_source=gBcvfFpabk3CnzmXKdYe3w", "name": "Worden Hall", "location": {"display_address": ["22 W Broadway", "Boston, MA 02127"], "country": "US", "state": "MA", "address3": "", "address2": "", "address1": "22 W Broadway", "city": "Boston", "zip_code": "02127"}, "is_closed": false, "review_count": 181, "coordinates": {"latitude": 42.3427610900378, "longitude": -71.0568092748732}, "id": "worden-hall-boston", "image_url": "https://s3-media1.fl.yelpcdn.com/bphoto/z3MMSY-VMWGgMR1w4DnCpQ/o.jpg", "categories": [{"alias": "newamerican", "title": "American (New)"}, {"alias": "bars", "title": "Bars"}], "rating": 4.0}, {"transactions": [], "distance": 2442.738167406, "price": "$$", "display_phone": "(617) 367-1123", "phone": "+16173671123", "url": "https://www.yelp.com/biz/maurizios-boston?adjust_creative=gBcvfFpabk3CnzmXKdYe3w&utm_campaign=yelp_api_v3&utm_medium=api_v3_business_search&utm_source=gBcvfFpabk3CnzmXKdYe3w", "name": "Maurizios", "location": {"display_address": ["364 Hanover St", "Boston, MA 02113"], "country": "US", "state": "MA", "address3": "", "address2": "", "address1": "364 Hanover St", "city": "Boston", "zip_code": "02113"}, "is_closed": false, "review_count": 255, "coordinates": {"latitude": 42.3653869628906, "longitude": -71.0532836914062}, "id": "maurizios-boston", "image_url": "https://s3-media2.fl.yelpcdn.com/bphoto/5Xl_HpXtJXWX2qsw9skD1Q/o.jpg", "categories": [{"alias": "italian", "title": "Italian"}, {"alias": "wine_bars", "title": "Wine Bars"}], "rating": 4.0}, {"transactions": [], "distance": 672.6226873960001, "price": "$", "display_phone": "(617) 357-7399", "phone": "+16173577399", "url": "https://www.yelp.com/biz/marias-taqueria-boston?adjust_creative=gBcvfFpabk3CnzmXKdYe3w&utm_campaign=yelp_api_v3&utm_medium=api_v3_business_search&utm_source=gBcvfFpabk3CnzmXKdYe3w", "name": "Maria's Taqueria", "location": {"display_address": ["226 Tremont St", "Boston, MA 02116"], "country": "US", "state": "MA", "address3": "", "address2": "", "address1": "226 Tremont St", "city": "Boston", "zip_code": "02116"}, "is_closed": false, "review_count": 191, "coordinates": {"latitude": 42.3513946533203, "longitude": -71.0645751953125}, "id": "marias-taqueria-boston", "image_url": "https://s3-media4.fl.yelpcdn.com/bphoto/RPrHJ7lmHGfPstgfb8JN0A/o.jpg", "categories": [{"alias": "mexican", "title": "Mexican"}], "rating": 4.0}, {"transactions": [], "distance": 4041.902954322, "price": "$$", "display_phone": "(617) 567-9871", "phone": "+16175679871", "url": "https://www.yelp.com/biz/santarpios-pizza-boston-2?adjust_creative=gBcvfFpabk3CnzmXKdYe3w&utm_campaign=yelp_api_v3&utm_medium=api_v3_business_search&utm_source=gBcvfFpabk3CnzmXKdYe3w", "name": "Santarpio's Pizza", "location": {"display_address": ["111 Chelsea St", "Boston, MA 02128"], "country": "US", "state": "MA", "address3": "", "address2": "", "address1": "111 Chelsea St", "city": "Boston", "zip_code": "02128"}, "is_closed": false, "review_count": 892, "coordinates": {"latitude": 42.37261, "longitude": -71.03524}, "id": "santarpios-pizza-boston-2", "image_url": "https://s3-media3.fl.yelpcdn.com/bphoto/5QVtZDY6KMJS000C4qHyAw/o.jpg", "categories": [{"alias": "pizza", "title": "Pizza"}], "rating": 4.0}, {"transactions": [], "distance": 420.2667168952, "price": "$$$", "display_phone": "(617) 422-0008", "phone": "+16174220008", "url": "https://www.yelp.com/biz/doretta-taverna-and-raw-bar-boston?adjust_creative=gBcvfFpabk3CnzmXKdYe3w&utm_campaign=yelp_api_v3&utm_medium=api_v3_business_search&utm_source=gBcvfFpabk3CnzmXKdYe3w", "name": "Doretta Taverna & Raw Bar", "location": {"display_address": ["79 Park Plz", "Boston, MA 02116"], "country": "US", "state": "MA", "address3": "", "address2": "", "address1": "79 Park Plz", "city": "Boston", "zip_code": "02116"}, "is_closed": false, "review_count": 99, "coordinates": {"latitude": 42.35153296594, "longitude": -71.0701272977902}, "id": "doretta-taverna-and-raw-bar-boston", "image_url": "https://s3-media3.fl.yelpcdn.com/bphoto/R2bmOQ-_xHcOH7P0hCGgGA/o.jpg", "categories": [{"alias": "mediterranean", "title": "Mediterranean"}, {"alias": "greek", "title": "Greek"}, {"alias": "cocktailbars", "title": "Cocktail Bars"}], "rating": 4.0}, {"transactions": [], "distance": 1967.988339162, "price": "$", "display_phone": "(617) 742-2090", "phone": "+16177422090", "url": "https://www.yelp.com/biz/durty-nellys-boston?adjust_creative=gBcvfFpabk3CnzmXKdYe3w&utm_campaign=yelp_api_v3&utm_medium=api_v3_business_search&utm_source=gBcvfFpabk3CnzmXKdYe3w", "name": "Durty Nelly's", "location": {"display_address": ["108 Blackstone St", "Boston, MA 02109"], "country": "US", "state": "MA", "address3": "", "address2": "", "address1": "108 Blackstone St", "city": "Boston", "zip_code": "02109"}, "is_closed": false, "review_count": 147, "coordinates": {"latitude": 42.361701965332, "longitude": -71.0565719604492}, "id": "durty-nellys-boston", "image_url": "https://s3-media2.fl.yelpcdn.com/bphoto/yG1Ch038ecPN6GAus21Q8w/o.jpg", "categories": [{"alias": "bars", "title": "Bars"}, {"alias": "irish", "title": "Irish"}, {"alias": "musicvenues", "title": "Music Venues"}], "rating": 4.0}, {"transactions": [], "distance": 919.451025612, "price": "$$", "display_phone": "(857) 753-4982", "phone": "+18577534982", "url": "https://www.yelp.com/biz/sweetgreen-boston-4?adjust_creative=gBcvfFpabk3CnzmXKdYe3w&utm_campaign=yelp_api_v3&utm_medium=api_v3_business_search&utm_source=gBcvfFpabk3CnzmXKdYe3w", "name": "sweetgreen", "location": {"display_address": ["800 Boylston St", "Ste 17", "Boston, MA 02199"], "country": "US", "state": "MA", "address3": "", "address2": "Ste 17", "address1": "800 Boylston St", "city": "Boston", "zip_code": "02199"}, "is_closed": false, "review_count": 49, "coordinates": {"latitude": 42.3484877679796, "longitude": -71.0823976993595}, "id": "sweetgreen-boston-4", "image_url": "https://s3-media3.fl.yelpcdn.com/bphoto/6Sigzl7dxjSVFbOJv-lthg/o.jpg", "categories": [{"alias": "salad", "title": "Salad"}, {"alias": "vegetarian", "title": "Vegetarian"}, {"alias": "vegan", "title": "Vegan"}], "rating": 4.0}, {"transactions": [], "distance": 2111.393086014, "price": "$$$", "display_phone": "(617) 742-5300", "phone": "+16177425300", "url": "https://www.yelp.com/biz/legal-sea-foods-boston-38?adjust_creative=gBcvfFpabk3CnzmXKdYe3w&utm_campaign=yelp_api_v3&utm_medium=api_v3_business_search&utm_source=gBcvfFpabk3CnzmXKdYe3w", "name": "Legal Sea Foods", "location": {"display_address": ["255 State St", "Boston, MA 02109"], "country": "US", "state": "MA", "address3": "", "address2": "", "address1": "255 State St", "city": "Boston", "zip_code": "02109"}, "is_closed": false, "review_count": 882, "coordinates": {"latitude": 42.3595530399974, "longitude": -71.0510174185038}, "id": "legal-sea-foods-boston-38", "image_url": "https://s3-media1.fl.yelpcdn.com/bphoto/x0Khp-RKkwTBasbmhJf4vg/o.jpg", "categories": [{"alias": "seafood", "title": "Seafood"}, {"alias": "gluten_free", "title": "Gluten-Free"}, {"alias": "bars", "title": "Bars"}], "rating": 3.5}, {"transactions": [], "distance": 1293.2142377737998, "display_phone": "(617) 292-0020", "phone": "+16172920020", "url": "https://www.yelp.com/biz/rose-fitzgerald-kennedy-greenway-boston?adjust_creative=gBcvfFpabk3CnzmXKdYe3w&utm_campaign=yelp_api_v3&utm_medium=api_v3_business_search&utm_source=gBcvfFpabk3CnzmXKdYe3w", "name": "Rose Fitzgerald Kennedy Greenway", "location": {"display_address": ["Atlantic Ave", "Boston, MA 02111"], "country": "US", "state": "MA", "address3": "", "address2": "", "address1": "Atlantic Ave", "city": "Boston", "zip_code": "02111"}, "is_closed": false, "review_count": 47, "coordinates": {"latitude": 42.3511, "longitude": -71.05624}, "id": "rose-fitzgerald-kennedy-greenway-boston", "image_url": "https://s3-media1.fl.yelpcdn.com/bphoto/50wa6XQQdSMtCMwhONm9iQ/o.jpg", "categories": [{"alias": "parks", "title": "Parks"}], "rating": 4.0}, {"transactions": ["delivery", "pickup"], "distance": 1378.8120229079998, "price": "$", "display_phone": "(617) 867-6767", "phone": "+16178676767", "url": "https://www.yelp.com/biz/zest-mediterranean-grille-boston?adjust_creative=gBcvfFpabk3CnzmXKdYe3w&utm_campaign=yelp_api_v3&utm_medium=api_v3_business_search&utm_source=gBcvfFpabk3CnzmXKdYe3w", "name": "Zest Mediterranean Grille", "location": {"display_address": ["1076 Boylston St", "Boston, MA 02215"], "country": "US", "state": "MA", "address3": "", "address2": "", "address1": "1076 Boylston St", "city": "Boston", "zip_code": "02215"}, "is_closed": false, "review_count": 122, "coordinates": {"latitude": 42.3469996, "longitude": -71.0879785}, "id": "zest-mediterranean-grille-boston", "image_url": "https://s3-media1.fl.yelpcdn.com/bphoto/CDYtq3zRWKsKC0zhwAfK4Q/o.jpg", "categories": [{"alias": "mediterranean", "title": "Mediterranean"}], "rating": 4.0}, {"transactions": ["delivery", "pickup"], "distance": 656.1401972642, "price": "$$", "display_phone": "(617) 338-8686", "phone": "+16173388686", "url": "https://www.yelp.com/biz/genki-ya-boston?adjust_creative=gBcvfFpabk3CnzmXKdYe3w&utm_campaign=yelp_api_v3&utm_medium=api_v3_business_search&utm_source=gBcvfFpabk3CnzmXKdYe3w", "name": "Genki Ya", "location": {"display_address": ["232 Tremont St", "Boston, MA 02116"], "country": "US", "state": "MA", "address3": "", "address2": "", "address1": "232 Tremont St", "city": "Boston", "zip_code": "02116"}, "is_closed": false, "review_count": 363, "coordinates": {"latitude": 42.3512460187279, "longitude": -71.0647221654654}, "id": "genki-ya-boston", "image_url": "https://s3-media2.fl.yelpcdn.com/bphoto/8xJTkEE-dpAxT722wBt66A/o.jpg", "categories": [{"alias": "sushi", "title": "Sushi Bars"}, {"alias": "japanese", "title": "Japanese"}, {"alias": "bars", "title": "Bars"}], "rating": 3.5}, {"transactions": ["delivery", "pickup"], "distance": 2724.585100286, "price": "$", "display_phone": "(617) 318-6300", "phone": "+16173186300", "url": "https://www.yelp.com/biz/beta-burger-boston?adjust_creative=gBcvfFpabk3CnzmXKdYe3w&utm_campaign=yelp_api_v3&utm_medium=api_v3_business_search&utm_source=gBcvfFpabk3CnzmXKdYe3w", "name": "Beta Burger", "location": {"display_address": ["1437 Tremont St", "Boston, MA 02120"], "country": "US", "state": "MA", "address3": "", "address2": null, "address1": "1437 Tremont St", "city": "Boston", "zip_code": "02120"}, "is_closed": false, "review_count": 61, "coordinates": {"latitude": 42.3319091796875, "longitude": -71.0964813232422}, "id": "beta-burger-boston", "image_url": "https://s3-media4.fl.yelpcdn.com/bphoto/5se1QOvRdXsM_TMipo5FDA/o.jpg", "categories": [{"alias": "burgers", "title": "Burgers"}, {"alias": "hotdogs", "title": "Fast Food"}], "rating": 4.5}, {"transactions": [], "distance": 1886.1648264759997, "price": "$$", "display_phone": "(617) 357-5825", "phone": "+16173575825", "url": "https://www.yelp.com/biz/luckys-lounge-boston-2?adjust_creative=gBcvfFpabk3CnzmXKdYe3w&utm_campaign=yelp_api_v3&utm_medium=api_v3_business_search&utm_source=gBcvfFpabk3CnzmXKdYe3w", "name": "Lucky's Lounge", "location": {"display_address": ["355 Congress St", "Boston, MA 02210"], "country": "US", "state": "MA", "address3": "", "address2": "", "address1": "355 Congress St", "city": "Boston", "zip_code": "02210"}, "is_closed": false, "review_count": 550, "coordinates": {"latitude": 42.35004, "longitude": -71.04848}, "id": "luckys-lounge-boston-2", "image_url": "https://s3-media3.fl.yelpcdn.com/bphoto/Yk1obwLkMH_we7bcig3KNQ/o.jpg", "categories": [{"alias": "lounges", "title": "Lounges"}, {"alias": "tradamerican", "title": "American (Traditional)"}, {"alias": "musicvenues", "title": "Music Venues"}], "rating": 3.5}, {"transactions": [], "distance": 1383.1931774701998, "price": "$", "display_phone": "(857) 233-2771", "phone": "+18572332771", "url": "https://www.yelp.com/biz/j-p-licks-boston-5?adjust_creative=gBcvfFpabk3CnzmXKdYe3w&utm_campaign=yelp_api_v3&utm_medium=api_v3_business_search&utm_source=gBcvfFpabk3CnzmXKdYe3w", "name": "J.P. Licks", "location": {"display_address": ["150 Charles St", "Boston, MA 02114"], "country": "US", "state": "MA", "address3": "", "address2": "", "address1": "150 Charles St", "city": "Boston", "zip_code": "02114"}, "is_closed": false, "review_count": 125, "coordinates": {"latitude": 42.3599606752396, "longitude": -71.0708469897509}, "id": "j-p-licks-boston-5", "image_url": "https://s3-media1.fl.yelpcdn.com/bphoto/LgqZ561mp5_YWkhBoEIw7Q/o.jpg", "categories": [{"alias": "icecream", "title": "Ice Cream & Frozen Yogurt"}, {"alias": "coffee", "title": "Coffee & Tea"}, {"alias": "kosher", "title": "Kosher"}], "rating": 4.0}, {"transactions": ["delivery"], "distance": 1263.5061432418, "price": "$$", "display_phone": "(617) 267-8688", "phone": "+16172678688", "url": "https://www.yelp.com/biz/trident-booksellers-and-caf%C3%A9-boston-2?adjust_creative=gBcvfFpabk3CnzmXKdYe3w&utm_campaign=yelp_api_v3&utm_medium=api_v3_business_search&utm_source=gBcvfFpabk3CnzmXKdYe3w", "name": "Trident Booksellers & Caf\u00e9", "location": {"display_address": ["338 Newbury St", "Boston, MA 02115"], "country": "US", "state": "MA", "address3": "", "address2": "", "address1": "338 Newbury St", "city": "Boston", "zip_code": "02115"}, "is_closed": false, "review_count": 1594, "coordinates": {"latitude": 42.3482399, "longitude": -71.08662}, "id": "trident-booksellers-and-caf\u00e9-boston-2", "image_url": "https://s3-media4.fl.yelpcdn.com/bphoto/IgvmxUmr6yv0LldWs281HQ/o.jpg", "categories": [{"alias": "bookstores", "title": "Bookstores"}, {"alias": "breakfast_brunch", "title": "Breakfast & Brunch"}, {"alias": "sandwiches", "title": "Sandwiches"}], "rating": 3.5}, {"transactions": [], "distance": 1373.7160477979999, "price": "$", "display_phone": "(617) 523-8164", "phone": "+16175238164", "url": "https://www.yelp.com/biz/fill-a-buster-boston?adjust_creative=gBcvfFpabk3CnzmXKdYe3w&utm_campaign=yelp_api_v3&utm_medium=api_v3_business_search&utm_source=gBcvfFpabk3CnzmXKdYe3w", "name": "Fill-A-Buster", "location": {"display_address": ["142 Bowdoin St", "Boston, MA 02108"], "country": "US", "state": "MA", "address3": "", "address2": "", "address1": "142 Bowdoin St", "city": "Boston", "zip_code": "02108"}, "is_closed": false, "review_count": 82, "coordinates": {"latitude": 42.3584861755371, "longitude": -71.0626525878906}, "id": "fill-a-buster-boston", "image_url": "https://s3-media3.fl.yelpcdn.com/bphoto/XwIubuI7QapGfYRXcrJlSA/o.jpg", "categories": [{"alias": "delis", "title": "Delis"}, {"alias": "salad", "title": "Salad"}, {"alias": "sandwiches", "title": "Sandwiches"}], "rating": 4.0}, {"transactions": [], "distance": 1049.386481801, "price": "$$", "display_phone": "(617) 266-0443", "phone": "+16172660443", "url": "https://www.yelp.com/biz/estragon-boston?adjust_creative=gBcvfFpabk3CnzmXKdYe3w&utm_campaign=yelp_api_v3&utm_medium=api_v3_business_search&utm_source=gBcvfFpabk3CnzmXKdYe3w", "name": "Estragon", "location": {"display_address": ["700 Harrison Ave", "Unit D", "Boston, MA 02118"], "country": "US", "state": "MA", "address3": "", "address2": "Unit D", "address1": "700 Harrison Ave", "city": "Boston", "zip_code": "02118"}, "is_closed": false, "review_count": 399, "coordinates": {"latitude": 42.3383293151855, "longitude": -71.0702972412109}, "id": "estragon-boston", "image_url": "https://s3-media2.fl.yelpcdn.com/bphoto/yk8xuetXp5vhuwQi4tNK8g/o.jpg", "categories": [{"alias": "tapas", "title": "Tapas Bars"}, {"alias": "spanish", "title": "Spanish"}], "rating": 3.5}, {"transactions": [], "distance": 3824.333543844, "price": "$$", "display_phone": "(617) 561-4448", "phone": "+16175614448", "url": "https://www.yelp.com/biz/cafe-gigu-boston?adjust_creative=gBcvfFpabk3CnzmXKdYe3w&utm_campaign=yelp_api_v3&utm_medium=api_v3_business_search&utm_source=gBcvfFpabk3CnzmXKdYe3w", "name": "Cafe Gigu", "location": {"display_address": ["102 Meridian St", "Boston, MA 02128"], "country": "US", "state": "MA", "address3": "", "address2": "", "address1": "102 Meridian St", "city": "Boston", "zip_code": "02128"}, "is_closed": false, "review_count": 33, "coordinates": {"latitude": 42.3728274, "longitude": -71.0392549}, "id": "cafe-gigu-boston", "image_url": "https://s3-media3.fl.yelpcdn.com/bphoto/MY77cSMkLgpPpr7ecnGdFQ/o.jpg", "categories": [{"alias": "lounges", "title": "Lounges"}], "rating": 4.5}], "total": 24839}