{"region": {"center": {"latitude": 42.34784169448538, "longitude": -71.07124328613281}}, "businesses": [{"transactions": [], "distance": 3698.78957418, "price": "$", "display_phone": "(617) 567-6373", "phone": "+16175676373", "url": "https://www.yelp.com/biz/carmellas-market-boston?adjust_creative=gBcvfFpabk3CnzmXKdYe3w&utm_campaign=yelp_api_v3&utm_medium=api_v3_business_search&utm_source=gBcvfFpabk3CnzmXKdYe3w", "name": "Carmella's Market", "location": {"display_address": ["86 Cottage St", "Boston, MA 02128"], "country": "US", "state": "MA", "address3": "", "address2": "", "address1": "86 Cottage St", "city": "Boston", "zip_code": "02128"}, "is_closed": false, "review_count": 21, "coordinates": {"latitude": 42.3678818, "longitude": -71.0353165}, "id": "carmellas-market-boston", "image_url": "https://s3-media1.fl.yelpcdn.com/bphoto/Vy_DE4OdwNGWAvN9AiWoSQ/o.jpg", "categories": [{"alias": "cheese", "title": "Cheese Shops"}, {"alias": "delis", "title": "Delis"}], "rating": 4.5}, {"transactions": ["pickup"], "distance": 1242.532467972, "price": "$", "display_phone": "(617) 482-0198", "phone": "+16174820198", "url": "https://www.yelp.com/biz/verts-mediterranean-grill-boston?adjust_creative=gBcvfFpabk3CnzmXKdYe3w&utm_campaign=yelp_api_v3&utm_medium=api_v3_business_search&utm_source=gBcvfFpabk3CnzmXKdYe3w", "name": "VERTS Mediterranean Grill", "location": {"display_address": ["95 Summer St", "Boston, MA 02110"], "country": "US", "state": "MA", "address3": null, "address2": "", "address1": "95 Summer St", "city": "Boston", "zip_code": "02110"}, "is_closed": false, "review_count": 74, "coordinates": {"latitude": 42.35373, "longitude": -71.05848}, "id": "verts-mediterranean-grill-boston", "image_url": "https://s3-media3.fl.yelpcdn.com/bphoto/feSo-GPj9-0OA0P0xrES1g/o.jpg", "categories": [{"alias": "salad", "title": "Salad"}, {"alias": "mediterranean", "title": "Mediterranean"}, {"alias": "sandwiches", "title": "Sandwiches"}], "rating": 4.0}, {"transactions": ["delivery", "pickup"], "distance": 1681.4706188, "price": "$", "display_phone": "(617) 720-3000", "phone": "+16177203000", "url": "https://www.yelp.com/biz/pavia-italian-cuisine-boston?adjust_creative=gBcvfFpabk3CnzmXKdYe3w&utm_campaign=yelp_api_v3&utm_medium=api_v3_business_search&utm_source=gBcvfFpabk3CnzmXKdYe3w", "name": "Pavia Italian Cuisine", "location": {"display_address": ["82 Water St", "Boston, MA 02109"], "country": "US", "state": "MA", "address3": "", "address2": "", "address1": "82 Water St", "city": "Boston", "zip_code": "02109"}, "is_closed": false, "review_count": 60, "coordinates": {"latitude": 42.3577592521906, "longitude": -71.0556804388762}, "id": "pavia-italian-cuisine-boston", "image_url": "https://s3-media2.fl.yelpcdn.com/bphoto/fqYO3mBLqzkd5_g-xHbE4Q/o.jpg", "categories": [{"alias": "italian", "title": "Italian"}], "rating": 4.0}, {"transactions": ["delivery", "pickup"], "distance": 945.888136594, "price": "$$", "display_phone": "(617) 236-5208", "phone": "+16172365208", "url": "https://www.yelp.com/biz/chilli-duck-thai-cuisine-boston?adjust_creative=gBcvfFpabk3CnzmXKdYe3w&utm_campaign=yelp_api_v3&utm_medium=api_v3_business_search&utm_source=gBcvfFpabk3CnzmXKdYe3w", "name": "Chilli Duck Thai Cuisine", "location": {"display_address": ["829 Boylston St", "Boston, MA 02116"], "country": "US", "state": "MA", "address3": "", "address2": "", "address1": "829 Boylston St", "city": "Boston", "zip_code": "02116"}, "is_closed": false, "review_count": 387, "coordinates": {"latitude": 42.3489418029785, "longitude": -71.0826568603516}, "id": "chilli-duck-thai-cuisine-boston", "image_url": "https://s3-media3.fl.yelpcdn.com/bphoto/DKtorPAO37BEfxigQgVA9g/o.jpg", "categories": [{"alias": "thai", "title": "Thai"}], "rating": 3.5}, {"transactions": [], "distance": 1970.992655074, "price": "$$", "display_phone": "(617) 247-1222", "phone": "+16172471222", "url": "https://www.yelp.com/biz/the-lansdowne-pub-boston?adjust_creative=gBcvfFpabk3CnzmXKdYe3w&utm_campaign=yelp_api_v3&utm_medium=api_v3_business_search&utm_source=gBcvfFpabk3CnzmXKdYe3w", "name": "The Lansdowne Pub", "location": {"display_address": ["9 Lansdowne St", "Boston, MA 02215"], "country": "US", "state": "MA", "address3": "", "address2": "", "address1": "9 Lansdowne St", "city": "Boston", "zip_code": "02215"}, "is_closed": false, "review_count": 267, "coordinates": {"latitude": 42.3472824, "longitude": -71.095215}, "id": "the-lansdowne-pub-boston", "image_url": "https://s3-media2.fl.yelpcdn.com/bphoto/SRs5PkEafRpWcivfdRjzBg/o.jpg", "categories": [{"alias": "pubs", "title": "Pubs"}, {"alias": "salad", "title": "Salad"}, {"alias": "sandwiches", "title": "Sandwiches"}], "rating": 3.5}, {"transactions": [], "distance": 2085.113529418, "price": "$$", "display_phone": "(617) 720-4455", "phone": "+16177204455", "url": "https://www.yelp.com/biz/the-fours-restaurant-and-sports-bar-boston-8?adjust_creative=gBcvfFpabk3CnzmXKdYe3w&utm_campaign=yelp_api_v3&utm_medium=api_v3_business_search&utm_source=gBcvfFpabk3CnzmXKdYe3w", "name": "The Four's Restaurant & Sports Bar", "location": {"display_address": ["166 Canal St", "Boston, MA 02114"], "country": "US", "state": "MA", "address3": "", "address2": "", "address1": "166 Canal St", "city": "Boston", "zip_code": "02114"}, "is_closed": false, "review_count": 253, "coordinates": {"latitude": 42.36498, "longitude": -71.06098}, "id": "the-fours-restaurant-and-sports-bar-boston-8", "image_url": "https://s3-media4.fl.yelpcdn.com/bphoto/gv6GVWwNiLW9miGKOGC2DA/o.jpg", "categories": [{"alias": "sportsbars", "title": "Sports Bars"}, {"alias": "tradamerican", "title": "American (Traditional)"}, {"alias": "mexican", "title": "Mexican"}], "rating": 3.5}, {"transactions": ["pickup"], "distance": 1782.209187308, "price": "$$", "display_phone": "(617) 338-8585", "phone": "+16173388585", "url": "https://www.yelp.com/biz/blue-dragon-boston?adjust_creative=gBcvfFpabk3CnzmXKdYe3w&utm_campaign=yelp_api_v3&utm_medium=api_v3_business_search&utm_source=gBcvfFpabk3CnzmXKdYe3w", "name": "Blue Dragon", "location": {"display_address": ["324 A St", "Boston, MA 02210"], "country": "US", "state": "MA", "address3": "", "address2": "", "address1": "324 A St", "city": "Boston", "zip_code": "02210"}, "is_closed": false, "review_count": 402, "coordinates": {"latitude": 42.349348, "longitude": -71.049653}, "id": "blue-dragon-boston", "image_url": "https://s3-media1.fl.yelpcdn.com/bphoto/k8vQjaatdR-1UwwrTViS8Q/o.jpg", "categories": [{"alias": "asianfusion", "title": "Asian Fusion"}, {"alias": "gastropubs", "title": "Gastropubs"}, {"alias": "tapas", "title": "Tapas Bars"}], "rating": 3.5}, {"transactions": [], "distance": 2403.400265116, "price": "$$$", "display_phone": "(617) 425-6262", "phone": "+16174256262", "url": "https://www.yelp.com/biz/tiger-mama-boston-3?adjust_creative=gBcvfFpabk3CnzmXKdYe3w&utm_campaign=yelp_api_v3&utm_medium=api_v3_business_search&utm_source=gBcvfFpabk3CnzmXKdYe3w", "name": "Tiger Mama", "location": {"display_address": ["1363 Boylston St", "Boston, MA 02215"], "country": "US", "state": "MA", "address3": "", "address2": "", "address1": "1363 Boylston St", "city": "Boston", "zip_code": "02215"}, "is_closed": false, "review_count": 272, "coordinates": {"latitude": 42.343955569787, "longitude": -71.1002608761725}, "id": "tiger-mama-boston-3", "image_url": "https://s3-media4.fl.yelpcdn.com/bphoto/7qvvKYOtSbwIJjZ-wDqqrg/o.jpg", "categories": [{"alias": "thai", "title": "Thai"}, {"alias": "vietnamese", "title": "Vietnamese"}, {"alias": "bars", "title": "Bars"}], "rating": 3.5}, {"transactions": [], "distance": 378.44888603879997, "price": "$$", "display_phone": "(617) 867-4142", "phone": "+16178674142", "url": "https://www.yelp.com/biz/brownstone-boston?adjust_creative=gBcvfFpabk3CnzmXKdYe3w&utm_campaign=yelp_api_v3&utm_medium=api_v3_business_search&utm_source=gBcvfFpabk3CnzmXKdYe3w", "name": "Brownstone", "location": {"display_address": ["111 Dartmouth St", "Boston, MA 02116"], "country": "US", "state": "MA", "address3": "", "address2": "", "address1": "111 Dartmouth St", "city": "Boston", "zip_code": "02116"}, "is_closed": false, "review_count": 249, "coordinates": {"latitude": 42.3464177995131, "longitude": -71.0754221986725}, "id": "brownstone-boston", "image_url": "https://s3-media1.fl.yelpcdn.com/bphoto/K72Bf5DQXmR_E3_XBi7aYw/o.jpg", "categories": [{"alias": "bars", "title": "Bars"}, {"alias": "breakfast_brunch", "title": "Breakfast & Brunch"}, {"alias": "newamerican", "title": "American (New)"}], "rating": 3.5}, {"transactions": [], "distance": 3178.2831519899996, "price": "$", "display_phone": "", "phone": "", "url": "https://www.yelp.com/biz/clover-boston-11?adjust_creative=gBcvfFpabk3CnzmXKdYe3w&utm_campaign=yelp_api_v3&utm_medium=api_v3_business_search&utm_source=gBcvfFpabk3CnzmXKdYe3w", "name": "Clover", "location": {"display_address": ["360 Longwood Ave", "Boston, MA 02215"], "country": "US", "state": "MA", "address3": null, "address2": "", "address1": "360 Longwood Ave", "city": "Boston", "zip_code": "02215"}, "is_closed": false, "review_count": 32, "coordinates": {"latitude": 42.3390162, "longitude": -71.1080246}, "id": "clover-boston-11", "image_url": "https://s3-media4.fl.yelpcdn.com/bphoto/0HuxXUQAkkt6baZVgArgQw/o.jpg", "categories": [{"alias": "breakfast_brunch", "title": "Breakfast & Brunch"}, {"alias": "coffee", "title": "Coffee & Tea"}, {"alias": "sandwiches", "title": "Sandwiches"}], "rating": 4.5}, {"transactions": ["delivery"], "distance": 1389.5913178544, "price": "$", "display_phone": "(617) 369-9087", "phone": "+16173699087", "url": "https://www.yelp.com/biz/boloco-berklee-boston?adjust_creative=gBcvfFpabk3CnzmXKdYe3w&utm_campaign=yelp_api_v3&utm_medium=api_v3_business_search&utm_source=gBcvfFpabk3CnzmXKdYe3w", "name": "Boloco Berklee", "location": {"display_address": ["1080 Boylston St", "Boston, MA 02115"], "country": "US", "state": "MA", "address3": "", "address2": "", "address1": "1080 Boylston St", "city": "Boston", "zip_code": "02115"}, "is_closed": false, "review_count": 105, "coordinates": {"latitude": 42.34692, "longitude": -71.08807}, "id": "boloco-berklee-boston", "image_url": "https://s3-media2.fl.yelpcdn.com/bphoto/goO2pX2G2y647ksuqZqPew/o.jpg", "categories": [{"alias": "mexican", "title": "Mexican"}, {"alias": "cajun", "title": "Cajun/Creole"}], "rating": 3.5}, {"transactions": [], "distance": 4401.769563864, "price": "$$", "display_phone": "(617) 487-5957", "phone": "+16174875957", "url": "https://www.yelp.com/biz/holly-crab-boston?adjust_creative=gBcvfFpabk3CnzmXKdYe3w&utm_campaign=yelp_api_v3&utm_medium=api_v3_business_search&utm_source=gBcvfFpabk3CnzmXKdYe3w", "name": "Holly Crab", "location": {"display_address": ["1098 Commonwealth Ave", "Boston, MA 02215"], "country": "US", "state": "MA", "address3": "", "address2": null, "address1": "1098 Commonwealth Ave", "city": "Boston", "zip_code": "02215"}, "is_closed": false, "review_count": 211, "coordinates": {"latitude": 42.3518873, "longitude": -71.1245246}, "id": "holly-crab-boston", "image_url": "https://s3-media3.fl.yelpcdn.com/bphoto/PtzJVNNcdXSyNi57_NRWYQ/o.jpg", "categories": [{"alias": "seafood", "title": "Seafood"}, {"alias": "cajun", "title": "Cajun/Creole"}], "rating": 4.0}, {"transactions": [], "distance": 445.5979859896, "price": "$", "display_phone": "(617) 236-0634", "phone": "+16172360634", "url": "https://www.yelp.com/biz/pret-a-manger-boston?adjust_creative=gBcvfFpabk3CnzmXKdYe3w&utm_campaign=yelp_api_v3&utm_medium=api_v3_business_search&utm_source=gBcvfFpabk3CnzmXKdYe3w", "name": "Pret A Manger", "location": {"display_address": ["507 Boylston St", "Boston, MA 02116"], "country": "US", "state": "MA", "address3": "", "address2": "", "address1": "507 Boylston St", "city": "Boston", "zip_code": "02116"}, "is_closed": false, "review_count": 118, "coordinates": {"latitude": 42.3508484057599, "longitude": -71.0748283385857}, "id": "pret-a-manger-boston", "image_url": "https://s3-media1.fl.yelpcdn.com/bphoto/Q13s2E9Sk-6YW8SSu2cveA/o.jpg", "categories": [{"alias": "coffee", "title": "Coffee & Tea"}, {"alias": "sandwiches", "title": "Sandwiches"}, {"alias": "breakfast_brunch", "title": "Breakfast & Brunch"}], "rating": 3.5}, {"transactions": [], "distance": 2050.350015144, "price": "$", "display_phone": "(617) 742-3115", "phone": "+16177423115", "url": "https://www.yelp.com/biz/bonne-chance-cafe-and-bakery-boston?adjust_creative=gBcvfFpabk3CnzmXKdYe3w&utm_campaign=yelp_api_v3&utm_medium=api_v3_business_search&utm_source=gBcvfFpabk3CnzmXKdYe3w", "name": "Bonne Chance Cafe & Bakery", "location": {"display_address": ["77 Canal St", "Boston, MA 02114"], "country": "US", "state": "MA", "address3": "", "address2": "", "address1": "77 Canal St", "city": "Boston", "zip_code": "02114"}, "is_closed": false, "review_count": 29, "coordinates": {"latitude": 42.3640443384647, "longitude": -71.0594630241394}, "id": "bonne-chance-cafe-and-bakery-boston", "image_url": "https://s3-media3.fl.yelpcdn.com/bphoto/xcVzNt3gtENIl_LBw2lsVg/o.jpg", "categories": [{"alias": "bakeries", "title": "Bakeries"}, {"alias": "coffee", "title": "Coffee & Tea"}, {"alias": "importedfood", "title": "Imported Food"}], "rating": 4.0}, {"transactions": [], "distance": 2123.967181302, "price": "$$$", "display_phone": "(617) 720-0422", "phone": "+16177200422", "url": "https://www.yelp.com/biz/dolce-vita-ristorante-boston-2?adjust_creative=gBcvfFpabk3CnzmXKdYe3w&utm_campaign=yelp_api_v3&utm_medium=api_v3_business_search&utm_source=gBcvfFpabk3CnzmXKdYe3w", "name": "Dolce Vita Ristorante", "location": {"display_address": ["221 Hanover St", "Boston, MA 02113"], "country": "US", "state": "MA", "address3": "", "address2": "", "address1": "221 Hanover St", "city": "Boston", "zip_code": "02113"}, "is_closed": false, "review_count": 297, "coordinates": {"latitude": 42.36277, "longitude": -71.0552}, "id": "dolce-vita-ristorante-boston-2", "image_url": "https://s3-media4.fl.yelpcdn.com/bphoto/rnBAwFaUgB59Dj_vCH4Pvw/o.jpg", "categories": [{"alias": "italian", "title": "Italian"}], "rating": 3.5}, {"transactions": [], "distance": 1764.267299384, "price": "$$", "display_phone": "(617) 423-1000", "phone": "+16174231000", "url": "https://www.yelp.com/biz/papagayo-boston-3?adjust_creative=gBcvfFpabk3CnzmXKdYe3w&utm_campaign=yelp_api_v3&utm_medium=api_v3_business_search&utm_source=gBcvfFpabk3CnzmXKdYe3w", "name": "Papagayo", "location": {"display_address": ["283 Summer St", "Boston, MA 02210"], "country": "US", "state": "MA", "address3": "", "address2": "", "address1": "283 Summer St", "city": "Boston", "zip_code": "02210"}, "is_closed": false, "review_count": 538, "coordinates": {"latitude": 42.34977, "longitude": -71.05004}, "id": "papagayo-boston-3", "image_url": "https://s3-media1.fl.yelpcdn.com/bphoto/9swM8ubI8Jkza7OVu2QMfQ/o.jpg", "categories": [{"alias": "mexican", "title": "Mexican"}], "rating": 3.5}, {"transactions": [], "distance": 1348.991596444, "price": "$$", "display_phone": "(617) 426-1234", "phone": "+16174261234", "url": "https://www.yelp.com/biz/serafina-boston?adjust_creative=gBcvfFpabk3CnzmXKdYe3w&utm_campaign=yelp_api_v3&utm_medium=api_v3_business_search&utm_source=gBcvfFpabk3CnzmXKdYe3w", "name": "Serafina", "location": {"display_address": ["10 High St", "Boston, MA 02110"], "country": "US", "state": "MA", "address3": "", "address2": "", "address1": "10 High St", "city": "Boston", "zip_code": "02110"}, "is_closed": false, "review_count": 73, "coordinates": {"latitude": 42.3535181, "longitude": -71.0567228}, "id": "serafina-boston", "image_url": "https://s3-media2.fl.yelpcdn.com/bphoto/squ55NU9CWokQEJJsX4Zrg/o.jpg", "categories": [{"alias": "italian", "title": "Italian"}, {"alias": "desserts", "title": "Desserts"}, {"alias": "wine_bars", "title": "Wine Bars"}], "rating": 3.5}, {"transactions": [], "distance": 1204.4043065600001, "price": "$$", "display_phone": "(617) 227-9023", "phone": "+16172279023", "url": "https://www.yelp.com/biz/artu-boston?adjust_creative=gBcvfFpabk3CnzmXKdYe3w&utm_campaign=yelp_api_v3&utm_medium=api_v3_business_search&utm_source=gBcvfFpabk3CnzmXKdYe3w", "name": "Artu", "location": {"display_address": ["89 Charles St", "Boston, MA 02114"], "country": "US", "state": "MA", "address3": "", "address2": "", "address1": "89 Charles St", "city": "Boston", "zip_code": "02114"}, "is_closed": false, "review_count": 159, "coordinates": {"latitude": 42.3585929870605, "longitude": -71.0705032348633}, "id": "artu-boston", "image_url": "https://s3-media3.fl.yelpcdn.com/bphoto/Uc2lQS7traBG3TujPGGoBQ/o.jpg", "categories": [{"alias": "italian", "title": "Italian"}], "rating": 3.5}, {"transactions": [], "distance": 1088.8540164279998, "price": "$$", "display_phone": "(617) 338-8813", "phone": "+16173388813", "url": "https://www.yelp.com/biz/hei-la-moon-boston?adjust_creative=gBcvfFpabk3CnzmXKdYe3w&utm_campaign=yelp_api_v3&utm_medium=api_v3_business_search&utm_source=gBcvfFpabk3CnzmXKdYe3w", "name": "Hei La Moon", "location": {"display_address": ["88 Beach St", "Boston, MA 02111"], "country": "US", "state": "MA", "address3": "", "address2": null, "address1": "88 Beach St", "city": "Boston", "zip_code": "02111"}, "is_closed": false, "review_count": 863, "coordinates": {"latitude": 42.3510988335626, "longitude": -71.0587440314029}, "id": "hei-la-moon-boston", "image_url": "https://s3-media4.fl.yelpcdn.com/bphoto/XIffFPIN0jp53KVv9fEceA/o.jpg", "categories": [{"alias": "dimsum", "title": "Dim Sum"}, {"alias": "cantonese", "title": "Cantonese"}], "rating": 3.5}, {"transactions": [], "distance": 1473.87541484, "display_phone": "", "phone": "", "url": "https://www.yelp.com/biz/socializing-for-justice-boston?adjust_creative=gBcvfFpabk3CnzmXKdYe3w&utm_campaign=yelp_api_v3&utm_medium=api_v3_business_search&utm_source=gBcvfFpabk3CnzmXKdYe3w", "name": "Socializing for Justice", "location": {"display_address": ["Boston, MA 02228"], "country": "US", "state": "MA", "address3": "", "address2": null, "address1": null, "city": "Boston", "zip_code": "02228"}, "is_closed": false, "review_count": 10, "coordinates": {"latitude": 42.358333, "longitude": -71.060278}, "id": "socializing-for-justice-boston", "image_url": "https://s3-media3.fl.yelpcdn.com/bphoto/134SmCHaKfUPjMqzjT_Saw/o.jpg", "categories": [{"alias": "active", "title": "Active Life"}, {"alias": "arts", "title": "Arts & Entertainment"}, {"alias": "localflavor", "title": "Local Flavor"}], "rating": 5.0}, {"transactions": [], "distance": 1665.9276130799997, "price": "$", "display_phone": "(617) 357-9013", "phone": "+16173579013", "url": "https://www.yelp.com/biz/boloco-boston-45?adjust_creative=gBcvfFpabk3CnzmXKdYe3w&utm_campaign=yelp_api_v3&utm_medium=api_v3_business_search&utm_source=gBcvfFpabk3CnzmXKdYe3w", "name": "Boloco", "location": {"display_address": ["50 Congress St", "Boston, MA 02109"], "country": "US", "state": "MA", "address3": "", "address2": "", "address1": "50 Congress St", "city": "Boston", "zip_code": "02109"}, "is_closed": false, "review_count": 71, "coordinates": {"latitude": 42.3580212641966, "longitude": -71.0563667836454}, "id": "boloco-boston-45", "image_url": "https://s3-media2.fl.yelpcdn.com/bphoto/DVWRrP9Ria2PcjYyMivwQw/o.jpg", "categories": [{"alias": "newamerican", "title": "American (New)"}], "rating": 3.5}, {"transactions": [], "distance": 4886.20649237, "price": "$$", "display_phone": "(617) 254-0009", "phone": "+16172540009", "url": "https://www.yelp.com/biz/sakanaya-boston?adjust_creative=gBcvfFpabk3CnzmXKdYe3w&utm_campaign=yelp_api_v3&utm_medium=api_v3_business_search&utm_source=gBcvfFpabk3CnzmXKdYe3w", "name": "Sakanaya", "location": {"display_address": ["75 Linden St", "Boston, MA 02134"], "country": "US", "state": "MA", "address3": "", "address2": "", "address1": "75 Linden St", "city": "Boston", "zip_code": "02134"}, "is_closed": false, "review_count": 106, "coordinates": {"latitude": 42.352581779668, "longitude": -71.130359172821}, "id": "sakanaya-boston", "image_url": "https://s3-media1.fl.yelpcdn.com/bphoto/sGvcxTQuJ6k4QLJkVskG8A/o.jpg", "categories": [{"alias": "seafood", "title": "Seafood"}, {"alias": "japanese", "title": "Japanese"}, {"alias": "seafoodmarkets", "title": "Seafood Markets"}], "rating": 4.0}, {"transactions": [], "distance": 1768.5005073199998, "display_phone": "(617) 223-8666", "phone": "+16172238666", "url": "https://www.yelp.com/biz/bumpkin-island-boston?adjust_creative=gBcvfFpabk3CnzmXKdYe3w&utm_campaign=yelp_api_v3&utm_medium=api_v3_business_search&utm_source=gBcvfFpabk3CnzmXKdYe3w", "name": "Bumpkin Island", "location": {"display_address": ["Boston Harbor", "Boston, MA 02115"], "country": "US", "state": "MA", "address3": "", "address2": "", "address1": "Boston Harbor", "city": "Boston", "zip_code": "02115"}, "is_closed": false, "review_count": 10, "coordinates": {"latitude": 42.3408851623535, "longitude": -71.0948181152344}, "id": "bumpkin-island-boston", "image_url": "https://s3-media2.fl.yelpcdn.com/bphoto/nt5Rq3J4bLI5UdzYM6GdQw/o.jpg", "categories": [{"alias": "parks", "title": "Parks"}], "rating": 5.0}, {"transactions": [], "distance": 708.6767957896, "price": "$$", "display_phone": "(617) 338-5300", "phone": "+16173385300", "url": "https://www.yelp.com/biz/la-mottas-boston?adjust_creative=gBcvfFpabk3CnzmXKdYe3w&utm_campaign=yelp_api_v3&utm_medium=api_v3_business_search&utm_source=gBcvfFpabk3CnzmXKdYe3w", "name": "La Motta's", "location": {"display_address": ["1357 Washington St", "Boston, MA 02118"], "country": "US", "state": "MA", "address3": "", "address2": "", "address1": "1357 Washington St", "city": "Boston", "zip_code": "02118"}, "is_closed": false, "review_count": 106, "coordinates": {"latitude": 42.3415837, "longitude": -71.0693674}, "id": "la-mottas-boston", "image_url": "https://s3-media2.fl.yelpcdn.com/bphoto/EWMC05M0o-dm4vQJ7NCPYg/o.jpg", "categories": [{"alias": "italian", "title": "Italian"}, {"alias": "pizza", "title": "Pizza"}, {"alias": "cocktailbars", "title": "Cocktail Bars"}], "rating": 4.0}, {"transactions": [], "distance": 2371.994799686, "price": "$$", "display_phone": "(617) 421-0104", "phone": "+16174210104", "url": "https://www.yelp.com/biz/thorntons-fenway-grille-boston-2?adjust_creative=gBcvfFpabk3CnzmXKdYe3w&utm_campaign=yelp_api_v3&utm_medium=api_v3_business_search&utm_source=gBcvfFpabk3CnzmXKdYe3w", "name": "Thornton's Fenway Grille", "location": {"display_address": ["100 Peterborough St", "Boston, MA 02215"], "country": "US", "state": "MA", "address3": "", "address2": "", "address1": "100 Peterborough St", "city": "Boston", "zip_code": "02215"}, "is_closed": false, "review_count": 225, "coordinates": {"latitude": 42.3431438952684, "longitude": -71.0992515832186}, "id": "thorntons-fenway-grille-boston-2", "image_url": "https://s3-media3.fl.yelpcdn.com/bphoto/37CyNqqZsOtBDK-hP14glg/o.jpg", "categories": [{"alias": "tradamerican", "title": "American (Traditional)"}, {"alias": "breakfast_brunch", "title": "Breakfast & Brunch"}], "rating": 3.5}, {"transactions": ["delivery", "pickup"], "distance": 988.1701011063999, "price": "$", "display_phone": "(617) 723-9600", "phone": "+16177239600", "url": "https://www.yelp.com/biz/upper-crust-pizzeria-boston-2?adjust_creative=gBcvfFpabk3CnzmXKdYe3w&utm_campaign=yelp_api_v3&utm_medium=api_v3_business_search&utm_source=gBcvfFpabk3CnzmXKdYe3w", "name": "Upper Crust Pizzeria", "location": {"display_address": ["20 Charles St", "Boston, MA 02114"], "country": "US", "state": "MA", "address3": "", "address2": "", "address1": "20 Charles St", "city": "Boston", "zip_code": "02114"}, "is_closed": false, "review_count": 312, "coordinates": {"latitude": 42.3566654492322, "longitude": -71.0698099806905}, "id": "upper-crust-pizzeria-boston-2", "image_url": "https://s3-media2.fl.yelpcdn.com/bphoto/kvH5RNA3pRxFIphm8mceyQ/o.jpg", "categories": [{"alias": "pizza", "title": "Pizza"}], "rating": 3.5}, {"transactions": [], "distance": 1504.0037885129998, "price": "$$", "display_phone": "(857) 990-3191", "phone": "+18579903191", "url": "https://www.yelp.com/biz/sweetgreen-boston-7?adjust_creative=gBcvfFpabk3CnzmXKdYe3w&utm_campaign=yelp_api_v3&utm_medium=api_v3_business_search&utm_source=gBcvfFpabk3CnzmXKdYe3w", "name": "sweetgreen", "location": {"display_address": ["13 School St", "Boston, MA 02108"], "country": "US", "state": "MA", "address3": "", "address2": "", "address1": "13 School St", "city": "Boston", "zip_code": "02108"}, "is_closed": false, "review_count": 50, "coordinates": {"latitude": 42.3577036172059, "longitude": -71.0587126799328}, "id": "sweetgreen-boston-7", "image_url": "https://s3-media2.fl.yelpcdn.com/bphoto/4LxGV6KKwC2HSiS1U5csyQ/o.jpg", "categories": [{"alias": "salad", "title": "Salad"}, {"alias": "vegetarian", "title": "Vegetarian"}], "rating": 4.0}, {"transactions": [], "distance": 1867.779726316, "price": "$$", "display_phone": "(857) 265-3480", "phone": "+18572653480", "url": "https://www.yelp.com/biz/blackstone-grill-boston?adjust_creative=gBcvfFpabk3CnzmXKdYe3w&utm_campaign=yelp_api_v3&utm_medium=api_v3_business_search&utm_source=gBcvfFpabk3CnzmXKdYe3w", "name": "Blackstone Grill", "location": {"display_address": ["15 Union St", "Boston, MA 02108"], "country": "US", "state": "MA", "address3": "", "address2": "", "address1": "15 Union St", "city": "Boston", "zip_code": "02108"}, "is_closed": false, "review_count": 102, "coordinates": {"latitude": 42.3608092, "longitude": -71.0567962}, "id": "blackstone-grill-boston", "image_url": "https://s3-media2.fl.yelpcdn.com/bphoto/QWXg7kgrRg7esyOs5ORRtw/o.jpg", "categories": [{"alias": "tradamerican", "title": "American (Traditional)"}, {"alias": "sportsbars", "title": "Sports Bars"}, {"alias": "musicvenues", "title": "Music Venues"}], "rating": 3.5}, {"transactions": ["delivery", "pickup"], "distance": 564.750156069, "price": "$$", "display_phone": "(617) 578-0089", "phone": "+16175780089", "url": "https://www.yelp.com/biz/thai-basil-restaurant-boston-2?adjust_creative=gBcvfFpabk3CnzmXKdYe3w&utm_campaign=yelp_api_v3&utm_medium=api_v3_business_search&utm_source=gBcvfFpabk3CnzmXKdYe3w", "name": "Thai Basil Restaurant", "location": {"display_address": ["132 Newbury St", "Boston, MA 02116"], "country": "US", "state": "MA", "address3": "", "address2": "", "address1": "132 Newbury St", "city": "Boston", "zip_code": "02116"}, "is_closed": false, "review_count": 366, "coordinates": {"latitude": 42.35092, "longitude": -71.07669}, "id": "thai-basil-restaurant-boston-2", "image_url": "https://s3-media1.fl.yelpcdn.com/bphoto/PVsZlCnQdoH7Q3e6KKoQBg/o.jpg", "categories": [{"alias": "thai", "title": "Thai"}, {"alias": "seafood", "title": "Seafood"}, {"alias": "noodles", "title": "Noodles"}], "rating": 3.5}, {"transactions": [], "distance": 718.4577527604, "price": "$$", "display_phone": "(617) 933-4803", "phone": "+16179334803", "url": "https://www.yelp.com/biz/solas-boston?adjust_creative=gBcvfFpabk3CnzmXKdYe3w&utm_campaign=yelp_api_v3&utm_medium=api_v3_business_search&utm_source=gBcvfFpabk3CnzmXKdYe3w", "name": "Solas", "location": {"display_address": ["710 Boylston St", "Boston, MA 02199"], "country": "US", "state": "MA", "address3": "", "address2": null, "address1": "710 Boylston St", "city": "Boston", "zip_code": "02199"}, "is_closed": false, "review_count": 287, "coordinates": {"latitude": 42.3493082, "longitude": -71.0796434}, "id": "solas-boston", "image_url": "https://s3-media2.fl.yelpcdn.com/bphoto/B2s58uUhrqp-dQaSR9G9mA/o.jpg", "categories": [{"alias": "pubs", "title": "Pubs"}, {"alias": "irish", "title": "Irish"}], "rating": 3.5}, {"transactions": ["pickup"], "distance": 2360.464361388, "price": "$$", "display_phone": "(617) 742-4272", "phone": "+16177424272", "url": "https://www.yelp.com/biz/piccolo-nido-boston?adjust_creative=gBcvfFpabk3CnzmXKdYe3w&utm_campaign=yelp_api_v3&utm_medium=api_v3_business_search&utm_source=gBcvfFpabk3CnzmXKdYe3w", "name": "Piccolo Nido", "location": {"display_address": ["257 N St", "Boston, MA 02113"], "country": "US", "state": "MA", "address3": "", "address2": "", "address1": "257 N St", "city": "Boston", "zip_code": "02113"}, "is_closed": false, "review_count": 119, "coordinates": {"latitude": 42.3636678, "longitude": -71.0520928}, "id": "piccolo-nido-boston", "image_url": "https://s3-media1.fl.yelpcdn.com/bphoto/pNTTkv-HzxJe7IDxg18RKw/o.jpg", "categories": [{"alias": "italian", "title": "Italian"}], "rating": 4.0}, {"transactions": ["delivery"], "distance": 2334.844312324, "price": "$$", "display_phone": "(617) 247-7717", "phone": "+16172477717", "url": "https://www.yelp.com/biz/fiounas-persian-fusion-cuisine-boston?adjust_creative=gBcvfFpabk3CnzmXKdYe3w&utm_campaign=yelp_api_v3&utm_medium=api_v3_business_search&utm_source=gBcvfFpabk3CnzmXKdYe3w", "name": "Fiouna's Persian Fusion Cuisine", "location": {"display_address": ["90 Peterborough St", "Boston, MA 02215"], "country": "US", "state": "MA", "address3": "", "address2": "", "address1": "90 Peterborough St", "city": "Boston", "zip_code": "02215"}, "is_closed": false, "review_count": 101, "coordinates": {"latitude": 42.343415, "longitude": -71.099013}, "id": "fiounas-persian-fusion-cuisine-boston", "image_url": "https://s3-media1.fl.yelpcdn.com/bphoto/4BakrOQh7y9ET1uNg4kjsQ/o.jpg", "categories": [{"alias": "persian", "title": "Persian/Iranian"}, {"alias": "halal", "title": "Halal"}, {"alias": "mideastern", "title": "Middle Eastern"}], "rating": 3.5}, {"transactions": [], "distance": 3598.051488474, "price": "$$", "display_phone": "(617) 567-1900", "phone": "+16175671900", "url": "https://www.yelp.com/biz/mehak-boston-3?adjust_creative=gBcvfFpabk3CnzmXKdYe3w&utm_campaign=yelp_api_v3&utm_medium=api_v3_business_search&utm_source=gBcvfFpabk3CnzmXKdYe3w", "name": "Mehak", "location": {"display_address": ["329 Sumner St", "Boston, MA 02128"], "country": "US", "state": "MA", "address3": "", "address2": "", "address1": "329 Sumner St", "city": "Boston", "zip_code": "02128"}, "is_closed": false, "review_count": 149, "coordinates": {"latitude": 42.3671035766602, "longitude": -71.0360794067383}, "id": "mehak-boston-3", "image_url": "https://s3-media3.fl.yelpcdn.com/bphoto/g-0ySiYOhO_KSgYiu5QPrw/o.jpg", "categories": [{"alias": "indpak", "title": "Indian"}, {"alias": "pakistani", "title": "Pakistani"}], "rating": 4.0}, {"transactions": [], "distance": 1922.282278492, "price": "$$", "display_phone": "(617) 367-0055", "phone": "+16173670055", "url": "https://www.yelp.com/biz/green-dragon-tavern-boston?adjust_creative=gBcvfFpabk3CnzmXKdYe3w&utm_campaign=yelp_api_v3&utm_medium=api_v3_business_search&utm_source=gBcvfFpabk3CnzmXKdYe3w", "name": "Green Dragon Tavern", "location": {"display_address": ["11 Marshall St", "Boston, MA 02108"], "country": "US", "state": "MA", "address3": "", "address2": "", "address1": "11 Marshall St", "city": "Boston", "zip_code": "02108"}, "is_closed": false, "review_count": 347, "coordinates": {"latitude": 42.3614501953125, "longitude": -71.0568008422852}, "id": "green-dragon-tavern-boston", "image_url": "https://s3-media3.fl.yelpcdn.com/bphoto/d7fS1hN4xn98B0lYeW6RjA/o.jpg", "categories": [{"alias": "pubs", "title": "Pubs"}, {"alias": "tradamerican", "title": "American (Traditional)"}, {"alias": "musicvenues", "title": "Music Venues"}], "rating": 3.5}, {"transactions": [], "distance": 1710.1847849479998, "price": "$", "display_phone": "(617) 338-1773", "phone": "+16173381773", "url": "https://www.yelp.com/biz/abigails-tea-room-boston?adjust_creative=gBcvfFpabk3CnzmXKdYe3w&utm_campaign=yelp_api_v3&utm_medium=api_v3_business_search&utm_source=gBcvfFpabk3CnzmXKdYe3w", "name": "Abigail's Tea Room", "location": {"display_address": ["306 Congress St", "Boston, MA 02210"], "country": "US", "state": "MA", "address3": "", "address2": "", "address1": "306 Congress St", "city": "Boston", "zip_code": "02210"}, "is_closed": false, "review_count": 17, "coordinates": {"latitude": 42.3514131456614, "longitude": -71.0499894618988}, "id": "abigails-tea-room-boston", "image_url": "https://s3-media4.fl.yelpcdn.com/bphoto/XtJh1qUVqhRycnjBTfAkbQ/o.jpg", "categories": [{"alias": "coffee", "title": "Coffee & Tea"}, {"alias": "bakeries", "title": "Bakeries"}, {"alias": "museums", "title": "Museums"}], "rating": 4.5}, {"transactions": ["pickup"], "distance": 2593.7066513239997, "price": "$$", "display_phone": "(617) 348-9800", "phone": "+16173489800", "url": "https://www.yelp.com/biz/larry-js-bbq-cafe-boston?adjust_creative=gBcvfFpabk3CnzmXKdYe3w&utm_campaign=yelp_api_v3&utm_medium=api_v3_business_search&utm_source=gBcvfFpabk3CnzmXKdYe3w", "name": "Larry J's BBQ Cafe", "location": {"display_address": ["600 D St", "Boston, MA 02210"], "country": "US", "state": "MA", "address3": "", "address2": null, "address1": "600 D St", "city": "Boston", "zip_code": "02210"}, "is_closed": false, "review_count": 94, "coordinates": {"latitude": 42.3485294397082, "longitude": -71.0396982168106}, "id": "larry-js-bbq-cafe-boston", "image_url": "https://s3-media1.fl.yelpcdn.com/bphoto/cob8VpmCWPypHP6cG_S36Q/o.jpg", "categories": [{"alias": "bbq", "title": "Barbeque"}, {"alias": "tradamerican", "title": "American (Traditional)"}, {"alias": "catering", "title": "Caterers"}], "rating": 4.0}, {"transactions": [], "distance": 3250.462372858, "price": "$", "display_phone": "(617) 487-8409", "phone": "+16174878409", "url": "https://www.yelp.com/biz/green-t-coffee-shop-boston-2?adjust_creative=gBcvfFpabk3CnzmXKdYe3w&utm_campaign=yelp_api_v3&utm_medium=api_v3_business_search&utm_source=gBcvfFpabk3CnzmXKdYe3w", "name": "Green T Coffee Shop", "location": {"display_address": ["754 Huntington Ave", "Boston, MA 02115"], "country": "US", "state": "MA", "address3": "", "address2": "", "address1": "754 Huntington Ave", "city": "Boston", "zip_code": "02115"}, "is_closed": false, "review_count": 135, "coordinates": {"latitude": 42.33345, "longitude": -71.10568}, "id": "green-t-coffee-shop-boston-2", "image_url": "https://s3-media3.fl.yelpcdn.com/bphoto/k2ZgCAitz1WBbDyAepwnEg/o.jpg", "categories": [{"alias": "coffee", "title": "Coffee & Tea"}], "rating": 3.5}, {"transactions": [], "distance": 1129.984079742, "price": "$$$", "display_phone": "(617) 720-5511", "phone": "+16177205511", "url": "https://www.yelp.com/biz/lala-rokh-boston-2?adjust_creative=gBcvfFpabk3CnzmXKdYe3w&utm_campaign=yelp_api_v3&utm_medium=api_v3_business_search&utm_source=gBcvfFpabk3CnzmXKdYe3w", "name": "Lala Rokh", "location": {"display_address": ["97 Mt Vernon St", "Boston, MA 02108"], "country": "US", "state": "MA", "address3": "", "address2": "", "address1": "97 Mt Vernon St", "city": "Boston", "zip_code": "02108"}, "is_closed": false, "review_count": 263, "coordinates": {"latitude": 42.3579426, "longitude": -71.0697412}, "id": "lala-rokh-boston-2", "image_url": "https://s3-media1.fl.yelpcdn.com/bphoto/DiMxaBtTwDY1y94uSDw_Dg/o.jpg", "categories": [{"alias": "mideastern", "title": "Middle Eastern"}, {"alias": "persian", "title": "Persian/Iranian"}, {"alias": "wine_bars", "title": "Wine Bars"}], "rating": 3.5}, {"transactions": ["delivery", "pickup"], "distance": 1795.4220296419999, "price": "$$", "display_phone": "(617) 542-4311", "phone": "+16175424311", "url": "https://www.yelp.com/biz/sakura-bana-boston?adjust_creative=gBcvfFpabk3CnzmXKdYe3w&utm_campaign=yelp_api_v3&utm_medium=api_v3_business_search&utm_source=gBcvfFpabk3CnzmXKdYe3w", "name": "Sakura-Bana", "location": {"display_address": ["57 Broad St", "Boston, MA 02109"], "country": "US", "state": "MA", "address3": "", "address2": "", "address1": "57 Broad St", "city": "Boston", "zip_code": "02109"}, "is_closed": false, "review_count": 214, "coordinates": {"latitude": 42.35798, "longitude": -71.05431}, "id": "sakura-bana-boston", "image_url": "https://s3-media2.fl.yelpcdn.com/bphoto/XtY6cDsIOa_-t492Eonp-g/o.jpg", "categories": [{"alias": "japanese", "title": "Japanese"}, {"alias": "sushi", "title": "Sushi Bars"}], "rating": 3.5}, {"transactions": [], "distance": 1094.0355279589999, "price": "$$", "display_phone": "(617) 262-5708", "phone": "+16172625708", "url": "https://www.yelp.com/biz/el-centro-boston?adjust_creative=gBcvfFpabk3CnzmXKdYe3w&utm_campaign=yelp_api_v3&utm_medium=api_v3_business_search&utm_source=gBcvfFpabk3CnzmXKdYe3w", "name": "El Centro", "location": {"display_address": ["472 Shawmut Ave", "Boston, MA 02118"], "country": "US", "state": "MA", "address3": "", "address2": "", "address1": "472 Shawmut Ave", "city": "Boston", "zip_code": "02118"}, "is_closed": false, "review_count": 253, "coordinates": {"latitude": 42.3386069387197, "longitude": -71.0760410875082}, "id": "el-centro-boston", "image_url": "https://s3-media1.fl.yelpcdn.com/bphoto/eUOKsPEmYLraQ5rlTXJ8eA/o.jpg", "categories": [{"alias": "mexican", "title": "Mexican"}], "rating": 3.5}, {"transactions": ["delivery", "pickup"], "distance": 901.9036995758, "price": "$$", "display_phone": "(617) 338-0188", "phone": "+16173380188", "url": "https://www.yelp.com/biz/crave-mad-for-chicken-boston?adjust_creative=gBcvfFpabk3CnzmXKdYe3w&utm_campaign=yelp_api_v3&utm_medium=api_v3_business_search&utm_source=gBcvfFpabk3CnzmXKdYe3w", "name": "Crave Mad for Chicken", "location": {"display_address": ["75 Kneeland St", "Boston, MA 02111"], "country": "US", "state": "MA", "address3": "", "address2": "", "address1": "75 Kneeland St", "city": "Boston", "zip_code": "02111"}, "is_closed": false, "review_count": 359, "coordinates": {"latitude": 42.3502805, "longitude": -71.0607747}, "id": "crave-mad-for-chicken-boston", "image_url": "https://s3-media2.fl.yelpcdn.com/bphoto/sUGSC2oWerAvXa-xs0wpsA/o.jpg", "categories": [{"alias": "korean", "title": "Korean"}, {"alias": "sushi", "title": "Sushi Bars"}, {"alias": "beerbar", "title": "Beer Bar"}], "rating": 3.5}, {"transactions": [], "distance": 1611.654069986, "price": "$", "display_phone": "(857) 284-7488", "phone": "+18572847488", "url": "https://www.yelp.com/biz/boloco-atlantic-wharf-boston-3?adjust_creative=gBcvfFpabk3CnzmXKdYe3w&utm_campaign=yelp_api_v3&utm_medium=api_v3_business_search&utm_source=gBcvfFpabk3CnzmXKdYe3w", "name": "Boloco Atlantic Wharf", "location": {"display_address": ["284 Congress St", "Boston, MA 02210"], "country": "US", "state": "MA", "address3": "", "address2": "", "address1": "284 Congress St", "city": "Boston", "zip_code": "02210"}, "is_closed": false, "review_count": 45, "coordinates": {"latitude": 42.3527145, "longitude": -71.0525284}, "id": "boloco-atlantic-wharf-boston-3", "image_url": "https://s3-media3.fl.yelpcdn.com/bphoto/HOfZSiR8xZ626GDabbByyg/o.jpg", "categories": [{"alias": "mexican", "title": "Mexican"}], "rating": 4.0}, {"transactions": [], "distance": 392.2677092564, "price": "$$$", "display_phone": "(617) 556-4211", "phone": "+16175564211", "url": "https://www.yelp.com/biz/banyan-bar-and-refuge-boston?adjust_creative=gBcvfFpabk3CnzmXKdYe3w&utm_campaign=yelp_api_v3&utm_medium=api_v3_business_search&utm_source=gBcvfFpabk3CnzmXKdYe3w", "name": "Banyan Bar & Refuge", "location": {"display_address": ["553 Tremont St", "Boston, MA 02116"], "country": "US", "state": "MA", "address3": "", "address2": "", "address1": "553 Tremont St", "city": "Boston", "zip_code": "02116"}, "is_closed": false, "review_count": 180, "coordinates": {"latitude": 42.3443506311372, "longitude": -71.0719006607358}, "id": "banyan-bar-and-refuge-boston", "image_url": "https://s3-media2.fl.yelpcdn.com/bphoto/m3HvrLSK2e4EJ017Yy-Cmw/o.jpg", "categories": [{"alias": "asianfusion", "title": "Asian Fusion"}, {"alias": "breakfast_brunch", "title": "Breakfast & Brunch"}, {"alias": "cocktailbars", "title": "Cocktail Bars"}], "rating": 3.5}, {"transactions": [], "distance": 2218.585912592, "price": "$$$", "display_phone": "(617) 227-0311", "phone": "+16172270311", "url": "https://www.yelp.com/biz/vinoteca-di-monica-boston-2?adjust_creative=gBcvfFpabk3CnzmXKdYe3w&utm_campaign=yelp_api_v3&utm_medium=api_v3_business_search&utm_source=gBcvfFpabk3CnzmXKdYe3w", "name": "Vinoteca di Monica", "location": {"display_address": ["143 Richmond St", "Boston, MA 02109"], "country": "US", "state": "MA", "address3": "", "address2": "", "address1": "143 Richmond St", "city": "Boston", "zip_code": "02109"}, "is_closed": false, "review_count": 244, "coordinates": {"latitude": 42.3633988, "longitude": -71.0543352}, "id": "vinoteca-di-monica-boston-2", "image_url": "https://s3-media2.fl.yelpcdn.com/bphoto/t203AjlYgcg84peQWiO0xA/o.jpg", "categories": [{"alias": "italian", "title": "Italian"}, {"alias": "wine_bars", "title": "Wine Bars"}, {"alias": "breakfast_brunch", "title": "Breakfast & Brunch"}], "rating": 3.5}, {"transactions": [], "distance": 335.34284288599997, "price": "$$", "display_phone": "(617) 721-1680", "phone": "+16177211680", "url": "https://www.yelp.com/biz/munch-mobile-kitchen-boston?adjust_creative=gBcvfFpabk3CnzmXKdYe3w&utm_campaign=yelp_api_v3&utm_medium=api_v3_business_search&utm_source=gBcvfFpabk3CnzmXKdYe3w", "name": "Munch Mobile Kitchen", "location": {"display_address": ["432 Stuart St", "Boston, MA 02116"], "country": "US", "state": "MA", "address3": "", "address2": "", "address1": "432 Stuart St", "city": "Boston", "zip_code": "02116"}, "is_closed": false, "review_count": 20, "coordinates": {"latitude": 42.348585397275, "longitude": -71.0752358262402}, "id": "munch-mobile-kitchen-boston", "image_url": "https://s3-media1.fl.yelpcdn.com/bphoto/Qf4wDGAT1E4BEqlUFeFxWw/o.jpg", "categories": [{"alias": "foodtrucks", "title": "Food Trucks"}, {"alias": "newamerican", "title": "American (New)"}], "rating": 4.0}, {"transactions": [], "distance": 1424.904164244, "price": "$$", "display_phone": "(617) 227-8600", "phone": "+16172278600", "url": "https://www.yelp.com/biz/parkers-restaurant-boston?adjust_creative=gBcvfFpabk3CnzmXKdYe3w&utm_campaign=yelp_api_v3&utm_medium=api_v3_business_search&utm_source=gBcvfFpabk3CnzmXKdYe3w", "name": "Parker's Restaurant", "location": {"display_address": ["60 School St", "Boston, MA 02108"], "country": "US", "state": "MA", "address3": "", "address2": "", "address1": "60 School St", "city": "Boston", "zip_code": "02108"}, "is_closed": false, "review_count": 218, "coordinates": {"latitude": 42.35779479146, "longitude": -71.0599632561207}, "id": "parkers-restaurant-boston", "image_url": "https://s3-media1.fl.yelpcdn.com/bphoto/atv54y_tq80rLBEDYwEqdQ/o.jpg", "categories": [{"alias": "newamerican", "title": "American (New)"}], "rating": 3.5}, {"transactions": ["delivery", "pickup"], "distance": 839.9409391759999, "price": "$$", "display_phone": "(617) 262-2228", "phone": "+16172622228", "url": "https://www.yelp.com/biz/umai-boston?adjust_creative=gBcvfFpabk3CnzmXKdYe3w&utm_campaign=yelp_api_v3&utm_medium=api_v3_business_search&utm_source=gBcvfFpabk3CnzmXKdYe3w", "name": "Umai", "location": {"display_address": ["224 Newbury St", "Boston, MA 02116"], "country": "US", "state": "MA", "address3": "", "address2": "", "address1": "224 Newbury St", "city": "Boston", "zip_code": "02116"}, "is_closed": false, "review_count": 164, "coordinates": {"latitude": 42.349712, "longitude": -71.081154}, "id": "umai-boston", "image_url": "https://s3-media3.fl.yelpcdn.com/bphoto/5oPS4KJv-T3NulzXcZVmow/o.jpg", "categories": [{"alias": "japanese", "title": "Japanese"}], "rating": 3.5}, {"transactions": ["delivery", "pickup"], "distance": 940.867961398, "price": "$", "display_phone": "(857) 277-1708", "phone": "+18572771708", "url": "https://www.yelp.com/biz/wichit-boston-3?adjust_creative=gBcvfFpabk3CnzmXKdYe3w&utm_campaign=yelp_api_v3&utm_medium=api_v3_business_search&utm_source=gBcvfFpabk3CnzmXKdYe3w", "name": "Wichit", "location": {"display_address": ["244 Newbury St", "Boston, MA 02116"], "country": "US", "state": "MA", "address3": "", "address2": "", "address1": "244 Newbury St", "city": "Boston", "zip_code": "02116"}, "is_closed": false, "review_count": 147, "coordinates": {"latitude": 42.349626, "longitude": -71.082437}, "id": "wichit-boston-3", "image_url": "https://s3-media2.fl.yelpcdn.com/bphoto/mRAOumdelUOoaPY7WfK7iQ/o.jpg", "categories": [{"alias": "sandwiches", "title": "Sandwiches"}, {"alias": "breakfast_brunch", "title": "Breakfast & Brunch"}, {"alias": "salad", "title": "Salad"}], "rating": 3.5}, {"transactions": [], "distance": 2550.45467322, "price": "$$$", "display_phone": "(617) 622-5700", "phone": "+16176225700", "url": "https://www.yelp.com/biz/publico-street-bistro-and-garden-boston?adjust_creative=gBcvfFpabk3CnzmXKdYe3w&utm_campaign=yelp_api_v3&utm_medium=api_v3_business_search&utm_source=gBcvfFpabk3CnzmXKdYe3w", "name": "Publico Street Bistro & Garden", "location": {"display_address": ["11 Dorchester St", "Boston, MA 02127"], "country": "US", "state": "MA", "address3": null, "address2": "", "address1": "11 Dorchester St", "city": "Boston", "zip_code": "02127"}, "is_closed": false, "review_count": 30, "coordinates": {"latitude": 42.3372077941895, "longitude": -71.0437545776367}, "id": "publico-street-bistro-and-garden-boston", "image_url": "https://s3-media1.fl.yelpcdn.com/bphoto/8TTPHrI2DHig-wZceJ1TeA/o.jpg", "categories": [{"alias": "newamerican", "title": "American (New)"}, {"alias": "latin", "title": "Latin American"}, {"alias": "bars", "title": "Bars"}], "rating": 4.5}, {"transactions": ["delivery", "pickup"], "distance": 2337.8693887219997, "price": "$$", "display_phone": "(617) 442-5965", "phone": "+16174425965", "url": "https://www.yelp.com/biz/victorias-diner-boston?adjust_creative=gBcvfFpabk3CnzmXKdYe3w&utm_campaign=yelp_api_v3&utm_medium=api_v3_business_search&utm_source=gBcvfFpabk3CnzmXKdYe3w", "name": "Victoria's Diner", "location": {"display_address": ["1024 Massachusetts Ave", "Boston, MA 02118"], "country": "US", "state": "MA", "address3": "", "address2": "", "address1": "1024 Massachusetts Ave", "city": "Boston", "zip_code": "02118"}, "is_closed": false, "review_count": 338, "coordinates": {"latitude": 42.327076, "longitude": -71.066801}, "id": "victorias-diner-boston", "image_url": "https://s3-media1.fl.yelpcdn.com/bphoto/e23hBdeFtzJuZuBkqjth9Q/o.jpg", "categories": [{"alias": "diners", "title": "Diners"}, {"alias": "breakfast_brunch", "title": "Breakfast & Brunch"}, {"alias": "tradamerican", "title": "American (Traditional)"}], "rating": 3.5}], "total": 24839}