{"total": 24837, "region": {"center": {"longitude": -71.07124328613281, "latitude": 42.34784169448538}}, "businesses": [{"rating": 4.0, "is_closed": false, "distance": 2266.069972094, "name": "Dudley Cafe", "id": "dudley-cafe-boston", "image_url": "https://s3-media3.fl.yelpcdn.com/bphoto/vj8_3v0ze1nAIWiQatetJw/o.jpg", "url": "https://www.yelp.com/biz/dudley-cafe-boston?adjust_creative=gBcvfFpabk3CnzmXKdYe3w&utm_campaign=yelp_api_v3&utm_medium=api_v3_business_search&utm_source=gBcvfFpabk3CnzmXKdYe3w", "phone": "+16174451000", "coordinates": {"longitude": -71.083503961358, "latitude": 42.3295896999157}, "categories": [{"alias": "cafes", "title": "Cafes"}, {"alias": "breakfast_brunch", "title": "Breakfast & Brunch"}, {"alias": "sandwiches", "title": "Sandwiches"}], "review_count": 44, "location": {"city": "Boston", "address1": "15 Warren St", "address3": "", "address2": "", "zip_code": "02119", "country": "US", "display_address": ["15 Warren St", "Boston, MA 02119"], "state": "MA"}, "price": "$", "transactions": ["delivery", "pickup"], "display_phone": "(617) 445-1000"}, {"rating": 3.5, "is_closed": false, "distance": 1350.24269736, "name": "Boston Common Coffee Co.", "id": "boston-common-coffee-co-boston-2", "image_url": "https://s3-media3.fl.yelpcdn.com/bphoto/i8V4hCoZ7mrOpUcGQwjNdg/o.jpg", "url": "https://www.yelp.com/biz/boston-common-coffee-co-boston-2?adjust_creative=gBcvfFpabk3CnzmXKdYe3w&utm_campaign=yelp_api_v3&utm_medium=api_v3_business_search&utm_source=gBcvfFpabk3CnzmXKdYe3w", "phone": "+16176959700", "coordinates": {"longitude": -71.056659635094, "latitude": 42.353430587367}, "categories": [{"alias": "coffee", "title": "Coffee & Tea"}], "review_count": 111, "location": {"city": "Boston", "address1": "10 High St", "address3": "", "address2": "", "zip_code": "02110", "country": "US", "display_address": ["10 High St", "Boston, MA 02110"], "state": "MA"}, "price": "$", "transactions": [], "display_phone": "(617) 695-9700"}, {"rating": 3.5, "is_closed": false, "distance": 1833.5505129219998, "name": "Crush Pizza", "id": "crush-pizza-boston-2", "image_url": "https://s3-media1.fl.yelpcdn.com/bphoto/EP_NyCg738xADrVTNPCHqA/o.jpg", "url": "https://www.yelp.com/biz/crush-pizza-boston-2?adjust_creative=gBcvfFpabk3CnzmXKdYe3w&utm_campaign=yelp_api_v3&utm_medium=api_v3_business_search&utm_source=gBcvfFpabk3CnzmXKdYe3w", "phone": "+18573504222", "coordinates": {"longitude": -71.0549778, "latitude": 42.3591313}, "categories": [{"alias": "pizza", "title": "Pizza"}, {"alias": "italian", "title": "Italian"}], "review_count": 156, "location": {"city": "Boston", "address1": "107 State St", "address3": "", "address2": "", "zip_code": "02109", "country": "US", "display_address": ["107 State St", "Boston, MA 02109"], "state": "MA"}, "price": "$$", "transactions": ["delivery", "pickup"], "display_phone": "(857) 350-4222"}, {"rating": 4.0, "is_closed": false, "distance": 1230.792171738, "name": "Starbucks", "id": "starbucks-boston-32", "image_url": "https://s3-media3.fl.yelpcdn.com/bphoto/kvPAZ4exiLtlrIoErd6pgg/o.jpg", "url": "https://www.yelp.com/biz/starbucks-boston-32?adjust_creative=gBcvfFpabk3CnzmXKdYe3w&utm_campaign=yelp_api_v3&utm_medium=api_v3_business_search&utm_source=gBcvfFpabk3CnzmXKdYe3w", "phone": "+16172273812", "coordinates": {"longitude": -71.07054, "latitude": 42.35891}, "categories": [{"alias": "coffee", "title": "Coffee & Tea"}], "review_count": 36, "location": {"city": "Boston", "address1": "97 Charles St", "address3": "", "address2": "", "zip_code": "02114", "country": "US", "display_address": ["97 Charles St", "Boston, MA 02114"], "state": "MA"}, "price": "$$", "transactions": [], "display_phone": "(617) 227-3812"}, {"rating": 3.5, "is_closed": false, "distance": 1424.904164244, "name": "Last Hurrah", "id": "last-hurrah-boston", "image_url": "https://s3-media2.fl.yelpcdn.com/bphoto/FRGX1dZMPw0aP75jgy7hLQ/o.jpg", "url": "https://www.yelp.com/biz/last-hurrah-boston?adjust_creative=gBcvfFpabk3CnzmXKdYe3w&utm_campaign=yelp_api_v3&utm_medium=api_v3_business_search&utm_source=gBcvfFpabk3CnzmXKdYe3w", "phone": "+16173051888", "coordinates": {"longitude": -71.0599632561207, "latitude": 42.35779479146}, "categories": [{"alias": "bars", "title": "Bars"}, {"alias": "newamerican", "title": "American (New)"}], "review_count": 131, "location": {"city": "Boston", "address1": "60 School St", "address3": "", "address2": "", "zip_code": "02108", "country": "US", "display_address": ["60 School St", "Boston, MA 02108"], "state": "MA"}, "price": "$$", "transactions": [], "display_phone": "(617) 305-1888"}, {"rating": 3.5, "is_closed": false, "distance": 1949.5737880799998, "name": "Granary Tavern", "id": "granary-tavern-boston", "image_url": "https://s3-media4.fl.yelpcdn.com/bphoto/LtybIRoKnmiU65qL9CzzSA/o.jpg", "url": "https://www.yelp.com/biz/granary-tavern-boston?adjust_creative=gBcvfFpabk3CnzmXKdYe3w&utm_campaign=yelp_api_v3&utm_medium=api_v3_business_search&utm_source=gBcvfFpabk3CnzmXKdYe3w", "phone": "+16174497110", "coordinates": {"longitude": -71.052597, "latitude": 42.3587303}, "categories": [{"alias": "newamerican", "title": "American (New)"}, {"alias": "pubs", "title": "Pubs"}], "review_count": 435, "location": {"city": "Boston", "address1": "170 Milk St", "address3": "", "address2": "", "zip_code": "02109", "country": "US", "display_address": ["170 Milk St", "Boston, MA 02109"], "state": "MA"}, "price": "$$", "transactions": [], "display_phone": "(617) 449-7110"}, {"rating": 4.0, "is_closed": false, "distance": 1331.164615396, "name": "Pita", "id": "pita-boston-5", "image_url": "https://s3-media4.fl.yelpcdn.com/bphoto/XEfSaTeR2vmScA-Hv8FvVQ/o.jpg", "url": "https://www.yelp.com/biz/pita-boston-5?adjust_creative=gBcvfFpabk3CnzmXKdYe3w&utm_campaign=yelp_api_v3&utm_medium=api_v3_business_search&utm_source=gBcvfFpabk3CnzmXKdYe3w", "phone": "+18572638390", "coordinates": {"longitude": -71.0867931, "latitude": 42.3451324}, "categories": [{"alias": "mediterranean", "title": "Mediterranean"}, {"alias": "mideastern", "title": "Middle Eastern"}], "review_count": 97, "location": {"city": "Boston", "address1": "197A Massachusetts Ave", "address3": "", "address2": "", "zip_code": "02115", "country": "US", "display_address": ["197A Massachusetts Ave", "Boston, MA 02115"], "state": "MA"}, "price": "$", "transactions": ["delivery", "pickup"], "display_phone": "(857) 263-8390"}, {"rating": 3.5, "is_closed": false, "distance": 2401.10470254, "name": "Cantina Italiana", "id": "cantina-italiana-boston", "image_url": "https://s3-media2.fl.yelpcdn.com/bphoto/7TD_n-y5yAzH7Tvy4WRRlg/o.jpg", "url": "https://www.yelp.com/biz/cantina-italiana-boston?adjust_creative=gBcvfFpabk3CnzmXKdYe3w&utm_campaign=yelp_api_v3&utm_medium=api_v3_business_search&utm_source=gBcvfFpabk3CnzmXKdYe3w", "phone": "+16177234577", "coordinates": {"longitude": -71.0534499, "latitude": 42.365013}, "categories": [{"alias": "italian", "title": "Italian"}], "review_count": 321, "location": {"city": "Boston", "address1": "346 Hanover St", "address3": "", "address2": "", "zip_code": "02113", "country": "US", "display_address": ["346 Hanover St", "Boston, MA 02113"], "state": "MA"}, "price": "$$", "transactions": [], "display_phone": "(617) 723-4577"}, {"rating": 3.5, "is_closed": false, "distance": 1790.2557263739998, "name": "Viva Burrito", "id": "viva-burrito-boston", "image_url": "https://s3-media1.fl.yelpcdn.com/bphoto/eTJ8KK9RHQ7ltRnk-cniZg/o.jpg", "url": "https://www.yelp.com/biz/viva-burrito-boston?adjust_creative=gBcvfFpabk3CnzmXKdYe3w&utm_campaign=yelp_api_v3&utm_medium=api_v3_business_search&utm_source=gBcvfFpabk3CnzmXKdYe3w", "phone": "+16175236390", "coordinates": {"longitude": -71.0639805, "latitude": 42.3629393}, "categories": [{"alias": "mexican", "title": "Mexican"}, {"alias": "salad", "title": "Salad"}, {"alias": "soup", "title": "Soup"}], "review_count": 217, "location": {"city": "Boston", "address1": "66 Staniford St", "address3": "", "address2": "", "zip_code": "02114", "country": "US", "display_address": ["66 Staniford St", "Boston, MA 02114"], "state": "MA"}, "price": "$", "transactions": ["delivery", "pickup"], "display_phone": "(617) 523-6390"}, {"rating": 4.5, "is_closed": false, "distance": 4184.344028382, "name": "El Pe\u00f1ol", "id": "el-pe\u00f1ol-boston-2", "image_url": "https://s3-media3.fl.yelpcdn.com/bphoto/Zfv3RYqSPKEfDcFP56Xj9Q/o.jpg", "url": "https://www.yelp.com/biz/el-pe%C3%B1ol-boston-2?adjust_creative=gBcvfFpabk3CnzmXKdYe3w&utm_campaign=yelp_api_v3&utm_medium=api_v3_business_search&utm_source=gBcvfFpabk3CnzmXKdYe3w", "phone": "+16175690100", "coordinates": {"longitude": -71.03713, "latitude": 42.37578}, "categories": [{"alias": "colombian", "title": "Colombian"}], "review_count": 55, "location": {"city": "Boston", "address1": "54 Bennington St", "address3": "", "address2": "", "zip_code": "02128", "country": "US", "display_address": ["54 Bennington St", "Boston, MA 02128"], "state": "MA"}, "price": "$$", "transactions": [], "display_phone": "(617) 569-0100"}, {"rating": 4.0, "is_closed": false, "distance": 1857.379849368, "name": "Sultan's Kitchen", "id": "sultans-kitchen-boston", "image_url": "https://s3-media4.fl.yelpcdn.com/bphoto/zkhJKzNc6nCga5K_NCQFdQ/o.jpg", "url": "https://www.yelp.com/biz/sultans-kitchen-boston?adjust_creative=gBcvfFpabk3CnzmXKdYe3w&utm_campaign=yelp_api_v3&utm_medium=api_v3_business_search&utm_source=gBcvfFpabk3CnzmXKdYe3w", "phone": "+16175709009", "coordinates": {"longitude": -71.0546585, "latitude": 42.3593442}, "categories": [{"alias": "mideastern", "title": "Middle Eastern"}, {"alias": "turkish", "title": "Turkish"}], "review_count": 146, "location": {"city": "Boston", "address1": "116 State St", "address3": "", "address2": "", "zip_code": "02109", "country": "US", "display_address": ["116 State St", "Boston, MA 02109"], "state": "MA"}, "price": "$$", "transactions": [], "display_phone": "(617) 570-9009"}, {"rating": 3.5, "is_closed": false, "distance": 715.6026548532, "name": "El Triunfo", "id": "el-triunfo-boston", "image_url": "https://s3-media2.fl.yelpcdn.com/bphoto/mLJFzGIud6shQ-LSNZ3HPg/o.jpg", "url": "https://www.yelp.com/biz/el-triunfo-boston?adjust_creative=gBcvfFpabk3CnzmXKdYe3w&utm_campaign=yelp_api_v3&utm_medium=api_v3_business_search&utm_source=gBcvfFpabk3CnzmXKdYe3w", "phone": "+16175428499", "coordinates": {"longitude": -71.0647949649984, "latitude": 42.3435162508759}, "categories": [{"alias": "mexican", "title": "Mexican"}], "review_count": 222, "location": {"city": "Boston", "address1": "147 E Berkeley St", "address3": "", "address2": null, "zip_code": "02118", "country": "US", "display_address": ["147 E Berkeley St", "Boston, MA 02118"], "state": "MA"}, "price": "$", "transactions": ["delivery", "pickup"], "display_phone": "(617) 542-8499"}, {"rating": 4.0, "is_closed": false, "distance": 2825.052173136, "name": "Crispy Cr\u00eapes Cafe", "id": "crispy-cr\u00eapes-cafe-boston-2", "image_url": "https://s3-media1.fl.yelpcdn.com/bphoto/cfs7RmhBqNxn3k3nMUsnfw/o.jpg", "url": "https://www.yelp.com/biz/crispy-cr%C3%AApes-cafe-boston-2?adjust_creative=gBcvfFpabk3CnzmXKdYe3w&utm_campaign=yelp_api_v3&utm_medium=api_v3_business_search&utm_source=gBcvfFpabk3CnzmXKdYe3w", "phone": "+16178599585", "coordinates": {"longitude": -71.1055280606266, "latitude": 42.3496809744298}, "categories": [{"alias": "creperies", "title": "Creperies"}, {"alias": "mediterranean", "title": "Mediterranean"}], "review_count": 152, "location": {"city": "Boston", "address1": "714 Commonwealth Ave", "address3": "", "address2": "", "zip_code": "02215", "country": "US", "display_address": ["714 Commonwealth Ave", "Boston, MA 02215"], "state": "MA"}, "price": "$", "transactions": ["delivery", "pickup"], "display_phone": "(617) 859-9585"}, {"rating": 3.5, "is_closed": false, "distance": 961.5989160089999, "name": "Peach Farm", "id": "peach-farm-boston", "image_url": "https://s3-media3.fl.yelpcdn.com/bphoto/8EpwUexAlYIB9-TWq3EYqA/o.jpg", "url": "https://www.yelp.com/biz/peach-farm-boston?adjust_creative=gBcvfFpabk3CnzmXKdYe3w&utm_campaign=yelp_api_v3&utm_medium=api_v3_business_search&utm_source=gBcvfFpabk3CnzmXKdYe3w", "phone": "+16174821116", "coordinates": {"longitude": -71.06041, "latitude": 42.35114}, "categories": [{"alias": "chinese", "title": "Chinese"}], "review_count": 415, "location": {"city": "Boston", "address1": "4 Tyler St", "address3": "", "address2": "", "zip_code": "02111", "country": "US", "display_address": ["4 Tyler St", "Boston, MA 02111"], "state": "MA"}, "price": "$$", "transactions": [], "display_phone": "(617) 482-1116"}, {"rating": 4.5, "is_closed": false, "distance": 5720.4022486799995, "name": "Ariana Restaurant", "id": "ariana-restaurant-boston-2", "image_url": "https://s3-media4.fl.yelpcdn.com/bphoto/WDp5FhHYSYOTqKUKhguM8Q/o.jpg", "url": "https://www.yelp.com/biz/ariana-restaurant-boston-2?adjust_creative=gBcvfFpabk3CnzmXKdYe3w&utm_campaign=yelp_api_v3&utm_medium=api_v3_business_search&utm_source=gBcvfFpabk3CnzmXKdYe3w", "phone": "+16172088072", "coordinates": {"longitude": -71.1378785311356, "latitude": 42.3627373286036}, "categories": [{"alias": "afghani", "title": "Afghan"}], "review_count": 343, "location": {"city": "Boston", "address1": "384 Western Ave", "address3": "", "address2": "", "zip_code": "02135", "country": "US", "display_address": ["384 Western Ave", "Boston, MA 02135"], "state": "MA"}, "price": "$$", "transactions": ["pickup"], "display_phone": "(617) 208-8072"}, {"rating": 4.0, "is_closed": false, "distance": 1274.51037564, "name": "Moyzilla", "id": "moyzilla-boston", "image_url": "https://s3-media4.fl.yelpcdn.com/bphoto/5lCr772zJAqlnOwhnZc2PA/o.jpg", "url": "https://www.yelp.com/biz/moyzilla-boston?adjust_creative=gBcvfFpabk3CnzmXKdYe3w&utm_campaign=yelp_api_v3&utm_medium=api_v3_business_search&utm_source=gBcvfFpabk3CnzmXKdYe3w", "phone": "+17816402361", "coordinates": {"longitude": -71.0732286, "latitude": 42.3364742}, "categories": [{"alias": "foodtrucks", "title": "Food Trucks"}, {"alias": "asianfusion", "title": "Asian Fusion"}], "review_count": 67, "location": {"city": "Boston", "address1": "", "address3": "", "address2": "", "zip_code": "02010", "country": "US", "display_address": ["Boston, MA 02010"], "state": "MA"}, "price": "$", "transactions": [], "display_phone": "(781) 640-2361"}, {"rating": 3.5, "is_closed": false, "distance": 3072.7513252259996, "name": "The Paramount", "id": "the-paramount-boston-2", "image_url": "https://s3-media2.fl.yelpcdn.com/bphoto/g9X7lYaUgNK3PZjiazYPjA/o.jpg", "url": "https://www.yelp.com/biz/the-paramount-boston-2?adjust_creative=gBcvfFpabk3CnzmXKdYe3w&utm_campaign=yelp_api_v3&utm_medium=api_v3_business_search&utm_source=gBcvfFpabk3CnzmXKdYe3w", "phone": "+16172699999", "coordinates": {"longitude": -71.03788, "latitude": 42.335373}, "categories": [{"alias": "breakfast_brunch", "title": "Breakfast & Brunch"}, {"alias": "newamerican", "title": "American (New)"}, {"alias": "gourmet", "title": "Specialty Food"}], "review_count": 201, "location": {"city": "Boston", "address1": "667 E Broadway", "address3": "", "address2": "", "zip_code": "02127", "country": "US", "display_address": ["667 E Broadway", "Boston, MA 02127"], "state": "MA"}, "price": "$$", "transactions": [], "display_phone": "(617) 269-9999"}, {"rating": 4.0, "is_closed": false, "distance": 450.94134884439995, "name": "Caff\u00e8 Nero", "id": "caff\u00e8-nero-boston-19", "image_url": "https://s3-media2.fl.yelpcdn.com/bphoto/dvOa78DJ03v87MfvbHt5mg/o.jpg", "url": "https://www.yelp.com/biz/caff%C3%A8-nero-boston-19?adjust_creative=gBcvfFpabk3CnzmXKdYe3w&utm_campaign=yelp_api_v3&utm_medium=api_v3_business_search&utm_source=gBcvfFpabk3CnzmXKdYe3w", "phone": "+16179827108", "coordinates": {"longitude": -71.0721123218536, "latitude": 42.3436595499516}, "categories": [{"alias": "coffee", "title": "Coffee & Tea"}], "review_count": 62, "location": {"city": "Boston", "address1": "564 Tremont St", "address3": "", "address2": "", "zip_code": "02118", "country": "US", "display_address": ["564 Tremont St", "Boston, MA 02118"], "state": "MA"}, "price": "$$", "transactions": [], "display_phone": "(617) 982-7108"}, {"rating": 3.5, "is_closed": false, "distance": 958.8692983415999, "name": "Wabora", "id": "wabora-boston", "image_url": "https://s3-media3.fl.yelpcdn.com/bphoto/rKkd7B4wt7S_1xj0R8OlSg/o.jpg", "url": "https://www.yelp.com/biz/wabora-boston?adjust_creative=gBcvfFpabk3CnzmXKdYe3w&utm_campaign=yelp_api_v3&utm_medium=api_v3_business_search&utm_source=gBcvfFpabk3CnzmXKdYe3w", "phone": "+16174312284", "coordinates": {"longitude": -71.0827255249023, "latitude": 42.3492889404297}, "categories": [{"alias": "sushi", "title": "Sushi Bars"}, {"alias": "japanese", "title": "Japanese"}, {"alias": "asianfusion", "title": "Asian Fusion"}], "review_count": 145, "location": {"city": "Boston", "address1": "254 Newbury St", "address3": "", "address2": "", "zip_code": "02116", "country": "US", "display_address": ["254 Newbury St", "Boston, MA 02116"], "state": "MA"}, "price": "$$", "transactions": ["delivery", "pickup"], "display_phone": "(617) 431-2284"}, {"rating": 4.5, "is_closed": false, "distance": 4991.034554752, "name": "Fort Independence Park", "id": "fort-independence-park-boston", "image_url": "https://s3-media2.fl.yelpcdn.com/bphoto/fZmbkKsFD7Kne-UO47VkGQ/o.jpg", "url": "https://www.yelp.com/biz/fort-independence-park-boston?adjust_creative=gBcvfFpabk3CnzmXKdYe3w&utm_campaign=yelp_api_v3&utm_medium=api_v3_business_search&utm_source=gBcvfFpabk3CnzmXKdYe3w", "phone": "+16177275290", "coordinates": {"longitude": -71.011839, "latitude": 42.338518}, "categories": [{"alias": "parks", "title": "Parks"}, {"alias": "hiking", "title": "Hiking"}, {"alias": "fishing", "title": "Fishing"}], "review_count": 44, "location": {"city": "Boston", "address1": "2010 William J Day Blvd", "address3": "", "address2": null, "zip_code": "02127", "country": "US", "display_address": ["2010 William J Day Blvd", "Boston, MA 02127"], "state": "MA"}, "transactions": [], "display_phone": "(617) 727-5290"}, {"rating": 3.5, "is_closed": false, "distance": 2010.4464298439998, "name": "AK's Takeout & Delivery", "id": "aks-takeout-and-delivery-boston", "image_url": "https://s3-media2.fl.yelpcdn.com/bphoto/p4n2SJzNSJDx-Ddwlzan0w/o.jpg", "url": "https://www.yelp.com/biz/aks-takeout-and-delivery-boston?adjust_creative=gBcvfFpabk3CnzmXKdYe3w&utm_campaign=yelp_api_v3&utm_medium=api_v3_business_search&utm_source=gBcvfFpabk3CnzmXKdYe3w", "phone": "+16172693500", "coordinates": {"longitude": -71.04922, "latitude": 42.33994}, "categories": [{"alias": "pizza", "title": "Pizza"}, {"alias": "italian", "title": "Italian"}, {"alias": "sandwiches", "title": "Sandwiches"}], "review_count": 128, "location": {"city": "Boston", "address1": "309 D St", "address3": "", "address2": "", "zip_code": "02127", "country": "US", "display_address": ["309 D St", "Boston, MA 02127"], "state": "MA"}, "price": "$", "transactions": ["delivery", "pickup"], "display_phone": "(617) 269-3500"}, {"rating": 3.5, "is_closed": false, "distance": 277.59832356019996, "name": "Liquid Art House", "id": "liquid-art-house-boston", "image_url": "https://s3-media1.fl.yelpcdn.com/bphoto/Xh5gGTrozANbaTx2x1OX1w/o.jpg", "url": "https://www.yelp.com/biz/liquid-art-house-boston?adjust_creative=gBcvfFpabk3CnzmXKdYe3w&utm_campaign=yelp_api_v3&utm_medium=api_v3_business_search&utm_source=gBcvfFpabk3CnzmXKdYe3w", "phone": "+16174578130", "coordinates": {"longitude": -71.0695033, "latitude": 42.3499842}, "categories": [{"alias": "newamerican", "title": "American (New)"}, {"alias": "cocktailbars", "title": "Cocktail Bars"}], "review_count": 229, "location": {"city": "Boston", "address1": "100 Arlington St", "address3": "", "address2": "", "zip_code": "02116", "country": "US", "display_address": ["100 Arlington St", "Boston, MA 02116"], "state": "MA"}, "price": "$$$", "transactions": [], "display_phone": "(617) 457-8130"}, {"rating": 5.0, "is_closed": false, "distance": 2217.189166406, "name": "The Vegetable Guy", "id": "the-vegetable-guy-boston", "image_url": "https://s3-media4.fl.yelpcdn.com/bphoto/pR-cOiJZe34xMj0JVnDayg/o.jpg", "url": "https://www.yelp.com/biz/the-vegetable-guy-boston?adjust_creative=gBcvfFpabk3CnzmXKdYe3w&utm_campaign=yelp_api_v3&utm_medium=api_v3_business_search&utm_source=gBcvfFpabk3CnzmXKdYe3w", "phone": "", "coordinates": {"longitude": -71.0550765991211, "latitude": 42.3638076782227}, "categories": [{"alias": "markets", "title": "Fruits & Veggies"}, {"alias": "foodstands", "title": "Food Stands"}], "review_count": 14, "location": {"city": "Boston", "address1": "18 Parmenter St", "address3": "", "address2": "", "zip_code": "02113", "country": "US", "display_address": ["18 Parmenter St", "Boston, MA 02113"], "state": "MA"}, "price": "$$", "transactions": [], "display_phone": ""}, {"rating": 4.0, "is_closed": false, "distance": 2275.329470718, "name": "Pavement Coffeehouse", "id": "pavement-coffeehouse-boston-8", "image_url": "https://s3-media2.fl.yelpcdn.com/bphoto/by8QSmT1eFsWBzoEBWIKUw/o.jpg", "url": "https://www.yelp.com/biz/pavement-coffeehouse-boston-8?adjust_creative=gBcvfFpabk3CnzmXKdYe3w&utm_campaign=yelp_api_v3&utm_medium=api_v3_business_search&utm_source=gBcvfFpabk3CnzmXKdYe3w", "phone": "+18572637355", "coordinates": {"longitude": -71.098496876657, "latitude": 42.3442334895251}, "categories": [{"alias": "coffee", "title": "Coffee & Tea"}, {"alias": "bagels", "title": "Bagels"}], "review_count": 54, "location": {"city": "Boston", "address1": "1334 Boylston St", "address3": "", "address2": "", "zip_code": "02215", "country": "US", "display_address": ["1334 Boylston St", "Boston, MA 02215"], "state": "MA"}, "price": "$$", "transactions": [], "display_phone": "(857) 263-7355"}, {"rating": 3.5, "is_closed": false, "distance": 1447.067431455, "name": "Symphony Sushi", "id": "symphony-sushi-boston", "image_url": "https://s3-media2.fl.yelpcdn.com/bphoto/myG53NsrulZBqKzf7jrp_Q/o.jpg", "url": "https://www.yelp.com/biz/symphony-sushi-boston?adjust_creative=gBcvfFpabk3CnzmXKdYe3w&utm_campaign=yelp_api_v3&utm_medium=api_v3_business_search&utm_source=gBcvfFpabk3CnzmXKdYe3w", "phone": "+16172623888", "coordinates": {"longitude": -71.0868249088526, "latitude": 42.3417364060879}, "categories": [{"alias": "japanese", "title": "Japanese"}, {"alias": "sushi", "title": "Sushi Bars"}], "review_count": 300, "location": {"city": "Boston", "address1": "45 Gainsborough St", "address3": "", "address2": "", "zip_code": "02115", "country": "US", "display_address": ["45 Gainsborough St", "Boston, MA 02115"], "state": "MA"}, "price": "$$", "transactions": ["delivery"], "display_phone": "(617) 262-3888"}, {"rating": 3.5, "is_closed": false, "distance": 522.2436725332, "name": "Legal Sea Foods", "id": "legal-sea-foods-boston-32", "image_url": "https://s3-media2.fl.yelpcdn.com/bphoto/g7xlEIak0Xu9mA4krObeyw/o.jpg", "url": "https://www.yelp.com/biz/legal-sea-foods-boston-32?adjust_creative=gBcvfFpabk3CnzmXKdYe3w&utm_campaign=yelp_api_v3&utm_medium=api_v3_business_search&utm_source=gBcvfFpabk3CnzmXKdYe3w", "phone": "+16172667775", "coordinates": {"longitude": -71.0774663402672, "latitude": 42.3469028366983}, "categories": [{"alias": "seafood", "title": "Seafood"}], "review_count": 415, "location": {"city": "Boston", "address1": "100 Huntington Ave", "address3": "", "address2": null, "zip_code": "02116", "country": "US", "display_address": ["100 Huntington Ave", "Boston, MA 02116"], "state": "MA"}, "price": "$$$", "transactions": [], "display_phone": "(617) 266-7775"}, {"rating": 5.0, "is_closed": false, "distance": 1515.1536983679998, "name": "All Star Pizza Bar", "id": "all-star-pizza-bar-boston", "image_url": "https://s3-media4.fl.yelpcdn.com/bphoto/oLlifTecVhX8nF11xJafWg/o.jpg", "url": "https://www.yelp.com/biz/all-star-pizza-bar-boston?adjust_creative=gBcvfFpabk3CnzmXKdYe3w&utm_campaign=yelp_api_v3&utm_medium=api_v3_business_search&utm_source=gBcvfFpabk3CnzmXKdYe3w", "phone": "+18579911890", "coordinates": {"longitude": -71.0658950805664, "latitude": 42.3609580993652}, "categories": [{"alias": "pizza", "title": "Pizza"}], "review_count": 12, "location": {"city": "Boston", "address1": "204 Cambridge St", "address3": null, "address2": "", "zip_code": "02114", "country": "US", "display_address": ["204 Cambridge St", "Boston, MA 02114"], "state": "MA"}, "price": "$", "transactions": [], "display_phone": "(857) 991-1890"}, {"rating": 3.5, "is_closed": false, "distance": 2233.8086596519997, "name": "Bacco", "id": "bacco-boston", "image_url": "https://s3-media2.fl.yelpcdn.com/bphoto/uIMDwuoSP4o2gcXRoaqezw/o.jpg", "url": "https://www.yelp.com/biz/bacco-boston?adjust_creative=gBcvfFpabk3CnzmXKdYe3w&utm_campaign=yelp_api_v3&utm_medium=api_v3_business_search&utm_source=gBcvfFpabk3CnzmXKdYe3w", "phone": "+16176240454", "coordinates": {"longitude": -71.05538, "latitude": 42.36417}, "categories": [{"alias": "italian", "title": "Italian"}, {"alias": "wine_bars", "title": "Wine Bars"}, {"alias": "southern", "title": "Southern"}], "review_count": 259, "location": {"city": "Boston", "address1": "107 Salem St", "address3": "", "address2": "", "zip_code": "02113", "country": "US", "display_address": ["107 Salem St", "Boston, MA 02113"], "state": "MA"}, "price": "$$$", "transactions": [], "display_phone": "(617) 624-0454"}, {"rating": 3.5, "is_closed": false, "distance": 1484.727033526, "name": "Amrheins", "id": "amrheins-boston-2", "image_url": "https://s3-media2.fl.yelpcdn.com/bphoto/aiA3hPKgRn_I4ehWP-IGuQ/o.jpg", "url": "https://www.yelp.com/biz/amrheins-boston-2?adjust_creative=gBcvfFpabk3CnzmXKdYe3w&utm_campaign=yelp_api_v3&utm_medium=api_v3_business_search&utm_source=gBcvfFpabk3CnzmXKdYe3w", "phone": "+16172686189", "coordinates": {"longitude": -71.05522, "latitude": 42.34191}, "categories": [{"alias": "newamerican", "title": "American (New)"}, {"alias": "bars", "title": "Bars"}], "review_count": 370, "location": {"city": "Boston", "address1": "80 W Broadway", "address3": "", "address2": "", "zip_code": "02127", "country": "US", "display_address": ["80 W Broadway", "Boston, MA 02127"], "state": "MA"}, "price": "$$", "transactions": [], "display_phone": "(617) 268-6189"}, {"rating": 4.0, "is_closed": false, "distance": 3575.506727216, "name": "Boston Pizza Grill", "id": "boston-pizza-grill-boston-2", "image_url": "https://s3-media3.fl.yelpcdn.com/bphoto/BUbkxsoZZ4YQnmZbdPVmsQ/o.jpg", "url": "https://www.yelp.com/biz/boston-pizza-grill-boston-2?adjust_creative=gBcvfFpabk3CnzmXKdYe3w&utm_campaign=yelp_api_v3&utm_medium=api_v3_business_search&utm_source=gBcvfFpabk3CnzmXKdYe3w", "phone": "+16172652222", "coordinates": {"longitude": -71.0661423951387, "latitude": 42.3160126805305}, "categories": [{"alias": "pizza", "title": "Pizza"}, {"alias": "icecream", "title": "Ice Cream & Frozen Yogurt"}], "review_count": 43, "location": {"city": "Boston", "address1": "535 Columbia Rd", "address3": "", "address2": "", "zip_code": "02125", "country": "US", "display_address": ["535 Columbia Rd", "Boston, MA 02125"], "state": "MA"}, "price": "$$", "transactions": [], "display_phone": "(617) 265-2222"}, {"rating": 3.5, "is_closed": false, "distance": 1467.364990804, "name": "Harvard Gardens", "id": "harvard-gardens-boston", "image_url": "https://s3-media1.fl.yelpcdn.com/bphoto/hTIVSYFl8lypR09ia03-JQ/o.jpg", "url": "https://www.yelp.com/biz/harvard-gardens-boston?adjust_creative=gBcvfFpabk3CnzmXKdYe3w&utm_campaign=yelp_api_v3&utm_medium=api_v3_business_search&utm_source=gBcvfFpabk3CnzmXKdYe3w", "phone": "+16175232727", "coordinates": {"longitude": -71.0688988, "latitude": 42.3609451}, "categories": [{"alias": "bars", "title": "Bars"}, {"alias": "tradamerican", "title": "American (Traditional)"}, {"alias": "burgers", "title": "Burgers"}], "review_count": 317, "location": {"city": "Boston", "address1": "316 Cambridge St", "address3": "", "address2": "", "zip_code": "02114", "country": "US", "display_address": ["316 Cambridge St", "Boston, MA 02114"], "state": "MA"}, "price": "$$", "transactions": [], "display_phone": "(617) 523-2727"}, {"rating": 4.5, "is_closed": false, "distance": 5288.31216142, "name": "Home.Stead Bakery & Cafe", "id": "home-stead-bakery-and-cafe-boston", "image_url": "https://s3-media4.fl.yelpcdn.com/bphoto/3-huh51NZ_ghAyOQmyfVcw/o.jpg", "url": "https://www.yelp.com/biz/home-stead-bakery-and-cafe-boston?adjust_creative=gBcvfFpabk3CnzmXKdYe3w&utm_campaign=yelp_api_v3&utm_medium=api_v3_business_search&utm_source=gBcvfFpabk3CnzmXKdYe3w", "phone": "+16175337585", "coordinates": {"longitude": -71.0597299039364, "latitude": 42.3010532798369}, "categories": [{"alias": "coffee", "title": "Coffee & Tea"}, {"alias": "breakfast_brunch", "title": "Breakfast & Brunch"}, {"alias": "sandwiches", "title": "Sandwiches"}], "review_count": 65, "location": {"city": "Boston", "address1": "1448 Dorchester Ave", "address3": "", "address2": "", "zip_code": "02122", "country": "US", "display_address": ["1448 Dorchester Ave", "Boston, MA 02122"], "state": "MA"}, "price": "$", "transactions": [], "display_phone": "(617) 533-7585"}, {"rating": 3.5, "is_closed": false, "distance": 1474.363688596, "name": "Pavement Coffeehouse", "id": "pavement-coffeehouse-boston-2", "image_url": "https://s3-media2.fl.yelpcdn.com/bphoto/szT2QW58iGzGzlgWP-yHjg/o.jpg", "url": "https://www.yelp.com/biz/pavement-coffeehouse-boston-2?adjust_creative=gBcvfFpabk3CnzmXKdYe3w&utm_campaign=yelp_api_v3&utm_medium=api_v3_business_search&utm_source=gBcvfFpabk3CnzmXKdYe3w", "phone": "+16178597080", "coordinates": {"longitude": -71.0872003, "latitude": 42.3417705}, "categories": [{"alias": "coffee", "title": "Coffee & Tea"}, {"alias": "bagels", "title": "Bagels"}, {"alias": "sandwiches", "title": "Sandwiches"}], "review_count": 231, "location": {"city": "Boston", "address1": "44 Gainsborough St", "address3": "", "address2": "", "zip_code": "02115", "country": "US", "display_address": ["44 Gainsborough St", "Boston, MA 02115"], "state": "MA"}, "price": "$$", "transactions": [], "display_phone": "(617) 859-7080"}, {"rating": 3.5, "is_closed": false, "distance": 765.2594681958, "name": "Dumpling Cafe", "id": "dumpling-cafe-boston", "image_url": "https://s3-media2.fl.yelpcdn.com/bphoto/sETb-DsF84Gm4md1__fJwA/o.jpg", "url": "https://www.yelp.com/biz/dumpling-cafe-boston?adjust_creative=gBcvfFpabk3CnzmXKdYe3w&utm_campaign=yelp_api_v3&utm_medium=api_v3_business_search&utm_source=gBcvfFpabk3CnzmXKdYe3w", "phone": "+16173388858", "coordinates": {"longitude": -71.063125, "latitude": 42.351215}, "categories": [{"alias": "taiwanese", "title": "Taiwanese"}, {"alias": "chinese", "title": "Chinese"}, {"alias": "cafes", "title": "Cafes"}], "review_count": 585, "location": {"city": "Boston", "address1": "695 Washington St", "address3": "", "address2": "", "zip_code": "02111", "country": "US", "display_address": ["695 Washington St", "Boston, MA 02111"], "state": "MA"}, "price": "$$", "transactions": [], "display_phone": "(617) 338-8858"}, {"rating": 4.0, "is_closed": false, "distance": 4214.649670856, "name": "Saigon Hut", "id": "saigon-hut-boston-3", "image_url": "https://s3-media2.fl.yelpcdn.com/bphoto/KnuNV3RE-S1-6kL8MXN1Fw/o.jpg", "url": "https://www.yelp.com/biz/saigon-hut-boston-3?adjust_creative=gBcvfFpabk3CnzmXKdYe3w&utm_campaign=yelp_api_v3&utm_medium=api_v3_business_search&utm_source=gBcvfFpabk3CnzmXKdYe3w", "phone": "+16175671944", "coordinates": {"longitude": -71.0390451, "latitude": 42.377266}, "categories": [{"alias": "vietnamese", "title": "Vietnamese"}], "review_count": 111, "location": {"city": "Boston", "address1": "305 Meridian St", "address3": "", "address2": "", "zip_code": "02128", "country": "US", "display_address": ["305 Meridian St", "Boston, MA 02128"], "state": "MA"}, "price": "$", "transactions": [], "display_phone": "(617) 567-1944"}, {"rating": 4.0, "is_closed": false, "distance": 1340.6373032898, "name": "Deli One", "id": "deli-one-boston", "image_url": "https://s3-media1.fl.yelpcdn.com/bphoto/bnKGp8Yj8iCt83wrldEe7Q/o.jpg", "url": "https://www.yelp.com/biz/deli-one-boston?adjust_creative=gBcvfFpabk3CnzmXKdYe3w&utm_campaign=yelp_api_v3&utm_medium=api_v3_business_search&utm_source=gBcvfFpabk3CnzmXKdYe3w", "phone": "+16172927825", "coordinates": {"longitude": -71.0582305490971, "latitude": 42.3552956432104}, "categories": [{"alias": "delis", "title": "Delis"}], "review_count": 51, "location": {"city": "Boston", "address1": "85 Arch St", "address3": "", "address2": "", "zip_code": "02110", "country": "US", "display_address": ["85 Arch St", "Boston, MA 02110"], "state": "MA"}, "price": "$", "transactions": [], "display_phone": "(617) 292-7825"}, {"rating": 3.5, "is_closed": false, "distance": 1193.734060492, "name": "JJ Foley's Bar & Grille", "id": "jj-foleys-bar-and-grille-boston", "image_url": "https://s3-media3.fl.yelpcdn.com/bphoto/2Vbz9F7QINsn11fa-ufg_Q/o.jpg", "url": "https://www.yelp.com/biz/jj-foleys-bar-and-grille-boston?adjust_creative=gBcvfFpabk3CnzmXKdYe3w&utm_campaign=yelp_api_v3&utm_medium=api_v3_business_search&utm_source=gBcvfFpabk3CnzmXKdYe3w", "phone": "+16176952529", "coordinates": {"longitude": -71.0592099, "latitude": 42.35384}, "categories": [{"alias": "pubs", "title": "Pubs"}], "review_count": 155, "location": {"city": "Boston", "address1": "21 Kingston St", "address3": "", "address2": null, "zip_code": "02111", "country": "US", "display_address": ["21 Kingston St", "Boston, MA 02111"], "state": "MA"}, "price": "$", "transactions": [], "display_phone": "(617) 695-2529"}, {"rating": 4.0, "is_closed": false, "distance": 4877.790126972, "name": "Sullivan's", "id": "sullivans-boston", "image_url": "https://s3-media1.fl.yelpcdn.com/bphoto/T6OmUqrTqKLnoLVMpyATOg/o.jpg", "url": "https://www.yelp.com/biz/sullivans-boston?adjust_creative=gBcvfFpabk3CnzmXKdYe3w&utm_campaign=yelp_api_v3&utm_medium=api_v3_business_search&utm_source=gBcvfFpabk3CnzmXKdYe3w", "phone": "+16172685685", "coordinates": {"longitude": -71.0139566, "latitude": 42.3389449}, "categories": [{"alias": "hotdogs", "title": "Fast Food"}, {"alias": "burgers", "title": "Burgers"}, {"alias": "icecream", "title": "Ice Cream & Frozen Yogurt"}], "review_count": 241, "location": {"city": "Boston", "address1": "2080 Day Blvd", "address3": "", "address2": "", "zip_code": "02127", "country": "US", "display_address": ["2080 Day Blvd", "Boston, MA 02127"], "state": "MA"}, "price": "$", "transactions": [], "display_phone": "(617) 268-5685"}, {"rating": 3.5, "is_closed": false, "distance": 1395.4403675239998, "name": "Carrie Nation Restaurant & Cocktail Club", "id": "carrie-nation-restaurant-and-cocktail-club-boston", "image_url": "https://s3-media2.fl.yelpcdn.com/bphoto/JunKSXPiT0z-1T4mrzj0Ig/o.jpg", "url": "https://www.yelp.com/biz/carrie-nation-restaurant-and-cocktail-club-boston?adjust_creative=gBcvfFpabk3CnzmXKdYe3w&utm_campaign=yelp_api_v3&utm_medium=api_v3_business_search&utm_source=gBcvfFpabk3CnzmXKdYe3w", "phone": "+16172273100", "coordinates": {"longitude": -71.0617576, "latitude": 42.3582519}, "categories": [{"alias": "tradamerican", "title": "American (Traditional)"}], "review_count": 237, "location": {"city": "Boston", "address1": "11 Beacon St", "address3": "", "address2": "", "zip_code": "02108", "country": "US", "display_address": ["11 Beacon St", "Boston, MA 02108"], "state": "MA"}, "price": "$$", "transactions": [], "display_phone": "(617) 227-3100"}, {"rating": 3.5, "is_closed": false, "distance": 1187.51428326, "name": "Summer Shack", "id": "summer-shack-boston-3", "image_url": "https://s3-media3.fl.yelpcdn.com/bphoto/hia6imM__WypP8-jp8ogpQ/o.jpg", "url": "https://www.yelp.com/biz/summer-shack-boston-3?adjust_creative=gBcvfFpabk3CnzmXKdYe3w&utm_campaign=yelp_api_v3&utm_medium=api_v3_business_search&utm_source=gBcvfFpabk3CnzmXKdYe3w", "phone": "+16178679955", "coordinates": {"longitude": -71.085658, "latitude": 42.347067}, "categories": [{"alias": "seafood", "title": "Seafood"}, {"alias": "bars", "title": "Bars"}, {"alias": "tradamerican", "title": "American (Traditional)"}], "review_count": 546, "location": {"city": "Boston", "address1": "50 Dalton St", "address3": "", "address2": "", "zip_code": "02115", "country": "US", "display_address": ["50 Dalton St", "Boston, MA 02115"], "state": "MA"}, "price": "$$", "transactions": ["delivery", "pickup"], "display_phone": "(617) 867-9955"}, {"rating": 3.5, "is_closed": false, "distance": 1556.021519729, "name": "Seoul", "id": "seoul-boston-2", "image_url": "https://s3-media2.fl.yelpcdn.com/bphoto/u20IugmcN4hmLfgCUci9pQ/o.jpg", "url": "https://www.yelp.com/biz/seoul-boston-2?adjust_creative=gBcvfFpabk3CnzmXKdYe3w&utm_campaign=yelp_api_v3&utm_medium=api_v3_business_search&utm_source=gBcvfFpabk3CnzmXKdYe3w", "phone": "+16179736680", "coordinates": {"longitude": -71.0648617625035, "latitude": 42.3610198616213}, "categories": [{"alias": "korean", "title": "Korean"}, {"alias": "sushi", "title": "Sushi Bars"}, {"alias": "japanese", "title": "Japanese"}], "review_count": 172, "location": {"city": "Boston", "address1": "156 Cambridge St", "address3": "", "address2": "", "zip_code": "02114", "country": "US", "display_address": ["156 Cambridge St", "Boston, MA 02114"], "state": "MA"}, "price": "$$", "transactions": ["delivery", "pickup"], "display_phone": "(617) 973-6680"}, {"rating": 4.0, "is_closed": false, "distance": 941.4871710564, "name": "Hot Eastern", "id": "hot-eastern-boston-2", "image_url": "https://s3-media4.fl.yelpcdn.com/bphoto/w1mEf8V7eSOaF3rXEz9qXw/o.jpg", "url": "https://www.yelp.com/biz/hot-eastern-boston-2?adjust_creative=gBcvfFpabk3CnzmXKdYe3w&utm_campaign=yelp_api_v3&utm_medium=api_v3_business_search&utm_source=gBcvfFpabk3CnzmXKdYe3w", "phone": "+16179880660", "coordinates": {"longitude": -71.06095, "latitude": 42.35161}, "categories": [{"alias": "szechuan", "title": "Szechuan"}], "review_count": 82, "location": {"city": "Boston", "address1": "42 Beach St", "address3": "", "address2": "Ste B1", "zip_code": "02111", "country": "US", "display_address": ["42 Beach St", "Ste B1", "Boston, MA 02111"], "state": "MA"}, "price": "$$", "transactions": ["pickup"], "display_phone": "(617) 988-0660"}, {"rating": 3.5, "is_closed": false, "distance": 931.4125578157999, "name": "Jade Garden", "id": "jade-garden-boston", "image_url": "https://s3-media2.fl.yelpcdn.com/bphoto/yo1T2h45ZGSyj7_wqVAeKw/o.jpg", "url": "https://www.yelp.com/biz/jade-garden-boston?adjust_creative=gBcvfFpabk3CnzmXKdYe3w&utm_campaign=yelp_api_v3&utm_medium=api_v3_business_search&utm_source=gBcvfFpabk3CnzmXKdYe3w", "phone": "+16174233288", "coordinates": {"longitude": -71.0606135564487, "latitude": 42.3507521023507}, "categories": [{"alias": "chinese", "title": "Chinese"}, {"alias": "seafood", "title": "Seafood"}], "review_count": 155, "location": {"city": "Boston", "address1": "18-20 Tyler St", "address3": "", "address2": "", "zip_code": "02111", "country": "US", "display_address": ["18-20 Tyler St", "Boston, MA 02111"], "state": "MA"}, "price": "$$", "transactions": [], "display_phone": "(617) 423-3288"}, {"rating": 4.5, "is_closed": false, "distance": 1473.87541484, "name": "Guerrilla Queer Bar", "id": "guerrilla-queer-bar-boston", "image_url": "https://s3-media3.fl.yelpcdn.com/bphoto/lTJM9sQ2FSn8TWf_H6L6iA/o.jpg", "url": "https://www.yelp.com/biz/guerrilla-queer-bar-boston?adjust_creative=gBcvfFpabk3CnzmXKdYe3w&utm_campaign=yelp_api_v3&utm_medium=api_v3_business_search&utm_source=gBcvfFpabk3CnzmXKdYe3w", "phone": "", "coordinates": {"longitude": -71.060278, "latitude": 42.358333}, "categories": [{"alias": "gaybars", "title": "Gay Bars"}, {"alias": "eventplanning", "title": "Party & Event Planning"}], "review_count": 23, "location": {"city": "Boston", "address1": "", "address3": "", "address2": "", "zip_code": "02228", "country": "US", "display_address": ["Boston, MA 02228"], "state": "MA"}, "price": "$$", "transactions": [], "display_phone": ""}, {"rating": 3.5, "is_closed": false, "distance": 939.242930333, "name": "Thornton's", "id": "thorntons-boston", "image_url": "https://s3-media2.fl.yelpcdn.com/bphoto/_zDLOb4LeiSIbH9AdwmALA/o.jpg", "url": "https://www.yelp.com/biz/thorntons-boston?adjust_creative=gBcvfFpabk3CnzmXKdYe3w&utm_campaign=yelp_api_v3&utm_medium=api_v3_business_search&utm_source=gBcvfFpabk3CnzmXKdYe3w", "phone": "+16172676336", "coordinates": {"longitude": -71.0819613933563, "latitude": 42.3449142099432}, "categories": [{"alias": "breakfast_brunch", "title": "Breakfast & Brunch"}, {"alias": "diners", "title": "Diners"}, {"alias": "coffee", "title": "Coffee & Tea"}], "review_count": 355, "location": {"city": "Boston", "address1": "150 Huntington Ave", "address3": "", "address2": "", "zip_code": "02115", "country": "US", "display_address": ["150 Huntington Ave", "Boston, MA 02115"], "state": "MA"}, "price": "$", "transactions": [], "display_phone": "(617) 267-6336"}, {"rating": 4.0, "is_closed": false, "distance": 1729.0121317399999, "name": "Bangkok Pinto", "id": "bangkok-pinto-boston", "image_url": "https://s3-media2.fl.yelpcdn.com/bphoto/etQ3m6rNCNuNTT2QqUf-ZQ/o.jpg", "url": "https://www.yelp.com/biz/bangkok-pinto-boston?adjust_creative=gBcvfFpabk3CnzmXKdYe3w&utm_campaign=yelp_api_v3&utm_medium=api_v3_business_search&utm_source=gBcvfFpabk3CnzmXKdYe3w", "phone": "+16174425555", "coordinates": {"longitude": -71.0857620239258, "latitude": 42.3365936279297}, "categories": [{"alias": "thai", "title": "Thai"}], "review_count": 43, "location": {"city": "Boston", "address1": "1041 Tremont St", "address3": "", "address2": "", "zip_code": "02120", "country": "US", "display_address": ["1041 Tremont St", "Boston, MA 02120"], "state": "MA"}, "price": "$", "transactions": ["delivery", "pickup"], "display_phone": "(617) 442-5555"}, {"rating": 3.5, "is_closed": false, "distance": 1460.409906126, "name": "Crazy Dough's Pizza", "id": "crazy-doughs-pizza-boston-2", "image_url": "https://s3-media2.fl.yelpcdn.com/bphoto/kRYVHqhAAWMTQd6Lu9itAA/o.jpg", "url": "https://www.yelp.com/biz/crazy-doughs-pizza-boston-2?adjust_creative=gBcvfFpabk3CnzmXKdYe3w&utm_campaign=yelp_api_v3&utm_medium=api_v3_business_search&utm_source=gBcvfFpabk3CnzmXKdYe3w", "phone": "+16172665656", "coordinates": {"longitude": -71.0889597, "latitude": 42.3468097}, "categories": [{"alias": "pizza", "title": "Pizza"}, {"alias": "salad", "title": "Salad"}], "review_count": 183, "location": {"city": "Boston", "address1": "1124 Boylston St", "address3": "", "address2": "", "zip_code": "02215", "country": "US", "display_address": ["1124 Boylston St", "Boston, MA 02215"], "state": "MA"}, "price": "$", "transactions": ["delivery"], "display_phone": "(617) 266-5656"}, {"rating": 3.5, "is_closed": false, "distance": 1042.695731218, "name": "Boston Common Coffee Co.", "id": "boston-common-coffee-co-boston-4", "image_url": "https://s3-media4.fl.yelpcdn.com/bphoto/j1UBv51t9xrE1mCNq-4wRA/o.jpg", "url": "https://www.yelp.com/biz/boston-common-coffee-co-boston-4?adjust_creative=gBcvfFpabk3CnzmXKdYe3w&utm_campaign=yelp_api_v3&utm_medium=api_v3_business_search&utm_source=gBcvfFpabk3CnzmXKdYe3w", "phone": "+16175420595", "coordinates": {"longitude": -71.06214, "latitude": 42.35429}, "categories": [{"alias": "coffee", "title": "Coffee & Tea"}, {"alias": "cafes", "title": "Cafes"}], "review_count": 321, "location": {"city": "Boston", "address1": "515 Washington St", "address3": "", "address2": "", "zip_code": "02111", "country": "US", "display_address": ["515 Washington St", "Boston, MA 02111"], "state": "MA"}, "price": "$", "transactions": [], "display_phone": "(617) 542-0595"}, {"rating": 3.5, "is_closed": false, "distance": 875.9021242779999, "name": "Double Chin", "id": "double-chin-boston-3", "image_url": "https://s3-media4.fl.yelpcdn.com/bphoto/YtTFYrynoAoS63ftF8URLw/o.jpg", "url": "https://www.yelp.com/biz/double-chin-boston-3?adjust_creative=gBcvfFpabk3CnzmXKdYe3w&utm_campaign=yelp_api_v3&utm_medium=api_v3_business_search&utm_source=gBcvfFpabk3CnzmXKdYe3w", "phone": "+16174820682", "coordinates": {"longitude": -71.0613539814949, "latitude": 42.3507839096975}, "categories": [{"alias": "asianfusion", "title": "Asian Fusion"}, {"alias": "chinese", "title": "Chinese"}, {"alias": "hkcafe", "title": "Hong Kong Style Cafe"}], "review_count": 244, "location": {"city": "Boston", "address1": "86 Harrison Ave", "address3": "", "address2": "", "zip_code": "02111", "country": "US", "display_address": ["86 Harrison Ave", "Boston, MA 02111"], "state": "MA"}, "price": "$$", "transactions": ["delivery", "pickup"], "display_phone": "(617) 482-0682"}, {"rating": 4.0, "is_closed": false, "distance": 2178.982630136, "name": "The Back Bay Fens", "id": "the-back-bay-fens-boston", "image_url": "https://s3-media1.fl.yelpcdn.com/bphoto/Pok-OP3chcjcdPrpmb3YCA/o.jpg", "url": "https://www.yelp.com/biz/the-back-bay-fens-boston?adjust_creative=gBcvfFpabk3CnzmXKdYe3w&utm_campaign=yelp_api_v3&utm_medium=api_v3_business_search&utm_source=gBcvfFpabk3CnzmXKdYe3w", "phone": "", "coordinates": {"longitude": -71.096474600519, "latitude": 42.3418436308951}, "categories": [{"alias": "parks", "title": "Parks"}], "review_count": 39, "location": {"city": "Boston", "address1": "Park Dr At Jersey St", "address3": "", "address2": null, "zip_code": "02215", "country": "US", "display_address": ["Park Dr At Jersey St", "Boston, MA 02215"], "state": "MA"}, "transactions": [], "display_phone": ""}]}