{"total": 32252, "region": {"center": {"longitude": -96.800537109375, "latitude": 32.839043482398054}}, "businesses": [{"rating": 3.5, "is_closed": false, "distance": 1684.1992547699997, "name": "Amore Italian Restaurant", "id": "amore-italian-restaurant-dallas", "image_url": "https://s3-media3.fl.yelpcdn.com/bphoto/skjnThaio8Cdvvn9YAMoSQ/o.jpg", "url": "https://www.yelp.com/biz/amore-italian-restaurant-dallas?adjust_creative=gBcvfFpabk3CnzmXKdYe3w&utm_campaign=yelp_api_v3&utm_medium=api_v3_business_search&utm_source=gBcvfFpabk3CnzmXKdYe3w", "phone": "+12147390502", "coordinates": {"longitude": -96.7880149, "latitude": 32.8496633}, "categories": [{"alias": "italian", "title": "Italian"}], "review_count": 42, "location": {"city": "Dallas", "address1": "6931 Snider Plz", "address3": "", "address2": "", "zip_code": "75205", "country": "US", "display_address": ["6931 Snider Plz", "Dallas, TX 75205"], "state": "TX"}, "price": "$$", "transactions": [], "display_phone": "(214) 739-0502"}, {"rating": 4.0, "is_closed": false, "distance": 3832.242967142, "name": "Dallul Restaurant", "id": "dallul-restaurant-dallas", "image_url": "https://s3-media2.fl.yelpcdn.com/bphoto/m0VA8lPk5eHqBSvhu3ERJg/o.jpg", "url": "https://www.yelp.com/biz/dallul-restaurant-dallas?adjust_creative=gBcvfFpabk3CnzmXKdYe3w&utm_campaign=yelp_api_v3&utm_medium=api_v3_business_search&utm_source=gBcvfFpabk3CnzmXKdYe3w", "phone": "+12143530805", "coordinates": {"longitude": -96.83637, "latitude": 32.82209}, "categories": [{"alias": "ethiopian", "title": "Ethiopian"}, {"alias": "italian", "title": "Italian"}], "review_count": 57, "location": {"city": "Dallas", "address1": "2515 Inwood Rd", "address3": "", "address2": "", "zip_code": "75235", "country": "US", "display_address": ["2515 Inwood Rd", "Dallas, TX 75235"], "state": "TX"}, "price": "$$", "transactions": ["delivery", "pickup"], "display_phone": "(214) 353-0805"}, {"rating": 3.5, "is_closed": false, "distance": 4617.993405167999, "name": "Grimaldi's Pizzeria", "id": "grimaldis-pizzeria-dallas", "image_url": "https://s3-media1.fl.yelpcdn.com/bphoto/kJXBkGv45_lb8_v8THrf7w/o.jpg", "url": "https://www.yelp.com/biz/grimaldis-pizzeria-dallas?adjust_creative=gBcvfFpabk3CnzmXKdYe3w&utm_campaign=yelp_api_v3&utm_medium=api_v3_business_search&utm_source=gBcvfFpabk3CnzmXKdYe3w", "phone": "+12149871173", "coordinates": {"longitude": -96.76860697384, "latitude": 32.870750630832}, "categories": [{"alias": "pizza", "title": "Pizza"}], "review_count": 203, "location": {"city": "Dallas", "address1": "8060 Park Ln", "address3": "", "address2": "Ste 105", "zip_code": "75231", "country": "US", "display_address": ["8060 Park Ln", "Ste 105", "Dallas, TX 75231"], "state": "TX"}, "price": "$$", "transactions": [], "display_phone": "(214) 987-1173"}, {"rating": 4.0, "is_closed": false, "distance": 4506.702877082, "name": "Bangkok Inn", "id": "bangkok-inn-dallas", "image_url": "https://s3-media2.fl.yelpcdn.com/bphoto/I2nA85vGNAcz52BnuQKwoQ/o.jpg", "url": "https://www.yelp.com/biz/bangkok-inn-dallas?adjust_creative=gBcvfFpabk3CnzmXKdYe3w&utm_campaign=yelp_api_v3&utm_medium=api_v3_business_search&utm_source=gBcvfFpabk3CnzmXKdYe3w", "phone": "+12148218979", "coordinates": {"longitude": -96.7627283, "latitude": 32.8138825}, "categories": [{"alias": "thai", "title": "Thai"}], "review_count": 103, "location": {"city": "Dallas", "address1": "6033 Oram St", "address3": "", "address2": "", "zip_code": "75206", "country": "US", "display_address": ["6033 Oram St", "Dallas, TX 75206"], "state": "TX"}, "price": "$", "transactions": [], "display_phone": "(214) 821-8979"}, {"rating": 3.5, "is_closed": false, "distance": 3411.7634633119997, "name": "Top Pot Doughnuts", "id": "top-pot-doughnuts-dallas-2", "image_url": "https://s3-media3.fl.yelpcdn.com/bphoto/8N19U5luf5jF_AtdoFUMGA/o.jpg", "url": "https://www.yelp.com/biz/top-pot-doughnuts-dallas-2?adjust_creative=gBcvfFpabk3CnzmXKdYe3w&utm_campaign=yelp_api_v3&utm_medium=api_v3_business_search&utm_source=gBcvfFpabk3CnzmXKdYe3w", "phone": "+14692329911", "coordinates": {"longitude": -96.7871544576721, "latitude": 32.8675931369074}, "categories": [{"alias": "donuts", "title": "Donuts"}, {"alias": "coffee", "title": "Coffee & Tea"}], "review_count": 131, "location": {"city": "Dallas", "address1": "8611 Hillcrest Ave", "address3": "", "address2": "Ste 195", "zip_code": "75225", "country": "US", "display_address": ["8611 Hillcrest Ave", "Ste 195", "Dallas, TX 75225"], "state": "TX"}, "price": "$", "transactions": [], "display_phone": "(469) 232-9911"}, {"rating": 4.0, "is_closed": false, "distance": 10614.35047112, "name": "Firexbox", "id": "firexbox-dallas", "image_url": "https://s3-media2.fl.yelpcdn.com/bphoto/dmG0zm2Hgik0tnOlpffUnw/o.jpg", "url": "https://www.yelp.com/biz/firexbox-dallas?adjust_creative=gBcvfFpabk3CnzmXKdYe3w&utm_campaign=yelp_api_v3&utm_medium=api_v3_business_search&utm_source=gBcvfFpabk3CnzmXKdYe3w", "phone": "+12145038888", "coordinates": {"longitude": -96.7000624598499, "latitude": 32.8836487114179}, "categories": [{"alias": "japanese", "title": "Japanese"}], "review_count": 197, "location": {"city": "Dallas", "address1": "9918 Plano Rd", "address3": "", "address2": "", "zip_code": "75238", "country": "US", "display_address": ["9918 Plano Rd", "Dallas, TX 75238"], "state": "TX"}, "price": "$", "transactions": [], "display_phone": "(214) 503-8888"}, {"rating": 5.0, "is_closed": false, "distance": 8155.41735436, "name": "Industry Alley Bar", "id": "industry-alley-bar-dallas", "image_url": "https://s3-media3.fl.yelpcdn.com/bphoto/-GKCgpIa-CyRfJMsrrZcyg/o.jpg", "url": "https://www.yelp.com/biz/industry-alley-bar-dallas?adjust_creative=gBcvfFpabk3CnzmXKdYe3w&utm_campaign=yelp_api_v3&utm_medium=api_v3_business_search&utm_source=gBcvfFpabk3CnzmXKdYe3w", "phone": "+12142383111", "coordinates": {"longitude": -96.7931187, "latitude": 32.7659649}, "categories": [{"alias": "bars", "title": "Bars"}], "review_count": 14, "location": {"city": "Dallas", "address1": "1711 S Lamar St", "address3": "", "address2": "", "zip_code": "75215", "country": "US", "display_address": ["1711 S Lamar St", "Dallas, TX 75215"], "state": "TX"}, "price": "$$", "transactions": [], "display_phone": "(214) 238-3111"}, {"rating": 4.0, "is_closed": false, "distance": 2765.55262026, "name": "Taco Joint", "id": "taco-joint-dallas-3", "image_url": "https://s3-media1.fl.yelpcdn.com/bphoto/PW1A1kh21L_yJe0q_ufR-w/o.jpg", "url": "https://www.yelp.com/biz/taco-joint-dallas-3?adjust_creative=gBcvfFpabk3CnzmXKdYe3w&utm_campaign=yelp_api_v3&utm_medium=api_v3_business_search&utm_source=gBcvfFpabk3CnzmXKdYe3w", "phone": "+19729250681", "coordinates": {"longitude": -96.8059828, "latitude": 32.8634651}, "categories": [{"alias": "tex-mex", "title": "Tex-Mex"}, {"alias": "mexican", "title": "Mexican"}], "review_count": 35, "location": {"city": "Dallas", "address1": "6112 Luther Ln", "address3": "", "address2": "", "zip_code": "75225", "country": "US", "display_address": ["6112 Luther Ln", "Dallas, TX 75225"], "state": "TX"}, "price": "$", "transactions": [], "display_phone": "(972) 925-0681"}, {"rating": 3.5, "is_closed": false, "distance": 3710.1941620899993, "name": "Mutts Canine Cantina", "id": "mutts-canine-cantina-dallas", "image_url": "https://s3-media1.fl.yelpcdn.com/bphoto/FnYfoZWE-TITCy9IuTEgaw/o.jpg", "url": "https://www.yelp.com/biz/mutts-canine-cantina-dallas?adjust_creative=gBcvfFpabk3CnzmXKdYe3w&utm_campaign=yelp_api_v3&utm_medium=api_v3_business_search&utm_source=gBcvfFpabk3CnzmXKdYe3w", "phone": "+12143778723", "coordinates": {"longitude": -96.7951492730164, "latitude": 32.8059847342552}, "categories": [{"alias": "tradamerican", "title": "American (Traditional)"}, {"alias": "dog_parks", "title": "Dog Parks"}, {"alias": "beer_and_wine", "title": "Beer, Wine & Spirits"}], "review_count": 231, "location": {"city": "Dallas", "address1": "2889 Cityplace W Blvd", "address3": "", "address2": null, "zip_code": "75204", "country": "US", "display_address": ["2889 Cityplace W Blvd", "Dallas, TX 75204"], "state": "TX"}, "price": "$", "transactions": [], "display_phone": "(214) 377-8723"}, {"rating": 4.0, "is_closed": false, "distance": 6176.14641526, "name": "Sushi Star", "id": "sushi-star-dallas", "image_url": "https://s3-media3.fl.yelpcdn.com/bphoto/pbf8hPF8Hwq7yihdG_gYSQ/o.jpg", "url": "https://www.yelp.com/biz/sushi-star-dallas?adjust_creative=gBcvfFpabk3CnzmXKdYe3w&utm_campaign=yelp_api_v3&utm_medium=api_v3_business_search&utm_source=gBcvfFpabk3CnzmXKdYe3w", "phone": "+12146928989", "coordinates": {"longitude": -96.8048267, "latitude": 32.8946351}, "categories": [{"alias": "sushi", "title": "Sushi Bars"}], "review_count": 90, "location": {"city": "Dallas", "address1": "5956 Royal Ln", "address3": "", "address2": "", "zip_code": "75230", "country": "US", "display_address": ["5956 Royal Ln", "Dallas, TX 75230"], "state": "TX"}, "price": "$$", "transactions": [], "display_phone": "(214) 692-8989"}, {"rating": 3.5, "is_closed": false, "distance": 2577.4651920439997, "name": "Buzzbrews Kitchen", "id": "buzzbrews-kitchen-dallas", "image_url": "https://s3-media1.fl.yelpcdn.com/bphoto/VQi2_jqUoxPkyr3rKI43sg/o.jpg", "url": "https://www.yelp.com/biz/buzzbrews-kitchen-dallas?adjust_creative=gBcvfFpabk3CnzmXKdYe3w&utm_campaign=yelp_api_v3&utm_medium=api_v3_business_search&utm_source=gBcvfFpabk3CnzmXKdYe3w", "phone": "+12145214334", "coordinates": {"longitude": -96.81209, "latitude": 32.818}, "categories": [{"alias": "diners", "title": "Diners"}, {"alias": "breakfast_brunch", "title": "Breakfast & Brunch"}, {"alias": "newamerican", "title": "American (New)"}], "review_count": 434, "location": {"city": "Dallas", "address1": "4334 Lemmon Ave", "address3": "", "address2": "", "zip_code": "75219", "country": "US", "display_address": ["4334 Lemmon Ave", "Dallas, TX 75219"], "state": "TX"}, "price": "$", "transactions": ["delivery"], "display_phone": "(214) 521-4334"}, {"rating": 3.5, "is_closed": false, "distance": 6237.130745219999, "name": "Princi Italia", "id": "princi-italia-dallas", "image_url": "https://s3-media3.fl.yelpcdn.com/bphoto/IqbQGHwbSLE1haYLNTY1SQ/o.jpg", "url": "https://www.yelp.com/biz/princi-italia-dallas?adjust_creative=gBcvfFpabk3CnzmXKdYe3w&utm_campaign=yelp_api_v3&utm_medium=api_v3_business_search&utm_source=gBcvfFpabk3CnzmXKdYe3w", "phone": "+12147395959", "coordinates": {"longitude": -96.8047379495789, "latitude": 32.8950247688837}, "categories": [{"alias": "italian", "title": "Italian"}], "review_count": 135, "location": {"city": "Dallas", "address1": "5959 Royal Ln", "address3": "", "address2": "Ste 707", "zip_code": "75230", "country": "US", "display_address": ["5959 Royal Ln", "Ste 707", "Dallas, TX 75230"], "state": "TX"}, "price": "$$", "transactions": [], "display_phone": "(214) 739-5959"}, {"rating": 4.0, "is_closed": false, "distance": 2734.933961156, "name": "WineTastic", "id": "winetastic-dallas", "image_url": "https://s3-media1.fl.yelpcdn.com/bphoto/1fYfqwFlYz__PepZ_WtF2w/o.jpg", "url": "https://www.yelp.com/biz/winetastic-dallas?adjust_creative=gBcvfFpabk3CnzmXKdYe3w&utm_campaign=yelp_api_v3&utm_medium=api_v3_business_search&utm_source=gBcvfFpabk3CnzmXKdYe3w", "phone": "+12145598910", "coordinates": {"longitude": -96.8092803955078, "latitude": 32.8155860900879}, "categories": [{"alias": "wine_bars", "title": "Wine Bars"}], "review_count": 35, "location": {"city": "Dallas", "address1": "4140 Lemmon Ave", "address3": "", "address2": "Ste 130", "zip_code": "75219", "country": "US", "display_address": ["4140 Lemmon Ave", "Ste 130", "Dallas, TX 75219"], "state": "TX"}, "price": "$$", "transactions": [], "display_phone": "(214) 559-8910"}, {"rating": 3.5, "is_closed": false, "distance": 2784.1017121659997, "name": "Uncle Julio's Fine Mexican Food", "id": "uncle-julios-fine-mexican-food-dallas-10", "image_url": "https://s3-media3.fl.yelpcdn.com/bphoto/sujY14V3pwNzaQ6RQ9nSkA/o.jpg", "url": "https://www.yelp.com/biz/uncle-julios-fine-mexican-food-dallas-10?adjust_creative=gBcvfFpabk3CnzmXKdYe3w&utm_campaign=yelp_api_v3&utm_medium=api_v3_business_search&utm_source=gBcvfFpabk3CnzmXKdYe3w", "phone": "+12145206620", "coordinates": {"longitude": -96.810210293354, "latitude": 32.815362301241}, "categories": [{"alias": "mexican", "title": "Mexican"}], "review_count": 344, "location": {"city": "Dallas", "address1": "4125 Lemmon Ave", "address3": "", "address2": "", "zip_code": "75219", "country": "US", "display_address": ["4125 Lemmon Ave", "Dallas, TX 75219"], "state": "TX"}, "price": "$$", "transactions": [], "display_phone": "(214) 520-6620"}, {"rating": 4.0, "is_closed": false, "distance": 8054.86418182, "name": "Dough Pizzeria", "id": "dough-pizzeria-dallas-2", "image_url": "https://s3-media4.fl.yelpcdn.com/bphoto/C2oKgkF_UPaaR6s3b569Xg/o.jpg", "url": "https://www.yelp.com/biz/dough-pizzeria-dallas-2?adjust_creative=gBcvfFpabk3CnzmXKdYe3w&utm_campaign=yelp_api_v3&utm_medium=api_v3_business_search&utm_source=gBcvfFpabk3CnzmXKdYe3w", "phone": "+19727884600", "coordinates": {"longitude": -96.8058080896881, "latitude": 32.9113453161889}, "categories": [{"alias": "pizza", "title": "Pizza"}, {"alias": "wine_bars", "title": "Wine Bars"}, {"alias": "italian", "title": "Italian"}], "review_count": 251, "location": {"city": "Dallas", "address1": "11909 Preston Rd", "address3": "", "address2": "Ste 1444", "zip_code": "75230", "country": "US", "display_address": ["11909 Preston Rd", "Ste 1444", "Dallas, TX 75230"], "state": "TX"}, "price": "$$", "transactions": ["delivery"], "display_phone": "(972) 788-4600"}, {"rating": 4.0, "is_closed": false, "distance": 7171.0581059999995, "name": "Casa Rubia", "id": "casa-rubia-dallas", "image_url": "https://s3-media1.fl.yelpcdn.com/bphoto/ye5zXVTSjo3stSlgV3dmHg/o.jpg", "url": "https://www.yelp.com/biz/casa-rubia-dallas?adjust_creative=gBcvfFpabk3CnzmXKdYe3w&utm_campaign=yelp_api_v3&utm_medium=api_v3_business_search&utm_source=gBcvfFpabk3CnzmXKdYe3w", "phone": "+14695136349", "coordinates": {"longitude": -96.8292235595752, "latitude": 32.7792273804227}, "categories": [{"alias": "newamerican", "title": "American (New)"}, {"alias": "tapasmallplates", "title": "Tapas/Small Plates"}, {"alias": "spanish", "title": "Spanish"}], "review_count": 174, "location": {"city": "Dallas", "address1": "3011 Gulden Ln", "address3": "", "address2": "Ste 116", "zip_code": "75212", "country": "US", "display_address": ["3011 Gulden Ln", "Ste 116", "Dallas, TX 75212"], "state": "TX"}, "price": "$$$", "transactions": [], "display_phone": "(469) 513-6349"}, {"rating": 4.0, "is_closed": false, "distance": 9492.47955712, "name": "Mangiamo Italian Restaurant", "id": "mangiamo-italian-restaurant-dallas", "image_url": "https://s3-media1.fl.yelpcdn.com/bphoto/hTfqqCJmtfy9PxEj-pIN6g/o.jpg", "url": "https://www.yelp.com/biz/mangiamo-italian-restaurant-dallas?adjust_creative=gBcvfFpabk3CnzmXKdYe3w&utm_campaign=yelp_api_v3&utm_medium=api_v3_business_search&utm_source=gBcvfFpabk3CnzmXKdYe3w", "phone": "+12148660044", "coordinates": {"longitude": -96.8045791335907, "latitude": 32.9243412673747}, "categories": [{"alias": "italian", "title": "Italian"}, {"alias": "pizza", "title": "Pizza"}], "review_count": 97, "location": {"city": "Dallas", "address1": "12835 Preston Rd", "address3": "", "address2": "Ste 220", "zip_code": "75230", "country": "US", "display_address": ["12835 Preston Rd", "Ste 220", "Dallas, TX 75230"], "state": "TX"}, "price": "$$", "transactions": [], "display_phone": "(214) 866-0044"}, {"rating": 4.0, "is_closed": false, "distance": 5302.453110132, "name": "Sugarbacon Proper Kitchen", "id": "sugarbacon-proper-kitchen-dallas-2", "image_url": "https://s3-media4.fl.yelpcdn.com/bphoto/I3K1_YFqgpclsRx1R-ziCg/o.jpg", "url": "https://www.yelp.com/biz/sugarbacon-proper-kitchen-dallas-2?adjust_creative=gBcvfFpabk3CnzmXKdYe3w&utm_campaign=yelp_api_v3&utm_medium=api_v3_business_search&utm_source=gBcvfFpabk3CnzmXKdYe3w", "phone": "+19722900731", "coordinates": {"longitude": -96.75181, "latitude": 32.81378}, "categories": [{"alias": "bars", "title": "Bars"}, {"alias": "newamerican", "title": "American (New)"}, {"alias": "southern", "title": "Southern"}], "review_count": 112, "location": {"city": "Dallas", "address1": "6400 Gaston Ave", "address3": null, "address2": "", "zip_code": "75214", "country": "US", "display_address": ["6400 Gaston Ave", "Dallas, TX 75214"], "state": "TX"}, "price": "$$", "transactions": ["pickup"], "display_phone": "(972) 290-0731"}, {"rating": 4.0, "is_closed": false, "distance": 5207.583321802, "name": "Zo\u00ebs Kitchen", "id": "zo\u00ebs-kitchen-dallas-9", "image_url": "https://s3-media3.fl.yelpcdn.com/bphoto/ATFHBiSI2Dwv38Z5Gvn1Tw/o.jpg", "url": "https://www.yelp.com/biz/zo%C3%ABs-kitchen-dallas-9?adjust_creative=gBcvfFpabk3CnzmXKdYe3w&utm_campaign=yelp_api_v3&utm_medium=api_v3_business_search&utm_source=gBcvfFpabk3CnzmXKdYe3w", "phone": "+12148876330", "coordinates": {"longitude": -96.753196, "latitude": 32.814281}, "categories": [{"alias": "mediterranean", "title": "Mediterranean"}], "review_count": 50, "location": {"city": "Dallas", "address1": "2009 Abrams Pkwy", "address3": "", "address2": null, "zip_code": "75214", "country": "US", "display_address": ["2009 Abrams Pkwy", "Dallas, TX 75214"], "state": "TX"}, "price": "$$", "transactions": [], "display_phone": "(214) 887-6330"}, {"rating": 4.5, "is_closed": false, "distance": 10056.175675956, "name": "Big Tony's West Philly Cheesesteaks", "id": "big-tonys-west-philly-cheesesteaks-dallas", "image_url": "https://s3-media3.fl.yelpcdn.com/bphoto/4NCCn0tM7nY0BfAYxOxZrw/o.jpg", "url": "https://www.yelp.com/biz/big-tonys-west-philly-cheesesteaks-dallas?adjust_creative=gBcvfFpabk3CnzmXKdYe3w&utm_campaign=yelp_api_v3&utm_medium=api_v3_business_search&utm_source=gBcvfFpabk3CnzmXKdYe3w", "phone": "+12148129092", "coordinates": {"longitude": -96.8034164607525, "latitude": 32.9295947402716}, "categories": [{"alias": "cheesesteaks", "title": "Cheesesteaks"}], "review_count": 99, "location": {"city": "Dallas", "address1": "13378 Preston Rd", "address3": "", "address2": "", "zip_code": "75240", "country": "US", "display_address": ["13378 Preston Rd", "Dallas, TX 75240"], "state": "TX"}, "price": "$", "transactions": [], "display_phone": "(214) 812-9092"}, {"rating": 4.5, "is_closed": false, "distance": 10338.624662929999, "name": "Bishop Cider Co.", "id": "bishop-cider-co-dallas-5", "image_url": "https://s3-media4.fl.yelpcdn.com/bphoto/iARJ84KaMoL-uHC8-sRfFg/o.jpg", "url": "https://www.yelp.com/biz/bishop-cider-co-dallas-5?adjust_creative=gBcvfFpabk3CnzmXKdYe3w&utm_campaign=yelp_api_v3&utm_medium=api_v3_business_search&utm_source=gBcvfFpabk3CnzmXKdYe3w", "phone": "+12143647728", "coordinates": {"longitude": -96.8287175682058, "latitude": 32.749134688936}, "categories": [{"alias": "bars", "title": "Bars"}, {"alias": "breweries", "title": "Breweries"}, {"alias": "cideries", "title": "Cideries"}], "review_count": 105, "location": {"city": "Dallas", "address1": "509 N Bishop Ave", "address3": "", "address2": "Ste C", "zip_code": "75208", "country": "US", "display_address": ["509 N Bishop Ave", "Ste C", "Dallas, TX 75208"], "state": "TX"}, "price": "$", "transactions": [], "display_phone": "(214) 364-7728"}, {"rating": 4.5, "is_closed": false, "distance": 11240.586990762, "name": "The Cultured Cup", "id": "the-cultured-cup-dallas", "image_url": "https://s3-media1.fl.yelpcdn.com/bphoto/Zi_SFW2bPATPZQLhOKwywA/o.jpg", "url": "https://www.yelp.com/biz/the-cultured-cup-dallas?adjust_creative=gBcvfFpabk3CnzmXKdYe3w&utm_campaign=yelp_api_v3&utm_medium=api_v3_business_search&utm_source=gBcvfFpabk3CnzmXKdYe3w", "phone": "+19729601521", "coordinates": {"longitude": -96.8362197875977, "latitude": 32.9355888366699}, "categories": [{"alias": "coffee", "title": "Coffee & Tea"}, {"alias": "desserts", "title": "Desserts"}], "review_count": 30, "location": {"city": "Dallas", "address1": "13714 Gamma Rd", "address3": "", "address2": "Ste 104", "zip_code": "75244", "country": "US", "display_address": ["13714 Gamma Rd", "Ste 104", "Dallas, TX 75244"], "state": "TX"}, "price": "$$", "transactions": [], "display_phone": "(972) 960-1521"}, {"rating": 4.0, "is_closed": false, "distance": 3867.706544316, "name": "Taqueria La Paisanita", "id": "taqueria-la-paisanita-dallas-2", "image_url": "https://s3-media3.fl.yelpcdn.com/bphoto/M8znRFqBjcb09gsF-A9lzw/o.jpg", "url": "https://www.yelp.com/biz/taqueria-la-paisanita-dallas-2?adjust_creative=gBcvfFpabk3CnzmXKdYe3w&utm_campaign=yelp_api_v3&utm_medium=api_v3_business_search&utm_source=gBcvfFpabk3CnzmXKdYe3w", "phone": "+12143513232", "coordinates": {"longitude": -96.8364079, "latitude": 32.821589}, "categories": [{"alias": "mexican", "title": "Mexican"}], "review_count": 58, "location": {"city": "Dallas", "address1": "2505 Inwood Rd", "address3": "", "address2": "", "zip_code": "75235", "country": "US", "display_address": ["2505 Inwood Rd", "Dallas, TX 75235"], "state": "TX"}, "price": "$", "transactions": [], "display_phone": "(214) 351-3232"}, {"rating": 3.5, "is_closed": false, "distance": 3404.7835947979997, "name": "Pho Crimson", "id": "pho-crimson-dallas-3", "image_url": "https://s3-media4.fl.yelpcdn.com/bphoto/DewT4bHQeAIV1pKUN5fF1g/o.jpg", "url": "https://www.yelp.com/biz/pho-crimson-dallas-3?adjust_creative=gBcvfFpabk3CnzmXKdYe3w&utm_campaign=yelp_api_v3&utm_medium=api_v3_business_search&utm_source=gBcvfFpabk3CnzmXKdYe3w", "phone": "+14695475443", "coordinates": {"longitude": -96.7955411970462, "latitude": 32.8087125407658}, "categories": [{"alias": "vietnamese", "title": "Vietnamese"}, {"alias": "asianfusion", "title": "Asian Fusion"}], "review_count": 247, "location": {"city": "Dallas", "address1": "3000 Blackburn St", "address3": "", "address2": "Ste 140C", "zip_code": "75204", "country": "US", "display_address": ["3000 Blackburn St", "Ste 140C", "Dallas, TX 75204"], "state": "TX"}, "price": "$", "transactions": ["delivery"], "display_phone": "(469) 547-5443"}, {"rating": 3.5, "is_closed": false, "distance": 5606.758221777999, "name": "Stampede 66", "id": "stampede-66-dallas", "image_url": "https://s3-media3.fl.yelpcdn.com/bphoto/qq-pVr_FfvogP2TbQKYOuw/o.jpg", "url": "https://www.yelp.com/biz/stampede-66-dallas?adjust_creative=gBcvfFpabk3CnzmXKdYe3w&utm_campaign=yelp_api_v3&utm_medium=api_v3_business_search&utm_source=gBcvfFpabk3CnzmXKdYe3w", "phone": "+12145506966", "coordinates": {"longitude": -96.8044395834671, "latitude": 32.7887275618213}, "categories": [{"alias": "newamerican", "title": "American (New)"}, {"alias": "tex-mex", "title": "Tex-Mex"}], "review_count": 406, "location": {"city": "Dallas", "address1": "1717 Mckinney Ave", "address3": "", "address2": "Ste 100", "zip_code": "75201", "country": "US", "display_address": ["1717 Mckinney Ave", "Ste 100", "Dallas, TX 75201"], "state": "TX"}, "price": "$$", "transactions": ["pickup"], "display_phone": "(214) 550-6966"}, {"rating": 4.0, "is_closed": false, "distance": 9469.215903684, "name": "Lalibela Ethiopian Restaurant", "id": "lalibela-ethiopian-restaurant-dallas", "image_url": "https://s3-media1.fl.yelpcdn.com/bphoto/Yo-TljoGMlXKqm3VHuz74A/o.jpg", "url": "https://www.yelp.com/biz/lalibela-ethiopian-restaurant-dallas?adjust_creative=gBcvfFpabk3CnzmXKdYe3w&utm_campaign=yelp_api_v3&utm_medium=api_v3_business_search&utm_source=gBcvfFpabk3CnzmXKdYe3w", "phone": "+19727928442", "coordinates": {"longitude": -96.743667, "latitude": 32.909526}, "categories": [{"alias": "ethiopian", "title": "Ethiopian"}], "review_count": 95, "location": {"city": "Dallas", "address1": "9191 Forest Ln", "address3": "", "address2": "Ste 2", "zip_code": "75243", "country": "US", "display_address": ["9191 Forest Ln", "Ste 2", "Dallas, TX 75243"], "state": "TX"}, "price": "$$", "transactions": [], "display_phone": "(972) 792-8442"}, {"rating": 3.5, "is_closed": false, "distance": 3925.5214400799996, "name": "P.F. Chang's", "id": "p-f-changs-dallas-19", "image_url": "https://s3-media3.fl.yelpcdn.com/bphoto/9L0gnPLXAr9UyWCderOfzA/o.jpg", "url": "https://www.yelp.com/biz/p-f-changs-dallas-19?adjust_creative=gBcvfFpabk3CnzmXKdYe3w&utm_campaign=yelp_api_v3&utm_medium=api_v3_business_search&utm_source=gBcvfFpabk3CnzmXKdYe3w", "phone": "+12142658669", "coordinates": {"longitude": -96.7735478539661, "latitude": 32.8661000759522}, "categories": [{"alias": "chinese", "title": "Chinese"}, {"alias": "asianfusion", "title": "Asian Fusion"}, {"alias": "gluten_free", "title": "Gluten-Free"}], "review_count": 150, "location": {"city": "Dallas", "address1": "8687 N Central Expy", "address3": "", "address2": "Ste 225", "zip_code": "75225", "country": "US", "display_address": ["8687 N Central Expy", "Ste 225", "Dallas, TX 75225"], "state": "TX"}, "price": "$$", "transactions": ["delivery"], "display_phone": "(214) 265-8669"}, {"rating": 4.0, "is_closed": false, "distance": 6137.483148298, "name": "The Hospitality Sweet", "id": "the-hospitality-sweet-dallas", "image_url": "https://s3-media4.fl.yelpcdn.com/bphoto/6amFtnLmA--Ov88-7rAg5Q/o.jpg", "url": "https://www.yelp.com/biz/the-hospitality-sweet-dallas?adjust_creative=gBcvfFpabk3CnzmXKdYe3w&utm_campaign=yelp_api_v3&utm_medium=api_v3_business_search&utm_source=gBcvfFpabk3CnzmXKdYe3w", "phone": "+12149996704", "coordinates": {"longitude": -96.7978358870331, "latitude": 32.7838923576833}, "categories": [{"alias": "cafes", "title": "Cafes"}, {"alias": "bakeries", "title": "Bakeries"}, {"alias": "coffee", "title": "Coffee & Tea"}], "review_count": 78, "location": {"city": "Dallas", "address1": "400 N Ervay", "address3": "", "address2": "Ste 175", "zip_code": "75201", "country": "US", "display_address": ["400 N Ervay", "Ste 175", "Dallas, TX 75201"], "state": "TX"}, "price": "$$", "transactions": [], "display_phone": "(214) 999-6704"}, {"rating": 4.0, "is_closed": false, "distance": 12714.506018716, "name": "Kenny's Italian Kitchen", "id": "kennys-italian-kitchen-dallas", "image_url": "https://s3-media1.fl.yelpcdn.com/bphoto/paYPiyHjK6-cPbX-aszB2A/o.jpg", "url": "https://www.yelp.com/biz/kennys-italian-kitchen-dallas?adjust_creative=gBcvfFpabk3CnzmXKdYe3w&utm_campaign=yelp_api_v3&utm_medium=api_v3_business_search&utm_source=gBcvfFpabk3CnzmXKdYe3w", "phone": "+19726619380", "coordinates": {"longitude": -96.8196190169884, "latitude": 32.9522604664909}, "categories": [{"alias": "italian", "title": "Italian"}], "review_count": 581, "location": {"city": "Dallas", "address1": "5100 Belt Line Rd", "address3": "", "address2": "Ste 764", "zip_code": "75254", "country": "US", "display_address": ["5100 Belt Line Rd", "Ste 764", "Dallas, TX 75254"], "state": "TX"}, "price": "$$", "transactions": [], "display_phone": "(972) 661-9380"}, {"rating": 3.5, "is_closed": false, "distance": 2714.55263566, "name": "Campisi's Restaurant", "id": "campisis-restaurant-dallas-12", "image_url": "https://s3-media2.fl.yelpcdn.com/bphoto/eMoYHSptceT7sAUnv_oYkQ/o.jpg", "url": "https://www.yelp.com/biz/campisis-restaurant-dallas-12?adjust_creative=gBcvfFpabk3CnzmXKdYe3w&utm_campaign=yelp_api_v3&utm_medium=api_v3_business_search&utm_source=gBcvfFpabk3CnzmXKdYe3w", "phone": "+12148270355", "coordinates": {"longitude": -96.7716764, "latitude": 32.8362317}, "categories": [{"alias": "italian", "title": "Italian"}, {"alias": "pizza", "title": "Pizza"}], "review_count": 297, "location": {"city": "Dallas", "address1": "5610 E Mockingbird Ln", "address3": "", "address2": "", "zip_code": "75206", "country": "US", "display_address": ["5610 E Mockingbird Ln", "Dallas, TX 75206"], "state": "TX"}, "price": "$$", "transactions": [], "display_phone": "(214) 827-0355"}, {"rating": 4.0, "is_closed": false, "distance": 12830.891878176, "name": "Houston's Restaurant", "id": "houstons-restaurant-dallas", "image_url": "https://s3-media2.fl.yelpcdn.com/bphoto/x-rQLMj9Q6iqqls8awgg1A/o.jpg", "url": "https://www.yelp.com/biz/houstons-restaurant-dallas?adjust_creative=gBcvfFpabk3CnzmXKdYe3w&utm_campaign=yelp_api_v3&utm_medium=api_v3_business_search&utm_source=gBcvfFpabk3CnzmXKdYe3w", "phone": "+19729601752", "coordinates": {"longitude": -96.8160368916794, "latitude": 32.953696925366}, "categories": [{"alias": "newamerican", "title": "American (New)"}, {"alias": "steak", "title": "Steakhouses"}, {"alias": "tradamerican", "title": "American (Traditional)"}], "review_count": 403, "location": {"city": "Dallas", "address1": "5318 Belt Line Rd", "address3": "", "address2": "", "zip_code": "75254", "country": "US", "display_address": ["5318 Belt Line Rd", "Dallas, TX 75254"], "state": "TX"}, "price": "$$$", "transactions": [], "display_phone": "(972) 960-1752"}, {"rating": 4.0, "is_closed": false, "distance": 4984.65545286, "name": "The Crescent Gourmet", "id": "the-crescent-gourmet-dallas", "image_url": "https://s3-media4.fl.yelpcdn.com/bphoto/Yfzu2p_cmZczAx-7YTBaqg/o.jpg", "url": "https://www.yelp.com/biz/the-crescent-gourmet-dallas?adjust_creative=gBcvfFpabk3CnzmXKdYe3w&utm_campaign=yelp_api_v3&utm_medium=api_v3_business_search&utm_source=gBcvfFpabk3CnzmXKdYe3w", "phone": "+12148713223", "coordinates": {"longitude": -96.803758333109, "latitude": 32.794295188634}, "categories": [{"alias": "newamerican", "title": "American (New)"}, {"alias": "breakfast_brunch", "title": "Breakfast & Brunch"}, {"alias": "sandwiches", "title": "Sandwiches"}], "review_count": 14, "location": {"city": "Dallas", "address1": "400 Crescent Ct", "address3": "", "address2": "", "zip_code": "75201", "country": "US", "display_address": ["400 Crescent Ct", "Dallas, TX 75201"], "state": "TX"}, "price": "$", "transactions": [], "display_phone": "(214) 871-3223"}, {"rating": 3.5, "is_closed": false, "distance": 5887.00032081, "name": "Carmine's Pizza", "id": "carmines-pizza-dallas", "image_url": "https://s3-media2.fl.yelpcdn.com/bphoto/kTz-NR-kMTYngAx3H0qy1g/o.jpg", "url": "https://www.yelp.com/biz/carmines-pizza-dallas?adjust_creative=gBcvfFpabk3CnzmXKdYe3w&utm_campaign=yelp_api_v3&utm_medium=api_v3_business_search&utm_source=gBcvfFpabk3CnzmXKdYe3w", "phone": "+12145206000", "coordinates": {"longitude": -96.7980942875147, "latitude": 32.7862299978733}, "categories": [{"alias": "pizza", "title": "Pizza"}], "review_count": 117, "location": {"city": "Dallas", "address1": "2006 San Jacinto St", "address3": "", "address2": "Ste 100", "zip_code": "75201", "country": "US", "display_address": ["2006 San Jacinto St", "Ste 100", "Dallas, TX 75201"], "state": "TX"}, "price": "$", "transactions": [], "display_phone": "(214) 520-6000"}, {"rating": 4.0, "is_closed": false, "distance": 4496.044218261999, "name": "White Rock Coffee Express", "id": "white-rock-coffee-express-dallas", "image_url": "https://s3-media2.fl.yelpcdn.com/bphoto/N3nz4tZ0JOK3gQlaPUofog/o.jpg", "url": "https://www.yelp.com/biz/white-rock-coffee-express-dallas?adjust_creative=gBcvfFpabk3CnzmXKdYe3w&utm_campaign=yelp_api_v3&utm_medium=api_v3_business_search&utm_source=gBcvfFpabk3CnzmXKdYe3w", "phone": "+12147929767", "coordinates": {"longitude": -96.7524748735119, "latitude": 32.8370489755449}, "categories": [{"alias": "coffee", "title": "Coffee & Tea"}, {"alias": "breakfast_brunch", "title": "Breakfast & Brunch"}], "review_count": 83, "location": {"city": "Dallas", "address1": "4216 Abrams Rd", "address3": "", "address2": "", "zip_code": "75214", "country": "US", "display_address": ["4216 Abrams Rd", "Dallas, TX 75214"], "state": "TX"}, "price": "$", "transactions": [], "display_phone": "(214) 792-9767"}, {"rating": 3.5, "is_closed": false, "distance": 3744.464735522, "name": "Manny's Uptown Tex-Mex", "id": "mannys-uptown-tex-mex-dallas-3", "image_url": "https://s3-media3.fl.yelpcdn.com/bphoto/6dtrZJ7Rco8OQIkh08EukQ/o.jpg", "url": "https://www.yelp.com/biz/mannys-uptown-tex-mex-dallas-3?adjust_creative=gBcvfFpabk3CnzmXKdYe3w&utm_campaign=yelp_api_v3&utm_medium=api_v3_business_search&utm_source=gBcvfFpabk3CnzmXKdYe3w", "phone": "+12142521616", "coordinates": {"longitude": -96.79641, "latitude": 32.8054599}, "categories": [{"alias": "tex-mex", "title": "Tex-Mex"}, {"alias": "desserts", "title": "Desserts"}, {"alias": "salad", "title": "Salad"}], "review_count": 261, "location": {"city": "Dallas", "address1": "3521 Oak Grove Rd", "address3": "", "address2": "", "zip_code": "75204", "country": "US", "display_address": ["3521 Oak Grove Rd", "Dallas, TX 75204"], "state": "TX"}, "price": "$$", "transactions": [], "display_phone": "(214) 252-1616"}, {"rating": 4.5, "is_closed": false, "distance": 11183.223193, "name": "Bay34th St Pizzeria", "id": "bay34th-st-pizzeria-dallas-2", "image_url": "https://s3-media4.fl.yelpcdn.com/bphoto/1i0s9L0V0ZHFNm8wyA0tCA/o.jpg", "url": "https://www.yelp.com/biz/bay34th-st-pizzeria-dallas-2?adjust_creative=gBcvfFpabk3CnzmXKdYe3w&utm_campaign=yelp_api_v3&utm_medium=api_v3_business_search&utm_source=gBcvfFpabk3CnzmXKdYe3w", "phone": "+12147749469", "coordinates": {"longitude": -96.839783, "latitude": 32.934064}, "categories": [{"alias": "pizza", "title": "Pizza"}, {"alias": "italian", "title": "Italian"}, {"alias": "sandwiches", "title": "Sandwiches"}], "review_count": 139, "location": {"city": "Dallas", "address1": "13605 Midway Rd", "address3": "", "address2": "Ste 170", "zip_code": "75244", "country": "US", "display_address": ["13605 Midway Rd", "Ste 170", "Dallas, TX 75244"], "state": "TX"}, "price": "$", "transactions": ["delivery", "pickup"], "display_phone": "(214) 774-9469"}, {"rating": 3.5, "is_closed": false, "distance": 5531.3189608719995, "name": "El Bolero", "id": "el-bolero-dallas", "image_url": "https://s3-media4.fl.yelpcdn.com/bphoto/hUmup0XYZ-uSY9GRXOgZ1w/o.jpg", "url": "https://www.yelp.com/biz/el-bolero-dallas?adjust_creative=gBcvfFpabk3CnzmXKdYe3w&utm_campaign=yelp_api_v3&utm_medium=api_v3_business_search&utm_source=gBcvfFpabk3CnzmXKdYe3w", "phone": "+12147411986", "coordinates": {"longitude": -96.82311, "latitude": 32.79316}, "categories": [{"alias": "mexican", "title": "Mexican"}, {"alias": "tex-mex", "title": "Tex-Mex"}, {"alias": "bars", "title": "Bars"}], "review_count": 191, "location": {"city": "Dallas", "address1": "1201 Oak Lawn Ave", "address3": "", "address2": "", "zip_code": "75207", "country": "US", "display_address": ["1201 Oak Lawn Ave", "Dallas, TX 75207"], "state": "TX"}, "price": "$$", "transactions": [], "display_phone": "(214) 741-1986"}, {"rating": 4.0, "is_closed": false, "distance": 9174.665484579999, "name": "MoMo Italian Kitchen", "id": "momo-italian-kitchen-dallas", "image_url": "https://s3-media3.fl.yelpcdn.com/bphoto/eazs-CUkHdyqXBgWpjJyqg/o.jpg", "url": "https://www.yelp.com/biz/momo-italian-kitchen-dallas?adjust_creative=gBcvfFpabk3CnzmXKdYe3w&utm_campaign=yelp_api_v3&utm_medium=api_v3_business_search&utm_source=gBcvfFpabk3CnzmXKdYe3w", "phone": "+19722346800", "coordinates": {"longitude": -96.749865716008, "latitude": 32.9097290162155}, "categories": [{"alias": "italian", "title": "Italian"}, {"alias": "pizza", "title": "Pizza"}, {"alias": "salad", "title": "Salad"}], "review_count": 148, "location": {"city": "Dallas", "address1": "8989 Forest Ln", "address3": "", "address2": "Ste 130", "zip_code": "75243", "country": "US", "display_address": ["8989 Forest Ln", "Ste 130", "Dallas, TX 75243"], "state": "TX"}, "price": "$$", "transactions": [], "display_phone": "(972) 234-6800"}, {"rating": 4.0, "is_closed": false, "distance": 10091.60626166, "name": "Burger Bueno", "id": "burger-bueno-dallas", "image_url": "https://s3-media2.fl.yelpcdn.com/bphoto/NFcBltTOpzWf8zKKdd23kw/o.jpg", "url": "https://www.yelp.com/biz/burger-bueno-dallas?adjust_creative=gBcvfFpabk3CnzmXKdYe3w&utm_campaign=yelp_api_v3&utm_medium=api_v3_business_search&utm_source=gBcvfFpabk3CnzmXKdYe3w", "phone": "+19723873400", "coordinates": {"longitude": -96.76978, "latitude": 32.92603}, "categories": [{"alias": "burgers", "title": "Burgers"}], "review_count": 247, "location": {"city": "Dallas", "address1": "13021 Coit Rd", "address3": "", "address2": "", "zip_code": "75240", "country": "US", "display_address": ["13021 Coit Rd", "Dallas, TX 75240"], "state": "TX"}, "price": "$", "transactions": [], "display_phone": "(972) 387-3400"}, {"rating": 4.0, "is_closed": false, "distance": 5782.740677316, "name": "Seafood Shack", "id": "seafood-shack-dallas-2", "image_url": "https://s3-media3.fl.yelpcdn.com/bphoto/LlUizvhLNcR_t7dSvoWzWw/o.jpg", "url": "https://www.yelp.com/biz/seafood-shack-dallas-2?adjust_creative=gBcvfFpabk3CnzmXKdYe3w&utm_campaign=yelp_api_v3&utm_medium=api_v3_business_search&utm_source=gBcvfFpabk3CnzmXKdYe3w", "phone": "+12143512000", "coordinates": {"longitude": -96.856503734211, "latitude": 32.8612621432467}, "categories": [{"alias": "seafood", "title": "Seafood"}, {"alias": "tex-mex", "title": "Tex-Mex"}, {"alias": "mexican", "title": "Mexican"}], "review_count": 80, "location": {"city": "Dallas", "address1": "3701 W Nw Hwy", "address3": "", "address2": "Ste 195", "zip_code": "75220", "country": "US", "display_address": ["3701 W Nw Hwy", "Ste 195", "Dallas, TX 75220"], "state": "TX"}, "price": "$$", "transactions": [], "display_phone": "(214) 351-2000"}, {"rating": 5.0, "is_closed": false, "distance": 8428.68811438, "name": "Jettison", "id": "jettison-dallas", "image_url": "https://s3-media2.fl.yelpcdn.com/bphoto/QwQ8Gx57YrcHRwa8pwZ_fA/o.jpg", "url": "https://www.yelp.com/biz/jettison-dallas?adjust_creative=gBcvfFpabk3CnzmXKdYe3w&utm_campaign=yelp_api_v3&utm_medium=api_v3_business_search&utm_source=gBcvfFpabk3CnzmXKdYe3w", "phone": "", "coordinates": {"longitude": -96.835464887237, "latitude": 32.7691559078487}, "categories": [{"alias": "cocktailbars", "title": "Cocktail Bars"}, {"alias": "beerbar", "title": "Beer Bar"}], "review_count": 10, "location": {"city": "Dallas", "address1": "1878 Sylvan Ave", "address3": null, "address2": "", "zip_code": "75208", "country": "US", "display_address": ["1878 Sylvan Ave", "Dallas, TX 75208"], "state": "TX"}, "price": "$$", "transactions": [], "display_phone": ""}, {"rating": 3.5, "is_closed": false, "distance": 3464.6965871199995, "name": "Taco Diner", "id": "taco-diner-dallas-2", "image_url": "https://s3-media1.fl.yelpcdn.com/bphoto/5jHAoD4acaY4kCLJMHS8MA/o.jpg", "url": "https://www.yelp.com/biz/taco-diner-dallas-2?adjust_creative=gBcvfFpabk3CnzmXKdYe3w&utm_campaign=yelp_api_v3&utm_medium=api_v3_business_search&utm_source=gBcvfFpabk3CnzmXKdYe3w", "phone": "+12145213669", "coordinates": {"longitude": -96.797694, "latitude": 32.807974}, "categories": [{"alias": "mexican", "title": "Mexican"}, {"alias": "breakfast_brunch", "title": "Breakfast & Brunch"}, {"alias": "tex-mex", "title": "Tex-Mex"}], "review_count": 336, "location": {"city": "Dallas", "address1": "3699 McKinney Ave", "address3": "", "address2": null, "zip_code": "75204", "country": "US", "display_address": ["3699 McKinney Ave", "Dallas, TX 75204"], "state": "TX"}, "price": "$$", "transactions": [], "display_phone": "(214) 521-3669"}, {"rating": 3.5, "is_closed": false, "distance": 6542.6221013800005, "name": "City Tavern", "id": "city-tavern-dallas", "image_url": "https://s3-media2.fl.yelpcdn.com/bphoto/uriNrHFqlS5J1e6A-ViN2w/o.jpg", "url": "https://www.yelp.com/biz/city-tavern-dallas?adjust_creative=gBcvfFpabk3CnzmXKdYe3w&utm_campaign=yelp_api_v3&utm_medium=api_v3_business_search&utm_source=gBcvfFpabk3CnzmXKdYe3w", "phone": "+12147451402", "coordinates": {"longitude": -96.80008, "latitude": 32.78022}, "categories": [{"alias": "bars", "title": "Bars"}, {"alias": "tradamerican", "title": "American (Traditional)"}, {"alias": "musicvenues", "title": "Music Venues"}], "review_count": 197, "location": {"city": "Dallas", "address1": "1402 Main St", "address3": "", "address2": "", "zip_code": "75202", "country": "US", "display_address": ["1402 Main St", "Dallas, TX 75202"], "state": "TX"}, "price": "$$", "transactions": [], "display_phone": "(214) 745-1402"}, {"rating": 3.5, "is_closed": false, "distance": 3787.627878058, "name": "OC Orange Chicken", "id": "oc-orange-chicken-dallas", "image_url": "https://s3-media1.fl.yelpcdn.com/bphoto/i-ODxttCUODohfzZholAmQ/o.jpg", "url": "https://www.yelp.com/biz/oc-orange-chicken-dallas?adjust_creative=gBcvfFpabk3CnzmXKdYe3w&utm_campaign=yelp_api_v3&utm_medium=api_v3_business_search&utm_source=gBcvfFpabk3CnzmXKdYe3w", "phone": "+19729822851", "coordinates": {"longitude": -96.7681662, "latitude": 32.8602789}, "categories": [{"alias": "chinese", "title": "Chinese"}, {"alias": "asianfusion", "title": "Asian Fusion"}], "review_count": 111, "location": {"city": "Dallas", "address1": "6107 Greenville Ave", "address3": "", "address2": null, "zip_code": "75206", "country": "US", "display_address": ["6107 Greenville Ave", "Dallas, TX 75206"], "state": "TX"}, "price": "$$", "transactions": ["pickup"], "display_phone": "(972) 982-2851"}, {"rating": 4.0, "is_closed": false, "distance": 12608.12639164, "name": "The Boiling Crab", "id": "the-boiling-crab-dallas", "image_url": "https://s3-media2.fl.yelpcdn.com/bphoto/xGgxs3d2ftkDenqSxGcVaA/o.jpg", "url": "https://www.yelp.com/biz/the-boiling-crab-dallas?adjust_creative=gBcvfFpabk3CnzmXKdYe3w&utm_campaign=yelp_api_v3&utm_medium=api_v3_business_search&utm_source=gBcvfFpabk3CnzmXKdYe3w", "phone": "+19722727086", "coordinates": {"longitude": -96.7013626659912, "latitude": 32.9159799858095}, "categories": [{"alias": "cajun", "title": "Cajun/Creole"}, {"alias": "seafood", "title": "Seafood"}], "review_count": 807, "location": {"city": "Dallas", "address1": "10560 Walnut St", "address3": "", "address2": "Ste 100", "zip_code": "75243", "country": "US", "display_address": ["10560 Walnut St", "Ste 100", "Dallas, TX 75243"], "state": "TX"}, "price": "$$", "transactions": [], "display_phone": "(972) 272-7086"}, {"rating": 5.0, "is_closed": false, "distance": 11409.434276476, "name": "Peridot Coffee", "id": "peridot-coffee-dallas", "image_url": "https://s3-media2.fl.yelpcdn.com/bphoto/xg7uiv00ok0QXy1PLg2zfQ/o.jpg", "url": "https://www.yelp.com/biz/peridot-coffee-dallas?adjust_creative=gBcvfFpabk3CnzmXKdYe3w&utm_campaign=yelp_api_v3&utm_medium=api_v3_business_search&utm_source=gBcvfFpabk3CnzmXKdYe3w", "phone": "", "coordinates": {"longitude": -96.9031574204564, "latitude": 32.8947078470428}, "categories": [{"alias": "coffee", "title": "Coffee & Tea"}, {"alias": "juicebars", "title": "Juice Bars & Smoothies"}], "review_count": 28, "location": {"city": "Dallas", "address1": "2240 Royal Ln", "address3": null, "address2": "Ste 101", "zip_code": "75229", "country": "US", "display_address": ["2240 Royal Ln", "Ste 101", "Dallas, TX 75229"], "state": "TX"}, "price": "$", "transactions": [], "display_phone": ""}, {"rating": 4.0, "is_closed": false, "distance": 10293.06827088, "name": "Stock & Barrel", "id": "stock-and-barrel-dallas", "image_url": "https://s3-media2.fl.yelpcdn.com/bphoto/kwwqgjMBPNPD5_dHSiF41g/o.jpg", "url": "https://www.yelp.com/biz/stock-and-barrel-dallas?adjust_creative=gBcvfFpabk3CnzmXKdYe3w&utm_campaign=yelp_api_v3&utm_medium=api_v3_business_search&utm_source=gBcvfFpabk3CnzmXKdYe3w", "phone": "+12148880150", "coordinates": {"longitude": -96.8276214599609, "latitude": 32.7491989135742}, "categories": [{"alias": "tradamerican", "title": "American (Traditional)"}], "review_count": 317, "location": {"city": "Dallas", "address1": "316 Davis St", "address3": "", "address2": "", "zip_code": "75208", "country": "US", "display_address": ["316 Davis St", "Dallas, TX 75208"], "state": "TX"}, "price": "$$", "transactions": [], "display_phone": "(214) 888-0150"}, {"rating": 4.0, "is_closed": false, "distance": 5161.968349776, "name": "Tupinamba Cafe", "id": "tupinamba-cafe-dallas-2", "image_url": "https://s3-media1.fl.yelpcdn.com/bphoto/tiVpFka8NWqacqXFKWx3Ag/o.jpg", "url": "https://www.yelp.com/biz/tupinamba-cafe-dallas-2?adjust_creative=gBcvfFpabk3CnzmXKdYe3w&utm_campaign=yelp_api_v3&utm_medium=api_v3_business_search&utm_source=gBcvfFpabk3CnzmXKdYe3w", "phone": "+19729918148", "coordinates": {"longitude": -96.7708349, "latitude": 32.87936}, "categories": [{"alias": "tex-mex", "title": "Tex-Mex"}, {"alias": "mexican", "title": "Mexican"}], "review_count": 65, "location": {"city": "Dallas", "address1": "9665 N Central Expy", "address3": "", "address2": "Ste 142", "zip_code": "75231", "country": "US", "display_address": ["9665 N Central Expy", "Ste 142", "Dallas, TX 75231"], "state": "TX"}, "price": "$$", "transactions": [], "display_phone": "(972) 991-8148"}, {"rating": 3.5, "is_closed": false, "distance": 2682.7118437599997, "name": "WaiWai Kitchen", "id": "waiwai-kitchen-dallas-2", "image_url": "https://s3-media2.fl.yelpcdn.com/bphoto/qX4hvao92PmyCJcrWpWrLA/o.jpg", "url": "https://www.yelp.com/biz/waiwai-kitchen-dallas-2?adjust_creative=gBcvfFpabk3CnzmXKdYe3w&utm_campaign=yelp_api_v3&utm_medium=api_v3_business_search&utm_source=gBcvfFpabk3CnzmXKdYe3w", "phone": "+12145208868", "coordinates": {"longitude": -96.812201683984, "latitude": 32.816998315092}, "categories": [{"alias": "asianfusion", "title": "Asian Fusion"}], "review_count": 164, "location": {"city": "Dallas", "address1": "4315 Lemmon Ave", "address3": "", "address2": "", "zip_code": "75219", "country": "US", "display_address": ["4315 Lemmon Ave", "Dallas, TX 75219"], "state": "TX"}, "price": "$", "transactions": ["delivery", "pickup"], "display_phone": "(214) 520-8868"}, {"rating": 4.0, "is_closed": false, "distance": 6920.087970359999, "name": "Cindi's NY Delicatessen", "id": "cindis-ny-delicatessen-dallas-2", "image_url": "https://s3-media1.fl.yelpcdn.com/bphoto/Ru_2QQIku8fP3P0sdJzwrg/o.jpg", "url": "https://www.yelp.com/biz/cindis-ny-delicatessen-dallas-2?adjust_creative=gBcvfFpabk3CnzmXKdYe3w&utm_campaign=yelp_api_v3&utm_medium=api_v3_business_search&utm_source=gBcvfFpabk3CnzmXKdYe3w", "phone": "+12147444745", "coordinates": {"longitude": -96.806999, "latitude": 32.777048}, "categories": [{"alias": "delis", "title": "Delis"}, {"alias": "breakfast_brunch", "title": "Breakfast & Brunch"}], "review_count": 159, "location": {"city": "Dallas", "address1": "306 S Houston St", "address3": "", "address2": "", "zip_code": "75202", "country": "US", "display_address": ["306 S Houston St", "Dallas, TX 75202"], "state": "TX"}, "price": "$", "transactions": ["delivery", "pickup"], "display_phone": "(214) 744-4745"}]}