{"total": 32253, "region": {"center": {"longitude": -96.800537109375, "latitude": 32.839043482398054}}, "businesses": [{"rating": 4.5, "is_closed": false, "distance": 6276.698139394, "name": "Hide", "id": "hide-dallas", "image_url": "https://s3-media1.fl.yelpcdn.com/bphoto/-nsbu3fJM5aYZgxwnMFDDg/o.jpg", "url": "https://www.yelp.com/biz/hide-dallas?adjust_creative=gBcvfFpabk3CnzmXKdYe3w&utm_campaign=yelp_api_v3&utm_medium=api_v3_business_search&utm_source=gBcvfFpabk3CnzmXKdYe3w", "phone": "+19722101378", "coordinates": {"longitude": -96.78292, "latitude": 32.78455}, "categories": [{"alias": "cocktailbars", "title": "Cocktail Bars"}, {"alias": "tradamerican", "title": "American (Traditional)"}], "review_count": 43, "location": {"city": "Dallas", "address1": "2816 Elm St", "address3": null, "address2": "", "zip_code": "75226", "country": "US", "display_address": ["2816 Elm St", "Dallas, TX 75226"], "state": "TX"}, "price": "$$", "transactions": [], "display_phone": "(972) 210-1378"}, {"rating": 4.0, "is_closed": false, "distance": 2700.6658017339996, "name": "Paul Martin's American Grill", "id": "paul-martins-american-grill-dallas", "image_url": "https://s3-media3.fl.yelpcdn.com/bphoto/hsZ0sq88CcT874Y_Mco3wg/o.jpg", "url": "https://www.yelp.com/biz/paul-martins-american-grill-dallas?adjust_creative=gBcvfFpabk3CnzmXKdYe3w&utm_campaign=yelp_api_v3&utm_medium=api_v3_business_search&utm_source=gBcvfFpabk3CnzmXKdYe3w", "phone": "+12145210116", "coordinates": {"longitude": -96.8018831333376, "latitude": 32.8147826469774}, "categories": [{"alias": "newamerican", "title": "American (New)"}, {"alias": "steak", "title": "Steakhouses"}, {"alias": "seafood", "title": "Seafood"}], "review_count": 194, "location": {"city": "Dallas", "address1": "3848 Oak Lawn Ave", "address3": "", "address2": "Ste 210", "zip_code": "75219", "country": "US", "display_address": ["3848 Oak Lawn Ave", "Ste 210", "Dallas, TX 75219"], "state": "TX"}, "price": "$$", "transactions": [], "display_phone": "(214) 521-0116"}, {"rating": 4.0, "is_closed": false, "distance": 1971.575397088, "name": "Henry's Majestic", "id": "henrys-majestic-dallas", "image_url": "https://s3-media4.fl.yelpcdn.com/bphoto/c9v_tfWdMAkSKmkjbOXuJg/o.jpg", "url": "https://www.yelp.com/biz/henrys-majestic-dallas?adjust_creative=gBcvfFpabk3CnzmXKdYe3w&utm_campaign=yelp_api_v3&utm_medium=api_v3_business_search&utm_source=gBcvfFpabk3CnzmXKdYe3w", "phone": "+14698939400", "coordinates": {"longitude": -96.785089597106, "latitude": 32.8269634272736}, "categories": [{"alias": "bars", "title": "Bars"}, {"alias": "newamerican", "title": "American (New)"}], "review_count": 333, "location": {"city": "Dallas", "address1": "4900 McKinney Ave", "address3": "", "address2": "", "zip_code": "75205", "country": "US", "display_address": ["4900 McKinney Ave", "Dallas, TX 75205"], "state": "TX"}, "price": "$$", "transactions": [], "display_phone": "(469) 893-9400"}, {"rating": 4.0, "is_closed": false, "distance": 7956.512103597999, "name": "Lee Harvey's", "id": "lee-harveys-dallas", "image_url": "https://s3-media2.fl.yelpcdn.com/bphoto/7TfXWnfNQD6xEpUgw9MnZQ/o.jpg", "url": "https://www.yelp.com/biz/lee-harveys-dallas?adjust_creative=gBcvfFpabk3CnzmXKdYe3w&utm_campaign=yelp_api_v3&utm_medium=api_v3_business_search&utm_source=gBcvfFpabk3CnzmXKdYe3w", "phone": "+12144281555", "coordinates": {"longitude": -96.789566, "latitude": 32.768001}, "categories": [{"alias": "tradamerican", "title": "American (Traditional)"}, {"alias": "divebars", "title": "Dive Bars"}], "review_count": 344, "location": {"city": "Dallas", "address1": "1807 Gould St", "address3": "", "address2": null, "zip_code": "75215", "country": "US", "display_address": ["1807 Gould St", "Dallas, TX 75215"], "state": "TX"}, "price": "$", "transactions": [], "display_phone": "(214) 428-1555"}, {"rating": 4.0, "is_closed": false, "distance": 4598.461650257999, "name": "Urbano Cafe", "id": "urbano-cafe-dallas", "image_url": "https://s3-media2.fl.yelpcdn.com/bphoto/8fSrqv0aDzCkn5FrVBCG0A/o.jpg", "url": "https://www.yelp.com/biz/urbano-cafe-dallas?adjust_creative=gBcvfFpabk3CnzmXKdYe3w&utm_campaign=yelp_api_v3&utm_medium=api_v3_business_search&utm_source=gBcvfFpabk3CnzmXKdYe3w", "phone": "+12148238550", "coordinates": {"longitude": -96.77386, "latitude": 32.8043}, "categories": [{"alias": "italian", "title": "Italian"}], "review_count": 185, "location": {"city": "Dallas", "address1": "1410 C Fitzhugh", "address3": "", "address2": "", "zip_code": "75204", "country": "US", "display_address": ["1410 C Fitzhugh", "Dallas, TX 75204"], "state": "TX"}, "price": "$$", "transactions": [], "display_phone": "(214) 823-8550"}, {"rating": 4.5, "is_closed": false, "distance": 3553.869633718, "name": "Dragon Park", "id": "dragon-park-dallas", "image_url": "https://s3-media1.fl.yelpcdn.com/bphoto/8rGF-1qgXn6R-orsHSC2tw/o.jpg", "url": "https://www.yelp.com/biz/dragon-park-dallas?adjust_creative=gBcvfFpabk3CnzmXKdYe3w&utm_campaign=yelp_api_v3&utm_medium=api_v3_business_search&utm_source=gBcvfFpabk3CnzmXKdYe3w", "phone": "+12146704100", "coordinates": {"longitude": -96.806106, "latitude": 32.807426}, "categories": [{"alias": "parks", "title": "Parks"}], "review_count": 20, "location": {"city": "Dallas", "address1": "3520 Cedar Springs Rd", "address3": "", "address2": "", "zip_code": "75219", "country": "US", "display_address": ["3520 Cedar Springs Rd", "Dallas, TX 75219"], "state": "TX"}, "transactions": [], "display_phone": "(214) 670-4100"}, {"rating": 4.5, "is_closed": false, "distance": 2821.8940043199996, "name": "Poke' Bop", "id": "poke-bop-dallas-2", "image_url": "https://s3-media2.fl.yelpcdn.com/bphoto/3Ow54N6NVmIdE1ElIDuf0Q/o.jpg", "url": "https://www.yelp.com/biz/poke-bop-dallas-2?adjust_creative=gBcvfFpabk3CnzmXKdYe3w&utm_campaign=yelp_api_v3&utm_medium=api_v3_business_search&utm_source=gBcvfFpabk3CnzmXKdYe3w", "phone": "+12145217653", "coordinates": {"longitude": -96.8092891, "latitude": 32.8148119}, "categories": [{"alias": "poke", "title": "Poke"}, {"alias": "sushi", "title": "Sushi Bars"}, {"alias": "seafood", "title": "Seafood"}], "review_count": 63, "location": {"city": "Dallas", "address1": "4103 Lemmon Ave", "address3": "", "address2": null, "zip_code": "75219", "country": "US", "display_address": ["4103 Lemmon Ave", "Dallas, TX 75219"], "state": "TX"}, "price": "$$", "transactions": ["pickup"], "display_phone": "(214) 521-7653"}, {"rating": 4.0, "is_closed": false, "distance": 5365.978266083999, "name": "VERTS Mediterranean Grill", "id": "verts-mediterranean-grill-dallas", "image_url": "https://s3-media2.fl.yelpcdn.com/bphoto/EXDQ-fZQOc8kx3yVQBTHAg/o.jpg", "url": "https://www.yelp.com/biz/verts-mediterranean-grill-dallas?adjust_creative=gBcvfFpabk3CnzmXKdYe3w&utm_campaign=yelp_api_v3&utm_medium=api_v3_business_search&utm_source=gBcvfFpabk3CnzmXKdYe3w", "phone": "+14697262855", "coordinates": {"longitude": -96.7725610277863, "latitude": 32.8811927726935}, "categories": [{"alias": "mediterranean", "title": "Mediterranean"}, {"alias": "sandwiches", "title": "Sandwiches"}, {"alias": "salad", "title": "Salad"}], "review_count": 139, "location": {"city": "Dallas", "address1": "7949 Walnut Hill Ln", "address3": "", "address2": "", "zip_code": "75230", "country": "US", "display_address": ["7949 Walnut Hill Ln", "Dallas, TX 75230"], "state": "TX"}, "price": "$", "transactions": [], "display_phone": "(469) 726-2855"}, {"rating": 4.0, "is_closed": false, "distance": 4748.99014062, "name": "Lakewood Landing", "id": "lakewood-landing-dallas", "image_url": "https://s3-media4.fl.yelpcdn.com/bphoto/z2FYBigcd0f3kwweCNnYJA/o.jpg", "url": "https://www.yelp.com/biz/lakewood-landing-dallas?adjust_creative=gBcvfFpabk3CnzmXKdYe3w&utm_campaign=yelp_api_v3&utm_medium=api_v3_business_search&utm_source=gBcvfFpabk3CnzmXKdYe3w", "phone": "+12148232410", "coordinates": {"longitude": -96.761085, "latitude": 32.812068}, "categories": [{"alias": "divebars", "title": "Dive Bars"}, {"alias": "tradamerican", "title": "American (Traditional)"}], "review_count": 143, "location": {"city": "Dallas", "address1": "5818 Live Oak St", "address3": "", "address2": "", "zip_code": "75214", "country": "US", "display_address": ["5818 Live Oak St", "Dallas, TX 75214"], "state": "TX"}, "price": "$", "transactions": [], "display_phone": "(214) 823-2410"}, {"rating": 4.0, "is_closed": false, "distance": 1563.6254098279999, "name": "Food From Galilee", "id": "food-from-galilee-dallas", "image_url": "https://s3-media3.fl.yelpcdn.com/bphoto/izuvLnthtU5wkfmarSazfw/o.jpg", "url": "https://www.yelp.com/biz/food-from-galilee-dallas?adjust_creative=gBcvfFpabk3CnzmXKdYe3w&utm_campaign=yelp_api_v3&utm_medium=api_v3_business_search&utm_source=gBcvfFpabk3CnzmXKdYe3w", "phone": "+12147500330", "coordinates": {"longitude": -96.7875, "latitude": 32.8479699}, "categories": [{"alias": "mideastern", "title": "Middle Eastern"}, {"alias": "mediterranean", "title": "Mediterranean"}], "review_count": 95, "location": {"city": "Dallas", "address1": "6710 Snider Plz", "address3": "", "address2": "", "zip_code": "75205", "country": "US", "display_address": ["6710 Snider Plz", "Dallas, TX 75205"], "state": "TX"}, "price": "$", "transactions": [], "display_phone": "(214) 750-0330"}, {"rating": 4.0, "is_closed": false, "distance": 3625.9057842599996, "name": "Bellini's Italian Caf\u00e9 and Pizza", "id": "bellinis-italian-caf\u00e9-and-pizza-dallas-2", "image_url": "https://s3-media1.fl.yelpcdn.com/bphoto/RwsLfpypt7UuTIOHdjkSUg/o.jpg", "url": "https://www.yelp.com/biz/bellinis-italian-caf%C3%A9-and-pizza-dallas-2?adjust_creative=gBcvfFpabk3CnzmXKdYe3w&utm_campaign=yelp_api_v3&utm_medium=api_v3_business_search&utm_source=gBcvfFpabk3CnzmXKdYe3w", "phone": "+12145282844", "coordinates": {"longitude": -96.8112454232596, "latitude": 32.8077019886972}, "categories": [{"alias": "italian", "title": "Italian"}], "review_count": 235, "location": {"city": "Dallas", "address1": "3810 Congress Ave", "address3": "", "address2": "", "zip_code": "75219", "country": "US", "display_address": ["3810 Congress Ave", "Dallas, TX 75219"], "state": "TX"}, "price": "$$", "transactions": ["delivery"], "display_phone": "(214) 528-2844"}, {"rating": 4.5, "is_closed": false, "distance": 6177.544448918, "name": "Greek Isles Grille & Taverna", "id": "greek-isles-grille-and-taverna-dallas", "image_url": "https://s3-media3.fl.yelpcdn.com/bphoto/Yx7rr1u0iiUMK0-pFI_q0Q/o.jpg", "url": "https://www.yelp.com/biz/greek-isles-grille-and-taverna-dallas?adjust_creative=gBcvfFpabk3CnzmXKdYe3w&utm_campaign=yelp_api_v3&utm_medium=api_v3_business_search&utm_source=gBcvfFpabk3CnzmXKdYe3w", "phone": "+12142347662", "coordinates": {"longitude": -96.80556, "latitude": 32.89445}, "categories": [{"alias": "mediterranean", "title": "Mediterranean"}, {"alias": "greek", "title": "Greek"}, {"alias": "soup", "title": "Soup"}], "review_count": 41, "location": {"city": "Dallas", "address1": "5934 Royal Ln", "address3": "", "address2": "Ste 120", "zip_code": "75230", "country": "US", "display_address": ["5934 Royal Ln", "Ste 120", "Dallas, TX 75230"], "state": "TX"}, "price": "$$", "transactions": [], "display_phone": "(214) 234-7662"}, {"rating": 4.0, "is_closed": false, "distance": 2626.2956253899997, "name": "Bob's Steak & Chop House", "id": "bobs-steak-and-chop-house-dallas", "image_url": "https://s3-media2.fl.yelpcdn.com/bphoto/miuFJVvXJrVldAEN7gVMPg/o.jpg", "url": "https://www.yelp.com/biz/bobs-steak-and-chop-house-dallas?adjust_creative=gBcvfFpabk3CnzmXKdYe3w&utm_campaign=yelp_api_v3&utm_medium=api_v3_business_search&utm_source=gBcvfFpabk3CnzmXKdYe3w", "phone": "+12145289446", "coordinates": {"longitude": -96.8111190795898, "latitude": 32.8171653747559}, "categories": [{"alias": "steak", "title": "Steakhouses"}, {"alias": "seafood", "title": "Seafood"}], "review_count": 299, "location": {"city": "Dallas", "address1": "4300 Lemmon Ave", "address3": "", "address2": "", "zip_code": "75219", "country": "US", "display_address": ["4300 Lemmon Ave", "Dallas, TX 75219"], "state": "TX"}, "price": "$$$", "transactions": [], "display_phone": "(214) 528-9446"}, {"rating": 4.0, "is_closed": false, "distance": 2951.32758783, "name": "Lucky's Cafe", "id": "luckys-cafe-dallas-3", "image_url": "https://s3-media3.fl.yelpcdn.com/bphoto/rewEjRzE4OEXwYnRMlB9ng/o.jpg", "url": "https://www.yelp.com/biz/luckys-cafe-dallas-3?adjust_creative=gBcvfFpabk3CnzmXKdYe3w&utm_campaign=yelp_api_v3&utm_medium=api_v3_business_search&utm_source=gBcvfFpabk3CnzmXKdYe3w", "phone": "+12145223500", "coordinates": {"longitude": -96.8049942, "latitude": 32.8126465}, "categories": [{"alias": "tradamerican", "title": "American (Traditional)"}, {"alias": "breakfast_brunch", "title": "Breakfast & Brunch"}, {"alias": "cafes", "title": "Cafes"}], "review_count": 376, "location": {"city": "Dallas", "address1": "3531 Oak Lawn Ave", "address3": "", "address2": "", "zip_code": "75219", "country": "US", "display_address": ["3531 Oak Lawn Ave", "Dallas, TX 75219"], "state": "TX"}, "price": "$$", "transactions": ["delivery"], "display_phone": "(214) 522-3500"}, {"rating": 4.0, "is_closed": false, "distance": 3800.84667495, "name": "504 Bar and Grill", "id": "504-bar-and-grill-dallas", "image_url": "https://s3-media1.fl.yelpcdn.com/bphoto/6IZKHNEFfsRSKQy6MytLNA/o.jpg", "url": "https://www.yelp.com/biz/504-bar-and-grill-dallas?adjust_creative=gBcvfFpabk3CnzmXKdYe3w&utm_campaign=yelp_api_v3&utm_medium=api_v3_business_search&utm_source=gBcvfFpabk3CnzmXKdYe3w", "phone": "+14697797276", "coordinates": {"longitude": -96.7705299, "latitude": 32.81601}, "categories": [{"alias": "tradamerican", "title": "American (Traditional)"}, {"alias": "cajun", "title": "Cajun/Creole"}, {"alias": "sportsbars", "title": "Sports Bars"}], "review_count": 80, "location": {"city": "Dallas", "address1": "2121 Greenville Ave", "address3": "", "address2": "", "zip_code": "75206", "country": "US", "display_address": ["2121 Greenville Ave", "Dallas, TX 75206"], "state": "TX"}, "price": "$$", "transactions": ["pickup"], "display_phone": "(469) 779-7276"}, {"rating": 4.0, "is_closed": false, "distance": 3855.9662480819998, "name": "Campuzano Mexican Food", "id": "campuzano-mexican-food-dallas", "image_url": "https://s3-media3.fl.yelpcdn.com/bphoto/8cRaEy2NKkI2dU3COzxBlw/o.jpg", "url": "https://www.yelp.com/biz/campuzano-mexican-food-dallas?adjust_creative=gBcvfFpabk3CnzmXKdYe3w&utm_campaign=yelp_api_v3&utm_medium=api_v3_business_search&utm_source=gBcvfFpabk3CnzmXKdYe3w", "phone": "+12145260100", "coordinates": {"longitude": -96.812011, "latitude": 32.805732}, "categories": [{"alias": "mexican", "title": "Mexican"}, {"alias": "tex-mex", "title": "Tex-Mex"}], "review_count": 320, "location": {"city": "Dallas", "address1": "2618 Oak Lawn Ave", "address3": "", "address2": "", "zip_code": "75219", "country": "US", "display_address": ["2618 Oak Lawn Ave", "Dallas, TX 75219"], "state": "TX"}, "price": "$$", "transactions": [], "display_phone": "(214) 526-0100"}, {"rating": 4.0, "is_closed": false, "distance": 6439.124963177999, "name": "Angry Dog", "id": "angry-dog-dallas", "image_url": "https://s3-media1.fl.yelpcdn.com/bphoto/sdGcH6Ldb-tHyHQhL9SFeA/o.jpg", "url": "https://www.yelp.com/biz/angry-dog-dallas?adjust_creative=gBcvfFpabk3CnzmXKdYe3w&utm_campaign=yelp_api_v3&utm_medium=api_v3_business_search&utm_source=gBcvfFpabk3CnzmXKdYe3w", "phone": "+12147414406", "coordinates": {"longitude": -96.7835298, "latitude": 32.783003}, "categories": [{"alias": "bars", "title": "Bars"}, {"alias": "tradamerican", "title": "American (Traditional)"}], "review_count": 644, "location": {"city": "Dallas", "address1": "2726 Commerce St", "address3": "", "address2": "", "zip_code": "75226", "country": "US", "display_address": ["2726 Commerce St", "Dallas, TX 75226"], "state": "TX"}, "price": "$", "transactions": [], "display_phone": "(214) 741-4406"}, {"rating": 4.0, "is_closed": false, "distance": 3008.62813853, "name": "Sundown at Granada", "id": "sundown-at-granada-dallas-2", "image_url": "https://s3-media1.fl.yelpcdn.com/bphoto/bKh66jlEqEKZZFkjWipt8w/o.jpg", "url": "https://www.yelp.com/biz/sundown-at-granada-dallas-2?adjust_creative=gBcvfFpabk3CnzmXKdYe3w&utm_campaign=yelp_api_v3&utm_medium=api_v3_business_search&utm_source=gBcvfFpabk3CnzmXKdYe3w", "phone": "+12148238305", "coordinates": {"longitude": -96.769813, "latitude": 32.830581}, "categories": [{"alias": "newamerican", "title": "American (New)"}, {"alias": "venues", "title": "Venues & Event Spaces"}, {"alias": "musicvenues", "title": "Music Venues"}], "review_count": 347, "location": {"city": "Dallas", "address1": "3520 Greenville Ave", "address3": "", "address2": "", "zip_code": "75206", "country": "US", "display_address": ["3520 Greenville Ave", "Dallas, TX 75206"], "state": "TX"}, "price": "$$", "transactions": [], "display_phone": "(214) 823-8305"}, {"rating": 4.0, "is_closed": false, "distance": 2156.455410684, "name": "La Duni Latin Cafe", "id": "la-duni-latin-cafe-dallas", "image_url": "https://s3-media2.fl.yelpcdn.com/bphoto/o7ql2e3CZiQweMMSpTaAxw/o.jpg", "url": "https://www.yelp.com/biz/la-duni-latin-cafe-dallas?adjust_creative=gBcvfFpabk3CnzmXKdYe3w&utm_campaign=yelp_api_v3&utm_medium=api_v3_business_search&utm_source=gBcvfFpabk3CnzmXKdYe3w", "phone": "+12145207300", "coordinates": {"longitude": -96.7870652, "latitude": 32.8232664}, "categories": [{"alias": "latin", "title": "Latin American"}, {"alias": "breakfast_brunch", "title": "Breakfast & Brunch"}, {"alias": "mexican", "title": "Mexican"}], "review_count": 327, "location": {"city": "Dallas", "address1": "4620 McKinney Ave", "address3": "", "address2": "", "zip_code": "75205", "country": "US", "display_address": ["4620 McKinney Ave", "Dallas, TX 75205"], "state": "TX"}, "price": "$$", "transactions": [], "display_phone": "(214) 520-7300"}, {"rating": 4.0, "is_closed": false, "distance": 4188.152209624, "name": "Bazille", "id": "bazille-dallas", "image_url": "https://s3-media3.fl.yelpcdn.com/bphoto/RrZxbEQ5Ax1P--VEqvoXaw/o.jpg", "url": "https://www.yelp.com/biz/bazille-dallas?adjust_creative=gBcvfFpabk3CnzmXKdYe3w&utm_campaign=yelp_api_v3&utm_medium=api_v3_business_search&utm_source=gBcvfFpabk3CnzmXKdYe3w", "phone": "+12142313819", "coordinates": {"longitude": -96.7747426974302, "latitude": 32.8698498589401}, "categories": [{"alias": "newamerican", "title": "American (New)"}, {"alias": "french", "title": "French"}, {"alias": "brasseries", "title": "Brasseries"}], "review_count": 110, "location": {"city": "Dallas", "address1": "Nordstrom", "address3": "", "address2": "8687 N Central Expy", "zip_code": "75225", "country": "US", "display_address": ["Nordstrom", "8687 N Central Expy", "Dallas, TX 75225"], "state": "TX"}, "price": "$$", "transactions": [], "display_phone": "(214) 231-3819"}, {"rating": 4.0, "is_closed": false, "distance": 3224.722106096, "name": "Ai Sushi Sake Grill", "id": "ai-sushi-sake-grill-dallas", "image_url": "https://s3-media2.fl.yelpcdn.com/bphoto/OqEQhbPz3FS0ygom0qiLEg/o.jpg", "url": "https://www.yelp.com/biz/ai-sushi-sake-grill-dallas?adjust_creative=gBcvfFpabk3CnzmXKdYe3w&utm_campaign=yelp_api_v3&utm_medium=api_v3_business_search&utm_source=gBcvfFpabk3CnzmXKdYe3w", "phone": "+12144684587", "coordinates": {"longitude": -96.8126224477463, "latitude": 32.8118797650987}, "categories": [{"alias": "sushi", "title": "Sushi Bars"}, {"alias": "japanese", "title": "Japanese"}, {"alias": "asianfusion", "title": "Asian Fusion"}], "review_count": 230, "location": {"city": "Dallas", "address1": "4123 Cedar Springs Rd", "address3": "", "address2": "Ste 102", "zip_code": "75219", "country": "US", "display_address": ["4123 Cedar Springs Rd", "Ste 102", "Dallas, TX 75219"], "state": "TX"}, "price": "$$", "transactions": ["delivery", "pickup"], "display_phone": "(214) 468-4587"}, {"rating": 4.5, "is_closed": false, "distance": 6533.931665379999, "name": "Weekend Coffee", "id": "weekend-coffee-dallas", "image_url": "https://s3-media1.fl.yelpcdn.com/bphoto/55vsbBLtnzvJ-78ZI-5gWQ/o.jpg", "url": "https://www.yelp.com/biz/weekend-coffee-dallas?adjust_creative=gBcvfFpabk3CnzmXKdYe3w&utm_campaign=yelp_api_v3&utm_medium=api_v3_business_search&utm_source=gBcvfFpabk3CnzmXKdYe3w", "phone": "+12142614545", "coordinates": {"longitude": -96.798304, "latitude": 32.78031}, "categories": [{"alias": "coffee", "title": "Coffee & Tea"}, {"alias": "bakeries", "title": "Bakeries"}], "review_count": 107, "location": {"city": "Dallas", "address1": "1511 Commerce St", "address3": "Joule Hotel", "address2": "", "zip_code": "75201", "country": "US", "display_address": ["1511 Commerce St", "Joule Hotel", "Dallas, TX 75201"], "state": "TX"}, "price": "$$", "transactions": [], "display_phone": "(214) 261-4545"}, {"rating": 4.0, "is_closed": false, "distance": 3786.2404660439997, "name": "RollnGo", "id": "rollngo-dallas", "image_url": "https://s3-media2.fl.yelpcdn.com/bphoto/JnZ88_dD58RYK6KIaNb_lQ/o.jpg", "url": "https://www.yelp.com/biz/rollngo-dallas?adjust_creative=gBcvfFpabk3CnzmXKdYe3w&utm_campaign=yelp_api_v3&utm_medium=api_v3_business_search&utm_source=gBcvfFpabk3CnzmXKdYe3w", "phone": "+14695136321", "coordinates": {"longitude": -96.7679112037048, "latitude": 32.8592494235508}, "categories": [{"alias": "vietnamese", "title": "Vietnamese"}, {"alias": "desserts", "title": "Desserts"}, {"alias": "juicebars", "title": "Juice Bars & Smoothies"}], "review_count": 270, "location": {"city": "Dallas", "address1": "6110 Greenville Ave", "address3": "", "address2": "Ste 100", "zip_code": "75206", "country": "US", "display_address": ["6110 Greenville Ave", "Ste 100", "Dallas, TX 75206"], "state": "TX"}, "price": "$", "transactions": ["pickup", "delivery"], "display_phone": "(469) 513-6321"}, {"rating": 4.5, "is_closed": false, "distance": 6304.251005798, "name": "High and Tight Barbershop", "id": "high-and-tight-barbershop-dallas", "image_url": "https://s3-media3.fl.yelpcdn.com/bphoto/jVmiaKbR0tk74AX_a8xesg/o.jpg", "url": "https://www.yelp.com/biz/high-and-tight-barbershop-dallas?adjust_creative=gBcvfFpabk3CnzmXKdYe3w&utm_campaign=yelp_api_v3&utm_medium=api_v3_business_search&utm_source=gBcvfFpabk3CnzmXKdYe3w", "phone": "+12147411744", "coordinates": {"longitude": -96.7841679, "latitude": 32.784041}, "categories": [{"alias": "barbers", "title": "Barbers"}, {"alias": "cocktailbars", "title": "Cocktail Bars"}], "review_count": 67, "location": {"city": "Dallas", "address1": "2701 Main St", "address3": "Ste 180/190", "address2": "", "zip_code": "75226", "country": "US", "display_address": ["2701 Main St", "Ste 180/190", "Dallas, TX 75226"], "state": "TX"}, "price": "$$", "transactions": [], "display_phone": "(214) 741-1744"}, {"rating": 4.0, "is_closed": false, "distance": 3607.170813584, "name": "Avilas Mexican Restaurant", "id": "avilas-mexican-restaurant-dallas", "image_url": "https://s3-media3.fl.yelpcdn.com/bphoto/XeFmyTl3QMiQ7XBIPwjpzg/o.jpg", "url": "https://www.yelp.com/biz/avilas-mexican-restaurant-dallas?adjust_creative=gBcvfFpabk3CnzmXKdYe3w&utm_campaign=yelp_api_v3&utm_medium=api_v3_business_search&utm_source=gBcvfFpabk3CnzmXKdYe3w", "phone": "+12145202700", "coordinates": {"longitude": -96.825462, "latitude": 32.814266}, "categories": [{"alias": "mexican", "title": "Mexican"}], "review_count": 311, "location": {"city": "Dallas", "address1": "4714 Maple Ave", "address3": "", "address2": "", "zip_code": "75219", "country": "US", "display_address": ["4714 Maple Ave", "Dallas, TX 75219"], "state": "TX"}, "price": "$$", "transactions": [], "display_phone": "(214) 520-2700"}, {"rating": 4.0, "is_closed": false, "distance": 3441.7602734399998, "name": "Strangeways", "id": "strangeways-dallas", "image_url": "https://s3-media1.fl.yelpcdn.com/bphoto/IptQZ2UuIHiau-cOhmP72g/o.jpg", "url": "https://www.yelp.com/biz/strangeways-dallas?adjust_creative=gBcvfFpabk3CnzmXKdYe3w&utm_campaign=yelp_api_v3&utm_medium=api_v3_business_search&utm_source=gBcvfFpabk3CnzmXKdYe3w", "phone": "+12148237800", "coordinates": {"longitude": -96.7830963, "latitude": 32.8117294}, "categories": [{"alias": "newamerican", "title": "American (New)"}, {"alias": "bars", "title": "Bars"}], "review_count": 153, "location": {"city": "Dallas", "address1": "2429 N Fitzhugh Ave", "address3": "", "address2": "", "zip_code": "75204", "country": "US", "display_address": ["2429 N Fitzhugh Ave", "Dallas, TX 75204"], "state": "TX"}, "price": "$$", "transactions": [], "display_phone": "(214) 823-7800"}, {"rating": 4.0, "is_closed": false, "distance": 2704.075993194, "name": "SPIN! Neapolitan Pizza", "id": "spin-neapolitan-pizza-dallas", "image_url": "https://s3-media3.fl.yelpcdn.com/bphoto/Q9Ib_DJuay0f9OM5f724vg/o.jpg", "url": "https://www.yelp.com/biz/spin-neapolitan-pizza-dallas?adjust_creative=gBcvfFpabk3CnzmXKdYe3w&utm_campaign=yelp_api_v3&utm_medium=api_v3_business_search&utm_source=gBcvfFpabk3CnzmXKdYe3w", "phone": "+12143737746", "coordinates": {"longitude": -96.7718183102674, "latitude": 32.8420816241387}, "categories": [{"alias": "pizza", "title": "Pizza"}, {"alias": "italian", "title": "Italian"}], "review_count": 65, "location": {"city": "Dallas", "address1": "5627 SMU Blvd", "address3": "", "address2": "", "zip_code": "75206", "country": "US", "display_address": ["5627 SMU Blvd", "Dallas, TX 75206"], "state": "TX"}, "price": "$$", "transactions": [], "display_phone": "(214) 373-7746"}, {"rating": 4.0, "is_closed": false, "distance": 2117.2428759799996, "name": "TJ's Seafood Market", "id": "tjs-seafood-market-dallas-3", "image_url": "https://s3-media2.fl.yelpcdn.com/bphoto/RYLNDE-E2yrhMX6A7IzNpg/o.jpg", "url": "https://www.yelp.com/biz/tjs-seafood-market-dallas-3?adjust_creative=gBcvfFpabk3CnzmXKdYe3w&utm_campaign=yelp_api_v3&utm_medium=api_v3_business_search&utm_source=gBcvfFpabk3CnzmXKdYe3w", "phone": "+12142193474", "coordinates": {"longitude": -96.8023294955492, "latitude": 32.8201083093882}, "categories": [{"alias": "seafood", "title": "Seafood"}], "review_count": 113, "location": {"city": "Dallas", "address1": "4212 Oak Lawn", "address3": "", "address2": "", "zip_code": "75219", "country": "US", "display_address": ["4212 Oak Lawn", "Dallas, TX 75219"], "state": "TX"}, "price": "$$", "transactions": ["pickup"], "display_phone": "(214) 219-3474"}, {"rating": 4.5, "is_closed": false, "distance": 8657.01081287, "name": "Lounge Here", "id": "lounge-here-dallas", "image_url": "https://s3-media3.fl.yelpcdn.com/bphoto/6c5TIZ-OOUQtO_JlLCAIjQ/o.jpg", "url": "https://www.yelp.com/biz/lounge-here-dallas?adjust_creative=gBcvfFpabk3CnzmXKdYe3w&utm_campaign=yelp_api_v3&utm_medium=api_v3_business_search&utm_source=gBcvfFpabk3CnzmXKdYe3w", "phone": "+12142383374", "coordinates": {"longitude": -96.70886, "latitude": 32.82774}, "categories": [{"alias": "southern", "title": "Southern"}, {"alias": "cocktailbars", "title": "Cocktail Bars"}], "review_count": 48, "location": {"city": "Dallas", "address1": "9028 Garland Rd", "address3": null, "address2": "", "zip_code": "75218", "country": "US", "display_address": ["9028 Garland Rd", "Dallas, TX 75218"], "state": "TX"}, "price": "$$", "transactions": [], "display_phone": "(214) 238-3374"}, {"rating": 4.0, "is_closed": false, "distance": 5348.420688552, "name": "The Balcony Club", "id": "the-balcony-club-dallas-3", "image_url": "https://s3-media2.fl.yelpcdn.com/bphoto/cQExW0AJ4JFp1p39duiTqA/o.jpg", "url": "https://www.yelp.com/biz/the-balcony-club-dallas-3?adjust_creative=gBcvfFpabk3CnzmXKdYe3w&utm_campaign=yelp_api_v3&utm_medium=api_v3_business_search&utm_source=gBcvfFpabk3CnzmXKdYe3w", "phone": "+12148268104", "coordinates": {"longitude": -96.75321, "latitude": 32.81194}, "categories": [{"alias": "jazzandblues", "title": "Jazz & Blues"}, {"alias": "musicvenues", "title": "Music Venues"}, {"alias": "lounges", "title": "Lounges"}], "review_count": 114, "location": {"city": "Dallas", "address1": "1825 Abrams Rd", "address3": "", "address2": "Ste B", "zip_code": "75214", "country": "US", "display_address": ["1825 Abrams Rd", "Ste B", "Dallas, TX 75214"], "state": "TX"}, "price": "$$", "transactions": [], "display_phone": "(214) 826-8104"}, {"rating": 4.0, "is_closed": false, "distance": 2671.0698782, "name": "Salum Restaurant", "id": "salum-restaurant-dallas", "image_url": "https://s3-media3.fl.yelpcdn.com/bphoto/712Eaz8IzPbvP4fI9AocGQ/o.jpg", "url": "https://www.yelp.com/biz/salum-restaurant-dallas?adjust_creative=gBcvfFpabk3CnzmXKdYe3w&utm_campaign=yelp_api_v3&utm_medium=api_v3_business_search&utm_source=gBcvfFpabk3CnzmXKdYe3w", "phone": "+12142529604", "coordinates": {"longitude": -96.79228, "latitude": 32.81598}, "categories": [{"alias": "newamerican", "title": "American (New)"}], "review_count": 120, "location": {"city": "Dallas", "address1": "4152 Cole Ave", "address3": "", "address2": "Ste 103", "zip_code": "75204", "country": "US", "display_address": ["4152 Cole Ave", "Ste 103", "Dallas, TX 75204"], "state": "TX"}, "price": "$$$", "transactions": [], "display_phone": "(214) 252-9604"}, {"rating": 4.0, "is_closed": false, "distance": 3407.6853957519997, "name": "Royal Thai", "id": "royal-thai-dallas", "image_url": "https://s3-media1.fl.yelpcdn.com/bphoto/AA9hPMbl5-6mReUFW6Wmzw/o.jpg", "url": "https://www.yelp.com/biz/royal-thai-dallas?adjust_creative=gBcvfFpabk3CnzmXKdYe3w&utm_campaign=yelp_api_v3&utm_medium=api_v3_business_search&utm_source=gBcvfFpabk3CnzmXKdYe3w", "phone": "+12146913555", "coordinates": {"longitude": -96.7682750732477, "latitude": 32.8533398874752}, "categories": [{"alias": "thai", "title": "Thai"}], "review_count": 487, "location": {"city": "Dallas", "address1": "5500 Greenville Ave", "address3": "", "address2": "Ste 608", "zip_code": "75206", "country": "US", "display_address": ["5500 Greenville Ave", "Ste 608", "Dallas, TX 75206"], "state": "TX"}, "price": "$$", "transactions": ["delivery"], "display_phone": "(214) 691-3555"}, {"rating": 4.0, "is_closed": false, "distance": 2292.5741925539996, "name": "Mesero - Inwood Village", "id": "mesero-inwood-village-dallas-2", "image_url": "https://s3-media1.fl.yelpcdn.com/bphoto/dFzEAodvg1X9yb0Nb8Og5w/o.jpg", "url": "https://www.yelp.com/biz/mesero-inwood-village-dallas-2?adjust_creative=gBcvfFpabk3CnzmXKdYe3w&utm_campaign=yelp_api_v3&utm_medium=api_v3_business_search&utm_source=gBcvfFpabk3CnzmXKdYe3w", "phone": "+12146540185", "coordinates": {"longitude": -96.820876, "latitude": 32.8505776}, "categories": [{"alias": "mexican", "title": "Mexican"}, {"alias": "tex-mex", "title": "Tex-Mex"}], "review_count": 112, "location": {"city": "Dallas", "address1": "5330 W Lovers Ln", "address3": "", "address2": "Ste 112B", "zip_code": "75209", "country": "US", "display_address": ["5330 W Lovers Ln", "Ste 112B", "Dallas, TX 75209"], "state": "TX"}, "price": "$$", "transactions": [], "display_phone": "(214) 654-0185"}, {"rating": 4.0, "is_closed": false, "distance": 1449.48506247, "name": "Bandito's Tex-Mex Cantina", "id": "banditos-tex-mex-cantina-dallas", "image_url": "https://s3-media4.fl.yelpcdn.com/bphoto/dW8FRfHcJm2sdghrFS6Ixg/o.jpg", "url": "https://www.yelp.com/biz/banditos-tex-mex-cantina-dallas?adjust_creative=gBcvfFpabk3CnzmXKdYe3w&utm_campaign=yelp_api_v3&utm_medium=api_v3_business_search&utm_source=gBcvfFpabk3CnzmXKdYe3w", "phone": "+12147506100", "coordinates": {"longitude": -96.788261, "latitude": 32.84711}, "categories": [{"alias": "mexican", "title": "Mexican"}, {"alias": "tex-mex", "title": "Tex-Mex"}], "review_count": 116, "location": {"city": "Dallas", "address1": "6615 Snider Plz", "address3": "", "address2": "", "zip_code": "75205", "country": "US", "display_address": ["6615 Snider Plz", "Dallas, TX 75205"], "state": "TX"}, "price": "$$", "transactions": [], "display_phone": "(214) 750-6100"}, {"rating": 4.0, "is_closed": false, "distance": 6385.596705438, "name": "Murray Street Coffee Shop", "id": "murray-street-coffee-shop-dallas", "image_url": "https://s3-media2.fl.yelpcdn.com/bphoto/63ib6Zgr5K8fsabsgPF6Tg/o.jpg", "url": "https://www.yelp.com/biz/murray-street-coffee-shop-dallas?adjust_creative=gBcvfFpabk3CnzmXKdYe3w&utm_campaign=yelp_api_v3&utm_medium=api_v3_business_search&utm_source=gBcvfFpabk3CnzmXKdYe3w", "phone": "+12146552808", "coordinates": {"longitude": -96.7777695, "latitude": 32.7848976}, "categories": [{"alias": "coffee", "title": "Coffee & Tea"}, {"alias": "sandwiches", "title": "Sandwiches"}], "review_count": 173, "location": {"city": "Dallas", "address1": "103 Murray St", "address3": "", "address2": "", "zip_code": "75226", "country": "US", "display_address": ["103 Murray St", "Dallas, TX 75226"], "state": "TX"}, "price": "$", "transactions": [], "display_phone": "(214) 655-2808"}, {"rating": 4.0, "is_closed": false, "distance": 2458.815795874, "name": "Ivy Tavern", "id": "ivy-tavern-dallas", "image_url": "https://s3-media1.fl.yelpcdn.com/bphoto/qSfUnHX1M4uYRzJWR_YIpg/o.jpg", "url": "https://www.yelp.com/biz/ivy-tavern-dallas?adjust_creative=gBcvfFpabk3CnzmXKdYe3w&utm_campaign=yelp_api_v3&utm_medium=api_v3_business_search&utm_source=gBcvfFpabk3CnzmXKdYe3w", "phone": "+12145594424", "coordinates": {"longitude": -96.8225098, "latitude": 32.826931}, "categories": [{"alias": "divebars", "title": "Dive Bars"}], "review_count": 121, "location": {"city": "Dallas", "address1": "5334 Lemmon Ave", "address3": "", "address2": "", "zip_code": "75209", "country": "US", "display_address": ["5334 Lemmon Ave", "Dallas, TX 75209"], "state": "TX"}, "price": "$$", "transactions": [], "display_phone": "(214) 559-4424"}, {"rating": 4.0, "is_closed": false, "distance": 3851.4403012, "name": "Rapscallion", "id": "rapscallion-dallas", "image_url": "https://s3-media1.fl.yelpcdn.com/bphoto/cadaHKVOcAqk3dMwvjh5gg/o.jpg", "url": "https://www.yelp.com/biz/rapscallion-dallas?adjust_creative=gBcvfFpabk3CnzmXKdYe3w&utm_campaign=yelp_api_v3&utm_medium=api_v3_business_search&utm_source=gBcvfFpabk3CnzmXKdYe3w", "phone": "+14692915660", "coordinates": {"longitude": -96.77034, "latitude": 32.81528}, "categories": [{"alias": "newamerican", "title": "American (New)"}, {"alias": "bars", "title": "Bars"}], "review_count": 239, "location": {"city": "Dallas", "address1": "2023 Greenville Ave", "address3": "", "address2": "Ste 110", "zip_code": "75206", "country": "US", "display_address": ["2023 Greenville Ave", "Ste 110", "Dallas, TX 75206"], "state": "TX"}, "price": "$$", "transactions": [], "display_phone": "(469) 291-5660"}, {"rating": 4.0, "is_closed": false, "distance": 4577.44737134, "name": "Taco Joint", "id": "taco-joint-dallas", "image_url": "https://s3-media4.fl.yelpcdn.com/bphoto/OgQgVok_Qcgn8WVobp04ow/o.jpg", "url": "https://www.yelp.com/biz/taco-joint-dallas?adjust_creative=gBcvfFpabk3CnzmXKdYe3w&utm_campaign=yelp_api_v3&utm_medium=api_v3_business_search&utm_source=gBcvfFpabk3CnzmXKdYe3w", "phone": "+12148218226", "coordinates": {"longitude": -96.7516750883746, "latitude": 32.8359759916724}, "categories": [{"alias": "tex-mex", "title": "Tex-Mex"}], "review_count": 196, "location": {"city": "Dallas", "address1": "6434 E Mockingbird Ln", "address3": "", "address2": "", "zip_code": "75214", "country": "US", "display_address": ["6434 E Mockingbird Ln", "Dallas, TX 75214"], "state": "TX"}, "price": "$", "transactions": [], "display_phone": "(214) 821-8226"}, {"rating": 4.0, "is_closed": false, "distance": 5574.854665618, "name": "Nammi Truck", "id": "nammi-truck-dallas", "image_url": "https://s3-media3.fl.yelpcdn.com/bphoto/U6v1Npf-FIY_zQ3uaxGp5A/o.jpg", "url": "https://www.yelp.com/biz/nammi-truck-dallas?adjust_creative=gBcvfFpabk3CnzmXKdYe3w&utm_campaign=yelp_api_v3&utm_medium=api_v3_business_search&utm_source=gBcvfFpabk3CnzmXKdYe3w", "phone": "+19722522052", "coordinates": {"longitude": -96.801209003428, "latitude": 32.7889101735486}, "categories": [{"alias": "vietnamese", "title": "Vietnamese"}, {"alias": "foodtrucks", "title": "Food Trucks"}], "review_count": 220, "location": {"city": "Dallas", "address1": "", "address3": "", "address2": "", "zip_code": "75206", "country": "US", "display_address": ["Dallas, TX 75206"], "state": "TX"}, "price": "$", "transactions": [], "display_phone": "(972) 252-2052"}, {"rating": 4.0, "is_closed": false, "distance": 4997.19221146, "name": "Nobu Dallas", "id": "nobu-dallas-dallas", "image_url": "https://s3-media4.fl.yelpcdn.com/bphoto/zbntNlqKzPK6rRzgAvAdVQ/o.jpg", "url": "https://www.yelp.com/biz/nobu-dallas-dallas?adjust_creative=gBcvfFpabk3CnzmXKdYe3w&utm_campaign=yelp_api_v3&utm_medium=api_v3_business_search&utm_source=gBcvfFpabk3CnzmXKdYe3w", "phone": "+12142527000", "coordinates": {"longitude": -96.80394603366, "latitude": 32.794194821906}, "categories": [{"alias": "japanese", "title": "Japanese"}], "review_count": 374, "location": {"city": "Dallas", "address1": "400 Crescent Ct", "address3": "", "address2": null, "zip_code": "75201", "country": "US", "display_address": ["400 Crescent Ct", "Dallas, TX 75201"], "state": "TX"}, "price": "$$$$", "transactions": [], "display_phone": "(214) 252-7000"}, {"rating": 4.0, "is_closed": false, "distance": 6261.230289851999, "name": "Three Links", "id": "three-links-dallas", "image_url": "https://s3-media3.fl.yelpcdn.com/bphoto/Lyk2EewL0B-BLMJNpzZWhw/o.jpg", "url": "https://www.yelp.com/biz/three-links-dallas?adjust_creative=gBcvfFpabk3CnzmXKdYe3w&utm_campaign=yelp_api_v3&utm_medium=api_v3_business_search&utm_source=gBcvfFpabk3CnzmXKdYe3w", "phone": "+12146538228", "coordinates": {"longitude": -96.784575471399, "latitude": 32.7843556076681}, "categories": [{"alias": "bars", "title": "Bars"}, {"alias": "musicvenues", "title": "Music Venues"}], "review_count": 46, "location": {"city": "Dallas", "address1": "2704 Elm St", "address3": "", "address2": "", "zip_code": "75226", "country": "US", "display_address": ["2704 Elm St", "Dallas, TX 75226"], "state": "TX"}, "price": "$", "transactions": [], "display_phone": "(214) 653-8228"}, {"rating": 4.0, "is_closed": false, "distance": 4756.190005912, "name": "Cosmo's Bar & Lounge", "id": "cosmos-bar-and-lounge-dallas", "image_url": "https://s3-media1.fl.yelpcdn.com/bphoto/gMYpp56ZZ4Q5WGjNAUrTWQ/o.jpg", "url": "https://www.yelp.com/biz/cosmos-bar-and-lounge-dallas?adjust_creative=gBcvfFpabk3CnzmXKdYe3w&utm_campaign=yelp_api_v3&utm_medium=api_v3_business_search&utm_source=gBcvfFpabk3CnzmXKdYe3w", "phone": "+12148264200", "coordinates": {"longitude": -96.76154, "latitude": 32.81166}, "categories": [{"alias": "pizza", "title": "Pizza"}, {"alias": "divebars", "title": "Dive Bars"}], "review_count": 150, "location": {"city": "Dallas", "address1": "1212 Skillman St", "address3": "", "address2": "", "zip_code": "75206", "country": "US", "display_address": ["1212 Skillman St", "Dallas, TX 75206"], "state": "TX"}, "price": "$", "transactions": [], "display_phone": "(214) 826-4200"}, {"rating": 4.0, "is_closed": false, "distance": 2309.516841272, "name": "Shinsei", "id": "shinsei-dallas", "image_url": "https://s3-media1.fl.yelpcdn.com/bphoto/wXtxCcQw6yqpjpmxzKJyrg/o.jpg", "url": "https://www.yelp.com/biz/shinsei-dallas?adjust_creative=gBcvfFpabk3CnzmXKdYe3w&utm_campaign=yelp_api_v3&utm_medium=api_v3_business_search&utm_source=gBcvfFpabk3CnzmXKdYe3w", "phone": "+12143520005", "coordinates": {"longitude": -96.821647, "latitude": 32.84999}, "categories": [{"alias": "asianfusion", "title": "Asian Fusion"}, {"alias": "sushi", "title": "Sushi Bars"}], "review_count": 200, "location": {"city": "Dallas", "address1": "7713 Inwood Rd", "address3": "", "address2": null, "zip_code": "75209", "country": "US", "display_address": ["7713 Inwood Rd", "Dallas, TX 75209"], "state": "TX"}, "price": "$$$", "transactions": [], "display_phone": "(214) 352-0005"}, {"rating": 4.0, "is_closed": false, "distance": 2260.71392764, "name": "The People's Last Stand", "id": "the-peoples-last-stand-dallas-3", "image_url": "https://s3-media3.fl.yelpcdn.com/bphoto/8O_7Zhs9I4Rcbf3YsphcUQ/o.jpg", "url": "https://www.yelp.com/biz/the-peoples-last-stand-dallas-3?adjust_creative=gBcvfFpabk3CnzmXKdYe3w&utm_campaign=yelp_api_v3&utm_medium=api_v3_business_search&utm_source=gBcvfFpabk3CnzmXKdYe3w", "phone": "+12143708755", "coordinates": {"longitude": -96.7774429, "latitude": 32.8368111}, "categories": [{"alias": "bars", "title": "Bars"}, {"alias": "newamerican", "title": "American (New)"}], "review_count": 265, "location": {"city": "Dallas", "address1": "5319 E Mockingbird Ln", "address3": "", "address2": "Ste 210", "zip_code": "75206", "country": "US", "display_address": ["5319 E Mockingbird Ln", "Ste 210", "Dallas, TX 75206"], "state": "TX"}, "price": "$$", "transactions": [], "display_phone": "(214) 370-8755"}, {"rating": 4.5, "is_closed": false, "distance": 9392.70852382, "name": "Maple Leaf Diner", "id": "maple-leaf-diner-dallas", "image_url": "https://s3-media3.fl.yelpcdn.com/bphoto/Ipkf51CwYaNwMFOSS8BdcQ/o.jpg", "url": "https://www.yelp.com/biz/maple-leaf-diner-dallas?adjust_creative=gBcvfFpabk3CnzmXKdYe3w&utm_campaign=yelp_api_v3&utm_medium=api_v3_business_search&utm_source=gBcvfFpabk3CnzmXKdYe3w", "phone": "+12144341626", "coordinates": {"longitude": -96.8052704544027, "latitude": 32.923420738701}, "categories": [{"alias": "tradamerican", "title": "American (Traditional)"}, {"alias": "breakfast_brunch", "title": "Breakfast & Brunch"}, {"alias": "diners", "title": "Diners"}], "review_count": 548, "location": {"city": "Dallas", "address1": "12817 Preston Rd", "address3": "", "address2": "Ste 129", "zip_code": "75230", "country": "US", "display_address": ["12817 Preston Rd", "Ste 129", "Dallas, TX 75230"], "state": "TX"}, "price": "$$", "transactions": [], "display_phone": "(214) 434-1626"}, {"rating": 4.0, "is_closed": false, "distance": 3904.873286012, "name": "Zaguan Bakery & Cafe", "id": "zaguan-bakery-and-cafe-dallas-2", "image_url": "https://s3-media2.fl.yelpcdn.com/bphoto/jaWpo7XeOzi6l0plX91vwg/o.jpg", "url": "https://www.yelp.com/biz/zaguan-bakery-and-cafe-dallas-2?adjust_creative=gBcvfFpabk3CnzmXKdYe3w&utm_campaign=yelp_api_v3&utm_medium=api_v3_business_search&utm_source=gBcvfFpabk3CnzmXKdYe3w", "phone": "+12142198393", "coordinates": {"longitude": -96.8124, "latitude": 32.80543}, "categories": [{"alias": "bakeries", "title": "Bakeries"}, {"alias": "coffee", "title": "Coffee & Tea"}, {"alias": "venezuelan", "title": "Venezuelan"}], "review_count": 331, "location": {"city": "Dallas", "address1": "2604 Oak Lawn Ave", "address3": "", "address2": "", "zip_code": "75219", "country": "US", "display_address": ["2604 Oak Lawn Ave", "Dallas, TX 75219"], "state": "TX"}, "price": "$$", "transactions": ["delivery", "pickup"], "display_phone": "(214) 219-8393"}, {"rating": 4.0, "is_closed": false, "distance": 3014.65350749, "name": "Pappadeaux Seafood Kitchen", "id": "pappadeaux-seafood-kitchen-dallas-5", "image_url": "https://s3-media1.fl.yelpcdn.com/bphoto/oOz1Nz-45J_pJKwV1e-pVg/o.jpg", "url": "https://www.yelp.com/biz/pappadeaux-seafood-kitchen-dallas-5?adjust_creative=gBcvfFpabk3CnzmXKdYe3w&utm_campaign=yelp_api_v3&utm_medium=api_v3_business_search&utm_source=gBcvfFpabk3CnzmXKdYe3w", "phone": "+12145214700", "coordinates": {"longitude": -96.80471, "latitude": 32.81227}, "categories": [{"alias": "cajun", "title": "Cajun/Creole"}, {"alias": "seafood", "title": "Seafood"}], "review_count": 360, "location": {"city": "Dallas", "address1": "3520 Oak Lawn Ave", "address3": "", "address2": "", "zip_code": "75219", "country": "US", "display_address": ["3520 Oak Lawn Ave", "Dallas, TX 75219"], "state": "TX"}, "price": "$$", "transactions": ["delivery"], "display_phone": "(214) 521-4700"}, {"rating": 4.0, "is_closed": false, "distance": 4634.269787126, "name": "Sakhuu Thai Cuisine", "id": "sakhuu-thai-cuisine-dallas", "image_url": "https://s3-media2.fl.yelpcdn.com/bphoto/pNtlnvuysOddgI8kgigmXQ/o.jpg", "url": "https://www.yelp.com/biz/sakhuu-thai-cuisine-dallas?adjust_creative=gBcvfFpabk3CnzmXKdYe3w&utm_campaign=yelp_api_v3&utm_medium=api_v3_business_search&utm_source=gBcvfFpabk3CnzmXKdYe3w", "phone": "+12148289300", "coordinates": {"longitude": -96.7744390508806, "latitude": 32.8036031544045}, "categories": [{"alias": "thai", "title": "Thai"}], "review_count": 107, "location": {"city": "Dallas", "address1": "4801 Bryan St", "address3": "", "address2": "Ste 100", "zip_code": "75204", "country": "US", "display_address": ["4801 Bryan St", "Ste 100", "Dallas, TX 75204"], "state": "TX"}, "price": "$$", "transactions": [], "display_phone": "(214) 828-9300"}, {"rating": 4.0, "is_closed": false, "distance": 5197.892680991999, "name": "Whole Foods Market", "id": "whole-foods-market-dallas-7", "image_url": "https://s3-media1.fl.yelpcdn.com/bphoto/mz8dqARi_rjItsr12oe-GQ/o.jpg", "url": "https://www.yelp.com/biz/whole-foods-market-dallas-7?adjust_creative=gBcvfFpabk3CnzmXKdYe3w&utm_campaign=yelp_api_v3&utm_medium=api_v3_business_search&utm_source=gBcvfFpabk3CnzmXKdYe3w", "phone": "+12148241744", "coordinates": {"longitude": -96.7522426835206, "latitude": 32.8158426779803}, "categories": [{"alias": "grocery", "title": "Grocery"}, {"alias": "healthmarkets", "title": "Health Markets"}, {"alias": "coffee", "title": "Coffee & Tea"}], "review_count": 135, "location": {"city": "Dallas", "address1": "2118 Abrams Rd.", "address3": "", "address2": "", "zip_code": "75214", "country": "US", "display_address": ["2118 Abrams Rd.", "Dallas, TX 75214"], "state": "TX"}, "price": "$$", "transactions": [], "display_phone": "(214) 824-1744"}, {"rating": 4.0, "is_closed": false, "distance": 6559.73743228, "name": "WingBucket", "id": "wingbucket-dallas", "image_url": "https://s3-media2.fl.yelpcdn.com/bphoto/tPV629pmgfWQmu3okDOMWg/o.jpg", "url": "https://www.yelp.com/biz/wingbucket-dallas?adjust_creative=gBcvfFpabk3CnzmXKdYe3w&utm_campaign=yelp_api_v3&utm_medium=api_v3_business_search&utm_source=gBcvfFpabk3CnzmXKdYe3w", "phone": "+12147609491", "coordinates": {"longitude": -96.8015836662705, "latitude": 32.7800568007201}, "categories": [{"alias": "chicken_wings", "title": "Chicken Wings"}, {"alias": "chickenshop", "title": "Chicken Shop"}], "review_count": 292, "location": {"city": "Dallas", "address1": "1200 Main St", "address3": "", "address2": "", "zip_code": "75202", "country": "US", "display_address": ["1200 Main St", "Dallas, TX 75202"], "state": "TX"}, "price": "$$", "transactions": ["delivery", "pickup"], "display_phone": "(214) 760-9491"}]}