{"total": 32251, "region": {"center": {"longitude": -96.800537109375, "latitude": 32.839043482398054}}, "businesses": [{"rating": 5.0, "is_closed": false, "distance": 12659.00969909, "name": "Elite Event: Lazy Dog's Seasonal Social", "id": "elite-event-lazy-dogs-seasonal-social-dallas", "image_url": "https://s3-media3.fl.yelpcdn.com/bphoto/Wt-lECLys45KzY2VMfaJ-g/o.jpg", "url": "https://www.yelp.com/biz/elite-event-lazy-dogs-seasonal-social-dallas?adjust_creative=gBcvfFpabk3CnzmXKdYe3w&utm_campaign=yelp_api_v3&utm_medium=api_v3_business_search&utm_source=gBcvfFpabk3CnzmXKdYe3w", "phone": "", "coordinates": {"longitude": -96.820648, "latitude": 32.951553}, "categories": [{"alias": "yelpevents", "title": "Yelp Events"}], "review_count": 36, "location": {"city": "Dallas", "address1": "5100 Belt Line Rd", "address3": null, "address2": "Ste 500", "zip_code": "75254", "country": "US", "display_address": ["5100 Belt Line Rd", "Ste 500", "Dallas, TX 75254"], "state": "TX"}, "transactions": [], "display_phone": ""}, {"rating": 4.0, "is_closed": false, "distance": 3297.6834662039996, "name": "JR's Bar & Grill", "id": "jrs-bar-and-grill-dallas", "image_url": "https://s3-media3.fl.yelpcdn.com/bphoto/oknNOin_7asvFEdAZ4yxJA/o.jpg", "url": "https://www.yelp.com/biz/jrs-bar-and-grill-dallas?adjust_creative=gBcvfFpabk3CnzmXKdYe3w&utm_campaign=yelp_api_v3&utm_medium=api_v3_business_search&utm_source=gBcvfFpabk3CnzmXKdYe3w", "phone": "+12145281004", "coordinates": {"longitude": -96.8112723033775, "latitude": 32.810789971537}, "categories": [{"alias": "gaybars", "title": "Gay Bars"}, {"alias": "newamerican", "title": "American (New)"}], "review_count": 73, "location": {"city": "Dallas", "address1": "3923 Cedar Springs Rd", "address3": "", "address2": null, "zip_code": "75219", "country": "US", "display_address": ["3923 Cedar Springs Rd", "Dallas, TX 75219"], "state": "TX"}, "price": "$", "transactions": [], "display_phone": "(214) 528-1004"}, {"rating": 4.0, "is_closed": false, "distance": 2586.760418016, "name": "Time Out Tavern", "id": "time-out-tavern-dallas-2", "image_url": "https://s3-media3.fl.yelpcdn.com/bphoto/pUp4c-zrrtAla5KRq-X5FA/o.jpg", "url": "https://www.yelp.com/biz/time-out-tavern-dallas-2?adjust_creative=gBcvfFpabk3CnzmXKdYe3w&utm_campaign=yelp_api_v3&utm_medium=api_v3_business_search&utm_source=gBcvfFpabk3CnzmXKdYe3w", "phone": "+12149569552", "coordinates": {"longitude": -96.8238906860352, "latitude": 32.8515014648438}, "categories": [{"alias": "divebars", "title": "Dive Bars"}, {"alias": "sportsbars", "title": "Sports Bars"}], "review_count": 35, "location": {"city": "Dallas", "address1": "5101 W Lovers Ln", "address3": "", "address2": "", "zip_code": "75209", "country": "US", "display_address": ["5101 W Lovers Ln", "Dallas, TX 75209"], "state": "TX"}, "price": "$", "transactions": [], "display_phone": "(214) 956-9552"}, {"rating": 4.0, "is_closed": false, "distance": 3201.987603652, "name": "Alexandre's", "id": "alexandres-dallas", "image_url": "https://s3-media2.fl.yelpcdn.com/bphoto/iyH6vtYTma53tZV8dtoTLA/o.jpg", "url": "https://www.yelp.com/biz/alexandres-dallas?adjust_creative=gBcvfFpabk3CnzmXKdYe3w&utm_campaign=yelp_api_v3&utm_medium=api_v3_business_search&utm_source=gBcvfFpabk3CnzmXKdYe3w", "phone": "+12145590720", "coordinates": {"longitude": -96.8118765, "latitude": 32.8117016}, "categories": [{"alias": "gaybars", "title": "Gay Bars"}, {"alias": "musicvenues", "title": "Music Venues"}], "review_count": 29, "location": {"city": "Dallas", "address1": "4026 Cedar Springs Rd", "address3": "", "address2": null, "zip_code": "75219", "country": "US", "display_address": ["4026 Cedar Springs Rd", "Dallas, TX 75219"], "state": "TX"}, "price": "$", "transactions": [], "display_phone": "(214) 559-0720"}, {"rating": 4.5, "is_closed": false, "distance": 2113.773782676, "name": "Westminster Dog Park", "id": "westminster-dog-park-dallas", "image_url": "https://s3-media1.fl.yelpcdn.com/bphoto/fpqxc8hwD01IqpJhI5slBQ/o.jpg", "url": "https://www.yelp.com/biz/westminster-dog-park-dallas?adjust_creative=gBcvfFpabk3CnzmXKdYe3w&utm_campaign=yelp_api_v3&utm_medium=api_v3_business_search&utm_source=gBcvfFpabk3CnzmXKdYe3w", "phone": "", "coordinates": {"longitude": -96.8137579633794, "latitude": 32.8544697476687}, "categories": [{"alias": "dog_parks", "title": "Dog Parks"}], "review_count": 10, "location": {"city": "Dallas", "address1": "8200 Devonshire Dr", "address3": "", "address2": "", "zip_code": "75209", "country": "US", "display_address": ["8200 Devonshire Dr", "Dallas, TX 75209"], "state": "TX"}, "transactions": [], "display_phone": ""}, {"rating": 4.0, "is_closed": false, "distance": 3888.8188320399995, "name": "High Fives", "id": "high-fives-dallas", "image_url": "https://s3-media3.fl.yelpcdn.com/bphoto/325YY0qzNiLMUby-q0aLAQ/o.jpg", "url": "https://www.yelp.com/biz/high-fives-dallas?adjust_creative=gBcvfFpabk3CnzmXKdYe3w&utm_campaign=yelp_api_v3&utm_medium=api_v3_business_search&utm_source=gBcvfFpabk3CnzmXKdYe3w", "phone": "+12148215555", "coordinates": {"longitude": -96.7744140625, "latitude": 32.8118171691895}, "categories": [{"alias": "bars", "title": "Bars"}, {"alias": "sandwiches", "title": "Sandwiches"}], "review_count": 70, "location": {"city": "Dallas", "address1": "1804 McMillan", "address3": "", "address2": "", "zip_code": "75206", "country": "US", "display_address": ["1804 McMillan", "Dallas, TX 75206"], "state": "TX"}, "price": "$$", "transactions": [], "display_phone": "(214) 821-5555"}, {"rating": 4.0, "is_closed": false, "distance": 7786.328904749999, "name": "Ziziki's Restaurants", "id": "zizikis-restaurants-dallas", "image_url": "https://s3-media2.fl.yelpcdn.com/bphoto/OF9q_g68PYdBz6W1DJCCKA/o.jpg", "url": "https://www.yelp.com/biz/zizikis-restaurants-dallas?adjust_creative=gBcvfFpabk3CnzmXKdYe3w&utm_campaign=yelp_api_v3&utm_medium=api_v3_business_search&utm_source=gBcvfFpabk3CnzmXKdYe3w", "phone": "+14692329922", "coordinates": {"longitude": -96.8049273802872, "latitude": 32.9089696838048}, "categories": [{"alias": "greek", "title": "Greek"}, {"alias": "mediterranean", "title": "Mediterranean"}, {"alias": "italian", "title": "Italian"}], "review_count": 125, "location": {"city": "Dallas", "address1": "11661 Preston Rd", "address3": "", "address2": "Ste 309", "zip_code": "75230", "country": "US", "display_address": ["11661 Preston Rd", "Ste 309", "Dallas, TX 75230"], "state": "TX"}, "price": "$$", "transactions": ["pickup"], "display_phone": "(469) 232-9922"}, {"rating": 4.0, "is_closed": false, "distance": 9207.029311979999, "name": "Havana Cafe", "id": "havana-cafe-dallas", "image_url": "https://s3-media2.fl.yelpcdn.com/bphoto/1Kt_-crccDQbNYwg2NKNdg/o.jpg", "url": "https://www.yelp.com/biz/havana-cafe-dallas?adjust_creative=gBcvfFpabk3CnzmXKdYe3w&utm_campaign=yelp_api_v3&utm_medium=api_v3_business_search&utm_source=gBcvfFpabk3CnzmXKdYe3w", "phone": "+12146609611", "coordinates": {"longitude": -96.7021529494065, "latitude": 32.8342437201596}, "categories": [{"alias": "cuban", "title": "Cuban"}, {"alias": "desserts", "title": "Desserts"}, {"alias": "coffee", "title": "Coffee & Tea"}], "review_count": 195, "location": {"city": "Dallas", "address1": "1152 Buckner Blvd", "address3": "", "address2": "Ste J-126", "zip_code": "75218", "country": "US", "display_address": ["1152 Buckner Blvd", "Ste J-126", "Dallas, TX 75218"], "state": "TX"}, "price": "$$", "transactions": [], "display_phone": "(214) 660-9611"}, {"rating": 3.5, "is_closed": false, "distance": 2064.9243591179998, "name": "Bread Winners Cafe & Bakery", "id": "bread-winners-cafe-and-bakery-dallas-5", "image_url": "https://s3-media1.fl.yelpcdn.com/bphoto/FV4t7LNMMaSeHQzJD0ni-A/o.jpg", "url": "https://www.yelp.com/biz/bread-winners-cafe-and-bakery-dallas-5?adjust_creative=gBcvfFpabk3CnzmXKdYe3w&utm_campaign=yelp_api_v3&utm_medium=api_v3_business_search&utm_source=gBcvfFpabk3CnzmXKdYe3w", "phone": "+12143513339", "coordinates": {"longitude": -96.8181967735291, "latitude": 32.8502089910673}, "categories": [{"alias": "breakfast_brunch", "title": "Breakfast & Brunch"}, {"alias": "bakeries", "title": "Bakeries"}, {"alias": "newamerican", "title": "American (New)"}], "review_count": 275, "location": {"city": "Dallas", "address1": "5560 W Lovers Ln", "address3": "", "address2": "", "zip_code": "75209", "country": "US", "display_address": ["5560 W Lovers Ln", "Dallas, TX 75209"], "state": "TX"}, "price": "$$", "transactions": ["delivery"], "display_phone": "(214) 351-3339"}, {"rating": 4.5, "is_closed": false, "distance": 10306.1087529, "name": "Greek Cafe and Bakery", "id": "greek-cafe-and-bakery-dallas", "image_url": "https://s3-media1.fl.yelpcdn.com/bphoto/fdotE9tMrvOzeONQYplgPQ/o.jpg", "url": "https://www.yelp.com/biz/greek-cafe-and-bakery-dallas?adjust_creative=gBcvfFpabk3CnzmXKdYe3w&utm_campaign=yelp_api_v3&utm_medium=api_v3_business_search&utm_source=gBcvfFpabk3CnzmXKdYe3w", "phone": "+12149431887", "coordinates": {"longitude": -96.82807, "latitude": 32.74919}, "categories": [{"alias": "greek", "title": "Greek"}, {"alias": "mediterranean", "title": "Mediterranean"}], "review_count": 150, "location": {"city": "Dallas", "address1": "334 W Davis St", "address3": "", "address2": "", "zip_code": "75208", "country": "US", "display_address": ["334 W Davis St", "Dallas, TX 75208"], "state": "TX"}, "price": "$", "transactions": ["delivery", "pickup"], "display_phone": "(214) 943-1887"}, {"rating": 4.0, "is_closed": false, "distance": 3539.336327914, "name": "Chipotle Mexican Grill", "id": "chipotle-mexican-grill-dallas-5", "image_url": "https://s3-media1.fl.yelpcdn.com/bphoto/DBqvupMERCWir0b5sOdV1A/o.jpg", "url": "https://www.yelp.com/biz/chipotle-mexican-grill-dallas-5?adjust_creative=gBcvfFpabk3CnzmXKdYe3w&utm_campaign=yelp_api_v3&utm_medium=api_v3_business_search&utm_source=gBcvfFpabk3CnzmXKdYe3w", "phone": "+14692320963", "coordinates": {"longitude": -96.76952, "latitude": 32.85756}, "categories": [{"alias": "mexican", "title": "Mexican"}, {"alias": "hotdogs", "title": "Fast Food"}], "review_count": 60, "location": {"city": "Dallas", "address1": "7700 N Central Expy", "address3": "", "address2": "", "zip_code": "75206", "country": "US", "display_address": ["7700 N Central Expy", "Dallas, TX 75206"], "state": "TX"}, "price": "$", "transactions": [], "display_phone": "(469) 232-0963"}, {"rating": 4.0, "is_closed": false, "distance": 6432.133668349999, "name": "Adair's Saloon", "id": "adairs-saloon-dallas", "image_url": "https://s3-media3.fl.yelpcdn.com/bphoto/-qGHtoqoph3rTNwGoC4v4w/o.jpg", "url": "https://www.yelp.com/biz/adairs-saloon-dallas?adjust_creative=gBcvfFpabk3CnzmXKdYe3w&utm_campaign=yelp_api_v3&utm_medium=api_v3_business_search&utm_source=gBcvfFpabk3CnzmXKdYe3w", "phone": "+12149399900", "coordinates": {"longitude": -96.7851516571555, "latitude": 32.7826630596632}, "categories": [{"alias": "divebars", "title": "Dive Bars"}, {"alias": "musicvenues", "title": "Music Venues"}], "review_count": 173, "location": {"city": "Dallas", "address1": "2624 Commerce St", "address3": "", "address2": "", "zip_code": "75226", "country": "US", "display_address": ["2624 Commerce St", "Dallas, TX 75226"], "state": "TX"}, "price": "$", "transactions": [], "display_phone": "(214) 939-9900"}, {"rating": 4.0, "is_closed": false, "distance": 10316.52681539, "name": "Lockhart Smokehouse", "id": "lockhart-smokehouse-dallas", "image_url": "https://s3-media2.fl.yelpcdn.com/bphoto/EQAj2q1lQFEc4FRqIcF23Q/o.jpg", "url": "https://www.yelp.com/biz/lockhart-smokehouse-dallas?adjust_creative=gBcvfFpabk3CnzmXKdYe3w&utm_campaign=yelp_api_v3&utm_medium=api_v3_business_search&utm_source=gBcvfFpabk3CnzmXKdYe3w", "phone": "+12149445521", "coordinates": {"longitude": -96.828514, "latitude": 32.7493251}, "categories": [{"alias": "bbq", "title": "Barbeque"}, {"alias": "bars", "title": "Bars"}, {"alias": "smokehouse", "title": "Smokehouse"}], "review_count": 1235, "location": {"city": "Dallas", "address1": "400 W Davis St", "address3": "", "address2": "", "zip_code": "75208", "country": "US", "display_address": ["400 W Davis St", "Dallas, TX 75208"], "state": "TX"}, "price": "$$", "transactions": [], "display_phone": "(214) 944-5521"}, {"rating": 3.5, "is_closed": false, "distance": 2086.33550128, "name": "Fernando's Mexican Cuisine", "id": "fernandos-mexican-cuisine-dallas-2", "image_url": "https://s3-media1.fl.yelpcdn.com/bphoto/t5tHYUAdyc427d3EounWZw/o.jpg", "url": "https://www.yelp.com/biz/fernandos-mexican-cuisine-dallas-2?adjust_creative=gBcvfFpabk3CnzmXKdYe3w&utm_campaign=yelp_api_v3&utm_medium=api_v3_business_search&utm_source=gBcvfFpabk3CnzmXKdYe3w", "phone": "+12145218600", "coordinates": {"longitude": -96.7908613047297, "latitude": 32.8221337622029}, "categories": [{"alias": "mexican", "title": "Mexican"}, {"alias": "tex-mex", "title": "Tex-Mex"}, {"alias": "breakfast_brunch", "title": "Breakfast & Brunch"}], "review_count": 130, "location": {"city": "Dallas", "address1": "4514 Travis St", "address3": "", "address2": "Ste 201", "zip_code": "75205", "country": "US", "display_address": ["4514 Travis St", "Ste 201", "Dallas, TX 75205"], "state": "TX"}, "price": "$$", "transactions": ["delivery"], "display_phone": "(214) 521-8600"}, {"rating": 4.0, "is_closed": false, "distance": 4706.0389481619995, "name": "City Council Restaurant & Bar", "id": "city-council-restaurant-and-bar-dallas", "image_url": "https://s3-media2.fl.yelpcdn.com/bphoto/K-qWHn_6p1hIkh9XrLfkqA/o.jpg", "url": "https://www.yelp.com/biz/city-council-restaurant-and-bar-dallas?adjust_creative=gBcvfFpabk3CnzmXKdYe3w&utm_campaign=yelp_api_v3&utm_medium=api_v3_business_search&utm_source=gBcvfFpabk3CnzmXKdYe3w", "phone": "+12149659595", "coordinates": {"longitude": -96.79719, "latitude": 32.79683}, "categories": [{"alias": "newamerican", "title": "American (New)"}, {"alias": "bars", "title": "Bars"}, {"alias": "tradamerican", "title": "American (Traditional)"}], "review_count": 68, "location": {"city": "Dallas", "address1": "2901 Thomas Ave", "address3": "", "address2": null, "zip_code": "75204", "country": "US", "display_address": ["2901 Thomas Ave", "Dallas, TX 75204"], "state": "TX"}, "price": "$$", "transactions": [], "display_phone": "(214) 965-9595"}, {"rating": 4.0, "is_closed": false, "distance": 4695.574053877999, "name": "Dallasite", "id": "dallasite-dallas", "image_url": "https://s3-media2.fl.yelpcdn.com/bphoto/niDF3uoCSxQ7Ee6xeEBJzw/o.jpg", "url": "https://www.yelp.com/biz/dallasite-dallas?adjust_creative=gBcvfFpabk3CnzmXKdYe3w&utm_campaign=yelp_api_v3&utm_medium=api_v3_business_search&utm_source=gBcvfFpabk3CnzmXKdYe3w", "phone": "+12148263670", "coordinates": {"longitude": -96.773422, "latitude": 32.803489}, "categories": [{"alias": "divebars", "title": "Dive Bars"}], "review_count": 44, "location": {"city": "Dallas", "address1": "4822 Bryan St", "address3": "", "address2": "", "zip_code": "75204", "country": "US", "display_address": ["4822 Bryan St", "Dallas, TX 75204"], "state": "TX"}, "price": "$", "transactions": [], "display_phone": "(214) 826-3670"}, {"rating": 4.0, "is_closed": false, "distance": 3340.93995046, "name": "The Skellig", "id": "the-skellig-dallas", "image_url": "https://s3-media3.fl.yelpcdn.com/bphoto/KOcPXw6dw2BWGFFYAjZssQ/o.jpg", "url": "https://www.yelp.com/biz/the-skellig-dallas?adjust_creative=gBcvfFpabk3CnzmXKdYe3w&utm_campaign=yelp_api_v3&utm_medium=api_v3_business_search&utm_source=gBcvfFpabk3CnzmXKdYe3w", "phone": "+19729250282", "coordinates": {"longitude": -96.7789675423277, "latitude": 32.815077150982}, "categories": [{"alias": "pubs", "title": "Pubs"}], "review_count": 27, "location": {"city": "Dallas", "address1": "2409 N Henderson Ave", "address3": "", "address2": "", "zip_code": "75206", "country": "US", "display_address": ["2409 N Henderson Ave", "Dallas, TX 75206"], "state": "TX"}, "price": "$$", "transactions": [], "display_phone": "(972) 925-0282"}, {"rating": 3.5, "is_closed": false, "distance": 4750.110241259999, "name": "Coal Vines", "id": "coal-vines-dallas-2", "image_url": "https://s3-media1.fl.yelpcdn.com/bphoto/aJNu3N94hvkHBWcGKT2Zjw/o.jpg", "url": "https://www.yelp.com/biz/coal-vines-dallas-2?adjust_creative=gBcvfFpabk3CnzmXKdYe3w&utm_campaign=yelp_api_v3&utm_medium=api_v3_business_search&utm_source=gBcvfFpabk3CnzmXKdYe3w", "phone": "+12148554999", "coordinates": {"longitude": -96.8052202, "latitude": 32.7966272}, "categories": [{"alias": "pizza", "title": "Pizza"}, {"alias": "italian", "title": "Italian"}], "review_count": 245, "location": {"city": "Dallas", "address1": "2404 Cedar Springs Rd", "address3": "", "address2": "Ste 500", "zip_code": "75201", "country": "US", "display_address": ["2404 Cedar Springs Rd", "Ste 500", "Dallas, TX 75201"], "state": "TX"}, "price": "$$", "transactions": [], "display_phone": "(214) 855-4999"}, {"rating": 4.0, "is_closed": false, "distance": 3584.3489239779997, "name": "Fast Furious Japanese Grill", "id": "fast-furious-japanese-grill-dallas", "image_url": "https://s3-media2.fl.yelpcdn.com/bphoto/5BFjy_nVhFIkf5nl8zkCsw/o.jpg", "url": "https://www.yelp.com/biz/fast-furious-japanese-grill-dallas?adjust_creative=gBcvfFpabk3CnzmXKdYe3w&utm_campaign=yelp_api_v3&utm_medium=api_v3_business_search&utm_source=gBcvfFpabk3CnzmXKdYe3w", "phone": "+19722900654", "coordinates": {"longitude": -96.7689731754917, "latitude": 32.8573738823474}, "categories": [{"alias": "asianfusion", "title": "Asian Fusion"}, {"alias": "korean", "title": "Korean"}, {"alias": "teppanyaki", "title": "Teppanyaki"}], "review_count": 103, "location": {"city": "Dallas", "address1": "5915 Greenville Ave", "address3": "", "address2": "", "zip_code": "75206", "country": "US", "display_address": ["5915 Greenville Ave", "Dallas, TX 75206"], "state": "TX"}, "price": "$", "transactions": [], "display_phone": "(972) 290-0654"}, {"rating": 3.5, "is_closed": false, "distance": 6306.94069574, "name": "Monkey King Noodle", "id": "monkey-king-noodle-dallas", "image_url": "https://s3-media4.fl.yelpcdn.com/bphoto/QSp8-GlOMUS0Ob7eb3_WKw/o.jpg", "url": "https://www.yelp.com/biz/monkey-king-noodle-dallas?adjust_creative=gBcvfFpabk3CnzmXKdYe3w&utm_campaign=yelp_api_v3&utm_medium=api_v3_business_search&utm_source=gBcvfFpabk3CnzmXKdYe3w", "phone": "+14697132648", "coordinates": {"longitude": -96.7810616584172, "latitude": 32.7847371267706}, "categories": [{"alias": "chinese", "title": "Chinese"}, {"alias": "noodles", "title": "Noodles"}], "review_count": 718, "location": {"city": "Dallas", "address1": "2933 Main St", "address3": "", "address2": "", "zip_code": "75226", "country": "US", "display_address": ["2933 Main St", "Dallas, TX 75226"], "state": "TX"}, "price": "$", "transactions": [], "display_phone": "(469) 713-2648"}, {"rating": 4.0, "is_closed": false, "distance": 2696.024465174, "name": "Starbucks", "id": "starbucks-dallas-53", "image_url": "https://s3-media3.fl.yelpcdn.com/bphoto/QSbiuecRE1JWVS9mTLWiww/o.jpg", "url": "https://www.yelp.com/biz/starbucks-dallas-53?adjust_creative=gBcvfFpabk3CnzmXKdYe3w&utm_campaign=yelp_api_v3&utm_medium=api_v3_business_search&utm_source=gBcvfFpabk3CnzmXKdYe3w", "phone": "+12143536907", "coordinates": {"longitude": -96.8272992492941, "latitude": 32.829980798566}, "categories": [{"alias": "coffee", "title": "Coffee & Tea"}], "review_count": 45, "location": {"city": "Dallas", "address1": "5715 Lemmon Ave", "address3": "", "address2": "", "zip_code": "75209", "country": "US", "display_address": ["5715 Lemmon Ave", "Dallas, TX 75209"], "state": "TX"}, "price": "$$", "transactions": [], "display_phone": "(214) 353-6907"}, {"rating": 4.0, "is_closed": false, "distance": 8720.78573839, "name": "White Rock Coffee", "id": "white-rock-coffee-dallas", "image_url": "https://s3-media3.fl.yelpcdn.com/bphoto/0yEbyfRQ4AbtXo9m69e-8w/o.jpg", "url": "https://www.yelp.com/biz/white-rock-coffee-dallas?adjust_creative=gBcvfFpabk3CnzmXKdYe3w&utm_campaign=yelp_api_v3&utm_medium=api_v3_business_search&utm_source=gBcvfFpabk3CnzmXKdYe3w", "phone": "+12143414774", "coordinates": {"longitude": -96.7122909534428, "latitude": 32.8646324730465}, "categories": [{"alias": "coffee", "title": "Coffee & Tea"}, {"alias": "breakfast_brunch", "title": "Breakfast & Brunch"}], "review_count": 227, "location": {"city": "Dallas", "address1": "10105 E Nw Hwy", "address3": "", "address2": "", "zip_code": "75238", "country": "US", "display_address": ["10105 E Nw Hwy", "Dallas, TX 75238"], "state": "TX"}, "price": "$", "transactions": [], "display_phone": "(214) 341-4774"}, {"rating": 3.5, "is_closed": false, "distance": 3386.0614988419998, "name": "Texadelphia", "id": "texadelphia-dallas-2", "image_url": "https://s3-media4.fl.yelpcdn.com/bphoto/9mvzmTl9lco50JKy2lN2YQ/o.jpg", "url": "https://www.yelp.com/biz/texadelphia-dallas-2?adjust_creative=gBcvfFpabk3CnzmXKdYe3w&utm_campaign=yelp_api_v3&utm_medium=api_v3_business_search&utm_source=gBcvfFpabk3CnzmXKdYe3w", "phone": "+12142658044", "coordinates": {"longitude": -96.7685858374344, "latitude": 32.8534220697492}, "categories": [{"alias": "sandwiches", "title": "Sandwiches"}, {"alias": "burgers", "title": "Burgers"}], "review_count": 91, "location": {"city": "Dallas", "address1": "5500 Greenville Ave", "address3": "", "address2": "Ste 600", "zip_code": "75206", "country": "US", "display_address": ["5500 Greenville Ave", "Ste 600", "Dallas, TX 75206"], "state": "TX"}, "price": "$", "transactions": ["delivery"], "display_phone": "(214) 265-8044"}, {"rating": 4.0, "is_closed": false, "distance": 10433.03900804, "name": "Bolsa Mercado", "id": "bolsa-mercado-dallas", "image_url": "https://s3-media4.fl.yelpcdn.com/bphoto/-Y-peokIaEi7O_t9W0Rnyg/o.jpg", "url": "https://www.yelp.com/biz/bolsa-mercado-dallas?adjust_creative=gBcvfFpabk3CnzmXKdYe3w&utm_campaign=yelp_api_v3&utm_medium=api_v3_business_search&utm_source=gBcvfFpabk3CnzmXKdYe3w", "phone": "+12149420451", "coordinates": {"longitude": -96.8328488, "latitude": 32.7493351}, "categories": [{"alias": "cafes", "title": "Cafes"}, {"alias": "sandwiches", "title": "Sandwiches"}, {"alias": "juicebars", "title": "Juice Bars & Smoothies"}], "review_count": 146, "location": {"city": "Dallas", "address1": "634 W Davis St", "address3": "", "address2": "", "zip_code": "75208", "country": "US", "display_address": ["634 W Davis St", "Dallas, TX 75208"], "state": "TX"}, "price": "$", "transactions": [], "display_phone": "(214) 942-0451"}, {"rating": 4.0, "is_closed": false, "distance": 5261.0853473, "name": "Philly Connection", "id": "philly-connection-dallas-2", "image_url": "https://s3-media3.fl.yelpcdn.com/bphoto/En0Quy3OjjNFctkKLOI-AQ/o.jpg", "url": "https://www.yelp.com/biz/philly-connection-dallas-2?adjust_creative=gBcvfFpabk3CnzmXKdYe3w&utm_campaign=yelp_api_v3&utm_medium=api_v3_business_search&utm_source=gBcvfFpabk3CnzmXKdYe3w", "phone": "+12148289070", "coordinates": {"longitude": -96.7534536123276, "latitude": 32.8132452070713}, "categories": [{"alias": "sandwiches", "title": "Sandwiches"}], "review_count": 47, "location": {"city": "Dallas", "address1": "6334 Gaston Ave", "address3": "", "address2": "", "zip_code": "75214", "country": "US", "display_address": ["6334 Gaston Ave", "Dallas, TX 75214"], "state": "TX"}, "price": "$", "transactions": [], "display_phone": "(214) 828-9070"}, {"rating": 4.0, "is_closed": false, "distance": 9702.594987519999, "name": "Goodfriend Beer Garden & Burger House", "id": "goodfriend-beer-garden-and-burger-house-dallas", "image_url": "https://s3-media1.fl.yelpcdn.com/bphoto/2veKm3Z0JbL1tpUgAH8hVw/o.jpg", "url": "https://www.yelp.com/biz/goodfriend-beer-garden-and-burger-house-dallas?adjust_creative=gBcvfFpabk3CnzmXKdYe3w&utm_campaign=yelp_api_v3&utm_medium=api_v3_business_search&utm_source=gBcvfFpabk3CnzmXKdYe3w", "phone": "+12143243335", "coordinates": {"longitude": -96.696688, "latitude": 32.839685}, "categories": [{"alias": "bars", "title": "Bars"}, {"alias": "burgers", "title": "Burgers"}], "review_count": 557, "location": {"city": "Dallas", "address1": "1154 Peavy Rd", "address3": "", "address2": "", "zip_code": "75218", "country": "US", "display_address": ["1154 Peavy Rd", "Dallas, TX 75218"], "state": "TX"}, "price": "$$", "transactions": [], "display_phone": "(214) 324-3335"}, {"rating": 4.0, "is_closed": false, "distance": 10410.574713782, "name": "Boulevardier", "id": "boulevardier-dallas", "image_url": "https://s3-media2.fl.yelpcdn.com/bphoto/FnxaMeC4-Zb-9cNtDGiX2A/o.jpg", "url": "https://www.yelp.com/biz/boulevardier-dallas?adjust_creative=gBcvfFpabk3CnzmXKdYe3w&utm_campaign=yelp_api_v3&utm_medium=api_v3_business_search&utm_source=gBcvfFpabk3CnzmXKdYe3w", "phone": "+12149421828", "coordinates": {"longitude": -96.8281851, "latitude": 32.74824}, "categories": [{"alias": "french", "title": "French"}, {"alias": "wine_bars", "title": "Wine Bars"}], "review_count": 437, "location": {"city": "Dallas", "address1": "408 N Bishop Ave", "address3": "", "address2": "Ste 108", "zip_code": "75208", "country": "US", "display_address": ["408 N Bishop Ave", "Ste 108", "Dallas, TX 75208"], "state": "TX"}, "price": "$$$", "transactions": [], "display_phone": "(214) 942-1828"}, {"rating": 4.0, "is_closed": false, "distance": 7223.264129996, "name": "North Haven Gardens", "id": "north-haven-gardens-dallas", "image_url": "https://s3-media1.fl.yelpcdn.com/bphoto/03-ZiuYuXSX6aRsLvR9CsQ/o.jpg", "url": "https://www.yelp.com/biz/north-haven-gardens-dallas?adjust_creative=gBcvfFpabk3CnzmXKdYe3w&utm_campaign=yelp_api_v3&utm_medium=api_v3_business_search&utm_source=gBcvfFpabk3CnzmXKdYe3w", "phone": "+12143635316", "coordinates": {"longitude": -96.77556, "latitude": 32.90013}, "categories": [{"alias": "gardening", "title": "Nurseries & Gardening"}, {"alias": "cafes", "title": "Cafes"}, {"alias": "galleries", "title": "Art Galleries"}], "review_count": 44, "location": {"city": "Dallas", "address1": "7700 Northaven Rd", "address3": "", "address2": "", "zip_code": "75230", "country": "US", "display_address": ["7700 Northaven Rd", "Dallas, TX 75230"], "state": "TX"}, "price": "$$", "transactions": [], "display_phone": "(214) 363-5316"}, {"rating": 4.0, "is_closed": false, "distance": 7041.1948287099995, "name": "Cigarz Bona Pizza", "id": "cigarz-bona-pizza-dallas", "image_url": "https://s3-media3.fl.yelpcdn.com/bphoto/W4VQS80gixOG2ZgGf-9D6A/o.jpg", "url": "https://www.yelp.com/biz/cigarz-bona-pizza-dallas?adjust_creative=gBcvfFpabk3CnzmXKdYe3w&utm_campaign=yelp_api_v3&utm_medium=api_v3_business_search&utm_source=gBcvfFpabk3CnzmXKdYe3w", "phone": "+12143190055", "coordinates": {"longitude": -96.7321177, "latitude": 32.812507}, "categories": [{"alias": "pizza", "title": "Pizza"}, {"alias": "mediterranean", "title": "Mediterranean"}, {"alias": "greek", "title": "Greek"}], "review_count": 85, "location": {"city": "Dallas", "address1": "7238 Gaston Ave", "address3": "", "address2": "", "zip_code": "75214", "country": "US", "display_address": ["7238 Gaston Ave", "Dallas, TX 75214"], "state": "TX"}, "price": "$$", "transactions": [], "display_phone": "(214) 319-0055"}, {"rating": 3.5, "is_closed": false, "distance": 2484.5501080779995, "name": "The Halal Guys", "id": "the-halal-guys-dallas-3", "image_url": "https://s3-media3.fl.yelpcdn.com/bphoto/l1eKXh8m0QAqKZjGvcIQ0A/o.jpg", "url": "https://www.yelp.com/biz/the-halal-guys-dallas-3?adjust_creative=gBcvfFpabk3CnzmXKdYe3w&utm_campaign=yelp_api_v3&utm_medium=api_v3_business_search&utm_source=gBcvfFpabk3CnzmXKdYe3w", "phone": "+14697299929", "coordinates": {"longitude": -96.8235549926758, "latitude": 32.827953338623}, "categories": [{"alias": "halal", "title": "Halal"}, {"alias": "mideastern", "title": "Middle Eastern"}], "review_count": 415, "location": {"city": "Dallas", "address1": "5444 Lemmon Ave", "address3": "", "address2": null, "zip_code": "75209", "country": "US", "display_address": ["5444 Lemmon Ave", "Dallas, TX 75209"], "state": "TX"}, "price": "$", "transactions": [], "display_phone": "(469) 729-9929"}, {"rating": 4.5, "is_closed": false, "distance": 12345.986953598, "name": "Tacolicious", "id": "tacolicious-dallas", "image_url": "https://s3-media1.fl.yelpcdn.com/bphoto/715FiUcTfbtFW7xHonCEaQ/o.jpg", "url": "https://www.yelp.com/biz/tacolicious-dallas?adjust_creative=gBcvfFpabk3CnzmXKdYe3w&utm_campaign=yelp_api_v3&utm_medium=api_v3_business_search&utm_source=gBcvfFpabk3CnzmXKdYe3w", "phone": "+12144960699", "coordinates": {"longitude": -96.9148254394531, "latitude": 32.8950347900391}, "categories": [{"alias": "mexican", "title": "Mexican"}, {"alias": "breakfast_brunch", "title": "Breakfast & Brunch"}], "review_count": 182, "location": {"city": "Dallas", "address1": "1894 Royal Ln", "address3": "", "address2": "Ste 102", "zip_code": "75229", "country": "US", "display_address": ["1894 Royal Ln", "Ste 102", "Dallas, TX 75229"], "state": "TX"}, "price": "$", "transactions": [], "display_phone": "(214) 496-0699"}, {"rating": 4.0, "is_closed": false, "distance": 5267.133890755999, "name": "Proof + Pantry", "id": "proof-pantry-dallas-2", "image_url": "https://s3-media1.fl.yelpcdn.com/bphoto/aBpJj9PFAwbc3xfTO-CSlg/o.jpg", "url": "https://www.yelp.com/biz/proof-pantry-dallas-2?adjust_creative=gBcvfFpabk3CnzmXKdYe3w&utm_campaign=yelp_api_v3&utm_medium=api_v3_business_search&utm_source=gBcvfFpabk3CnzmXKdYe3w", "phone": "+12148809940", "coordinates": {"longitude": -96.7957761406143, "latitude": 32.7918437940605}, "categories": [{"alias": "cocktailbars", "title": "Cocktail Bars"}, {"alias": "newamerican", "title": "American (New)"}, {"alias": "gastropubs", "title": "Gastropubs"}], "review_count": 152, "location": {"city": "Dallas", "address1": "1722 Routh St", "address3": "", "address2": "Ste 102", "zip_code": "75201", "country": "US", "display_address": ["1722 Routh St", "Ste 102", "Dallas, TX 75201"], "state": "TX"}, "price": "$$$", "transactions": [], "display_phone": "(214) 880-9940"}, {"rating": 3.5, "is_closed": false, "distance": 4035.3513311819997, "name": "Maggiano's Little Italy", "id": "maggianos-little-italy-dallas-2", "image_url": "https://s3-media1.fl.yelpcdn.com/bphoto/HY6762wlCCR_gR33J1o8pg/o.jpg", "url": "https://www.yelp.com/biz/maggianos-little-italy-dallas-2?adjust_creative=gBcvfFpabk3CnzmXKdYe3w&utm_campaign=yelp_api_v3&utm_medium=api_v3_business_search&utm_source=gBcvfFpabk3CnzmXKdYe3w", "phone": "+12143600707", "coordinates": {"longitude": -96.7726539018524, "latitude": 32.8667583708919}, "categories": [{"alias": "italian", "title": "Italian"}, {"alias": "bars", "title": "Bars"}], "review_count": 281, "location": {"city": "Dallas", "address1": "205 Northpark Ctr", "address3": "", "address2": "", "zip_code": "75225", "country": "US", "display_address": ["205 Northpark Ctr", "Dallas, TX 75225"], "state": "TX"}, "price": "$$", "transactions": ["delivery", "pickup"], "display_phone": "(214) 360-0707"}, {"rating": 4.0, "is_closed": false, "distance": 4732.052480856, "name": "Top Knot", "id": "top-knot-dallas", "image_url": "https://s3-media3.fl.yelpcdn.com/bphoto/QKUPSTfpZW7NGZr_9T2UlQ/o.jpg", "url": "https://www.yelp.com/biz/top-knot-dallas?adjust_creative=gBcvfFpabk3CnzmXKdYe3w&utm_campaign=yelp_api_v3&utm_medium=api_v3_business_search&utm_source=gBcvfFpabk3CnzmXKdYe3w", "phone": "+12148551354", "coordinates": {"longitude": -96.8066599, "latitude": 32.79676}, "categories": [{"alias": "asianfusion", "title": "Asian Fusion"}, {"alias": "newamerican", "title": "American (New)"}, {"alias": "bars", "title": "Bars"}], "review_count": 158, "location": {"city": "Dallas", "address1": "2817 Maple Ave", "address3": "", "address2": "Fl 2", "zip_code": "75201", "country": "US", "display_address": ["2817 Maple Ave", "Fl 2", "Dallas, TX 75201"], "state": "TX"}, "price": "$$", "transactions": [], "display_phone": "(214) 855-1354"}, {"rating": 4.0, "is_closed": false, "distance": 5266.615522341999, "name": "Del Frisco's Double Eagle Steak House", "id": "del-friscos-double-eagle-steak-house-dallas-3", "image_url": "https://s3-media4.fl.yelpcdn.com/bphoto/Se2ZenpPR9uG1k6edli_Ag/o.jpg", "url": "https://www.yelp.com/biz/del-friscos-double-eagle-steak-house-dallas-3?adjust_creative=gBcvfFpabk3CnzmXKdYe3w&utm_campaign=yelp_api_v3&utm_medium=api_v3_business_search&utm_source=gBcvfFpabk3CnzmXKdYe3w", "phone": "+19724909000", "coordinates": {"longitude": -96.803824818852, "latitude": 32.7917576659834}, "categories": [{"alias": "steak", "title": "Steakhouses"}, {"alias": "newamerican", "title": "American (New)"}, {"alias": "seafood", "title": "Seafood"}], "review_count": 59, "location": {"city": "Dallas", "address1": "2323 Olive St", "address3": null, "address2": "", "zip_code": "75201", "country": "US", "display_address": ["2323 Olive St", "Dallas, TX 75201"], "state": "TX"}, "price": "$$$", "transactions": [], "display_phone": "(972) 490-9000"}, {"rating": 4.5, "is_closed": false, "distance": 9648.910623799999, "name": "Cultivar Coffee Bar & Roaster", "id": "cultivar-coffee-bar-and-roaster-dallas-3", "image_url": "https://s3-media2.fl.yelpcdn.com/bphoto/AKOfdbdgTjlH3ulLu5a6fg/o.jpg", "url": "https://www.yelp.com/biz/cultivar-coffee-bar-and-roaster-dallas-3?adjust_creative=gBcvfFpabk3CnzmXKdYe3w&utm_campaign=yelp_api_v3&utm_medium=api_v3_business_search&utm_source=gBcvfFpabk3CnzmXKdYe3w", "phone": "+19726777895", "coordinates": {"longitude": -96.6972608444328, "latitude": 32.8391401797546}, "categories": [{"alias": "coffee", "title": "Coffee & Tea"}, {"alias": "coffeeroasteries", "title": "Coffee Roasteries"}], "review_count": 105, "location": {"city": "Dallas", "address1": "1155 Peavy Rd", "address3": "", "address2": null, "zip_code": "75218", "country": "US", "display_address": ["1155 Peavy Rd", "Dallas, TX 75218"], "state": "TX"}, "price": "$", "transactions": [], "display_phone": "(972) 677-7895"}, {"rating": 3.5, "is_closed": false, "distance": 3856.200246118, "name": "Barcadia", "id": "barcadia-dallas", "image_url": "https://s3-media1.fl.yelpcdn.com/bphoto/OxDoHvXHzxFar7paBCDduA/o.jpg", "url": "https://www.yelp.com/biz/barcadia-dallas?adjust_creative=gBcvfFpabk3CnzmXKdYe3w&utm_campaign=yelp_api_v3&utm_medium=api_v3_business_search&utm_source=gBcvfFpabk3CnzmXKdYe3w", "phone": "+12148217300", "coordinates": {"longitude": -96.7752014, "latitude": 32.8116692}, "categories": [{"alias": "bars", "title": "Bars"}, {"alias": "breakfast_brunch", "title": "Breakfast & Brunch"}, {"alias": "tradamerican", "title": "American (Traditional)"}], "review_count": 328, "location": {"city": "Dallas", "address1": "1917 N Henderson Ave", "address3": "", "address2": "", "zip_code": "75206", "country": "US", "display_address": ["1917 N Henderson Ave", "Dallas, TX 75206"], "state": "TX"}, "price": "$$", "transactions": [], "display_phone": "(214) 821-7300"}, {"rating": 4.0, "is_closed": false, "distance": 8177.15631908, "name": "Asian Mint", "id": "asian-mint-dallas", "image_url": "https://s3-media4.fl.yelpcdn.com/bphoto/kfPkhN6L3MFl0OaDtITgbQ/o.jpg", "url": "https://www.yelp.com/biz/asian-mint-dallas?adjust_creative=gBcvfFpabk3CnzmXKdYe3w&utm_campaign=yelp_api_v3&utm_medium=api_v3_business_search&utm_source=gBcvfFpabk3CnzmXKdYe3w", "phone": "+12143636655", "coordinates": {"longitude": -96.77149, "latitude": 32.9085899}, "categories": [{"alias": "asianfusion", "title": "Asian Fusion"}, {"alias": "thai", "title": "Thai"}, {"alias": "sushi", "title": "Sushi Bars"}], "review_count": 504, "location": {"city": "Dallas", "address1": "11617 N Central Expy", "address3": "", "address2": "Ste 135", "zip_code": "75243", "country": "US", "display_address": ["11617 N Central Expy", "Ste 135", "Dallas, TX 75243"], "state": "TX"}, "price": "$$", "transactions": ["delivery", "pickup"], "display_phone": "(214) 363-6655"}, {"rating": 3.5, "is_closed": false, "distance": 4220.6872708, "name": "Pints & Quarts", "id": "pints-and-quarts-dallas-4", "image_url": "https://s3-media2.fl.yelpcdn.com/bphoto/pR-vteNqIaOPOo6-lO40sw/o.jpg", "url": "https://www.yelp.com/biz/pints-and-quarts-dallas-4?adjust_creative=gBcvfFpabk3CnzmXKdYe3w&utm_campaign=yelp_api_v3&utm_medium=api_v3_business_search&utm_source=gBcvfFpabk3CnzmXKdYe3w", "phone": "+12148213494", "coordinates": {"longitude": -96.77045, "latitude": 32.8104299}, "categories": [{"alias": "burgers", "title": "Burgers"}, {"alias": "juicebars", "title": "Juice Bars & Smoothies"}, {"alias": "beerbar", "title": "Beer Bar"}], "review_count": 161, "location": {"city": "Dallas", "address1": "5434 Ross Ave", "address3": "", "address2": "", "zip_code": "75206", "country": "US", "display_address": ["5434 Ross Ave", "Dallas, TX 75206"], "state": "TX"}, "price": "$", "transactions": [], "display_phone": "(214) 821-3494"}, {"rating": 3.5, "is_closed": false, "distance": 3692.4985031859997, "name": "Ojeda's", "id": "ojedas-dallas-2", "image_url": "https://s3-media2.fl.yelpcdn.com/bphoto/bVO9N8g7N5-Ift7V-lD3gA/o.jpg", "url": "https://www.yelp.com/biz/ojedas-dallas-2?adjust_creative=gBcvfFpabk3CnzmXKdYe3w&utm_campaign=yelp_api_v3&utm_medium=api_v3_business_search&utm_source=gBcvfFpabk3CnzmXKdYe3w", "phone": "+12145288383", "coordinates": {"longitude": -96.8248793, "latitude": 32.8128863}, "categories": [{"alias": "mexican", "title": "Mexican"}, {"alias": "tex-mex", "title": "Tex-Mex"}], "review_count": 242, "location": {"city": "Dallas", "address1": "4617 Maple Ave", "address3": "", "address2": "", "zip_code": "75219", "country": "US", "display_address": ["4617 Maple Ave", "Dallas, TX 75219"], "state": "TX"}, "price": "$$", "transactions": ["pickup"], "display_phone": "(214) 528-8383"}, {"rating": 3.5, "is_closed": false, "distance": 4393.783053179999, "name": "The Dream Cafe - Uptown", "id": "the-dream-cafe-uptown-dallas-2", "image_url": "https://s3-media1.fl.yelpcdn.com/bphoto/hi--pt_amMMxB_lhBrIh1Q/o.jpg", "url": "https://www.yelp.com/biz/the-dream-cafe-uptown-dallas-2?adjust_creative=gBcvfFpabk3CnzmXKdYe3w&utm_campaign=yelp_api_v3&utm_medium=api_v3_business_search&utm_source=gBcvfFpabk3CnzmXKdYe3w", "phone": "+12149540486", "coordinates": {"longitude": -96.8031880816093, "latitude": 32.7995905613849}, "categories": [{"alias": "breakfast_brunch", "title": "Breakfast & Brunch"}, {"alias": "tradamerican", "title": "American (Traditional)"}, {"alias": "cafes", "title": "Cafes"}], "review_count": 510, "location": {"city": "Dallas", "address1": "2800 Routh St", "address3": "", "address2": "Ste 170", "zip_code": "75201", "country": "US", "display_address": ["2800 Routh St", "Ste 170", "Dallas, TX 75201"], "state": "TX"}, "price": "$$", "transactions": ["delivery"], "display_phone": "(214) 954-0486"}, {"rating": 3.5, "is_closed": false, "distance": 5193.876090219999, "name": "Scalini's Pizza and Pasta", "id": "scalinis-pizza-and-pasta-dallas", "image_url": "https://s3-media2.fl.yelpcdn.com/bphoto/XK4uNp_iRPqAlBMx7oKVzg/o.jpg", "url": "https://www.yelp.com/biz/scalinis-pizza-and-pasta-dallas?adjust_creative=gBcvfFpabk3CnzmXKdYe3w&utm_campaign=yelp_api_v3&utm_medium=api_v3_business_search&utm_source=gBcvfFpabk3CnzmXKdYe3w", "phone": "+12148218088", "coordinates": {"longitude": -96.7531228801824, "latitude": 32.8146663877004}, "categories": [{"alias": "pizza", "title": "Pizza"}, {"alias": "italian", "title": "Italian"}], "review_count": 248, "location": {"city": "Dallas", "address1": "2021 Abrams Rd", "address3": "", "address2": "", "zip_code": "75214", "country": "US", "display_address": ["2021 Abrams Rd", "Dallas, TX 75214"], "state": "TX"}, "price": "$$", "transactions": ["delivery", "pickup"], "display_phone": "(214) 821-8088"}, {"rating": 3.5, "is_closed": false, "distance": 6236.859732364, "name": "Serious Pizza", "id": "serious-pizza-dallas", "image_url": "https://s3-media1.fl.yelpcdn.com/bphoto/ckQPWvZylNhvheZZ6XvWWQ/o.jpg", "url": "https://www.yelp.com/biz/serious-pizza-dallas?adjust_creative=gBcvfFpabk3CnzmXKdYe3w&utm_campaign=yelp_api_v3&utm_medium=api_v3_business_search&utm_source=gBcvfFpabk3CnzmXKdYe3w", "phone": "+12147619999", "coordinates": {"longitude": -96.7833633, "latitude": 32.7849503}, "categories": [{"alias": "pizza", "title": "Pizza"}], "review_count": 631, "location": {"city": "Dallas", "address1": "2807 Elm St", "address3": "", "address2": "", "zip_code": "75226", "country": "US", "display_address": ["2807 Elm St", "Dallas, TX 75226"], "state": "TX"}, "price": "$", "transactions": [], "display_phone": "(214) 761-9999"}, {"rating": 4.0, "is_closed": false, "distance": 6297.47375319, "name": "Mac's Barbecue", "id": "macs-barbecue-dallas", "image_url": "https://s3-media3.fl.yelpcdn.com/bphoto/2dzhhF61Bn9jiWNdO_V8Mg/o.jpg", "url": "https://www.yelp.com/biz/macs-barbecue-dallas?adjust_creative=gBcvfFpabk3CnzmXKdYe3w&utm_campaign=yelp_api_v3&utm_medium=api_v3_business_search&utm_source=gBcvfFpabk3CnzmXKdYe3w", "phone": "+12148230731", "coordinates": {"longitude": -96.77226, "latitude": 32.78767}, "categories": [{"alias": "bbq", "title": "Barbeque"}], "review_count": 59, "location": {"city": "Dallas", "address1": "3933 Main St", "address3": "", "address2": "", "zip_code": "75226", "country": "US", "display_address": ["3933 Main St", "Dallas, TX 75226"], "state": "TX"}, "price": "$$", "transactions": [], "display_phone": "(214) 823-0731"}, {"rating": 4.0, "is_closed": false, "distance": 5658.403068916, "name": "Fuel Town", "id": "fuel-town-dallas", "image_url": "https://s3-media2.fl.yelpcdn.com/bphoto/wn5PkIlsIZNtOj2Y-kVd0Q/o.jpg", "url": "https://www.yelp.com/biz/fuel-town-dallas?adjust_creative=gBcvfFpabk3CnzmXKdYe3w&utm_campaign=yelp_api_v3&utm_medium=api_v3_business_search&utm_source=gBcvfFpabk3CnzmXKdYe3w", "phone": "+12146781993", "coordinates": {"longitude": -96.850624, "latitude": 32.810466}, "categories": [{"alias": "mexican", "title": "Mexican"}], "review_count": 100, "location": {"city": "Dallas", "address1": "1525 Inwood Rd", "address3": "", "address2": "", "zip_code": "75247", "country": "US", "display_address": ["1525 Inwood Rd", "Dallas, TX 75247"], "state": "TX"}, "price": "$", "transactions": [], "display_phone": "(214) 678-1993"}, {"rating": 4.0, "is_closed": false, "distance": 6237.0728089799995, "name": "The Green Room", "id": "the-green-room-dallas-3", "image_url": "https://s3-media4.fl.yelpcdn.com/bphoto/W4famqBvkr6l_DYQExy-vw/o.jpg", "url": "https://www.yelp.com/biz/the-green-room-dallas-3?adjust_creative=gBcvfFpabk3CnzmXKdYe3w&utm_campaign=yelp_api_v3&utm_medium=api_v3_business_search&utm_source=gBcvfFpabk3CnzmXKdYe3w", "phone": "+12147487666", "coordinates": {"longitude": -96.7840792, "latitude": 32.7846824}, "categories": [{"alias": "bars", "title": "Bars"}, {"alias": "newamerican", "title": "American (New)"}], "review_count": 88, "location": {"city": "Dallas", "address1": "2715 Elm St", "address3": "", "address2": "", "zip_code": "75226", "country": "US", "display_address": ["2715 Elm St", "Dallas, TX 75226"], "state": "TX"}, "price": "$$", "transactions": [], "display_phone": "(214) 748-7666"}, {"rating": 3.5, "is_closed": false, "distance": 3664.5350941479996, "name": "Oishii", "id": "oishii-dallas", "image_url": "https://s3-media4.fl.yelpcdn.com/bphoto/YnmqQLJCj5MRDGcmD2sbLQ/o.jpg", "url": "https://www.yelp.com/biz/oishii-dallas?adjust_creative=gBcvfFpabk3CnzmXKdYe3w&utm_campaign=yelp_api_v3&utm_medium=api_v3_business_search&utm_source=gBcvfFpabk3CnzmXKdYe3w", "phone": "+12145999448", "coordinates": {"longitude": -96.8197873195574, "latitude": 32.8103313169256}, "categories": [{"alias": "sushi", "title": "Sushi Bars"}, {"alias": "asianfusion", "title": "Asian Fusion"}, {"alias": "japanese", "title": "Japanese"}], "review_count": 355, "location": {"city": "Dallas", "address1": "2525 Wycliff Ave", "address3": "", "address2": "Ste 110", "zip_code": "75219", "country": "US", "display_address": ["2525 Wycliff Ave", "Ste 110", "Dallas, TX 75219"], "state": "TX"}, "price": "$$", "transactions": [], "display_phone": "(214) 599-9448"}, {"rating": 3.5, "is_closed": false, "distance": 4573.515270917999, "name": "The Common Table", "id": "the-common-table-dallas", "image_url": "https://s3-media3.fl.yelpcdn.com/bphoto/wgl6A61VlojGJT1NQGB-Zg/o.jpg", "url": "https://www.yelp.com/biz/the-common-table-dallas?adjust_creative=gBcvfFpabk3CnzmXKdYe3w&utm_campaign=yelp_api_v3&utm_medium=api_v3_business_search&utm_source=gBcvfFpabk3CnzmXKdYe3w", "phone": "+12148807414", "coordinates": {"longitude": -96.80624, "latitude": 32.79816}, "categories": [{"alias": "newamerican", "title": "American (New)"}, {"alias": "bars", "title": "Bars"}, {"alias": "breakfast_brunch", "title": "Breakfast & Brunch"}], "review_count": 546, "location": {"city": "Dallas", "address1": "2917 Fairmount St", "address3": "", "address2": "", "zip_code": "75201", "country": "US", "display_address": ["2917 Fairmount St", "Dallas, TX 75201"], "state": "TX"}, "price": "$$", "transactions": ["delivery"], "display_phone": "(214) 880-7414"}, {"rating": 4.5, "is_closed": false, "distance": 6896.173660762, "name": "Margaret Hunt Hill Bridge", "id": "margaret-hunt-hill-bridge-dallas", "image_url": "https://s3-media4.fl.yelpcdn.com/bphoto/xQzTm9wuP5r92mbVIjXR5Q/o.jpg", "url": "https://www.yelp.com/biz/margaret-hunt-hill-bridge-dallas?adjust_creative=gBcvfFpabk3CnzmXKdYe3w&utm_campaign=yelp_api_v3&utm_medium=api_v3_business_search&utm_source=gBcvfFpabk3CnzmXKdYe3w", "phone": "", "coordinates": {"longitude": -96.8222808837891, "latitude": 32.7797775268555}, "categories": [{"alias": "localflavor", "title": "Local Flavor"}], "review_count": 33, "location": {"city": "Dallas", "address1": "N Riverfront Blvd And Woodall Rodgers Frwy", "address3": "", "address2": "", "zip_code": "75207", "country": "US", "display_address": ["N Riverfront Blvd And Woodall Rodgers Frwy", "Dallas, TX 75207"], "state": "TX"}, "transactions": [], "display_phone": ""}, {"rating": 4.0, "is_closed": false, "distance": 5418.52547016, "name": "Ruth's Chris Steak House", "id": "ruths-chris-steak-house-dallas-7", "image_url": "https://s3-media3.fl.yelpcdn.com/bphoto/XSUg-dxDYc6O91QRl1CmLg/o.jpg", "url": "https://www.yelp.com/biz/ruths-chris-steak-house-dallas-7?adjust_creative=gBcvfFpabk3CnzmXKdYe3w&utm_campaign=yelp_api_v3&utm_medium=api_v3_business_search&utm_source=gBcvfFpabk3CnzmXKdYe3w", "phone": "+12149227062", "coordinates": {"longitude": -96.80452, "latitude": 32.79043}, "categories": [{"alias": "steak", "title": "Steakhouses"}], "review_count": 44, "location": {"city": "Dallas", "address1": "1900 Cedar Springs Rd", "address3": null, "address2": null, "zip_code": "75201", "country": "US", "display_address": ["1900 Cedar Springs Rd", "Dallas, TX 75201"], "state": "TX"}, "price": "$$$", "transactions": [], "display_phone": "(214) 922-7062"}]}