{"region": {"center": {"latitude": 32.839043482398054, "longitude": -96.800537109375}}, "businesses": [{"transactions": [], "distance": 2998.3917705259996, "price": "$$", "display_phone": "(214) 219-1300", "phone": "+12142191300", "url": "https://www.yelp.com/biz/scardello-dallas?adjust_creative=gBcvfFpabk3CnzmXKdYe3w&utm_campaign=yelp_api_v3&utm_medium=api_v3_business_search&utm_source=gBcvfFpabk3CnzmXKdYe3w", "name": "Scardello", "location": {"display_address": ["3511 Oak Lawn", "Dallas, TX 75219"], "country": "US", "state": "TX", "address3": "", "address2": "", "address1": "3511 Oak Lawn", "city": "Dallas", "zip_code": "75219"}, "is_closed": false, "review_count": 260, "coordinates": {"latitude": 32.812387389335, "longitude": -96.805373827833}, "id": "scardello-dallas", "image_url": "https://s3-media1.fl.yelpcdn.com/bphoto/kNKVjVs_0Q8h99JEdUDuOg/o.jpg", "categories": [{"alias": "cheese", "title": "Cheese Shops"}, {"alias": "sandwiches", "title": "Sandwiches"}], "rating": 4.5}, {"transactions": [], "distance": 6326.98663478, "price": "$$$$", "display_phone": "(214) 997-3306", "phone": "+12149973306", "url": "https://www.yelp.com/biz/frank-dallas-2?adjust_creative=gBcvfFpabk3CnzmXKdYe3w&utm_campaign=yelp_api_v3&utm_medium=api_v3_business_search&utm_source=gBcvfFpabk3CnzmXKdYe3w", "name": "Frank", "location": {"display_address": ["Deep Ellum", "Dallas, TX 75226"], "country": "US", "state": "TX", "address3": "", "address2": "", "address1": "Deep Ellum", "city": "Dallas", "zip_code": "75226"}, "is_closed": false, "review_count": 132, "coordinates": {"latitude": 32.784096, "longitude": -96.782949}, "id": "frank-dallas-2", "image_url": "https://s3-media1.fl.yelpcdn.com/bphoto/PKqZPwR1nfn-sfegHHDo1g/o.jpg", "categories": [{"alias": "newamerican", "title": "American (New)"}], "rating": 5.0}, {"transactions": [], "distance": 4623.364738351999, "price": "$", "display_phone": "(214) 823-6180", "phone": "+12148236180", "url": "https://www.yelp.com/biz/jimmys-food-store-dallas?adjust_creative=gBcvfFpabk3CnzmXKdYe3w&utm_campaign=yelp_api_v3&utm_medium=api_v3_business_search&utm_source=gBcvfFpabk3CnzmXKdYe3w", "name": "Jimmy's Food Store", "location": {"display_address": ["4901 Bryan St", "Dallas, TX 75206"], "country": "US", "state": "TX", "address3": "", "address2": "", "address1": "4901 Bryan St", "city": "Dallas", "zip_code": "75206"}, "is_closed": false, "review_count": 636, "coordinates": {"latitude": 32.80413, "longitude": -96.773666}, "id": "jimmys-food-store-dallas", "image_url": "https://s3-media4.fl.yelpcdn.com/bphoto/yxArm5824crDSL4ttLSJFQ/o.jpg", "categories": [{"alias": "grocery", "title": "Grocery"}, {"alias": "sandwiches", "title": "Sandwiches"}, {"alias": "winetastingroom", "title": "Wine Tasting Room"}], "rating": 4.5}, {"transactions": [], "distance": 2716.3623384899997, "display_phone": "", "phone": "", "url": "https://www.yelp.com/biz/yelps-pizza-party-at-spin-dallas?adjust_creative=gBcvfFpabk3CnzmXKdYe3w&utm_campaign=yelp_api_v3&utm_medium=api_v3_business_search&utm_source=gBcvfFpabk3CnzmXKdYe3w", "name": "Yelp's Pizza Party at Spin!", "location": {"display_address": ["5627 Smu Blvd", "Dallas, TX 75206"], "country": "US", "state": "TX", "address3": null, "address2": "", "address1": "5627 Smu Blvd", "city": "Dallas", "zip_code": "75206"}, "is_closed": false, "review_count": 31, "coordinates": {"latitude": 32.8421649, "longitude": -96.7719043}, "id": "yelps-pizza-party-at-spin-dallas", "image_url": "https://s3-media4.fl.yelpcdn.com/bphoto/3Nw2D_89Y4JP-Ikh9yQZLQ/o.jpg", "categories": [{"alias": "yelpevents", "title": "Yelp Events"}], "rating": 5.0}, {"transactions": [], "distance": 4723.371700896, "price": "$$$", "display_phone": "(214) 855-5454", "phone": "+12148555454", "url": "https://www.yelp.com/biz/uchi-dallas?adjust_creative=gBcvfFpabk3CnzmXKdYe3w&utm_campaign=yelp_api_v3&utm_medium=api_v3_business_search&utm_source=gBcvfFpabk3CnzmXKdYe3w", "name": "Uchi", "location": {"display_address": ["2817 Maple Ave", "Dallas, TX 75201"], "country": "US", "state": "TX", "address3": "", "address2": "", "address1": "2817 Maple Ave", "city": "Dallas", "zip_code": "75201"}, "is_closed": false, "review_count": 576, "coordinates": {"latitude": 32.7968594931252, "longitude": -96.8064853736551}, "id": "uchi-dallas", "image_url": "https://s3-media1.fl.yelpcdn.com/bphoto/PqU1HKvcaNCqhIJ0w9gqmA/o.jpg", "categories": [{"alias": "japanese", "title": "Japanese"}, {"alias": "sushi", "title": "Sushi Bars"}, {"alias": "seafood", "title": "Seafood"}], "rating": 4.5}, {"transactions": [], "distance": 2186.5880491079997, "price": "$$", "display_phone": "(214) 231-5367", "phone": "+12142315367", "url": "https://www.yelp.com/biz/flower-child-dallas?adjust_creative=gBcvfFpabk3CnzmXKdYe3w&utm_campaign=yelp_api_v3&utm_medium=api_v3_business_search&utm_source=gBcvfFpabk3CnzmXKdYe3w", "name": "Flower Child", "location": {"display_address": ["5450 W Lovers Ln", "Ste 133", "Dallas, TX 75209"], "country": "US", "state": "TX", "address3": null, "address2": "Ste 133", "address1": "5450 W Lovers Ln", "city": "Dallas", "zip_code": "75209"}, "is_closed": false, "review_count": 52, "coordinates": {"latitude": 32.8510451, "longitude": -96.8196438}, "id": "flower-child-dallas", "image_url": "https://s3-media1.fl.yelpcdn.com/bphoto/3C9PVfFLuC2ui4JQfWXX8Q/o.jpg", "categories": [{"alias": "cafes", "title": "Cafes"}, {"alias": "gluten_free", "title": "Gluten-Free"}, {"alias": "vegetarian", "title": "Vegetarian"}], "rating": 4.5}, {"transactions": [], "distance": 2774.19155738, "price": "$$", "display_phone": "(214) 363-2337", "phone": "+12143632337", "url": "https://www.yelp.com/biz/hopdoddy-burger-bar-dallas?adjust_creative=gBcvfFpabk3CnzmXKdYe3w&utm_campaign=yelp_api_v3&utm_medium=api_v3_business_search&utm_source=gBcvfFpabk3CnzmXKdYe3w", "name": "Hopdoddy Burger Bar", "location": {"display_address": ["6030 Luther Ln", "Ste 100", "Dallas, TX 75225"], "country": "US", "state": "TX", "address3": "", "address2": "Ste 100", "address1": "6030 Luther Ln", "city": "Dallas", "zip_code": "75225"}, "is_closed": false, "review_count": 989, "coordinates": {"latitude": 32.8634279534932, "longitude": -96.8068246438012}, "id": "hopdoddy-burger-bar-dallas", "image_url": "https://s3-media4.fl.yelpcdn.com/bphoto/67l-aSnX_QnJ5nLdHZaBRg/o.jpg", "categories": [{"alias": "burgers", "title": "Burgers"}, {"alias": "beerbar", "title": "Beer Bar"}, {"alias": "cocktailbars", "title": "Cocktail Bars"}], "rating": 4.5}, {"transactions": [], "distance": 5390.804266792, "display_phone": "", "phone": "", "url": "https://www.yelp.com/biz/elite-event-yelp-gets-glammed-up-dallas?adjust_creative=gBcvfFpabk3CnzmXKdYe3w&utm_campaign=yelp_api_v3&utm_medium=api_v3_business_search&utm_source=gBcvfFpabk3CnzmXKdYe3w", "name": "Elite Event: Yelp Gets Glammed Up!", "location": {"display_address": ["7949 Walnut Hill Ln", "Ste 105", "Dallas, TX 75230"], "country": "US", "state": "TX", "address3": null, "address2": "Ste 105", "address1": "7949 Walnut Hill Ln", "city": "Dallas", "zip_code": "75230"}, "is_closed": false, "review_count": 31, "coordinates": {"latitude": 32.8802649, "longitude": -96.7716777}, "id": "elite-event-yelp-gets-glammed-up-dallas", "image_url": "https://s3-media4.fl.yelpcdn.com/bphoto/fbeYiuUnhZk8BvRUVtahgA/o.jpg", "categories": [{"alias": "yelpevents", "title": "Yelp Events"}], "rating": 5.0}, {"transactions": ["delivery"], "distance": 3264.4715166240003, "price": "$", "display_phone": "(214) 521-3300", "phone": "+12145213300", "url": "https://www.yelp.com/biz/italia-express-dallas-2?adjust_creative=gBcvfFpabk3CnzmXKdYe3w&utm_campaign=yelp_api_v3&utm_medium=api_v3_business_search&utm_source=gBcvfFpabk3CnzmXKdYe3w", "name": "Italia Express", "location": {"display_address": ["4000 Cedar Springs Rd", "Dallas, TX 75219"], "country": "US", "state": "TX", "address3": "", "address2": "", "address1": "4000 Cedar Springs Rd", "city": "Dallas", "zip_code": "75219"}, "is_closed": false, "review_count": 231, "coordinates": {"latitude": 32.8110667190261, "longitude": -96.8111293398611}, "id": "italia-express-dallas-2", "image_url": "https://s3-media3.fl.yelpcdn.com/bphoto/jnd0qfYgxx9wC9MecMIYzw/o.jpg", "categories": [{"alias": "italian", "title": "Italian"}], "rating": 4.5}, {"transactions": [], "distance": 4589.100602279999, "price": "$$", "display_phone": "(469) 804-4321", "phone": "+14698044321", "url": "https://www.yelp.com/biz/parliament-dallas-2?adjust_creative=gBcvfFpabk3CnzmXKdYe3w&utm_campaign=yelp_api_v3&utm_medium=api_v3_business_search&utm_source=gBcvfFpabk3CnzmXKdYe3w", "name": "Parliament", "location": {"display_address": ["2418 Allen St", "Dallas, TX 75204"], "country": "US", "state": "TX", "address3": "", "address2": "", "address1": "2418 Allen St", "city": "Dallas", "zip_code": "75204"}, "is_closed": false, "review_count": 299, "coordinates": {"latitude": 32.7978049989365, "longitude": -96.7985488562114}, "id": "parliament-dallas-2", "image_url": "https://s3-media1.fl.yelpcdn.com/bphoto/6isTPvODQvLV2C0OHrNj7w/o.jpg", "categories": [{"alias": "cocktailbars", "title": "Cocktail Bars"}], "rating": 4.5}, {"transactions": [], "distance": 3797.6593770799996, "price": "$", "display_phone": "(214) 443-7822", "phone": "+12144437822", "url": "https://www.yelp.com/biz/mikes-chicken-dallas?adjust_creative=gBcvfFpabk3CnzmXKdYe3w&utm_campaign=yelp_api_v3&utm_medium=api_v3_business_search&utm_source=gBcvfFpabk3CnzmXKdYe3w", "name": "Mike's Chicken", "location": {"display_address": ["4234 Maple Ave", "Dallas, TX 75219"], "country": "US", "state": "TX", "address3": "", "address2": null, "address1": "4234 Maple Ave", "city": "Dallas", "zip_code": "75219"}, "is_closed": false, "review_count": 202, "coordinates": {"latitude": 32.808448, "longitude": -96.818527}, "id": "mikes-chicken-dallas", "image_url": "https://s3-media4.fl.yelpcdn.com/bphoto/Dmo4mi88n2OgKfRyTSw11Q/o.jpg", "categories": [{"alias": "chickenshop", "title": "Chicken Shop"}], "rating": 4.5}, {"transactions": ["pickup"], "distance": 5125.412030742, "price": "$", "display_phone": "(214) 363-5551", "phone": "+12143635551", "url": "https://www.yelp.com/biz/latin-deli-dallas?adjust_creative=gBcvfFpabk3CnzmXKdYe3w&utm_campaign=yelp_api_v3&utm_medium=api_v3_business_search&utm_source=gBcvfFpabk3CnzmXKdYe3w", "name": "Latin Deli", "location": {"display_address": ["5844 Abrams Rd", "Dallas, TX 75214"], "country": "US", "state": "TX", "address3": "", "address2": "", "address1": "5844 Abrams Rd", "city": "Dallas", "zip_code": "75214"}, "is_closed": false, "review_count": 382, "coordinates": {"latitude": 32.8565071, "longitude": -96.7496591}, "id": "latin-deli-dallas", "image_url": "https://s3-media3.fl.yelpcdn.com/bphoto/xFOBXiFPLkXUsEVzHijnvQ/o.jpg", "categories": [{"alias": "latin", "title": "Latin American"}, {"alias": "sandwiches", "title": "Sandwiches"}, {"alias": "breakfast_brunch", "title": "Breakfast & Brunch"}], "rating": 4.5}, {"transactions": [], "distance": 2209.639591532, "price": "$$", "display_phone": "(214) 366-9900", "phone": "+12143669900", "url": "https://www.yelp.com/biz/rise-n-1-dallas?adjust_creative=gBcvfFpabk3CnzmXKdYe3w&utm_campaign=yelp_api_v3&utm_medium=api_v3_business_search&utm_source=gBcvfFpabk3CnzmXKdYe3w", "name": "rise n\u00b01", "location": {"display_address": ["5360 W Lovers Ln", "Ste 220", "Dallas, TX 75209"], "country": "US", "state": "TX", "address3": "", "address2": "Ste 220", "address1": "5360 W Lovers Ln", "city": "Dallas", "zip_code": "75209"}, "is_closed": false, "review_count": 713, "coordinates": {"latitude": 32.8501283339466, "longitude": -96.8201696447052}, "id": "rise-n-1-dallas", "image_url": "https://s3-media1.fl.yelpcdn.com/bphoto/xTEhABgJjRUO1ULKHw-u5Q/o.jpg", "categories": [{"alias": "french", "title": "French"}], "rating": 4.5}, {"transactions": [], "distance": 1555.41584462, "price": "$", "display_phone": "(469) 930-8494", "phone": "+14699308494", "url": "https://www.yelp.com/biz/howdy-homemade-ice-cream-dallas?adjust_creative=gBcvfFpabk3CnzmXKdYe3w&utm_campaign=yelp_api_v3&utm_medium=api_v3_business_search&utm_source=gBcvfFpabk3CnzmXKdYe3w", "name": "Howdy Homemade Ice Cream", "location": {"display_address": ["4333 Lovers Ln", "Dallas, TX 75225"], "country": "US", "state": "TX", "address3": "", "address2": "", "address1": "4333 Lovers Ln", "city": "Dallas", "zip_code": "75225"}, "is_closed": false, "review_count": 91, "coordinates": {"latitude": 32.8509351, "longitude": -96.8095341}, "id": "howdy-homemade-ice-cream-dallas", "image_url": "https://s3-media4.fl.yelpcdn.com/bphoto/z0cY3TrHFG-NTFWIzRBKEQ/o.jpg", "categories": [{"alias": "desserts", "title": "Desserts"}, {"alias": "sandwiches", "title": "Sandwiches"}, {"alias": "icecream", "title": "Ice Cream & Frozen Yogurt"}], "rating": 4.5}, {"transactions": [], "distance": 6105.879412179999, "price": "$", "display_phone": "(469) 759-3585", "phone": "+14697593585", "url": "https://www.yelp.com/biz/serj-books-and-local-food-dallas?adjust_creative=gBcvfFpabk3CnzmXKdYe3w&utm_campaign=yelp_api_v3&utm_medium=api_v3_business_search&utm_source=gBcvfFpabk3CnzmXKdYe3w", "name": "Serj Books & Local Food", "location": {"display_address": ["400 N St Paul St", "Dallas, TX 75201"], "country": "US", "state": "TX", "address3": "", "address2": "", "address1": "400 N St Paul St", "city": "Dallas", "zip_code": "75201"}, "is_closed": false, "review_count": 135, "coordinates": {"latitude": 32.7841829075022, "longitude": -96.797686045712}, "id": "serj-books-and-local-food-dallas", "image_url": "https://s3-media2.fl.yelpcdn.com/bphoto/zumZmc1wcudYPti0qYYiww/o.jpg", "categories": [{"alias": "coffee", "title": "Coffee & Tea"}, {"alias": "bookstores", "title": "Bookstores"}, {"alias": "cafes", "title": "Cafes"}], "rating": 4.5}, {"transactions": [], "distance": 3507.9422887979995, "price": "$$$", "display_phone": "(214) 370-9426", "phone": "+12143709426", "url": "https://www.yelp.com/biz/gemma-dallas?adjust_creative=gBcvfFpabk3CnzmXKdYe3w&utm_campaign=yelp_api_v3&utm_medium=api_v3_business_search&utm_source=gBcvfFpabk3CnzmXKdYe3w", "name": "Gemma", "location": {"display_address": ["2323 N Henderson Ave", "Ste 109", "Dallas, TX 75206"], "country": "US", "state": "TX", "address3": "", "address2": "Ste 109", "address1": "2323 N Henderson Ave", "city": "Dallas", "zip_code": "75206"}, "is_closed": false, "review_count": 288, "coordinates": {"latitude": 32.8138516520667, "longitude": -96.7779396392554}, "id": "gemma-dallas", "image_url": "https://s3-media1.fl.yelpcdn.com/bphoto/W7FwKIo81d8UQhZ0oZa4og/o.jpg", "categories": [{"alias": "newamerican", "title": "American (New)"}], "rating": 4.5}, {"transactions": ["delivery"], "distance": 2945.004812838, "price": "$$", "display_phone": "(214) 826-7788", "phone": "+12148267788", "url": "https://www.yelp.com/biz/cafe-izmir-dallas?adjust_creative=gBcvfFpabk3CnzmXKdYe3w&utm_campaign=yelp_api_v3&utm_medium=api_v3_business_search&utm_source=gBcvfFpabk3CnzmXKdYe3w", "name": "Cafe Izmir", "location": {"display_address": ["3711 Greenville Ave", "Dallas, TX 75206"], "country": "US", "state": "TX", "address3": "", "address2": "", "address1": "3711 Greenville Ave", "city": "Dallas", "zip_code": "75206"}, "is_closed": false, "review_count": 553, "coordinates": {"latitude": 32.8320655971766, "longitude": -96.7701885849237}, "id": "cafe-izmir-dallas", "image_url": "https://s3-media1.fl.yelpcdn.com/bphoto/KIiPZjeWJSJxiWlCxO_xyw/o.jpg", "categories": [{"alias": "mideastern", "title": "Middle Eastern"}, {"alias": "tapas", "title": "Tapas Bars"}, {"alias": "mediterranean", "title": "Mediterranean"}], "rating": 4.5}, {"transactions": [], "distance": 5512.5392505439995, "display_phone": "(214) 716-4500", "phone": "+12147164500", "url": "https://www.yelp.com/biz/klyde-warren-park-dallas?adjust_creative=gBcvfFpabk3CnzmXKdYe3w&utm_campaign=yelp_api_v3&utm_medium=api_v3_business_search&utm_source=gBcvfFpabk3CnzmXKdYe3w", "name": "Klyde Warren Park", "location": {"display_address": ["2012 Woodall Rodgers Fwy", "Dallas, TX 75201"], "country": "US", "state": "TX", "address3": "", "address2": "", "address1": "2012 Woodall Rodgers Fwy", "city": "Dallas", "zip_code": "75201"}, "is_closed": false, "review_count": 362, "coordinates": {"latitude": 32.7894745738813, "longitude": -96.8015492750959}, "id": "klyde-warren-park-dallas", "image_url": "https://s3-media2.fl.yelpcdn.com/bphoto/TulRUEVWqZlAyz0jGgMTng/o.jpg", "categories": [{"alias": "parks", "title": "Parks"}], "rating": 4.5}, {"transactions": [], "distance": 5407.372261158, "price": "$$", "display_phone": "(214) 750-9100", "phone": "+12147509100", "url": "https://www.yelp.com/biz/blues-burgers-dallas?adjust_creative=gBcvfFpabk3CnzmXKdYe3w&utm_campaign=yelp_api_v3&utm_medium=api_v3_business_search&utm_source=gBcvfFpabk3CnzmXKdYe3w", "name": "Blues Burgers", "location": {"display_address": ["1820 W Mockingbird Ln", "Ste 44", "Dallas, TX 75235"], "country": "US", "state": "TX", "address3": "", "address2": "Ste 44", "address1": "1820 W Mockingbird Ln", "city": "Dallas", "zip_code": "75235"}, "is_closed": false, "review_count": 240, "coordinates": {"latitude": 32.8217315673828, "longitude": -96.8547058105469}, "id": "blues-burgers-dallas", "image_url": "https://s3-media3.fl.yelpcdn.com/bphoto/OpG4p1Pon5VZQ-gAl3aoKg/o.jpg", "categories": [{"alias": "burgers", "title": "Burgers"}, {"alias": "tradamerican", "title": "American (Traditional)"}, {"alias": "beerbar", "title": "Beer Bar"}], "rating": 4.5}, {"transactions": [], "distance": 2394.3261624599995, "price": "$", "display_phone": "(214) 823-8358", "phone": "+12148238358", "url": "https://www.yelp.com/biz/velvet-taco-dallas?adjust_creative=gBcvfFpabk3CnzmXKdYe3w&utm_campaign=yelp_api_v3&utm_medium=api_v3_business_search&utm_source=gBcvfFpabk3CnzmXKdYe3w", "name": "Velvet Taco", "location": {"display_address": ["3012 N Henderson Ave", "Dallas, TX 75206"], "country": "US", "state": "TX", "address3": "", "address2": "", "address1": "3012 N Henderson Ave", "city": "Dallas", "zip_code": "75206"}, "is_closed": false, "review_count": 1778, "coordinates": {"latitude": 32.8216823671486, "longitude": -96.7853808991681}, "id": "velvet-taco-dallas", "image_url": "https://s3-media3.fl.yelpcdn.com/bphoto/3aaMDxrcFK7ae_PeQPZHrg/o.jpg", "categories": [{"alias": "newamerican", "title": "American (New)"}, {"alias": "tex-mex", "title": "Tex-Mex"}], "rating": 4.0}, {"transactions": [], "distance": 5332.62533832, "price": "$$$", "display_phone": "(214) 855-5151", "phone": "+12148555151", "url": "https://www.yelp.com/biz/perrys-steakhouse-and-grille-uptown-dallas-dallas?adjust_creative=gBcvfFpabk3CnzmXKdYe3w&utm_campaign=yelp_api_v3&utm_medium=api_v3_business_search&utm_source=gBcvfFpabk3CnzmXKdYe3w", "name": "Perry's Steakhouse & Grille - Uptown Dallas", "location": {"display_address": ["2000 McKinney Ave", "Ste 100", "Dallas, TX 75201"], "country": "US", "state": "TX", "address3": "", "address2": "Ste 100", "address1": "2000 McKinney Ave", "city": "Dallas", "zip_code": "75201"}, "is_closed": false, "review_count": 567, "coordinates": {"latitude": 32.7911390285093, "longitude": -96.8032053055572}, "id": "perrys-steakhouse-and-grille-uptown-dallas-dallas", "image_url": "https://s3-media1.fl.yelpcdn.com/bphoto/chi8e3y4gmUCuc-j1hkEnQ/o.jpg", "categories": [{"alias": "steak", "title": "Steakhouses"}, {"alias": "seafood", "title": "Seafood"}, {"alias": "tradamerican", "title": "American (Traditional)"}], "rating": 4.5}, {"transactions": [], "distance": 4905.207486948, "price": "$$$$", "display_phone": "(214) 303-0500", "phone": "+12143030500", "url": "https://www.yelp.com/biz/the-capital-grille-dallas-3?adjust_creative=gBcvfFpabk3CnzmXKdYe3w&utm_campaign=yelp_api_v3&utm_medium=api_v3_business_search&utm_source=gBcvfFpabk3CnzmXKdYe3w", "name": "The Capital Grille", "location": {"display_address": ["500 Crescent Ct", "Dallas, TX 75201"], "country": "US", "state": "TX", "address3": "", "address2": "", "address1": "500 Crescent Ct", "city": "Dallas", "zip_code": "75201"}, "is_closed": false, "review_count": 329, "coordinates": {"latitude": 32.7950400564173, "longitude": -96.804263271164}, "id": "the-capital-grille-dallas-3", "image_url": "https://s3-media3.fl.yelpcdn.com/bphoto/NARZ1gi_p5vvDI_GDlOUVg/o.jpg", "categories": [{"alias": "steak", "title": "Steakhouses"}, {"alias": "seafood", "title": "Seafood"}, {"alias": "wine_bars", "title": "Wine Bars"}], "rating": 4.5}, {"transactions": [], "distance": 4907.0608028920005, "price": "$", "display_phone": "(214) 823-1260", "phone": "+12148231260", "url": "https://www.yelp.com/biz/tacos-la-banqueta-dallas-4?adjust_creative=gBcvfFpabk3CnzmXKdYe3w&utm_campaign=yelp_api_v3&utm_medium=api_v3_business_search&utm_source=gBcvfFpabk3CnzmXKdYe3w", "name": "Tacos La Banqueta", "location": {"display_address": ["1305 N Carroll Ave", "Dallas, TX 75204"], "country": "US", "state": "TX", "address3": "", "address2": "", "address1": "1305 N Carroll Ave", "city": "Dallas", "zip_code": "75204"}, "is_closed": false, "review_count": 185, "coordinates": {"latitude": 32.79954, "longitude": -96.7771099}, "id": "tacos-la-banqueta-dallas-4", "image_url": "https://s3-media2.fl.yelpcdn.com/bphoto/elfOWFXP1Ng_SUvNpvGpSg/o.jpg", "categories": [{"alias": "mexican", "title": "Mexican"}], "rating": 4.5}, {"transactions": [], "distance": 3466.342620072, "price": "$", "display_phone": "(214) 219-2665", "phone": "+12142192665", "url": "https://www.yelp.com/biz/paciugo-at-west-village-dallas?adjust_creative=gBcvfFpabk3CnzmXKdYe3w&utm_campaign=yelp_api_v3&utm_medium=api_v3_business_search&utm_source=gBcvfFpabk3CnzmXKdYe3w", "name": "Paciugo at West Village", "location": {"display_address": ["3699 McKinney Ave", "Dallas, TX 75204"], "country": "US", "state": "TX", "address3": "", "address2": "", "address1": "3699 McKinney Ave", "city": "Dallas", "zip_code": "75204"}, "is_closed": false, "review_count": 164, "coordinates": {"latitude": 32.808012, "longitude": -96.7970117}, "id": "paciugo-at-west-village-dallas", "image_url": "https://s3-media2.fl.yelpcdn.com/bphoto/qn7lV-_nt_GWHMlVlz48cw/o.jpg", "categories": [{"alias": "icecream", "title": "Ice Cream & Frozen Yogurt"}, {"alias": "gelato", "title": "Gelato"}, {"alias": "coffee", "title": "Coffee & Tea"}], "rating": 4.5}, {"transactions": [], "distance": 2641.565526112, "price": "$", "display_phone": "(214) 351-7037", "phone": "+12143517037", "url": "https://www.yelp.com/biz/tropical-smoothie-cafe-dallas?adjust_creative=gBcvfFpabk3CnzmXKdYe3w&utm_campaign=yelp_api_v3&utm_medium=api_v3_business_search&utm_source=gBcvfFpabk3CnzmXKdYe3w", "name": "Tropical Smoothie Cafe", "location": {"display_address": ["4560 W Mockingbird Ln", "Dallas, TX 75209"], "country": "US", "state": "TX", "address3": "", "address2": null, "address1": "4560 W Mockingbird Ln", "city": "Dallas", "zip_code": "75209"}, "is_closed": false, "review_count": 60, "coordinates": {"latitude": 32.8364551, "longitude": -96.8290427}, "id": "tropical-smoothie-cafe-dallas", "image_url": "https://s3-media2.fl.yelpcdn.com/bphoto/uGwNldH47MG4ApRNr4p9iw/o.jpg", "categories": [{"alias": "juicebars", "title": "Juice Bars & Smoothies"}, {"alias": "sandwiches", "title": "Sandwiches"}], "rating": 4.5}, {"transactions": [], "distance": 5620.354891702, "price": "$$", "display_phone": "(214) 696-2922", "phone": "+12146962922", "url": "https://www.yelp.com/biz/nazca-kitchen-dallas?adjust_creative=gBcvfFpabk3CnzmXKdYe3w&utm_campaign=yelp_api_v3&utm_medium=api_v3_business_search&utm_source=gBcvfFpabk3CnzmXKdYe3w", "name": "Nazca Kitchen", "location": {"display_address": ["8041 Walnut Hill Ln", "Ste 854", "Dallas, TX 75231"], "country": "US", "state": "TX", "address3": null, "address2": "Ste 854", "address1": "8041 Walnut Hill Ln", "city": "Dallas", "zip_code": "75231"}, "is_closed": false, "review_count": 555, "coordinates": {"latitude": 32.8805579, "longitude": -96.767951}, "id": "nazca-kitchen-dallas", "image_url": "https://s3-media2.fl.yelpcdn.com/bphoto/vfg0bNPpwEpuIoRyXd_gtg/o.jpg", "categories": [{"alias": "latin", "title": "Latin American"}, {"alias": "wine_bars", "title": "Wine Bars"}, {"alias": "breakfast_brunch", "title": "Breakfast & Brunch"}], "rating": 4.5}, {"transactions": [], "distance": 2343.354985046, "price": "$$$", "display_phone": "(214) 890-1500", "phone": "+12148901500", "url": "https://www.yelp.com/biz/eddie-vs-prime-seafood-dallas-2?adjust_creative=gBcvfFpabk3CnzmXKdYe3w&utm_campaign=yelp_api_v3&utm_medium=api_v3_business_search&utm_source=gBcvfFpabk3CnzmXKdYe3w", "name": "Eddie V's Prime Seafood", "location": {"display_address": ["4023 Oak Lawn Ave", "Ste 110", "Dallas, TX 75219"], "country": "US", "state": "TX", "address3": "", "address2": "Ste 110", "address1": "4023 Oak Lawn Ave", "city": "Dallas", "zip_code": "75219"}, "is_closed": false, "review_count": 428, "coordinates": {"latitude": 32.8180411940002, "longitude": -96.8026394548507}, "id": "eddie-vs-prime-seafood-dallas-2", "image_url": "https://s3-media4.fl.yelpcdn.com/bphoto/0BjePfkAVCloKEZ2KsZ8Jw/o.jpg", "categories": [{"alias": "steak", "title": "Steakhouses"}, {"alias": "seafood", "title": "Seafood"}, {"alias": "lounges", "title": "Lounges"}], "rating": 4.5}, {"transactions": [], "distance": 5343.88910898, "price": "$$", "display_phone": "(214) 828-8700", "phone": "+12148288700", "url": "https://www.yelp.com/biz/unleavened-fresh-kitchen-dallas?adjust_creative=gBcvfFpabk3CnzmXKdYe3w&utm_campaign=yelp_api_v3&utm_medium=api_v3_business_search&utm_source=gBcvfFpabk3CnzmXKdYe3w", "name": "Unleavened Fresh Kitchen", "location": {"display_address": ["1900 Abrams Pkwy", "Dallas, TX 75214"], "country": "US", "state": "TX", "address3": "", "address2": null, "address1": "1900 Abrams Pkwy", "city": "Dallas", "zip_code": "75214"}, "is_closed": false, "review_count": 137, "coordinates": {"latitude": 32.81287, "longitude": -96.752574}, "id": "unleavened-fresh-kitchen-dallas", "image_url": "https://s3-media3.fl.yelpcdn.com/bphoto/uHXWsw9nEupIbdXF3mpHRg/o.jpg", "categories": [{"alias": "salad", "title": "Salad"}, {"alias": "breakfast_brunch", "title": "Breakfast & Brunch"}, {"alias": "sandwiches", "title": "Sandwiches"}], "rating": 4.5}, {"transactions": [], "distance": 3550.7098555619996, "price": "$$", "display_phone": "(214) 780-0373", "phone": "+12147800373", "url": "https://www.yelp.com/biz/cork-wine-bar-dallas-2?adjust_creative=gBcvfFpabk3CnzmXKdYe3w&utm_campaign=yelp_api_v3&utm_medium=api_v3_business_search&utm_source=gBcvfFpabk3CnzmXKdYe3w", "name": "Cork Wine Bar", "location": {"display_address": ["3636 Mckinney Ave", "Ste 170", "Dallas, TX 75204"], "country": "US", "state": "TX", "address3": "", "address2": "Ste 170", "address1": "3636 Mckinney Ave", "city": "Dallas", "zip_code": "75204"}, "is_closed": false, "review_count": 151, "coordinates": {"latitude": 32.80706, "longitude": -96.7968099}, "id": "cork-wine-bar-dallas-2", "image_url": "https://s3-media2.fl.yelpcdn.com/bphoto/5R2u_ONwiocU5nSi4jD3_w/o.jpg", "categories": [{"alias": "wine_bars", "title": "Wine Bars"}, {"alias": "venues", "title": "Venues & Event Spaces"}], "rating": 4.5}, {"transactions": [], "distance": 5329.4942064159995, "price": "$", "display_phone": "(469) 450-0360", "phone": "+14694500360", "url": "https://www.yelp.com/biz/mario-bros-tacos-dallas?adjust_creative=gBcvfFpabk3CnzmXKdYe3w&utm_campaign=yelp_api_v3&utm_medium=api_v3_business_search&utm_source=gBcvfFpabk3CnzmXKdYe3w", "name": "Mario Bros Tacos", "location": {"display_address": ["5942 Abrams Rd", "Dallas, TX 75231"], "country": "US", "state": "TX", "address3": "", "address2": null, "address1": "5942 Abrams Rd", "city": "Dallas", "zip_code": "75231"}, "is_closed": false, "review_count": 110, "coordinates": {"latitude": 32.85771, "longitude": -96.74804}, "id": "mario-bros-tacos-dallas", "image_url": "https://s3-media3.fl.yelpcdn.com/bphoto/lg-42TELFtz_sXF6JkoHOw/o.jpg", "categories": [{"alias": "mexican", "title": "Mexican"}], "rating": 4.5}, {"transactions": [], "distance": 7998.837745597999, "price": "$", "display_phone": "(214) 247-6394", "phone": "+12142476394", "url": "https://www.yelp.com/biz/full-city-rooster-dallas?adjust_creative=gBcvfFpabk3CnzmXKdYe3w&utm_campaign=yelp_api_v3&utm_medium=api_v3_business_search&utm_source=gBcvfFpabk3CnzmXKdYe3w", "name": "Full City Rooster", "location": {"display_address": ["1810 S Akard St", "Dallas, TX 75215"], "country": "US", "state": "TX", "address3": "", "address2": "", "address1": "1810 S Akard St", "city": "Dallas", "zip_code": "75215"}, "is_closed": false, "review_count": 45, "coordinates": {"latitude": 32.7676942354842, "longitude": -96.789640635252}, "id": "full-city-rooster-dallas", "image_url": "https://s3-media3.fl.yelpcdn.com/bphoto/uiaRaF16XE_bGwVsI6sipA/o.jpg", "categories": [{"alias": "coffee", "title": "Coffee & Tea"}], "rating": 5.0}, {"transactions": ["pickup"], "distance": 3343.8713632699996, "price": "$", "display_phone": "(214) 821-3738", "phone": "+12148213738", "url": "https://www.yelp.com/biz/el-come-taco-dallas?adjust_creative=gBcvfFpabk3CnzmXKdYe3w&utm_campaign=yelp_api_v3&utm_medium=api_v3_business_search&utm_source=gBcvfFpabk3CnzmXKdYe3w", "name": "El Come Taco", "location": {"display_address": ["2513 N Fitzhugh Ave", "Dallas, TX 75204"], "country": "US", "state": "TX", "address3": "", "address2": "", "address1": "2513 N Fitzhugh Ave", "city": "Dallas", "zip_code": "75204"}, "is_closed": false, "review_count": 293, "coordinates": {"latitude": 32.8124324977398, "longitude": -96.7835768312216}, "id": "el-come-taco-dallas", "image_url": "https://s3-media2.fl.yelpcdn.com/bphoto/HL6ocIkP-5ZGG-JkWbj0KQ/o.jpg", "categories": [{"alias": "mexican", "title": "Mexican"}], "rating": 4.5}, {"transactions": [], "distance": 3112.76450658, "price": "$$", "display_phone": "(214) 526-1515", "phone": "+12145261515", "url": "https://www.yelp.com/biz/eatzis-market-and-bakery-dallas-2?adjust_creative=gBcvfFpabk3CnzmXKdYe3w&utm_campaign=yelp_api_v3&utm_medium=api_v3_business_search&utm_source=gBcvfFpabk3CnzmXKdYe3w", "name": "Eatzi's Market & Bakery", "location": {"display_address": ["3403 Oak Lawn Ave", "Dallas, TX 75219"], "country": "US", "state": "TX", "address3": "", "address2": "", "address1": "3403 Oak Lawn Ave", "city": "Dallas", "zip_code": "75219"}, "is_closed": false, "review_count": 679, "coordinates": {"latitude": 32.8114855745709, "longitude": -96.8063945232788}, "id": "eatzis-market-and-bakery-dallas-2", "image_url": "https://s3-media1.fl.yelpcdn.com/bphoto/mrWhUijC0zbHTbQgHD3vXw/o.jpg", "categories": [{"alias": "delis", "title": "Delis"}, {"alias": "breakfast_brunch", "title": "Breakfast & Brunch"}, {"alias": "cafes", "title": "Cafes"}], "rating": 4.0}, {"transactions": ["delivery"], "distance": 6390.541724455999, "price": "$", "display_phone": "(214) 653-8237", "phone": "+12146538237", "url": "https://www.yelp.com/biz/uncle-ubers-dallas-2?adjust_creative=gBcvfFpabk3CnzmXKdYe3w&utm_campaign=yelp_api_v3&utm_medium=api_v3_business_search&utm_source=gBcvfFpabk3CnzmXKdYe3w", "name": "Uncle Uber's", "location": {"display_address": ["2713 Commerce St", "Dallas, TX 75226"], "country": "US", "state": "TX", "address3": "", "address2": "", "address1": "2713 Commerce St", "city": "Dallas", "zip_code": "75226"}, "is_closed": false, "review_count": 842, "coordinates": {"latitude": 32.7834015, "longitude": -96.7834091}, "id": "uncle-ubers-dallas-2", "image_url": "https://s3-media2.fl.yelpcdn.com/bphoto/j9HxnZzHigFzcAQMFIzX8Q/o.jpg", "categories": [{"alias": "sandwiches", "title": "Sandwiches"}, {"alias": "burgers", "title": "Burgers"}, {"alias": "sportsbars", "title": "Sports Bars"}], "rating": 4.5}, {"transactions": [], "distance": 2707.6889614939996, "price": "$", "display_phone": "(214) 242-9725", "phone": "+12142429725", "url": "https://www.yelp.com/biz/union-coffee-house-dallas?adjust_creative=gBcvfFpabk3CnzmXKdYe3w&utm_campaign=yelp_api_v3&utm_medium=api_v3_business_search&utm_source=gBcvfFpabk3CnzmXKdYe3w", "name": "Union Coffee House", "location": {"display_address": ["5622 Dyer St", "Ste 100", "Dallas, TX 75206"], "country": "US", "state": "TX", "address3": "", "address2": "Ste 100", "address1": "5622 Dyer St", "city": "Dallas", "zip_code": "75206"}, "is_closed": false, "review_count": 170, "coordinates": {"latitude": 32.842896, "longitude": -96.771919}, "id": "union-coffee-house-dallas", "image_url": "https://s3-media4.fl.yelpcdn.com/bphoto/XJ9lIGvLBaKASpqYIdiWBQ/o.jpg", "categories": [{"alias": "coffee", "title": "Coffee & Tea"}, {"alias": "sandwiches", "title": "Sandwiches"}, {"alias": "venues", "title": "Venues & Event Spaces"}], "rating": 4.5}, {"transactions": [], "distance": 2418.325123342, "price": "$$", "display_phone": "(214) 252-8595", "phone": "+12142528595", "url": "https://www.yelp.com/biz/victor-tangos-dallas?adjust_creative=gBcvfFpabk3CnzmXKdYe3w&utm_campaign=yelp_api_v3&utm_medium=api_v3_business_search&utm_source=gBcvfFpabk3CnzmXKdYe3w", "name": "Victor Tangos", "location": {"display_address": ["3001 N Henderson Ave", "Dallas, TX 75206"], "country": "US", "state": "TX", "address3": "", "address2": "", "address1": "3001 N Henderson Ave", "city": "Dallas", "zip_code": "75206"}, "is_closed": false, "review_count": 744, "coordinates": {"latitude": 32.8212786, "longitude": -96.7856091}, "id": "victor-tangos-dallas", "image_url": "https://s3-media1.fl.yelpcdn.com/bphoto/c23eMmNSjwllaocxOtCTyg/o.jpg", "categories": [{"alias": "newamerican", "title": "American (New)"}, {"alias": "gastropubs", "title": "Gastropubs"}, {"alias": "cocktailbars", "title": "Cocktail Bars"}], "rating": 4.0}, {"transactions": [], "distance": 8000.4583509779995, "price": "$", "display_phone": "(214) 939-3474", "phone": "+12149393474", "url": "https://www.yelp.com/biz/whiskers-fish-and-burgers-dallas?adjust_creative=gBcvfFpabk3CnzmXKdYe3w&utm_campaign=yelp_api_v3&utm_medium=api_v3_business_search&utm_source=gBcvfFpabk3CnzmXKdYe3w", "name": "Whiskers Fish & Burgers", "location": {"display_address": ["1702 Singleton Blvd", "Dallas, TX 75212"], "country": "US", "state": "TX", "address3": "", "address2": "", "address1": "1702 Singleton Blvd", "city": "Dallas", "zip_code": "75212"}, "is_closed": false, "review_count": 83, "coordinates": {"latitude": 32.7783698986958, "longitude": -96.8465498862289}, "id": "whiskers-fish-and-burgers-dallas", "image_url": "https://s3-media4.fl.yelpcdn.com/bphoto/bZ5GpukwaM_alQQu1g-S1w/o.jpg", "categories": [{"alias": "seafood", "title": "Seafood"}, {"alias": "burgers", "title": "Burgers"}], "rating": 5.0}, {"transactions": [], "distance": 2565.643302272, "price": "$$", "display_phone": "(214) 821-1880", "phone": "+12148211880", "url": "https://www.yelp.com/biz/the-old-monk-dallas?adjust_creative=gBcvfFpabk3CnzmXKdYe3w&utm_campaign=yelp_api_v3&utm_medium=api_v3_business_search&utm_source=gBcvfFpabk3CnzmXKdYe3w", "name": "The Old Monk", "location": {"display_address": ["2847 N Henderson Ave", "Dallas, TX 75206"], "country": "US", "state": "TX", "address3": "", "address2": "", "address1": "2847 N Henderson Ave", "city": "Dallas", "zip_code": "75206"}, "is_closed": false, "review_count": 399, "coordinates": {"latitude": 32.820092541427, "longitude": -96.784871667538}, "id": "the-old-monk-dallas", "image_url": "https://s3-media1.fl.yelpcdn.com/bphoto/IgJK2gdQR0yHin7HI5X-QQ/o.jpg", "categories": [{"alias": "pubs", "title": "Pubs"}], "rating": 4.0}, {"transactions": [], "distance": 2551.9684184239995, "price": "$$$", "display_phone": "(214) 828-2400", "phone": "+12148282400", "url": "https://www.yelp.com/biz/tei-tei-robata-bar-dallas-2?adjust_creative=gBcvfFpabk3CnzmXKdYe3w&utm_campaign=yelp_api_v3&utm_medium=api_v3_business_search&utm_source=gBcvfFpabk3CnzmXKdYe3w", "name": "Tei Tei Robata Bar", "location": {"display_address": ["2906 N Henderson Ave", "Dallas, TX 75206"], "country": "US", "state": "TX", "address3": "", "address2": "", "address1": "2906 N Henderson Ave", "city": "Dallas", "zip_code": "75206"}, "is_closed": false, "review_count": 425, "coordinates": {"latitude": 32.82052, "longitude": -96.78459}, "id": "tei-tei-robata-bar-dallas-2", "image_url": "https://s3-media4.fl.yelpcdn.com/bphoto/3ZTCHoGhvwh4BhqG2F0O7Q/o.jpg", "categories": [{"alias": "japanese", "title": "Japanese"}, {"alias": "sushi", "title": "Sushi Bars"}, {"alias": "lounges", "title": "Lounges"}], "rating": 4.0}, {"transactions": [], "distance": 6321.6886875, "price": "$$", "display_phone": "(214) 741-6492", "phone": "+12147416492", "url": "https://www.yelp.com/biz/niwa-japanese-bbq-dallas?adjust_creative=gBcvfFpabk3CnzmXKdYe3w&utm_campaign=yelp_api_v3&utm_medium=api_v3_business_search&utm_source=gBcvfFpabk3CnzmXKdYe3w", "name": "Niwa Japanese BBQ", "location": {"display_address": ["2939 Main St", "Dallas, TX 75226"], "country": "US", "state": "TX", "address3": null, "address2": "", "address1": "2939 Main St", "city": "Dallas", "zip_code": "75226"}, "is_closed": false, "review_count": 87, "coordinates": {"latitude": 32.784664, "longitude": -96.780799}, "id": "niwa-japanese-bbq-dallas", "image_url": "https://s3-media2.fl.yelpcdn.com/bphoto/Ppt_uXCrbhpa9beaPcn1bQ/o.jpg", "categories": [{"alias": "japanese", "title": "Japanese"}, {"alias": "bbq", "title": "Barbeque"}], "rating": 4.5}, {"transactions": [], "distance": 3890.119500628, "price": "$$", "display_phone": "(469) 500-0139", "phone": "+14695000139", "url": "https://www.yelp.com/biz/truck-yard-dallas?adjust_creative=gBcvfFpabk3CnzmXKdYe3w&utm_campaign=yelp_api_v3&utm_medium=api_v3_business_search&utm_source=gBcvfFpabk3CnzmXKdYe3w", "name": "Truck Yard", "location": {"display_address": ["5624 Sears St", "Dallas, TX 75206"], "country": "US", "state": "TX", "address3": "", "address2": "", "address1": "5624 Sears St", "city": "Dallas", "zip_code": "75206"}, "is_closed": false, "review_count": 736, "coordinates": {"latitude": 32.814262, "longitude": -96.771146}, "id": "truck-yard-dallas", "image_url": "https://s3-media2.fl.yelpcdn.com/bphoto/osGV0F4kA8lDGSA_95nojQ/o.jpg", "categories": [{"alias": "foodstands", "title": "Food Stands"}, {"alias": "cheesesteaks", "title": "Cheesesteaks"}], "rating": 4.0}, {"transactions": [], "distance": 6908.144092615999, "price": "$", "display_phone": "(214) 684-9932", "phone": "+12146849932", "url": "https://www.yelp.com/biz/palmieri-cafe-dallas?adjust_creative=gBcvfFpabk3CnzmXKdYe3w&utm_campaign=yelp_api_v3&utm_medium=api_v3_business_search&utm_source=gBcvfFpabk3CnzmXKdYe3w", "name": "Palmieri Cafe", "location": {"display_address": ["920 S Harwood St", "Ste 100", "Dallas, TX 75201"], "country": "US", "state": "TX", "address3": "", "address2": "Ste 100", "address1": "920 S Harwood St", "city": "Dallas", "zip_code": "75201"}, "is_closed": false, "review_count": 92, "coordinates": {"latitude": 32.7775444, "longitude": -96.7900422}, "id": "palmieri-cafe-dallas", "image_url": "https://s3-media4.fl.yelpcdn.com/bphoto/8gUTMx3ZteOFpWGSQsVtKg/o.jpg", "categories": [{"alias": "coffee", "title": "Coffee & Tea"}, {"alias": "bakeries", "title": "Bakeries"}, {"alias": "cafes", "title": "Cafes"}], "rating": 4.5}, {"transactions": ["pickup"], "distance": 6261.268914012, "price": "$$", "display_phone": "(972) 803-5151", "phone": "+19728035151", "url": "https://www.yelp.com/biz/armoury-d-e-dallas?adjust_creative=gBcvfFpabk3CnzmXKdYe3w&utm_campaign=yelp_api_v3&utm_medium=api_v3_business_search&utm_source=gBcvfFpabk3CnzmXKdYe3w", "name": "Armoury D E", "location": {"display_address": ["2714 Elm St", "Dallas, TX 75226"], "country": "US", "state": "TX", "address3": "", "address2": "", "address1": "2714 Elm St", "city": "Dallas", "zip_code": "75226"}, "is_closed": false, "review_count": 158, "coordinates": {"latitude": 32.7844633049979, "longitude": -96.7840666551348}, "id": "armoury-d-e-dallas", "image_url": "https://s3-media2.fl.yelpcdn.com/bphoto/tnu4DLm4Onl2xtpGE2vxHA/o.jpg", "categories": [{"alias": "cocktailbars", "title": "Cocktail Bars"}, {"alias": "burgers", "title": "Burgers"}, {"alias": "hungarian", "title": "Hungarian"}], "rating": 4.5}, {"transactions": [], "distance": 1562.205006344, "price": "$", "display_phone": "(214) 373-6527", "phone": "+12143736527", "url": "https://www.yelp.com/biz/bubbas-cooks-country-dallas?adjust_creative=gBcvfFpabk3CnzmXKdYe3w&utm_campaign=yelp_api_v3&utm_medium=api_v3_business_search&utm_source=gBcvfFpabk3CnzmXKdYe3w", "name": "Bubba's Cooks Country", "location": {"display_address": ["6617 Hillcrest Ave", "Dallas, TX 75205"], "country": "US", "state": "TX", "address3": "", "address2": null, "address1": "6617 Hillcrest Ave", "city": "Dallas", "zip_code": "75205"}, "is_closed": false, "review_count": 394, "coordinates": {"latitude": 32.8472817, "longitude": -96.7870149}, "id": "bubbas-cooks-country-dallas", "image_url": "https://s3-media2.fl.yelpcdn.com/bphoto/5xTDXEvL8ksZsEBr1qdd5w/o.jpg", "categories": [{"alias": "tradamerican", "title": "American (Traditional)"}, {"alias": "breakfast_brunch", "title": "Breakfast & Brunch"}], "rating": 4.0}, {"transactions": [], "distance": 3814.28385928, "price": "$$", "display_phone": "(214) 351-1888", "phone": "+12143511888", "url": "https://www.yelp.com/biz/bona-pizza-dallas?adjust_creative=gBcvfFpabk3CnzmXKdYe3w&utm_campaign=yelp_api_v3&utm_medium=api_v3_business_search&utm_source=gBcvfFpabk3CnzmXKdYe3w", "name": "Bona Pizza", "location": {"display_address": ["4218 W Lovers Ln", "Ste A", "Dallas, TX 75209"], "country": "US", "state": "TX", "address3": "", "address2": "Ste A", "address1": "4218 W Lovers Ln", "city": "Dallas", "zip_code": "75209"}, "is_closed": false, "review_count": 142, "coordinates": {"latitude": 32.8508623854708, "longitude": -96.8388635657759}, "id": "bona-pizza-dallas", "image_url": "https://s3-media2.fl.yelpcdn.com/bphoto/p7FP9aCcF6KPHLXuSvOOGQ/o.jpg", "categories": [{"alias": "pizza", "title": "Pizza"}], "rating": 4.5}, {"transactions": [], "distance": 3361.089370062, "price": "$$", "display_phone": "(214) 443-9100", "phone": "+12144439100", "url": "https://www.yelp.com/biz/sip-stir-cafe-dallas?adjust_creative=gBcvfFpabk3CnzmXKdYe3w&utm_campaign=yelp_api_v3&utm_medium=api_v3_business_search&utm_source=gBcvfFpabk3CnzmXKdYe3w", "name": "Sip Stir Cafe", "location": {"display_address": ["3800 McKinney Ave", "Ste 180", "Dallas, TX 75204"], "country": "US", "state": "TX", "address3": "", "address2": "Ste 180", "address1": "3800 McKinney Ave", "city": "Dallas", "zip_code": "75204"}, "is_closed": false, "review_count": 309, "coordinates": {"latitude": 32.809156, "longitude": -96.7951636}, "id": "sip-stir-cafe-dallas", "image_url": "https://s3-media3.fl.yelpcdn.com/bphoto/F7hnmStbEZrStGe8rvIkbQ/o.jpg", "categories": [{"alias": "coffee", "title": "Coffee & Tea"}], "rating": 4.5}, {"transactions": [], "distance": 7238.752418155999, "display_phone": "", "phone": "", "url": "https://www.yelp.com/biz/white-rock-lake-dallas?adjust_creative=gBcvfFpabk3CnzmXKdYe3w&utm_campaign=yelp_api_v3&utm_medium=api_v3_business_search&utm_source=gBcvfFpabk3CnzmXKdYe3w", "name": "White Rock Lake", "location": {"display_address": ["Dallas, TX 75334"], "country": "US", "state": "TX", "address3": "", "address2": "", "address1": "", "city": "Dallas", "zip_code": "75334"}, "is_closed": false, "review_count": 207, "coordinates": {"latitude": 32.8311350003598, "longitude": -96.7236328125}, "id": "white-rock-lake-dallas", "image_url": "https://s3-media1.fl.yelpcdn.com/bphoto/rTCQWF4aDXYSof2GToPwJg/o.jpg", "categories": [{"alias": "parks", "title": "Parks"}, {"alias": "lakes", "title": "Lakes"}], "rating": 4.5}, {"transactions": [], "distance": 2348.7599534359997, "price": "$$", "display_phone": "(214) 841-4713", "phone": "+12148414713", "url": "https://www.yelp.com/biz/angelika-film-center-and-cafe-dallas-dallas-2?adjust_creative=gBcvfFpabk3CnzmXKdYe3w&utm_campaign=yelp_api_v3&utm_medium=api_v3_business_search&utm_source=gBcvfFpabk3CnzmXKdYe3w", "name": "Angelika Film Center & Cafe - Dallas", "location": {"display_address": ["5321 E Mockingbird Ln", "Dallas, TX 75206"], "country": "US", "state": "TX", "address3": "", "address2": "", "address1": "5321 E Mockingbird Ln", "city": "Dallas", "zip_code": "75206"}, "is_closed": false, "review_count": 268, "coordinates": {"latitude": 32.838272, "longitude": -96.775412}, "id": "angelika-film-center-and-cafe-dallas-dallas-2", "image_url": "https://s3-media3.fl.yelpcdn.com/bphoto/FqTKsQm_Kj8MzxgFxG3f7g/o.jpg", "categories": [{"alias": "movietheaters", "title": "Cinema"}, {"alias": "bars", "title": "Bars"}, {"alias": "cafes", "title": "Cafes"}], "rating": 4.5}, {"transactions": [], "distance": 1998.750712328, "price": "$$", "display_phone": "(469) 893-9400", "phone": "+14698939400", "url": "https://www.yelp.com/biz/atwater-dallas-2?adjust_creative=gBcvfFpabk3CnzmXKdYe3w&utm_campaign=yelp_api_v3&utm_medium=api_v3_business_search&utm_source=gBcvfFpabk3CnzmXKdYe3w", "name": "Atwater", "location": {"display_address": ["4900 McKinney Ave", "Dallas, TX 75205"], "country": "US", "state": "TX", "address3": "", "address2": "", "address1": "4900 McKinney Ave", "city": "Dallas", "zip_code": "75205"}, "is_closed": false, "review_count": 31, "coordinates": {"latitude": 32.8268975, "longitude": -96.7847649}, "id": "atwater-dallas-2", "image_url": "https://s3-media2.fl.yelpcdn.com/bphoto/lK3BS2d_nOFGo_HEnwgoTw/o.jpg", "categories": [{"alias": "cocktailbars", "title": "Cocktail Bars"}, {"alias": "lounges", "title": "Lounges"}], "rating": 4.5}, {"transactions": [], "distance": 4570.807878236, "price": "$", "display_phone": "(214) 987-9090", "phone": "+12149879090", "url": "https://www.yelp.com/biz/henks-european-deli-and-black-forest-bakery-dallas?adjust_creative=gBcvfFpabk3CnzmXKdYe3w&utm_campaign=yelp_api_v3&utm_medium=api_v3_business_search&utm_source=gBcvfFpabk3CnzmXKdYe3w", "name": "Henk's European Deli & Black Forest Bakery", "location": {"display_address": ["5811 Blackwell St", "Dallas, TX 75231"], "country": "US", "state": "TX", "address3": "", "address2": "", "address1": "5811 Blackwell St", "city": "Dallas", "zip_code": "75231"}, "is_closed": false, "review_count": 286, "coordinates": {"latitude": 32.8671099, "longitude": -96.76498}, "id": "henks-european-deli-and-black-forest-bakery-dallas", "image_url": "https://s3-media3.fl.yelpcdn.com/bphoto/VxqS82n1e4mfPkE7XBHMxA/o.jpg", "categories": [{"alias": "bakeries", "title": "Bakeries"}, {"alias": "sandwiches", "title": "Sandwiches"}, {"alias": "german", "title": "German"}], "rating": 4.5}], "total": 32258}