{"total": 32254, "region": {"center": {"longitude": -96.800537109375, "latitude": 32.839043482398054}}, "businesses": [{"rating": 4.5, "is_closed": false, "distance": 5718.961084709999, "name": "Meso Maya Comida Y Copas", "id": "meso-maya-comida-y-copas-dallas-4", "image_url": "https://s3-media2.fl.yelpcdn.com/bphoto/qb-haRoxPftwloxMC5Ictg/o.jpg", "url": "https://www.yelp.com/biz/meso-maya-comida-y-copas-dallas-4?adjust_creative=gBcvfFpabk3CnzmXKdYe3w&utm_campaign=yelp_api_v3&utm_medium=api_v3_business_search&utm_source=gBcvfFpabk3CnzmXKdYe3w", "phone": "+12144846555", "coordinates": {"longitude": -96.805, "latitude": 32.7879}, "categories": [{"alias": "mexican", "title": "Mexican"}], "review_count": 1050, "location": {"city": "Dallas", "address1": "1611 McKinney Ave", "address3": "", "address2": "", "zip_code": "75202", "country": "US", "display_address": ["1611 McKinney Ave", "Dallas, TX 75202"], "state": "TX"}, "price": "$$", "transactions": [], "display_phone": "(214) 484-6555"}, {"rating": 4.0, "is_closed": false, "distance": 3973.3727509699993, "name": "HG Sply Co - Dallas", "id": "hg-sply-co-dallas-dallas", "image_url": "https://s3-media3.fl.yelpcdn.com/bphoto/9EGlHBo7QTXY2IqIdjhfGA/o.jpg", "url": "https://www.yelp.com/biz/hg-sply-co-dallas-dallas?adjust_creative=gBcvfFpabk3CnzmXKdYe3w&utm_campaign=yelp_api_v3&utm_medium=api_v3_business_search&utm_source=gBcvfFpabk3CnzmXKdYe3w", "phone": "+14693340895", "coordinates": {"longitude": -96.769792, "latitude": 32.8143559}, "categories": [{"alias": "newamerican", "title": "American (New)"}, {"alias": "bars", "title": "Bars"}], "review_count": 957, "location": {"city": "Dallas", "address1": "2008 Greenville Ave", "address3": "", "address2": "", "zip_code": "75206", "country": "US", "display_address": ["2008 Greenville Ave", "Dallas, TX 75206"], "state": "TX"}, "price": "$$", "transactions": [], "display_phone": "(469) 334-0895"}, {"rating": 4.5, "is_closed": false, "distance": 5965.756270522, "name": "Medina Oven & Bar", "id": "medina-oven-and-bar-dallas", "image_url": "https://s3-media2.fl.yelpcdn.com/bphoto/rJC2WHQPsK4nYf3roPW_Rw/o.jpg", "url": "https://www.yelp.com/biz/medina-oven-and-bar-dallas?adjust_creative=gBcvfFpabk3CnzmXKdYe3w&utm_campaign=yelp_api_v3&utm_medium=api_v3_business_search&utm_source=gBcvfFpabk3CnzmXKdYe3w", "phone": "+12149790003", "coordinates": {"longitude": -96.8092757, "latitude": 32.7854636}, "categories": [{"alias": "moroccan", "title": "Moroccan"}, {"alias": "bars", "title": "Bars"}, {"alias": "mediterranean", "title": "Mediterranean"}], "review_count": 373, "location": {"city": "Dallas", "address1": "2304 Victory Park Ln", "address3": "", "address2": "", "zip_code": "75219", "country": "US", "display_address": ["2304 Victory Park Ln", "Dallas, TX 75219"], "state": "TX"}, "price": "$$", "transactions": ["delivery", "pickup"], "display_phone": "(214) 979-0003"}, {"rating": 4.5, "is_closed": false, "distance": 4411.6555785499995, "name": "E Bar Tex-Mex", "id": "e-bar-tex-mex-dallas-4", "image_url": "https://s3-media1.fl.yelpcdn.com/bphoto/H2aiMBt0-k1UP1fXoqdCUA/o.jpg", "url": "https://www.yelp.com/biz/e-bar-tex-mex-dallas-4?adjust_creative=gBcvfFpabk3CnzmXKdYe3w&utm_campaign=yelp_api_v3&utm_medium=api_v3_business_search&utm_source=gBcvfFpabk3CnzmXKdYe3w", "phone": "+12148243227", "coordinates": {"longitude": -96.785778, "latitude": 32.801357}, "categories": [{"alias": "mexican", "title": "Mexican"}, {"alias": "tex-mex", "title": "Tex-Mex"}, {"alias": "bars", "title": "Bars"}], "review_count": 356, "location": {"city": "Dallas", "address1": "1901 N Haskell Ave", "address3": "", "address2": "Ste 120", "zip_code": "75204", "country": "US", "display_address": ["1901 N Haskell Ave", "Ste 120", "Dallas, TX 75204"], "state": "TX"}, "price": "$$", "transactions": [], "display_phone": "(214) 824-3227"}, {"rating": 4.0, "is_closed": false, "distance": 2092.391769568, "name": "Al Biernat's", "id": "al-biernats-restaurant-dallas", "image_url": "https://s3-media4.fl.yelpcdn.com/bphoto/WDpJX6UWF_QcO0O0i5mFkw/o.jpg", "url": "https://www.yelp.com/biz/al-biernats-restaurant-dallas?adjust_creative=gBcvfFpabk3CnzmXKdYe3w&utm_campaign=yelp_api_v3&utm_medium=api_v3_business_search&utm_source=gBcvfFpabk3CnzmXKdYe3w", "phone": "+12142192201", "coordinates": {"longitude": -96.80266, "latitude": 32.8203}, "categories": [{"alias": "steak", "title": "Steakhouses"}, {"alias": "seafood", "title": "Seafood"}, {"alias": "bars", "title": "Bars"}], "review_count": 535, "location": {"city": "Dallas", "address1": "4217 Oak Lawn Ave", "address3": "", "address2": "", "zip_code": "75219", "country": "US", "display_address": ["4217 Oak Lawn Ave", "Dallas, TX 75219"], "state": "TX"}, "price": "$$$", "transactions": [], "display_phone": "(214) 219-2201"}, {"rating": 4.0, "is_closed": false, "distance": 2690.1177045719996, "name": "Hillstone Restaurant", "id": "hillstone-restaurant-dallas", "image_url": "https://s3-media3.fl.yelpcdn.com/bphoto/PxhF-oNJ8Tb139Yjj6Gcjw/o.jpg", "url": "https://www.yelp.com/biz/hillstone-restaurant-dallas?adjust_creative=gBcvfFpabk3CnzmXKdYe3w&utm_campaign=yelp_api_v3&utm_medium=api_v3_business_search&utm_source=gBcvfFpabk3CnzmXKdYe3w", "phone": "+12146918991", "coordinates": {"longitude": -96.80372640714, "latitude": 32.863086142812}, "categories": [{"alias": "newamerican", "title": "American (New)"}, {"alias": "steak", "title": "Steakhouses"}], "review_count": 334, "location": {"city": "Dallas", "address1": "8300 A Preston Rd", "address3": "", "address2": "", "zip_code": "75225", "country": "US", "display_address": ["8300 A Preston Rd", "Dallas, TX 75225"], "state": "TX"}, "price": "$$$", "transactions": [], "display_phone": "(214) 691-8991"}, {"rating": 4.5, "is_closed": false, "distance": 6271.443805227999, "name": "Black Swan Saloon", "id": "black-swan-saloon-dallas", "image_url": "https://s3-media2.fl.yelpcdn.com/bphoto/oErwSqyau3iVJsc3xP5trw/o.jpg", "url": "https://www.yelp.com/biz/black-swan-saloon-dallas?adjust_creative=gBcvfFpabk3CnzmXKdYe3w&utm_campaign=yelp_api_v3&utm_medium=api_v3_business_search&utm_source=gBcvfFpabk3CnzmXKdYe3w", "phone": "+12147494848", "coordinates": {"longitude": -96.7845169, "latitude": 32.7843597}, "categories": [{"alias": "lounges", "title": "Lounges"}], "review_count": 164, "location": {"city": "Dallas", "address1": "2708 W Elm St", "address3": "", "address2": "", "zip_code": "75226", "country": "US", "display_address": ["2708 W Elm St", "Dallas, TX 75226"], "state": "TX"}, "price": "$$", "transactions": [], "display_phone": "(214) 749-4848"}, {"rating": 4.5, "is_closed": false, "distance": 6337.5290992519995, "name": "Caf\u00e9 Momentum", "id": "caf\u00e9-momentum-dallas-2", "image_url": "https://s3-media1.fl.yelpcdn.com/bphoto/Ef2aoEBr957kYOVmzNPKVw/o.jpg", "url": "https://www.yelp.com/biz/caf%C3%A9-momentum-dallas-2?adjust_creative=gBcvfFpabk3CnzmXKdYe3w&utm_campaign=yelp_api_v3&utm_medium=api_v3_business_search&utm_source=gBcvfFpabk3CnzmXKdYe3w", "phone": "+12143031234", "coordinates": {"longitude": -96.7998048663139, "latitude": 32.781982049346}, "categories": [{"alias": "newamerican", "title": "American (New)"}, {"alias": "nonprofit", "title": "Community Service/Non-Profit"}], "review_count": 96, "location": {"city": "Dallas", "address1": "1510 Pacific Ave", "address3": "", "address2": "", "zip_code": "75201", "country": "US", "display_address": ["1510 Pacific Ave", "Dallas, TX 75201"], "state": "TX"}, "price": "$$", "transactions": [], "display_phone": "(214) 303-1234"}, {"rating": 4.5, "is_closed": false, "distance": 6304.251005798, "name": "Easy Slider", "id": "easy-slider-dallas-2", "image_url": "https://s3-media3.fl.yelpcdn.com/bphoto/vu3wjQogObk98L2QgLt8ow/o.jpg", "url": "https://www.yelp.com/biz/easy-slider-dallas-2?adjust_creative=gBcvfFpabk3CnzmXKdYe3w&utm_campaign=yelp_api_v3&utm_medium=api_v3_business_search&utm_source=gBcvfFpabk3CnzmXKdYe3w", "phone": "+14699177111", "coordinates": {"longitude": -96.78416, "latitude": 32.78404}, "categories": [{"alias": "burgers", "title": "Burgers"}, {"alias": "newamerican", "title": "American (New)"}, {"alias": "foodtrucks", "title": "Food Trucks"}], "review_count": 114, "location": {"city": "Dallas", "address1": "2701 Main St", "address3": null, "address2": "", "zip_code": "75226", "country": "US", "display_address": ["2701 Main St", "Dallas, TX 75226"], "state": "TX"}, "price": "$", "transactions": [], "display_phone": "(469) 917-7111"}, {"rating": 4.5, "is_closed": false, "distance": 3216.7011555359995, "name": "Mimi's Pizzeria", "id": "mimis-pizzeria-dallas", "image_url": "https://s3-media3.fl.yelpcdn.com/bphoto/vsSRJ0AkaVjnYCnXfbNDiQ/o.jpg", "url": "https://www.yelp.com/biz/mimis-pizzeria-dallas?adjust_creative=gBcvfFpabk3CnzmXKdYe3w&utm_campaign=yelp_api_v3&utm_medium=api_v3_business_search&utm_source=gBcvfFpabk3CnzmXKdYe3w", "phone": "+19722157290", "coordinates": {"longitude": -96.787529, "latitude": 32.8657227}, "categories": [{"alias": "italian", "title": "Italian"}, {"alias": "pizza", "title": "Pizza"}, {"alias": "sandwiches", "title": "Sandwiches"}], "review_count": 188, "location": {"city": "Dallas", "address1": "6807 W Northwest Hwy", "address3": "", "address2": null, "zip_code": "75225", "country": "US", "display_address": ["6807 W Northwest Hwy", "Dallas, TX 75225"], "state": "TX"}, "price": "$", "transactions": ["delivery", "pickup"], "display_phone": "(972) 215-7290"}, {"rating": 5.0, "is_closed": false, "distance": 6995.052154098, "name": "Noble Coyote Coffee Roasters", "id": "noble-coyote-coffee-roasters-dallas", "image_url": "https://s3-media2.fl.yelpcdn.com/bphoto/pGymGsRIoQsvWPT5NLH3cA/o.jpg", "url": "https://www.yelp.com/biz/noble-coyote-coffee-roasters-dallas?adjust_creative=gBcvfFpabk3CnzmXKdYe3w&utm_campaign=yelp_api_v3&utm_medium=api_v3_business_search&utm_source=gBcvfFpabk3CnzmXKdYe3w", "phone": "+12143214321", "coordinates": {"longitude": -96.767667, "latitude": 32.782526}, "categories": [{"alias": "coffee", "title": "Coffee & Tea"}], "review_count": 24, "location": {"city": "Dallas", "address1": "819 Exposition Ave", "address3": "", "address2": "", "zip_code": "75226", "country": "US", "display_address": ["819 Exposition Ave", "Dallas, TX 75226"], "state": "TX"}, "price": "$", "transactions": [], "display_phone": "(214) 321-4321"}, {"rating": 4.0, "is_closed": false, "distance": 3259.1693850599995, "name": "Hunky's", "id": "hunkys-dallas-3", "image_url": "https://s3-media4.fl.yelpcdn.com/bphoto/YUq_nx_7Rp49Q-HoO3TE3w/o.jpg", "url": "https://www.yelp.com/biz/hunkys-dallas-3?adjust_creative=gBcvfFpabk3CnzmXKdYe3w&utm_campaign=yelp_api_v3&utm_medium=api_v3_business_search&utm_source=gBcvfFpabk3CnzmXKdYe3w", "phone": "+12145221212", "coordinates": {"longitude": -96.8105567, "latitude": 32.8106666}, "categories": [{"alias": "burgers", "title": "Burgers"}, {"alias": "salad", "title": "Salad"}, {"alias": "sandwiches", "title": "Sandwiches"}], "review_count": 263, "location": {"city": "Dallas", "address1": "3930 Cedar Springs Dr", "address3": "", "address2": "", "zip_code": "75219", "country": "US", "display_address": ["3930 Cedar Springs Dr", "Dallas, TX 75219"], "state": "TX"}, "price": "$", "transactions": ["delivery"], "display_phone": "(214) 522-1212"}, {"rating": 4.5, "is_closed": false, "distance": 4136.1824367399995, "name": "Green House Market", "id": "green-house-market-dallas", "image_url": "https://s3-media3.fl.yelpcdn.com/bphoto/EwTYCq9dlXILsColVjEM-Q/o.jpg", "url": "https://www.yelp.com/biz/green-house-market-dallas?adjust_creative=gBcvfFpabk3CnzmXKdYe3w&utm_campaign=yelp_api_v3&utm_medium=api_v3_business_search&utm_source=gBcvfFpabk3CnzmXKdYe3w", "phone": "+12148095977", "coordinates": {"longitude": -96.7734444513917, "latitude": 32.8684639223761}, "categories": [{"alias": "newamerican", "title": "American (New)"}, {"alias": "vegetarian", "title": "Vegetarian"}], "review_count": 117, "location": {"city": "Dallas", "address1": "8687 N Central Expy", "address3": "", "address2": "", "zip_code": "75225", "country": "US", "display_address": ["8687 N Central Expy", "Dallas, TX 75225"], "state": "TX"}, "price": "$$", "transactions": [], "display_phone": "(214) 809-5977"}, {"rating": 4.5, "is_closed": false, "distance": 3470.8169071399993, "name": "Veritas Wine Room", "id": "veritas-wine-room-dallas", "image_url": "https://s3-media1.fl.yelpcdn.com/bphoto/AXbSGw6W4CA9btcKm9UBfQ/o.jpg", "url": "https://www.yelp.com/biz/veritas-wine-room-dallas?adjust_creative=gBcvfFpabk3CnzmXKdYe3w&utm_campaign=yelp_api_v3&utm_medium=api_v3_business_search&utm_source=gBcvfFpabk3CnzmXKdYe3w", "phone": "+12148419463", "coordinates": {"longitude": -96.7782821655273, "latitude": 32.8141860961914}, "categories": [{"alias": "wine_bars", "title": "Wine Bars"}], "review_count": 140, "location": {"city": "Dallas", "address1": "2323 N Henderson Ave", "address3": "", "address2": "Ste 103", "zip_code": "75206", "country": "US", "display_address": ["2323 N Henderson Ave", "Ste 103", "Dallas, TX 75206"], "state": "TX"}, "price": "$$", "transactions": [], "display_phone": "(214) 841-9463"}, {"rating": 4.5, "is_closed": false, "distance": 5124.735947008, "name": "Times Ten Cellars", "id": "times-ten-cellars-dallas", "image_url": "https://s3-media4.fl.yelpcdn.com/bphoto/oOw7ThEJuvslAc8HS19LZw/o.jpg", "url": "https://www.yelp.com/biz/times-ten-cellars-dallas?adjust_creative=gBcvfFpabk3CnzmXKdYe3w&utm_campaign=yelp_api_v3&utm_medium=api_v3_business_search&utm_source=gBcvfFpabk3CnzmXKdYe3w", "phone": "+12148249463", "coordinates": {"longitude": -96.75388, "latitude": 32.81478}, "categories": [{"alias": "wine_bars", "title": "Wine Bars"}, {"alias": "wineries", "title": "Wineries"}], "review_count": 147, "location": {"city": "Dallas", "address1": "6324 Prospect Ave", "address3": "", "address2": null, "zip_code": "75214", "country": "US", "display_address": ["6324 Prospect Ave", "Dallas, TX 75214"], "state": "TX"}, "price": "$$", "transactions": [], "display_phone": "(214) 824-9463"}, {"rating": 4.0, "is_closed": false, "distance": 3223.5434254799998, "name": "St Martin's Wine Bistro", "id": "st-martins-wine-bistro-dallas", "image_url": "https://s3-media2.fl.yelpcdn.com/bphoto/2INxfWIQYpvSM7CRVMBURg/o.jpg", "url": "https://www.yelp.com/biz/st-martins-wine-bistro-dallas?adjust_creative=gBcvfFpabk3CnzmXKdYe3w&utm_campaign=yelp_api_v3&utm_medium=api_v3_business_search&utm_source=gBcvfFpabk3CnzmXKdYe3w", "phone": "+12148260940", "coordinates": {"longitude": -96.7700272, "latitude": 32.8256607}, "categories": [{"alias": "french", "title": "French"}, {"alias": "wine_bars", "title": "Wine Bars"}, {"alias": "breakfast_brunch", "title": "Breakfast & Brunch"}], "review_count": 253, "location": {"city": "Dallas", "address1": "3020 Greenville Ave", "address3": "", "address2": "", "zip_code": "75206", "country": "US", "display_address": ["3020 Greenville Ave", "Dallas, TX 75206"], "state": "TX"}, "price": "$$$", "transactions": [], "display_phone": "(214) 826-0940"}, {"rating": 4.0, "is_closed": false, "distance": 2245.572935052, "name": "Abacus", "id": "abacus-dallas", "image_url": "https://s3-media3.fl.yelpcdn.com/bphoto/qFKWcR6f5BQSbuUgzKqoHQ/o.jpg", "url": "https://www.yelp.com/biz/abacus-dallas?adjust_creative=gBcvfFpabk3CnzmXKdYe3w&utm_campaign=yelp_api_v3&utm_medium=api_v3_business_search&utm_source=gBcvfFpabk3CnzmXKdYe3w", "phone": "+12145593111", "coordinates": {"longitude": -96.788459004248, "latitude": 32.8215843144473}, "categories": [{"alias": "newamerican", "title": "American (New)"}, {"alias": "seafood", "title": "Seafood"}, {"alias": "steak", "title": "Steakhouses"}], "review_count": 455, "location": {"city": "Dallas", "address1": "4511 McKinney Ave", "address3": "", "address2": "", "zip_code": "75205", "country": "US", "display_address": ["4511 McKinney Ave", "Dallas, TX 75205"], "state": "TX"}, "price": "$$$$", "transactions": [], "display_phone": "(214) 559-3111"}, {"rating": 4.0, "is_closed": false, "distance": 2444.690618694, "name": "Chocolate Secrets", "id": "chocolate-secrets-dallas", "image_url": "https://s3-media1.fl.yelpcdn.com/bphoto/jKLcEn8iSqLbI0MhaBlK1A/o.jpg", "url": "https://www.yelp.com/biz/chocolate-secrets-dallas?adjust_creative=gBcvfFpabk3CnzmXKdYe3w&utm_campaign=yelp_api_v3&utm_medium=api_v3_business_search&utm_source=gBcvfFpabk3CnzmXKdYe3w", "phone": "+12142529801", "coordinates": {"longitude": -96.80217, "latitude": 32.81718}, "categories": [{"alias": "chocolate", "title": "Chocolatiers & Shops"}, {"alias": "wine_bars", "title": "Wine Bars"}, {"alias": "musicvenues", "title": "Music Venues"}], "review_count": 244, "location": {"city": "Dallas", "address1": "3926 Oak Lawn Ave", "address3": "", "address2": null, "zip_code": "75219", "country": "US", "display_address": ["3926 Oak Lawn Ave", "Dallas, TX 75219"], "state": "TX"}, "price": "$$", "transactions": ["delivery", "pickup"], "display_phone": "(214) 252-9801"}, {"rating": 4.5, "is_closed": false, "distance": 6289.656062272, "name": "Stupid Good Coffee", "id": "stupid-good-coffee-dallas", "image_url": "https://s3-media1.fl.yelpcdn.com/bphoto/X_dIYvbP1W-tSa_Hf9XwzQ/o.jpg", "url": "https://www.yelp.com/biz/stupid-good-coffee-dallas?adjust_creative=gBcvfFpabk3CnzmXKdYe3w&utm_campaign=yelp_api_v3&utm_medium=api_v3_business_search&utm_source=gBcvfFpabk3CnzmXKdYe3w", "phone": "+12143299070", "coordinates": {"longitude": -96.7953556, "latitude": 32.782646}, "categories": [{"alias": "coffee", "title": "Coffee & Tea"}], "review_count": 94, "location": {"city": "Dallas", "address1": "1910 Pacific Ave", "address3": "", "address2": "Ste 2060", "zip_code": "75201", "country": "US", "display_address": ["1910 Pacific Ave", "Ste 2060", "Dallas, TX 75201"], "state": "TX"}, "price": "$", "transactions": [], "display_phone": "(214) 329-9070"}, {"rating": 4.5, "is_closed": false, "distance": 5129.942805644, "name": "Arif Cafe", "id": "arif-cafe-dallas", "image_url": "https://s3-media1.fl.yelpcdn.com/bphoto/ZSdI8ZMnP3GX7nP_Pgvx0A/o.jpg", "url": "https://www.yelp.com/biz/arif-cafe-dallas?adjust_creative=gBcvfFpabk3CnzmXKdYe3w&utm_campaign=yelp_api_v3&utm_medium=api_v3_business_search&utm_source=gBcvfFpabk3CnzmXKdYe3w", "phone": "+14692329977", "coordinates": {"longitude": -96.7610678, "latitude": 32.8711238}, "categories": [{"alias": "ethiopian", "title": "Ethiopian"}], "review_count": 47, "location": {"city": "Dallas", "address1": "8367 Park Ln", "address3": "", "address2": "", "zip_code": "75231", "country": "US", "display_address": ["8367 Park Ln", "Dallas, TX 75231"], "state": "TX"}, "price": "$", "transactions": [], "display_phone": "(469) 232-9977"}, {"rating": 4.0, "is_closed": false, "distance": 6358.5771743099995, "name": "Pecan Lodge", "id": "pecan-lodge-dallas-3", "image_url": "https://s3-media2.fl.yelpcdn.com/bphoto/DbkAjh_M-vPRmRxW04MXXw/o.jpg", "url": "https://www.yelp.com/biz/pecan-lodge-dallas-3?adjust_creative=gBcvfFpabk3CnzmXKdYe3w&utm_campaign=yelp_api_v3&utm_medium=api_v3_business_search&utm_source=gBcvfFpabk3CnzmXKdYe3w", "phone": "+12147488900", "coordinates": {"longitude": -96.783875, "latitude": 32.783596}, "categories": [{"alias": "sandwiches", "title": "Sandwiches"}, {"alias": "bbq", "title": "Barbeque"}], "review_count": 2215, "location": {"city": "Dallas", "address1": "2702 Main St", "address3": "", "address2": "", "zip_code": "75226", "country": "US", "display_address": ["2702 Main St", "Dallas, TX 75226"], "state": "TX"}, "price": "$$", "transactions": [], "display_phone": "(214) 748-8900"}, {"rating": 4.5, "is_closed": false, "distance": 6437.140164156, "name": "Cafe Strada", "id": "cafe-strada-dallas-2", "image_url": "https://s3-media1.fl.yelpcdn.com/bphoto/uU3i9bPDcj6pYkvj04OvMQ/o.jpg", "url": "https://www.yelp.com/biz/cafe-strada-dallas-2?adjust_creative=gBcvfFpabk3CnzmXKdYe3w&utm_campaign=yelp_api_v3&utm_medium=api_v3_business_search&utm_source=gBcvfFpabk3CnzmXKdYe3w", "phone": "+12142026485", "coordinates": {"longitude": -96.7984921137767, "latitude": 32.7811777218439}, "categories": [{"alias": "cafes", "title": "Cafes"}], "review_count": 124, "location": {"city": "Dallas", "address1": "1520 Elm", "address3": "", "address2": "Ste 107", "zip_code": "75203", "country": "US", "display_address": ["1520 Elm", "Ste 107", "Dallas, TX 75203"], "state": "TX"}, "price": "$", "transactions": ["pickup"], "display_phone": "(214) 202-6485"}, {"rating": 4.5, "is_closed": false, "distance": 5399.720975996, "name": "Smokey John's Bar-B-Que", "id": "smokey-johns-bar-b-que-dallas", "image_url": "https://s3-media4.fl.yelpcdn.com/bphoto/lrNFMT76xnBiK0_GqdPVgw/o.jpg", "url": "https://www.yelp.com/biz/smokey-johns-bar-b-que-dallas?adjust_creative=gBcvfFpabk3CnzmXKdYe3w&utm_campaign=yelp_api_v3&utm_medium=api_v3_business_search&utm_source=gBcvfFpabk3CnzmXKdYe3w", "phone": "+12143522752", "coordinates": {"longitude": -96.8546999, "latitude": 32.82173}, "categories": [{"alias": "bbq", "title": "Barbeque"}], "review_count": 243, "location": {"city": "Dallas", "address1": "1820 W Mockingbird Ln", "address3": "", "address2": "", "zip_code": "75235", "country": "US", "display_address": ["1820 W Mockingbird Ln", "Dallas, TX 75235"], "state": "TX"}, "price": "$$", "transactions": ["delivery", "pickup"], "display_phone": "(214) 352-2752"}, {"rating": 4.5, "is_closed": false, "distance": 5551.785259519999, "name": "Pie Tap Pizza Workshop + Bar", "id": "pie-tap-pizza-workshop-bar-dallas-2", "image_url": "https://s3-media3.fl.yelpcdn.com/bphoto/auEJTuBcZ4hkOzH28-8CTw/o.jpg", "url": "https://www.yelp.com/biz/pie-tap-pizza-workshop-bar-dallas-2?adjust_creative=gBcvfFpabk3CnzmXKdYe3w&utm_campaign=yelp_api_v3&utm_medium=api_v3_business_search&utm_source=gBcvfFpabk3CnzmXKdYe3w", "phone": "+14696770997", "coordinates": {"longitude": -96.8225479125977, "latitude": 32.792667388916}, "categories": [{"alias": "pizza", "title": "Pizza"}, {"alias": "cocktailbars", "title": "Cocktail Bars"}, {"alias": "italian", "title": "Italian"}], "review_count": 187, "location": {"city": "Dallas", "address1": "1212 Oak Lawn Ave", "address3": null, "address2": "Ste 131", "zip_code": "75207", "country": "US", "display_address": ["1212 Oak Lawn Ave", "Ste 131", "Dallas, TX 75207"], "state": "TX"}, "price": "$$", "transactions": ["pickup"], "display_phone": "(469) 677-0997"}, {"rating": 4.0, "is_closed": false, "distance": 3269.5085898899997, "name": "Si Lom", "id": "si-lom-dallas", "image_url": "https://s3-media4.fl.yelpcdn.com/bphoto/b61irKDX7EyOc3frM3CprQ/o.jpg", "url": "https://www.yelp.com/biz/si-lom-dallas?adjust_creative=gBcvfFpabk3CnzmXKdYe3w&utm_campaign=yelp_api_v3&utm_medium=api_v3_business_search&utm_source=gBcvfFpabk3CnzmXKdYe3w", "phone": "+12147800983", "coordinates": {"longitude": -96.80719, "latitude": 32.8101399}, "categories": [{"alias": "thai", "title": "Thai"}], "review_count": 396, "location": {"city": "Dallas", "address1": "3300 Oak Lawn Ave", "address3": "", "address2": "Ste 110", "zip_code": "75219", "country": "US", "display_address": ["3300 Oak Lawn Ave", "Ste 110", "Dallas, TX 75219"], "state": "TX"}, "price": "$$", "transactions": ["delivery", "pickup"], "display_phone": "(214) 780-0983"}, {"rating": 4.0, "is_closed": false, "distance": 2522.437834094, "name": "The Porch", "id": "the-porch-dallas", "image_url": "https://s3-media4.fl.yelpcdn.com/bphoto/SGBcmcUgnKoCp5KBvc73uw/o.jpg", "url": "https://www.yelp.com/biz/the-porch-dallas?adjust_creative=gBcvfFpabk3CnzmXKdYe3w&utm_campaign=yelp_api_v3&utm_medium=api_v3_business_search&utm_source=gBcvfFpabk3CnzmXKdYe3w", "phone": "+12148282916", "coordinates": {"longitude": -96.784746955887, "latitude": 32.82064248039}, "categories": [{"alias": "southern", "title": "Southern"}, {"alias": "newamerican", "title": "American (New)"}, {"alias": "sandwiches", "title": "Sandwiches"}], "review_count": 909, "location": {"city": "Dallas", "address1": "2912 N Henderson Ave", "address3": "", "address2": "", "zip_code": "75206", "country": "US", "display_address": ["2912 N Henderson Ave", "Dallas, TX 75206"], "state": "TX"}, "price": "$$", "transactions": [], "display_phone": "(214) 828-2916"}, {"rating": 4.5, "is_closed": false, "distance": 5487.628598552, "name": "Stephan Pyles Flora Street Cafe", "id": "stephan-pyles-flora-street-cafe-dallas-2", "image_url": "https://s3-media2.fl.yelpcdn.com/bphoto/nK3ApWbo8dolzDPc59odLg/o.jpg", "url": "https://www.yelp.com/biz/stephan-pyles-flora-street-cafe-dallas-2?adjust_creative=gBcvfFpabk3CnzmXKdYe3w&utm_campaign=yelp_api_v3&utm_medium=api_v3_business_search&utm_source=gBcvfFpabk3CnzmXKdYe3w", "phone": "+12145807000", "coordinates": {"longitude": -96.7975978473995, "latitude": 32.7897531639569}, "categories": [{"alias": "newamerican", "title": "American (New)"}], "review_count": 69, "location": {"city": "Dallas", "address1": "2330 Flora St", "address3": null, "address2": "Ste 150", "zip_code": "75201", "country": "US", "display_address": ["2330 Flora St", "Ste 150", "Dallas, TX 75201"], "state": "TX"}, "price": "$$$$", "transactions": [], "display_phone": "(214) 580-7000"}, {"rating": 4.5, "is_closed": false, "distance": 2939.766733006, "name": "Mojo Donuts", "id": "mojo-donuts-dallas", "image_url": "https://s3-media2.fl.yelpcdn.com/bphoto/u9HGdrGBGXgs3huHz324CQ/o.jpg", "url": "https://www.yelp.com/biz/mojo-donuts-dallas?adjust_creative=gBcvfFpabk3CnzmXKdYe3w&utm_campaign=yelp_api_v3&utm_medium=api_v3_business_search&utm_source=gBcvfFpabk3CnzmXKdYe3w", "phone": "+14692361305", "coordinates": {"longitude": -96.8319234718449, "latitude": 32.8371722945679}, "categories": [{"alias": "donuts", "title": "Donuts"}, {"alias": "coffee", "title": "Coffee & Tea"}, {"alias": "bagels", "title": "Bagels"}], "review_count": 99, "location": {"city": "Dallas", "address1": "6522 Lemmon Ave", "address3": "", "address2": "", "zip_code": "75209", "country": "US", "display_address": ["6522 Lemmon Ave", "Dallas, TX 75209"], "state": "TX"}, "price": "$", "transactions": [], "display_phone": "(469) 236-1305"}, {"rating": 4.0, "is_closed": false, "distance": 3363.70808811, "name": "Celebration", "id": "celebration-dallas-3", "image_url": "https://s3-media2.fl.yelpcdn.com/bphoto/L3Vm4bjZcPk1L0R71rrxLQ/o.jpg", "url": "https://www.yelp.com/biz/celebration-dallas-3?adjust_creative=gBcvfFpabk3CnzmXKdYe3w&utm_campaign=yelp_api_v3&utm_medium=api_v3_business_search&utm_source=gBcvfFpabk3CnzmXKdYe3w", "phone": "+12143515681", "coordinates": {"longitude": -96.833251953125, "latitude": 32.851505279541}, "categories": [{"alias": "tradamerican", "title": "American (Traditional)"}, {"alias": "southern", "title": "Southern"}, {"alias": "desserts", "title": "Desserts"}], "review_count": 368, "location": {"city": "Dallas", "address1": "4503 W Lovers Ln", "address3": "", "address2": "", "zip_code": "75209", "country": "US", "display_address": ["4503 W Lovers Ln", "Dallas, TX 75209"], "state": "TX"}, "price": "$$", "transactions": [], "display_phone": "(214) 351-5681"}, {"rating": 4.0, "is_closed": false, "distance": 2075.480824848, "name": "Ziziki's", "id": "zizikis-dallas-2", "image_url": "https://s3-media2.fl.yelpcdn.com/bphoto/kjJEibTEDQWyp8GpWi3EVA/o.jpg", "url": "https://www.yelp.com/biz/zizikis-dallas-2?adjust_creative=gBcvfFpabk3CnzmXKdYe3w&utm_campaign=yelp_api_v3&utm_medium=api_v3_business_search&utm_source=gBcvfFpabk3CnzmXKdYe3w", "phone": "+12145212233", "coordinates": {"longitude": -96.790719858157, "latitude": 32.822299968568}, "categories": [{"alias": "greek", "title": "Greek"}, {"alias": "mediterranean", "title": "Mediterranean"}], "review_count": 247, "location": {"city": "Dallas", "address1": "4514 Travis St", "address3": "", "address2": "Ste 122", "zip_code": "75205", "country": "US", "display_address": ["4514 Travis St", "Ste 122", "Dallas, TX 75205"], "state": "TX"}, "price": "$$", "transactions": ["pickup"], "display_phone": "(214) 521-2233"}, {"rating": 4.5, "is_closed": false, "distance": 6211.556079544, "name": "Gabriela & Sofia's Tex-Mex", "id": "gabriela-and-sofias-tex-mex-dallas", "image_url": "https://s3-media2.fl.yelpcdn.com/bphoto/2BFBpT-S14VxMm10oA9jww/o.jpg", "url": "https://www.yelp.com/biz/gabriela-and-sofias-tex-mex-dallas?adjust_creative=gBcvfFpabk3CnzmXKdYe3w&utm_campaign=yelp_api_v3&utm_medium=api_v3_business_search&utm_source=gBcvfFpabk3CnzmXKdYe3w", "phone": "+12146471033", "coordinates": {"longitude": -96.7716742386231, "latitude": 32.8893712415787}, "categories": [{"alias": "mexican", "title": "Mexican"}, {"alias": "tex-mex", "title": "Tex-Mex"}, {"alias": "bars", "title": "Bars"}], "review_count": 254, "location": {"city": "Dallas", "address1": "10455 N Central Expy", "address3": "", "address2": "Ste 117", "zip_code": "75230", "country": "US", "display_address": ["10455 N Central Expy", "Ste 117", "Dallas, TX 75230"], "state": "TX"}, "price": "$$", "transactions": [], "display_phone": "(214) 647-1033"}, {"rating": 4.0, "is_closed": false, "distance": 3982.956692538, "name": "The Grapevine Bar", "id": "the-grapevine-bar-dallas", "image_url": "https://s3-media4.fl.yelpcdn.com/bphoto/-czV4qKApSxdYEBUY-Urrw/o.jpg", "url": "https://www.yelp.com/biz/the-grapevine-bar-dallas?adjust_creative=gBcvfFpabk3CnzmXKdYe3w&utm_campaign=yelp_api_v3&utm_medium=api_v3_business_search&utm_source=gBcvfFpabk3CnzmXKdYe3w", "phone": "+12145228466", "coordinates": {"longitude": -96.815048, "latitude": 32.805362}, "categories": [{"alias": "divebars", "title": "Dive Bars"}, {"alias": "musicvenues", "title": "Music Venues"}, {"alias": "cocktailbars", "title": "Cocktail Bars"}], "review_count": 248, "location": {"city": "Dallas", "address1": "3902 Maple Ave", "address3": "", "address2": "", "zip_code": "75219", "country": "US", "display_address": ["3902 Maple Ave", "Dallas, TX 75219"], "state": "TX"}, "price": "$", "transactions": [], "display_phone": "(214) 522-8466"}, {"rating": 4.5, "is_closed": false, "distance": 4574.169467627999, "name": "Lakewood Growler", "id": "lakewood-growler-dallas", "image_url": "https://s3-media1.fl.yelpcdn.com/bphoto/1SaWoBp8QxYUTxZ88-YNLQ/o.jpg", "url": "https://www.yelp.com/biz/lakewood-growler-dallas?adjust_creative=gBcvfFpabk3CnzmXKdYe3w&utm_campaign=yelp_api_v3&utm_medium=api_v3_business_search&utm_source=gBcvfFpabk3CnzmXKdYe3w", "phone": "+12145846253", "coordinates": {"longitude": -96.7516810074449, "latitude": 32.836397996808}, "categories": [{"alias": "pubs", "title": "Pubs"}], "review_count": 71, "location": {"city": "Dallas", "address1": "6448 E Mockingbird Ln", "address3": "", "address2": "", "zip_code": "75214", "country": "US", "display_address": ["6448 E Mockingbird Ln", "Dallas, TX 75214"], "state": "TX"}, "price": "$", "transactions": [], "display_phone": "(214) 584-6253"}, {"rating": 4.0, "is_closed": false, "distance": 4545.352625588, "name": "The Ginger Man", "id": "the-ginger-man-dallas", "image_url": "https://s3-media4.fl.yelpcdn.com/bphoto/ouh1RtjafEI6KcEApG1rnw/o.jpg", "url": "https://www.yelp.com/biz/the-ginger-man-dallas?adjust_creative=gBcvfFpabk3CnzmXKdYe3w&utm_campaign=yelp_api_v3&utm_medium=api_v3_business_search&utm_source=gBcvfFpabk3CnzmXKdYe3w", "phone": "+12147548771", "coordinates": {"longitude": -96.8030002560584, "latitude": 32.798216474711}, "categories": [{"alias": "pubs", "title": "Pubs"}], "review_count": 324, "location": {"city": "Dallas", "address1": "2718 Boll St", "address3": "", "address2": null, "zip_code": "75204", "country": "US", "display_address": ["2718 Boll St", "Dallas, TX 75204"], "state": "TX"}, "price": "$$", "transactions": [], "display_phone": "(214) 754-8771"}, {"rating": 4.5, "is_closed": false, "distance": 2418.0320625279996, "name": "Sabaidee Lao & Thai Street Food", "id": "sabaidee-lao-and-thai-street-food-dallas", "image_url": "https://s3-media1.fl.yelpcdn.com/bphoto/OIFEGvV3yw0nTSbhi_KZiA/o.jpg", "url": "https://www.yelp.com/biz/sabaidee-lao-and-thai-street-food-dallas?adjust_creative=gBcvfFpabk3CnzmXKdYe3w&utm_campaign=yelp_api_v3&utm_medium=api_v3_business_search&utm_source=gBcvfFpabk3CnzmXKdYe3w", "phone": "+12145206868", "coordinates": {"longitude": -96.82099, "latitude": 32.82559}, "categories": [{"alias": "laotian", "title": "Laotian"}, {"alias": "thai", "title": "Thai"}, {"alias": "coffee", "title": "Coffee & Tea"}], "review_count": 150, "location": {"city": "Dallas", "address1": "5200 Lemmon Ave", "address3": "", "address2": "Ste 100", "zip_code": "75209", "country": "US", "display_address": ["5200 Lemmon Ave", "Ste 100", "Dallas, TX 75209"], "state": "TX"}, "price": "$$", "transactions": ["pickup"], "display_phone": "(214) 520-6868"}, {"rating": 4.0, "is_closed": false, "distance": 2590.827702998, "name": "Neighborhood Services", "id": "neighborhood-services-dallas", "image_url": "https://s3-media4.fl.yelpcdn.com/bphoto/T5nKi5Xqh7J-PhRSvST2Lw/o.jpg", "url": "https://www.yelp.com/biz/neighborhood-services-dallas?adjust_creative=gBcvfFpabk3CnzmXKdYe3w&utm_campaign=yelp_api_v3&utm_medium=api_v3_business_search&utm_source=gBcvfFpabk3CnzmXKdYe3w", "phone": "+12143505027", "coordinates": {"longitude": -96.824035, "latitude": 32.851417}, "categories": [{"alias": "newamerican", "title": "American (New)"}], "review_count": 305, "location": {"city": "Dallas", "address1": "5027 W Lovers Ln", "address3": "", "address2": "", "zip_code": "75209", "country": "US", "display_address": ["5027 W Lovers Ln", "Dallas, TX 75209"], "state": "TX"}, "price": "$$$", "transactions": [], "display_phone": "(214) 350-5027"}, {"rating": 4.5, "is_closed": false, "distance": 4267.358291734, "name": "Ships Lounge", "id": "ships-lounge-dallas", "image_url": "https://s3-media3.fl.yelpcdn.com/bphoto/j7btkeaB0-GfAwlwyMQx3A/o.jpg", "url": "https://www.yelp.com/biz/ships-lounge-dallas?adjust_creative=gBcvfFpabk3CnzmXKdYe3w&utm_campaign=yelp_api_v3&utm_medium=api_v3_business_search&utm_source=gBcvfFpabk3CnzmXKdYe3w", "phone": "+19727077234", "coordinates": {"longitude": -96.7702455818653, "latitude": 32.8102954477072}, "categories": [{"alias": "divebars", "title": "Dive Bars"}, {"alias": "poolhalls", "title": "Pool Halls"}], "review_count": 78, "location": {"city": "Dallas", "address1": "1613 Greenville Ave", "address3": "", "address2": "", "zip_code": "75206", "country": "US", "display_address": ["1613 Greenville Ave", "Dallas, TX 75206"], "state": "TX"}, "price": "$", "transactions": [], "display_phone": "(972) 707-7234"}, {"rating": 4.0, "is_closed": false, "distance": 5339.732183759999, "name": "Keller's Drive-In", "id": "kellers-drive-in-dallas", "image_url": "https://s3-media2.fl.yelpcdn.com/bphoto/QMe2ASk6JxTCjJ_nRrB67A/o.jpg", "url": "https://www.yelp.com/biz/kellers-drive-in-dallas?adjust_creative=gBcvfFpabk3CnzmXKdYe3w&utm_campaign=yelp_api_v3&utm_medium=api_v3_business_search&utm_source=gBcvfFpabk3CnzmXKdYe3w", "phone": "+12143681209", "coordinates": {"longitude": -96.747415, "latitude": 32.85677}, "categories": [{"alias": "burgers", "title": "Burgers"}], "review_count": 465, "location": {"city": "Dallas", "address1": "6537 E Northwest Hwy", "address3": "", "address2": "", "zip_code": "75231", "country": "US", "display_address": ["6537 E Northwest Hwy", "Dallas, TX 75231"], "state": "TX"}, "price": "$", "transactions": [], "display_phone": "(214) 368-1209"}, {"rating": 4.0, "is_closed": false, "distance": 3349.10493695, "name": "Streets Fine Chicken", "id": "streets-fine-chicken-dallas-2", "image_url": "https://s3-media2.fl.yelpcdn.com/bphoto/5uuFWk0r7hrWAZ9dRcRqoQ/o.jpg", "url": "https://www.yelp.com/biz/streets-fine-chicken-dallas-2?adjust_creative=gBcvfFpabk3CnzmXKdYe3w&utm_campaign=yelp_api_v3&utm_medium=api_v3_business_search&utm_source=gBcvfFpabk3CnzmXKdYe3w", "phone": "+14699177140", "coordinates": {"longitude": -96.8103479951717, "latitude": 32.8100750190707}, "categories": [{"alias": "chickenshop", "title": "Chicken Shop"}], "review_count": 210, "location": {"city": "Dallas", "address1": "3857 Cedar Springs Rd", "address3": "", "address2": "", "zip_code": "75219", "country": "US", "display_address": ["3857 Cedar Springs Rd", "Dallas, TX 75219"], "state": "TX"}, "price": "$$", "transactions": [], "display_phone": "(469) 917-7140"}, {"rating": 4.5, "is_closed": false, "distance": 5664.730510994, "name": "Thai Opal", "id": "thai-opal-dallas", "image_url": "https://s3-media4.fl.yelpcdn.com/bphoto/ZIJXclD2hQsGGzx3-vtLsA/o.jpg", "url": "https://www.yelp.com/biz/thai-opal-dallas?adjust_creative=gBcvfFpabk3CnzmXKdYe3w&utm_campaign=yelp_api_v3&utm_medium=api_v3_business_search&utm_source=gBcvfFpabk3CnzmXKdYe3w", "phone": "+12145535956", "coordinates": {"longitude": -96.7470036918206, "latitude": 32.8629711968182}, "categories": [{"alias": "thai", "title": "Thai"}], "review_count": 210, "location": {"city": "Dallas", "address1": "6300 Skillman St", "address3": "", "address2": "Ste 156", "zip_code": "75231", "country": "US", "display_address": ["6300 Skillman St", "Ste 156", "Dallas, TX 75231"], "state": "TX"}, "price": "$$", "transactions": ["delivery", "pickup"], "display_phone": "(214) 553-5956"}, {"rating": 4.0, "is_closed": false, "distance": 3185.421701428, "name": "B B Bop Seoul Kitchen", "id": "b-b-bop-seoul-kitchen-dallas", "image_url": "https://s3-media4.fl.yelpcdn.com/bphoto/xyEy8Kv02S7c4RCLnhH40A/o.jpg", "url": "https://www.yelp.com/biz/b-b-bop-seoul-kitchen-dallas?adjust_creative=gBcvfFpabk3CnzmXKdYe3w&utm_campaign=yelp_api_v3&utm_medium=api_v3_business_search&utm_source=gBcvfFpabk3CnzmXKdYe3w", "phone": "+12148129342", "coordinates": {"longitude": -96.77006, "latitude": 32.85215}, "categories": [{"alias": "hotdogs", "title": "Fast Food"}, {"alias": "asianfusion", "title": "Asian Fusion"}, {"alias": "korean", "title": "Korean"}], "review_count": 524, "location": {"city": "Dallas", "address1": "5323 Greenville Ave", "address3": "", "address2": "Ste 5", "zip_code": "75206", "country": "US", "display_address": ["5323 Greenville Ave", "Ste 5", "Dallas, TX 75206"], "state": "TX"}, "price": "$", "transactions": ["delivery"], "display_phone": "(214) 812-9342"}, {"rating": 4.0, "is_closed": false, "distance": 3352.25843868, "name": "The Grape Restaurant", "id": "the-grape-restaurant-dallas", "image_url": "https://s3-media3.fl.yelpcdn.com/bphoto/sqkiU4zGnCRB_2faH5-2nQ/o.jpg", "url": "https://www.yelp.com/biz/the-grape-restaurant-dallas?adjust_creative=gBcvfFpabk3CnzmXKdYe3w&utm_campaign=yelp_api_v3&utm_medium=api_v3_business_search&utm_source=gBcvfFpabk3CnzmXKdYe3w", "phone": "+12148281981", "coordinates": {"longitude": -96.7700114730398, "latitude": 32.8231986680295}, "categories": [{"alias": "newamerican", "title": "American (New)"}], "review_count": 477, "location": {"city": "Dallas", "address1": "2808 Greenville Ave", "address3": "", "address2": "", "zip_code": "75206", "country": "US", "display_address": ["2808 Greenville Ave", "Dallas, TX 75206"], "state": "TX"}, "price": "$$", "transactions": [], "display_phone": "(214) 828-1981"}, {"rating": 4.0, "is_closed": false, "distance": 5148.081676784, "name": "Rodeo Goat", "id": "rodeo-goat-dallas", "image_url": "https://s3-media4.fl.yelpcdn.com/bphoto/3_tLjgKOWz24DpPCDiy47A/o.jpg", "url": "https://www.yelp.com/biz/rodeo-goat-dallas?adjust_creative=gBcvfFpabk3CnzmXKdYe3w&utm_campaign=yelp_api_v3&utm_medium=api_v3_business_search&utm_source=gBcvfFpabk3CnzmXKdYe3w", "phone": "+12147414628", "coordinates": {"longitude": -96.8239863214264, "latitude": 32.7971504231268}, "categories": [{"alias": "burgers", "title": "Burgers"}, {"alias": "beerbar", "title": "Beer Bar"}], "review_count": 821, "location": {"city": "Dallas", "address1": "1926 Market Center Blvd", "address3": "", "address2": "", "zip_code": "75207", "country": "US", "display_address": ["1926 Market Center Blvd", "Dallas, TX 75207"], "state": "TX"}, "price": "$$", "transactions": [], "display_phone": "(214) 741-4628"}, {"rating": 4.0, "is_closed": false, "distance": 2976.7683564179997, "name": "Be Raw", "id": "be-raw-dallas", "image_url": "https://s3-media4.fl.yelpcdn.com/bphoto/kY106aDCWlxuoCFUzrZt-A/o.jpg", "url": "https://www.yelp.com/biz/be-raw-dallas?adjust_creative=gBcvfFpabk3CnzmXKdYe3w&utm_campaign=yelp_api_v3&utm_medium=api_v3_business_search&utm_source=gBcvfFpabk3CnzmXKdYe3w", "phone": "+12142340106", "coordinates": {"longitude": -96.8082685768604, "latitude": 32.8649112582207}, "categories": [{"alias": "vegan", "title": "Vegan"}, {"alias": "raw_food", "title": "Live/Raw Food"}, {"alias": "juicebars", "title": "Juice Bars & Smoothies"}], "review_count": 183, "location": {"city": "Dallas", "address1": "6005 Berkshire Ln", "address3": "", "address2": "", "zip_code": "75225", "country": "US", "display_address": ["6005 Berkshire Ln", "Dallas, TX 75225"], "state": "TX"}, "price": "$$", "transactions": [], "display_phone": "(214) 234-0106"}, {"rating": 4.0, "is_closed": false, "distance": 2780.4071503279997, "name": "True Food Kitchen", "id": "true-food-kitchen-dallas", "image_url": "https://s3-media4.fl.yelpcdn.com/bphoto/LdBa7j1T8r9INcOIm79Egg/o.jpg", "url": "https://www.yelp.com/biz/true-food-kitchen-dallas?adjust_creative=gBcvfFpabk3CnzmXKdYe3w&utm_campaign=yelp_api_v3&utm_medium=api_v3_business_search&utm_source=gBcvfFpabk3CnzmXKdYe3w", "phone": "+12143773333", "coordinates": {"longitude": -96.8033742755336, "latitude": 32.8639350204898}, "categories": [{"alias": "newamerican", "title": "American (New)"}, {"alias": "vegetarian", "title": "Vegetarian"}, {"alias": "vegan", "title": "Vegan"}], "review_count": 389, "location": {"city": "Dallas", "address1": "8383 Preston Center Plz", "address3": "", "address2": "Ste 100", "zip_code": "75225", "country": "US", "display_address": ["8383 Preston Center Plz", "Ste 100", "Dallas, TX 75225"], "state": "TX"}, "price": "$$", "transactions": [], "display_phone": "(214) 377-3333"}, {"rating": 4.0, "is_closed": false, "distance": 4119.3159098040005, "name": "Wabi House", "id": "wabi-house-dallas", "image_url": "https://s3-media1.fl.yelpcdn.com/bphoto/ezRKi_TibH9-yMZEzKQfMw/o.jpg", "url": "https://www.yelp.com/biz/wabi-house-dallas?adjust_creative=gBcvfFpabk3CnzmXKdYe3w&utm_campaign=yelp_api_v3&utm_medium=api_v3_business_search&utm_source=gBcvfFpabk3CnzmXKdYe3w", "phone": "+14697796474", "coordinates": {"longitude": -96.76976, "latitude": 32.81241}, "categories": [{"alias": "ramen", "title": "Ramen"}, {"alias": "desserts", "title": "Desserts"}], "review_count": 580, "location": {"city": "Dallas", "address1": "1802 Greenville Ave", "address3": "", "address2": "Ste 100", "zip_code": "75206", "country": "US", "display_address": ["1802 Greenville Ave", "Ste 100", "Dallas, TX 75206"], "state": "TX"}, "price": "$$", "transactions": [], "display_phone": "(469) 779-6474"}, {"rating": 4.0, "is_closed": false, "distance": 2602.567355496, "name": "Mia's Tex-Mex Restaurant", "id": "mias-tex-mex-restaurant-dallas", "image_url": "https://s3-media2.fl.yelpcdn.com/bphoto/YeyrRWw9lw1dsGEsvqBdow/o.jpg", "url": "https://www.yelp.com/biz/mias-tex-mex-restaurant-dallas?adjust_creative=gBcvfFpabk3CnzmXKdYe3w&utm_campaign=yelp_api_v3&utm_medium=api_v3_business_search&utm_source=gBcvfFpabk3CnzmXKdYe3w", "phone": "+12145261020", "coordinates": {"longitude": -96.81169, "latitude": 32.81765}, "categories": [{"alias": "tex-mex", "title": "Tex-Mex"}], "review_count": 568, "location": {"city": "Dallas", "address1": "4322 Lemmon Ave", "address3": "", "address2": "", "zip_code": "75219", "country": "US", "display_address": ["4322 Lemmon Ave", "Dallas, TX 75219"], "state": "TX"}, "price": "$$", "transactions": [], "display_phone": "(214) 526-1020"}, {"rating": 4.5, "is_closed": false, "distance": 7052.130133076, "name": "Tacos la Banqueta", "id": "tacos-la-banqueta-dallas", "image_url": "https://s3-media3.fl.yelpcdn.com/bphoto/iaLU0iQymJ1cBz7FkN9oNw/o.jpg", "url": "https://www.yelp.com/biz/tacos-la-banqueta-dallas?adjust_creative=gBcvfFpabk3CnzmXKdYe3w&utm_campaign=yelp_api_v3&utm_medium=api_v3_business_search&utm_source=gBcvfFpabk3CnzmXKdYe3w", "phone": "+12143244445", "coordinates": {"longitude": -96.7318497, "latitude": 32.8129807}, "categories": [{"alias": "mexican", "title": "Mexican"}], "review_count": 134, "location": {"city": "Dallas", "address1": "7233 Gaston Ave", "address3": "", "address2": "", "zip_code": "75214", "country": "US", "display_address": ["7233 Gaston Ave", "Dallas, TX 75214"], "state": "TX"}, "price": "$", "transactions": [], "display_phone": "(214) 324-4445"}, {"rating": 4.5, "is_closed": false, "distance": 7402.718253782, "name": "Tacos Mariachi", "id": "tacos-mariachi-dallas", "image_url": "https://s3-media4.fl.yelpcdn.com/bphoto/PIvMOUh_Jbia0oe3VBxYUw/o.jpg", "url": "https://www.yelp.com/biz/tacos-mariachi-dallas?adjust_creative=gBcvfFpabk3CnzmXKdYe3w&utm_campaign=yelp_api_v3&utm_medium=api_v3_business_search&utm_source=gBcvfFpabk3CnzmXKdYe3w", "phone": "+12147411239", "coordinates": {"longitude": -96.8332543596625, "latitude": 32.7784103632716}, "categories": [{"alias": "mexican", "title": "Mexican"}], "review_count": 78, "location": {"city": "Dallas", "address1": "602 Singleton Blvd", "address3": "", "address2": "", "zip_code": "75212", "country": "US", "display_address": ["602 Singleton Blvd", "Dallas, TX 75212"], "state": "TX"}, "price": "$$", "transactions": [], "display_phone": "(214) 741-1239"}, {"rating": 4.0, "is_closed": false, "distance": 2417.842804144, "name": "Nonna Restaurant", "id": "nonna-restaurant-dallas", "image_url": "https://s3-media2.fl.yelpcdn.com/bphoto/CigpbSLCP26dfC21Ccay5g/o.jpg", "url": "https://www.yelp.com/biz/nonna-restaurant-dallas?adjust_creative=gBcvfFpabk3CnzmXKdYe3w&utm_campaign=yelp_api_v3&utm_medium=api_v3_business_search&utm_source=gBcvfFpabk3CnzmXKdYe3w", "phone": "+12145211800", "coordinates": {"longitude": -96.8152897, "latitude": 32.8209289}, "categories": [{"alias": "italian", "title": "Italian"}], "review_count": 205, "location": {"city": "Dallas", "address1": "4115 Lomo Alto Dr", "address3": "", "address2": "", "zip_code": "75219", "country": "US", "display_address": ["4115 Lomo Alto Dr", "Dallas, TX 75219"], "state": "TX"}, "price": "$$$", "transactions": [], "display_phone": "(214) 521-1800"}]}