{"total": 32252, "region": {"center": {"longitude": -96.800537109375, "latitude": 32.839043482398054}}, "businesses": [{"rating": 4.5, "is_closed": false, "distance": 10367.434906675999, "name": "Oh Sushi Roll & Teriyaki", "id": "oh-sushi-roll-and-teriyaki-dallas", "image_url": "https://s3-media2.fl.yelpcdn.com/bphoto/f5ALeOQIeWOJsSAPSrF_FA/o.jpg", "url": "https://www.yelp.com/biz/oh-sushi-roll-and-teriyaki-dallas?adjust_creative=gBcvfFpabk3CnzmXKdYe3w&utm_campaign=yelp_api_v3&utm_medium=api_v3_business_search&utm_source=gBcvfFpabk3CnzmXKdYe3w", "phone": "+19728699135", "coordinates": {"longitude": -96.9063637502929, "latitude": 32.8671433519187}, "categories": [{"alias": "sushi", "title": "Sushi Bars"}, {"alias": "japanese", "title": "Japanese"}], "review_count": 25, "location": {"city": "Dallas", "address1": "2053 W Northwest Hwy", "address3": null, "address2": "Ste 90", "zip_code": "75220", "country": "US", "display_address": ["2053 W Northwest Hwy", "Ste 90", "Dallas, TX 75220"], "state": "TX"}, "price": "$$", "transactions": [], "display_phone": "(972) 869-9135"}, {"rating": 4.5, "is_closed": false, "distance": 13678.33427296, "name": "Pacific Spice Sushi & Asian Cuisine", "id": "pacific-spice-sushi-and-asian-cuisine-dallas", "image_url": "https://s3-media3.fl.yelpcdn.com/bphoto/Ha_VpXLS7RuzFCM-TMCsjA/o.jpg", "url": "https://www.yelp.com/biz/pacific-spice-sushi-and-asian-cuisine-dallas?adjust_creative=gBcvfFpabk3CnzmXKdYe3w&utm_campaign=yelp_api_v3&utm_medium=api_v3_business_search&utm_source=gBcvfFpabk3CnzmXKdYe3w", "phone": "+14699941768", "coordinates": {"longitude": -96.8192520141602, "latitude": 32.9609298706055}, "categories": [{"alias": "asianfusion", "title": "Asian Fusion"}, {"alias": "sushi", "title": "Sushi Bars"}, {"alias": "japanese", "title": "Japanese"}], "review_count": 104, "location": {"city": "Dallas", "address1": "15203 Knoll Trail Dr", "address3": "", "address2": "Ste 110", "zip_code": "75248", "country": "US", "display_address": ["15203 Knoll Trail Dr", "Ste 110", "Dallas, TX 75248"], "state": "TX"}, "price": "$$", "transactions": ["pickup"], "display_phone": "(469) 994-1768"}, {"rating": 5.0, "is_closed": false, "distance": 4913.396774471999, "name": "Civello's Raviolismo", "id": "civellos-raviolismo-dallas", "image_url": "https://s3-media1.fl.yelpcdn.com/bphoto/x9GrlYOPGeL1kO43WN6JmQ/o.jpg", "url": "https://www.yelp.com/biz/civellos-raviolismo-dallas?adjust_creative=gBcvfFpabk3CnzmXKdYe3w&utm_campaign=yelp_api_v3&utm_medium=api_v3_business_search&utm_source=gBcvfFpabk3CnzmXKdYe3w", "phone": "+12148272989", "coordinates": {"longitude": -96.7788238, "latitude": 32.7985981}, "categories": [{"alias": "italian", "title": "Italian"}], "review_count": 8, "location": {"city": "Dallas", "address1": "1318 N Peak St", "address3": "", "address2": "", "zip_code": "75204", "country": "US", "display_address": ["1318 N Peak St", "Dallas, TX 75204"], "state": "TX"}, "price": "$", "transactions": [], "display_phone": "(214) 827-2989"}, {"rating": 3.5, "is_closed": false, "distance": 4463.377834942, "name": "Mo Mo's Pasta", "id": "mo-mos-pasta-dallas-2", "image_url": "https://s3-media1.fl.yelpcdn.com/bphoto/QXVXSRlzhhB0qqw0KC1naw/o.jpg", "url": "https://www.yelp.com/biz/mo-mos-pasta-dallas-2?adjust_creative=gBcvfFpabk3CnzmXKdYe3w&utm_campaign=yelp_api_v3&utm_medium=api_v3_business_search&utm_source=gBcvfFpabk3CnzmXKdYe3w", "phone": "+12145213009", "coordinates": {"longitude": -96.8034439, "latitude": 32.7989788}, "categories": [{"alias": "italian", "title": "Italian"}], "review_count": 126, "location": {"city": "Dallas", "address1": "2800 Routh St", "address3": "", "address2": "Ste 165", "zip_code": "75201", "country": "US", "display_address": ["2800 Routh St", "Ste 165", "Dallas, TX 75201"], "state": "TX"}, "price": "$$", "transactions": ["delivery"], "display_phone": "(214) 521-3009"}, {"rating": 3.5, "is_closed": false, "distance": 3324.8085700359998, "name": "Tacos Y Mas", "id": "tacos-y-mas-dallas-7", "image_url": "https://s3-media3.fl.yelpcdn.com/bphoto/gxQeG-JQ23kYZAJjZco6fg/o.jpg", "url": "https://www.yelp.com/biz/tacos-y-mas-dallas-7?adjust_creative=gBcvfFpabk3CnzmXKdYe3w&utm_campaign=yelp_api_v3&utm_medium=api_v3_business_search&utm_source=gBcvfFpabk3CnzmXKdYe3w", "phone": "+19728072466", "coordinates": {"longitude": -96.76995, "latitude": 32.82375}, "categories": [{"alias": "mexican", "title": "Mexican"}, {"alias": "breakfast_brunch", "title": "Breakfast & Brunch"}], "review_count": 41, "location": {"city": "Dallas", "address1": "2820 Greenville Ave", "address3": "", "address2": "", "zip_code": "75206", "country": "US", "display_address": ["2820 Greenville Ave", "Dallas, TX 75206"], "state": "TX"}, "price": "$", "transactions": ["delivery"], "display_phone": "(972) 807-2466"}, {"rating": 4.0, "is_closed": false, "distance": 5561.46785363, "name": "Havana Social Club", "id": "havana-social-club-dallas", "image_url": "https://s3-media1.fl.yelpcdn.com/bphoto/Fiam0lvoQgu8g3q4CSRX3A/o.jpg", "url": "https://www.yelp.com/biz/havana-social-club-dallas?adjust_creative=gBcvfFpabk3CnzmXKdYe3w&utm_campaign=yelp_api_v3&utm_medium=api_v3_business_search&utm_source=gBcvfFpabk3CnzmXKdYe3w", "phone": "+12143030544", "coordinates": {"longitude": -96.8093095604432, "latitude": 32.7895744821763}, "categories": [{"alias": "lounges", "title": "Lounges"}, {"alias": "tobaccoshops", "title": "Tobacco Shops"}, {"alias": "social_clubs", "title": "Social Clubs"}], "review_count": 45, "location": {"city": "Dallas", "address1": "3030 Olive St", "address3": "", "address2": "Ste 103", "zip_code": "75219", "country": "US", "display_address": ["3030 Olive St", "Ste 103", "Dallas, TX 75219"], "state": "TX"}, "price": "$$", "transactions": [], "display_phone": "(214) 303-0544"}, {"rating": 3.5, "is_closed": false, "distance": 6387.980137977999, "name": "Dot's Hop House & Cocktail Courtyard", "id": "dots-hop-house-and-cocktail-courtyard-dallas", "image_url": "https://s3-media3.fl.yelpcdn.com/bphoto/beTvT7pe243iUDFWY5fJjg/o.jpg", "url": "https://www.yelp.com/biz/dots-hop-house-and-cocktail-courtyard-dallas?adjust_creative=gBcvfFpabk3CnzmXKdYe3w&utm_campaign=yelp_api_v3&utm_medium=api_v3_business_search&utm_source=gBcvfFpabk3CnzmXKdYe3w", "phone": "+12142303687", "coordinates": {"longitude": -96.784285, "latitude": 32.7831256}, "categories": [{"alias": "beergardens", "title": "Beer Gardens"}, {"alias": "cocktailbars", "title": "Cocktail Bars"}], "review_count": 77, "location": {"city": "Dallas", "address1": "2645 Commerce St", "address3": "", "address2": null, "zip_code": "75226", "country": "US", "display_address": ["2645 Commerce St", "Dallas, TX 75226"], "state": "TX"}, "price": "$$", "transactions": [], "display_phone": "(214) 230-3687"}, {"rating": 4.0, "is_closed": false, "distance": 6228.38076364, "name": "Kitchen LTO", "id": "kitchen-lto-dallas-4", "image_url": "https://s3-media2.fl.yelpcdn.com/bphoto/E09cxFII_WSunoc4pPkgcg/o.jpg", "url": "https://www.yelp.com/biz/kitchen-lto-dallas-4?adjust_creative=gBcvfFpabk3CnzmXKdYe3w&utm_campaign=yelp_api_v3&utm_medium=api_v3_business_search&utm_source=gBcvfFpabk3CnzmXKdYe3w", "phone": "+12143770757", "coordinates": {"longitude": -96.78238, "latitude": 32.78514}, "categories": [{"alias": "newamerican", "title": "American (New)"}, {"alias": "popuprestaurants", "title": "Pop-Up Restaurants"}], "review_count": 38, "location": {"city": "Dallas", "address1": "2901 Elm St", "address3": null, "address2": "", "zip_code": "75226", "country": "US", "display_address": ["2901 Elm St", "Dallas, TX 75226"], "state": "TX"}, "price": "$$", "transactions": [], "display_phone": "(214) 377-0757"}, {"rating": 4.0, "is_closed": false, "distance": 9577.45753714, "name": "Dante's Italian Eatery", "id": "dantes-italian-eatery-dallas-2", "image_url": "https://s3-media3.fl.yelpcdn.com/bphoto/dJHypJWmS8yVMzCOEg85Ug/o.jpg", "url": "https://www.yelp.com/biz/dantes-italian-eatery-dallas-2?adjust_creative=gBcvfFpabk3CnzmXKdYe3w&utm_campaign=yelp_api_v3&utm_medium=api_v3_business_search&utm_source=gBcvfFpabk3CnzmXKdYe3w", "phone": "+14692066473", "coordinates": {"longitude": -96.7462780218392, "latitude": 32.9121324236715}, "categories": [{"alias": "pizza", "title": "Pizza"}, {"alias": "italian", "title": "Italian"}], "review_count": 70, "location": {"city": "Dallas", "address1": "12101 Greenville Ave", "address3": "", "address2": "", "zip_code": "75243", "country": "US", "display_address": ["12101 Greenville Ave", "Dallas, TX 75243"], "state": "TX"}, "price": "$", "transactions": ["delivery", "pickup"], "display_phone": "(469) 206-6473"}, {"rating": 5.0, "is_closed": false, "distance": 6323.793060484, "name": "Yelp's Passport to Deep Ellum Cash Mob", "id": "yelps-passport-to-deep-ellum-cash-mob-dallas", "image_url": "https://s3-media2.fl.yelpcdn.com/bphoto/aV-03eRNcHMaNly9cjyxYw/o.jpg", "url": "https://www.yelp.com/biz/yelps-passport-to-deep-ellum-cash-mob-dallas?adjust_creative=gBcvfFpabk3CnzmXKdYe3w&utm_campaign=yelp_api_v3&utm_medium=api_v3_business_search&utm_source=gBcvfFpabk3CnzmXKdYe3w", "phone": "", "coordinates": {"longitude": -96.7785568, "latitude": 32.7837715}, "categories": [{"alias": "localflavor", "title": "Local Flavor"}], "review_count": 6, "location": {"city": "Dallas", "address1": "Deep Ellum", "address3": "", "address2": "", "zip_code": "75226", "country": "US", "display_address": ["Deep Ellum", "Dallas, TX 75226"], "state": "TX"}, "transactions": [], "display_phone": ""}, {"rating": 4.0, "is_closed": false, "distance": 11061.24004902, "name": "The Lodge", "id": "the-lodge-dallas", "image_url": "https://s3-media1.fl.yelpcdn.com/bphoto/2hLqd978WrAUpDc5288bvw/o.jpg", "url": "https://www.yelp.com/biz/the-lodge-dallas?adjust_creative=gBcvfFpabk3CnzmXKdYe3w&utm_campaign=yelp_api_v3&utm_medium=api_v3_business_search&utm_source=gBcvfFpabk3CnzmXKdYe3w", "phone": "+19725069229", "coordinates": {"longitude": -96.9129618, "latitude": 32.8702796}, "categories": [{"alias": "adultentertainment", "title": "Adult Entertainment"}, {"alias": "newamerican", "title": "American (New)"}], "review_count": 69, "location": {"city": "Dallas", "address1": "10530 Spangler Rd", "address3": "", "address2": "", "zip_code": "75220", "country": "US", "display_address": ["10530 Spangler Rd", "Dallas, TX 75220"], "state": "TX"}, "price": "$$", "transactions": [], "display_phone": "(972) 506-9229"}, {"rating": 5.0, "is_closed": false, "distance": 2470.731832036, "name": "Inwood Chiropractic Center", "id": "inwood-chiropractic-center-dallas", "image_url": "https://s3-media4.fl.yelpcdn.com/bphoto/jBCiIi3Odfy2McRjJ0VQQw/o.jpg", "url": "https://www.yelp.com/biz/inwood-chiropractic-center-dallas?adjust_creative=gBcvfFpabk3CnzmXKdYe3w&utm_campaign=yelp_api_v3&utm_medium=api_v3_business_search&utm_source=gBcvfFpabk3CnzmXKdYe3w", "phone": "+12149020092", "coordinates": {"longitude": -96.8222776019912, "latitude": 32.8516909455798}, "categories": [{"alias": "acupuncture", "title": "Acupuncture"}, {"alias": "chiropractors", "title": "Chiropractors"}, {"alias": "massage_therapy", "title": "Massage Therapy"}], "review_count": 52, "location": {"city": "Dallas", "address1": "7979 Inwood Rd", "address3": "", "address2": "Ste 123", "zip_code": "75209", "country": "US", "display_address": ["7979 Inwood Rd", "Ste 123", "Dallas, TX 75209"], "state": "TX"}, "transactions": [], "display_phone": "(214) 902-0092"}, {"rating": 4.5, "is_closed": false, "distance": 4666.49134887, "name": "Fogo de Chao Brazilian Steakhouse", "id": "fogo-de-chao-brazilian-steakhouse-dallas-3", "image_url": "https://s3-media4.fl.yelpcdn.com/bphoto/O4pRtF8w8vpUzVu1MPGGPA/o.jpg", "url": "https://www.yelp.com/biz/fogo-de-chao-brazilian-steakhouse-dallas-3?adjust_creative=gBcvfFpabk3CnzmXKdYe3w&utm_campaign=yelp_api_v3&utm_medium=api_v3_business_search&utm_source=gBcvfFpabk3CnzmXKdYe3w", "phone": "+12147202777", "coordinates": {"longitude": -96.801948, "latitude": 32.797069}, "categories": [{"alias": "brazilian", "title": "Brazilian"}, {"alias": "seafood", "title": "Seafood"}, {"alias": "steak", "title": "Steakhouses"}], "review_count": 19, "location": {"city": "Dallas", "address1": "2619 McKinney Ave", "address3": null, "address2": "Ste 208", "zip_code": "75204", "country": "US", "display_address": ["2619 McKinney Ave", "Ste 208", "Dallas, TX 75204"], "state": "TX"}, "price": "$$$", "transactions": [], "display_phone": "(214) 720-2777"}, {"rating": 4.0, "is_closed": false, "distance": 7091.221967279999, "name": "Black Ship Little Katana", "id": "black-ship-little-katana-dallas", "image_url": "https://s3-media4.fl.yelpcdn.com/bphoto/CtGGtjC-QiJ6iwD5JCFIcw/o.jpg", "url": "https://www.yelp.com/biz/black-ship-little-katana-dallas?adjust_creative=gBcvfFpabk3CnzmXKdYe3w&utm_campaign=yelp_api_v3&utm_medium=api_v3_business_search&utm_source=gBcvfFpabk3CnzmXKdYe3w", "phone": "+12147607200", "coordinates": {"longitude": -96.8029759079218, "latitude": 32.7749875187874}, "categories": [{"alias": "sushi", "title": "Sushi Bars"}, {"alias": "asianfusion", "title": "Asian Fusion"}, {"alias": "newamerican", "title": "American (New)"}], "review_count": 68, "location": {"city": "Dallas", "address1": "665 S Lamar St", "address3": "", "address2": "Ste 130", "zip_code": "75202", "country": "US", "display_address": ["665 S Lamar St", "Ste 130", "Dallas, TX 75202"], "state": "TX"}, "price": "$$", "transactions": ["pickup"], "display_phone": "(214) 760-7200"}, {"rating": 4.0, "is_closed": false, "distance": 9247.483291559998, "name": "Franki's Pizza & Pasta", "id": "frankis-pizza-and-pasta-dallas", "image_url": "https://s3-media3.fl.yelpcdn.com/bphoto/Nr_cK14GSvdmnheTBGbnKg/o.jpg", "url": "https://www.yelp.com/biz/frankis-pizza-and-pasta-dallas?adjust_creative=gBcvfFpabk3CnzmXKdYe3w&utm_campaign=yelp_api_v3&utm_medium=api_v3_business_search&utm_source=gBcvfFpabk3CnzmXKdYe3w", "phone": "+14693350345", "coordinates": {"longitude": -96.8556552463104, "latitude": 32.908136039264}, "categories": [{"alias": "italian", "title": "Italian"}], "review_count": 81, "location": {"city": "Dallas", "address1": "11722 Marsh Ln", "address3": "", "address2": "", "zip_code": "75229", "country": "US", "display_address": ["11722 Marsh Ln", "Dallas, TX 75229"], "state": "TX"}, "price": "$", "transactions": [], "display_phone": "(469) 335-0345"}, {"rating": 4.0, "is_closed": false, "distance": 5895.546238078, "name": "One Nostalgia Tavern", "id": "one-nostalgia-tavern-dallas-2", "image_url": "https://s3-media2.fl.yelpcdn.com/bphoto/5Cn45ctaJUtaga_q9PEPnQ/o.jpg", "url": "https://www.yelp.com/biz/one-nostalgia-tavern-dallas-2?adjust_creative=gBcvfFpabk3CnzmXKdYe3w&utm_campaign=yelp_api_v3&utm_medium=api_v3_business_search&utm_source=gBcvfFpabk3CnzmXKdYe3w", "phone": "+12143488407", "coordinates": {"longitude": -96.74457, "latitude": 32.86366}, "categories": [{"alias": "sportsbars", "title": "Sports Bars"}, {"alias": "karaoke", "title": "Karaoke"}, {"alias": "divebars", "title": "Dive Bars"}], "review_count": 37, "location": {"city": "Dallas", "address1": "6521 Abrams Rd", "address3": "", "address2": "", "zip_code": "75231", "country": "US", "display_address": ["6521 Abrams Rd", "Dallas, TX 75231"], "state": "TX"}, "price": "$", "transactions": [], "display_phone": "(214) 348-8407"}, {"rating": 3.5, "is_closed": false, "distance": 2908.700838316, "name": "Snuffer's Restaurant & Bar", "id": "snuffers-restaurant-and-bar-dallas-3", "image_url": "https://s3-media2.fl.yelpcdn.com/bphoto/QIZ62DX1Ha8IWkBPGv3sfQ/o.jpg", "url": "https://www.yelp.com/biz/snuffers-restaurant-and-bar-dallas-3?adjust_creative=gBcvfFpabk3CnzmXKdYe3w&utm_campaign=yelp_api_v3&utm_medium=api_v3_business_search&utm_source=gBcvfFpabk3CnzmXKdYe3w", "phone": "+12142659911", "coordinates": {"longitude": -96.80474, "latitude": 32.864952}, "categories": [{"alias": "burgers", "title": "Burgers"}, {"alias": "tradamerican", "title": "American (Traditional)"}, {"alias": "sandwiches", "title": "Sandwiches"}], "review_count": 77, "location": {"city": "Dallas", "address1": "8411 Preston Rd", "address3": "", "address2": "Ste 112", "zip_code": "75225", "country": "US", "display_address": ["8411 Preston Rd", "Ste 112", "Dallas, TX 75225"], "state": "TX"}, "price": "$$", "transactions": [], "display_phone": "(214) 265-9911"}, {"rating": 5.0, "is_closed": false, "distance": 3388.441873636, "name": "Robert E. Lee Park", "id": "robert-e-lee-park-dallas", "image_url": "https://s3-media4.fl.yelpcdn.com/bphoto/Mt4qUt_ryRFVYqsah7P1yQ/o.jpg", "url": "https://www.yelp.com/biz/robert-e-lee-park-dallas?adjust_creative=gBcvfFpabk3CnzmXKdYe3w&utm_campaign=yelp_api_v3&utm_medium=api_v3_business_search&utm_source=gBcvfFpabk3CnzmXKdYe3w", "phone": "", "coordinates": {"longitude": -96.8040833142168, "latitude": 32.8087150136435}, "categories": [{"alias": "parks", "title": "Parks"}], "review_count": 5, "location": {"city": "Dallas", "address1": "3400 Turtle Creek Blvd", "address3": "", "address2": "", "zip_code": "75219", "country": "US", "display_address": ["3400 Turtle Creek Blvd", "Dallas, TX 75219"], "state": "TX"}, "transactions": [], "display_phone": ""}, {"rating": 3.5, "is_closed": false, "distance": 4628.831666331999, "name": "Jakes Uptown", "id": "jakes-uptown-dallas-8", "image_url": "https://s3-media4.fl.yelpcdn.com/bphoto/dZQD1xIxJ6tgQ2QjQvLFrw/o.jpg", "url": "https://www.yelp.com/biz/jakes-uptown-dallas-8?adjust_creative=gBcvfFpabk3CnzmXKdYe3w&utm_campaign=yelp_api_v3&utm_medium=api_v3_business_search&utm_source=gBcvfFpabk3CnzmXKdYe3w", "phone": "+12147548001", "coordinates": {"longitude": -96.8010369, "latitude": 32.797415}, "categories": [{"alias": "burgers", "title": "Burgers"}, {"alias": "tradamerican", "title": "American (Traditional)"}, {"alias": "beerbar", "title": "Beer Bar"}], "review_count": 213, "location": {"city": "Dallas", "address1": "2702 McKinney Ave", "address3": "", "address2": "Ste 101", "zip_code": "75204", "country": "US", "display_address": ["2702 McKinney Ave", "Ste 101", "Dallas, TX 75204"], "state": "TX"}, "price": "$$", "transactions": [], "display_phone": "(214) 754-8001"}, {"rating": 4.0, "is_closed": false, "distance": 3610.10608881, "name": "Starbucks", "id": "starbucks-dallas-87", "image_url": "https://s3-media2.fl.yelpcdn.com/bphoto/gzsZaVZYocFtkZmXBbWC2g/o.jpg", "url": "https://www.yelp.com/biz/starbucks-dallas-87?adjust_creative=gBcvfFpabk3CnzmXKdYe3w&utm_campaign=yelp_api_v3&utm_medium=api_v3_business_search&utm_source=gBcvfFpabk3CnzmXKdYe3w", "phone": "+12145594050", "coordinates": {"longitude": -96.82633, "latitude": 32.815}, "categories": [{"alias": "coffee", "title": "Coffee & Tea"}], "review_count": 39, "location": {"city": "Dallas", "address1": "4744 Maple Ave", "address3": "", "address2": "", "zip_code": "75219", "country": "US", "display_address": ["4744 Maple Ave", "Dallas, TX 75219"], "state": "TX"}, "price": "$", "transactions": [], "display_phone": "(214) 559-4050"}, {"rating": 5.0, "is_closed": false, "distance": 3475.5353310859996, "name": "Yelp Elite Event: Refined at Rye 51", "id": "yelp-elite-event-refined-at-rye-51-dallas", "image_url": "https://s3-media3.fl.yelpcdn.com/bphoto/_4IbdmfglxNviKyt-VijVA/o.jpg", "url": "https://www.yelp.com/biz/yelp-elite-event-refined-at-rye-51-dallas?adjust_creative=gBcvfFpabk3CnzmXKdYe3w&utm_campaign=yelp_api_v3&utm_medium=api_v3_business_search&utm_source=gBcvfFpabk3CnzmXKdYe3w", "phone": "", "coordinates": {"longitude": -96.7970951646566, "latitude": 32.8077875822783}, "categories": [{"alias": "yelpevents", "title": "Yelp Events"}], "review_count": 5, "location": {"city": "Dallas", "address1": "3699 Mckinney Ave", "address3": null, "address2": "", "zip_code": "75204", "country": "US", "display_address": ["3699 Mckinney Ave", "Dallas, TX 75204"], "state": "TX"}, "transactions": [], "display_phone": ""}, {"rating": 3.5, "is_closed": false, "distance": 3783.496219476, "name": "Dodies Seafood Cafe", "id": "dodies-seafood-cafe-dallas", "image_url": "https://s3-media3.fl.yelpcdn.com/bphoto/8qc-PANtSE52s8JKDi5eMA/o.jpg", "url": "https://www.yelp.com/biz/dodies-seafood-cafe-dallas?adjust_creative=gBcvfFpabk3CnzmXKdYe3w&utm_campaign=yelp_api_v3&utm_medium=api_v3_business_search&utm_source=gBcvfFpabk3CnzmXKdYe3w", "phone": "+12148218890", "coordinates": {"longitude": -96.7703149, "latitude": 32.8160448}, "categories": [{"alias": "cajun", "title": "Cajun/Creole"}, {"alias": "seafood", "title": "Seafood"}, {"alias": "wine_bars", "title": "Wine Bars"}], "review_count": 144, "location": {"city": "Dallas", "address1": "2129 Greenville Ave", "address3": "", "address2": "", "zip_code": "75206", "country": "US", "display_address": ["2129 Greenville Ave", "Dallas, TX 75206"], "state": "TX"}, "price": "$$", "transactions": [], "display_phone": "(214) 821-8890"}, {"rating": 4.0, "is_closed": false, "distance": 8960.90328974, "name": "Atomic Pie", "id": "atomic-pie-dallas", "image_url": "https://s3-media2.fl.yelpcdn.com/bphoto/EO7eTvKEiYlylYo5xrFxHw/o.jpg", "url": "https://www.yelp.com/biz/atomic-pie-dallas?adjust_creative=gBcvfFpabk3CnzmXKdYe3w&utm_campaign=yelp_api_v3&utm_medium=api_v3_business_search&utm_source=gBcvfFpabk3CnzmXKdYe3w", "phone": "+12145535733", "coordinates": {"longitude": -96.71709, "latitude": 32.87815}, "categories": [{"alias": "pizza", "title": "Pizza"}, {"alias": "chicken_wings", "title": "Chicken Wings"}, {"alias": "bars", "title": "Bars"}], "review_count": 111, "location": {"city": "Dallas", "address1": "9660 Audelia Rd", "address3": "", "address2": "Ste 117", "zip_code": "75238", "country": "US", "display_address": ["9660 Audelia Rd", "Ste 117", "Dallas, TX 75238"], "state": "TX"}, "price": "$$", "transactions": [], "display_phone": "(214) 553-5733"}, {"rating": 4.0, "is_closed": false, "distance": 1950.61985908, "name": "Texas Scratch Kitchen", "id": "texas-scratch-kitchen-dallas", "image_url": "https://s3-media1.fl.yelpcdn.com/bphoto/RXmsDBfT5kVNwffPMn_W6Q/o.jpg", "url": "https://www.yelp.com/biz/texas-scratch-kitchen-dallas?adjust_creative=gBcvfFpabk3CnzmXKdYe3w&utm_campaign=yelp_api_v3&utm_medium=api_v3_business_search&utm_source=gBcvfFpabk3CnzmXKdYe3w", "phone": "+14699178810", "coordinates": {"longitude": -96.81632, "latitude": 32.85064}, "categories": [{"alias": "newamerican", "title": "American (New)"}, {"alias": "southern", "title": "Southern"}, {"alias": "sandwiches", "title": "Sandwiches"}], "review_count": 36, "location": {"city": "Dallas", "address1": "5600 W Lovers Ln", "address3": "", "address2": "Ste 110", "zip_code": "75209", "country": "US", "display_address": ["5600 W Lovers Ln", "Ste 110", "Dallas, TX 75209"], "state": "TX"}, "price": "$$", "transactions": [], "display_phone": "(469) 917-8810"}, {"rating": 3.5, "is_closed": false, "distance": 3132.567757148, "name": "Krispy Kreme Doughnuts", "id": "krispy-kreme-doughnuts-dallas", "image_url": "https://s3-media1.fl.yelpcdn.com/bphoto/V21f4sYyLdSmGH21XULOsw/o.jpg", "url": "https://www.yelp.com/biz/krispy-kreme-doughnuts-dallas?adjust_creative=gBcvfFpabk3CnzmXKdYe3w&utm_campaign=yelp_api_v3&utm_medium=api_v3_business_search&utm_source=gBcvfFpabk3CnzmXKdYe3w", "phone": "+12147505118", "coordinates": {"longitude": -96.7694587576525, "latitude": 32.8496139997101}, "categories": [{"alias": "donuts", "title": "Donuts"}, {"alias": "coffee", "title": "Coffee & Tea"}], "review_count": 77, "location": {"city": "Dallas", "address1": "5118 Greenville Ave", "address3": "", "address2": "", "zip_code": "75206", "country": "US", "display_address": ["5118 Greenville Ave", "Dallas, TX 75206"], "state": "TX"}, "price": "$", "transactions": [], "display_phone": "(214) 750-5118"}, {"rating": 3.5, "is_closed": false, "distance": 4592.654829669999, "name": "La Calle Doce", "id": "la-calle-doce-dallas", "image_url": "https://s3-media3.fl.yelpcdn.com/bphoto/mQt1gj4M3-6MAD0URmSwrw/o.jpg", "url": "https://www.yelp.com/biz/la-calle-doce-dallas?adjust_creative=gBcvfFpabk3CnzmXKdYe3w&utm_campaign=yelp_api_v3&utm_medium=api_v3_business_search&utm_source=gBcvfFpabk3CnzmXKdYe3w", "phone": "+12148249900", "coordinates": {"longitude": -96.76194, "latitude": 32.8131294}, "categories": [{"alias": "mexican", "title": "Mexican"}, {"alias": "seafood", "title": "Seafood"}, {"alias": "tex-mex", "title": "Tex-Mex"}], "review_count": 156, "location": {"city": "Dallas", "address1": "1925 Skillman St", "address3": "", "address2": "", "zip_code": "75206", "country": "US", "display_address": ["1925 Skillman St", "Dallas, TX 75206"], "state": "TX"}, "price": "$$", "transactions": [], "display_phone": "(214) 824-9900"}, {"rating": 4.5, "is_closed": false, "distance": 6364.2058409599995, "name": "Monkey King Banana Stand", "id": "monkey-king-banana-stand-dallas-4", "image_url": "https://s3-media1.fl.yelpcdn.com/bphoto/k2OBGhzA2SHVtxbY5uyOrw/o.jpg", "url": "https://www.yelp.com/biz/monkey-king-banana-stand-dallas-4?adjust_creative=gBcvfFpabk3CnzmXKdYe3w&utm_campaign=yelp_api_v3&utm_medium=api_v3_business_search&utm_source=gBcvfFpabk3CnzmXKdYe3w", "phone": "+14692063658", "coordinates": {"longitude": -96.7797563, "latitude": 32.7845385}, "categories": [{"alias": "icecream", "title": "Ice Cream & Frozen Yogurt"}, {"alias": "noodles", "title": "Noodles"}], "review_count": 20, "location": {"city": "Dallas", "address1": "3014 Main St", "address3": null, "address2": "", "zip_code": "75226", "country": "US", "display_address": ["3014 Main St", "Dallas, TX 75226"], "state": "TX"}, "price": "$", "transactions": [], "display_phone": "(469) 206-3658"}, {"rating": 4.0, "is_closed": false, "distance": 6304.871567302, "name": "Bachman Tacos", "id": "bachman-tacos-dallas", "image_url": "https://s3-media2.fl.yelpcdn.com/bphoto/of2BjnazZM8G2RHl1G2xpg/o.jpg", "url": "https://www.yelp.com/biz/bachman-tacos-dallas?adjust_creative=gBcvfFpabk3CnzmXKdYe3w&utm_campaign=yelp_api_v3&utm_medium=api_v3_business_search&utm_source=gBcvfFpabk3CnzmXKdYe3w", "phone": "+12143520010", "coordinates": {"longitude": -96.864822, "latitude": 32.856396}, "categories": [{"alias": "mexican", "title": "Mexican"}], "review_count": 23, "location": {"city": "Dallas", "address1": "3311 W Northwest Hwy", "address3": "", "address2": "", "zip_code": "75220", "country": "US", "display_address": ["3311 W Northwest Hwy", "Dallas, TX 75220"], "state": "TX"}, "price": "$", "transactions": [], "display_phone": "(214) 352-0010"}, {"rating": 3.5, "is_closed": false, "distance": 6239.604783602, "name": "Jake's Uptown", "id": "jakes-uptown-dallas-5", "image_url": "https://s3-media1.fl.yelpcdn.com/bphoto/f1G2rtbF0vt5-AymPK9xWg/o.jpg", "url": "https://www.yelp.com/biz/jakes-uptown-dallas-5?adjust_creative=gBcvfFpabk3CnzmXKdYe3w&utm_campaign=yelp_api_v3&utm_medium=api_v3_business_search&utm_source=gBcvfFpabk3CnzmXKdYe3w", "phone": "+12143491422", "coordinates": {"longitude": -96.7419199, "latitude": 32.8657899}, "categories": [{"alias": "burgers", "title": "Burgers"}], "review_count": 108, "location": {"city": "Dallas", "address1": "6606 Skillman St", "address3": "", "address2": "", "zip_code": "75231", "country": "US", "display_address": ["6606 Skillman St", "Dallas, TX 75231"], "state": "TX"}, "price": "$", "transactions": [], "display_phone": "(214) 349-1422"}, {"rating": 4.0, "is_closed": false, "distance": 11376.684207475999, "name": "Royal Palace Korean BBQ", "id": "royal-palace-korean-bbq-dallas", "image_url": "https://s3-media1.fl.yelpcdn.com/bphoto/B05ZaWKaHB-_8LowFhPJmA/o.jpg", "url": "https://www.yelp.com/biz/royal-palace-korean-bbq-dallas?adjust_creative=gBcvfFpabk3CnzmXKdYe3w&utm_campaign=yelp_api_v3&utm_medium=api_v3_business_search&utm_source=gBcvfFpabk3CnzmXKdYe3w", "phone": "+19722433432", "coordinates": {"longitude": -96.9023799, "latitude": 32.89457}, "categories": [{"alias": "korean", "title": "Korean"}, {"alias": "bbq", "title": "Barbeque"}, {"alias": "buffets", "title": "Buffets"}], "review_count": 36, "location": {"city": "Dallas", "address1": "2254 Royal Ln", "address3": "", "address2": "Ste 100", "zip_code": "75229", "country": "US", "display_address": ["2254 Royal Ln", "Ste 100", "Dallas, TX 75229"], "state": "TX"}, "price": "$$", "transactions": [], "display_phone": "(972) 243-3432"}, {"rating": 4.0, "is_closed": false, "distance": 10191.11175386, "name": "Seafood Shack", "id": "seafood-shack-dallas", "image_url": "https://s3-media2.fl.yelpcdn.com/bphoto/RdiUnudKET2HswXxAM7Ryw/o.jpg", "url": "https://www.yelp.com/biz/seafood-shack-dallas?adjust_creative=gBcvfFpabk3CnzmXKdYe3w&utm_campaign=yelp_api_v3&utm_medium=api_v3_business_search&utm_source=gBcvfFpabk3CnzmXKdYe3w", "phone": "+19724060890", "coordinates": {"longitude": -96.8725249, "latitude": 32.9077601}, "categories": [{"alias": "seafood", "title": "Seafood"}, {"alias": "cajun", "title": "Cajun/Creole"}], "review_count": 183, "location": {"city": "Dallas", "address1": "11625 Webb Chapel Rd", "address3": "", "address2": "", "zip_code": "75229", "country": "US", "display_address": ["11625 Webb Chapel Rd", "Dallas, TX 75229"], "state": "TX"}, "price": "$$", "transactions": [], "display_phone": "(972) 406-0890"}, {"rating": 4.0, "is_closed": false, "distance": 4871.6492074, "name": "Kennedy Room", "id": "kennedy-room-dallas", "image_url": "https://s3-media4.fl.yelpcdn.com/bphoto/2JrjUwi5md7kiYoIuxLdoQ/o.jpg", "url": "https://www.yelp.com/biz/kennedy-room-dallas?adjust_creative=gBcvfFpabk3CnzmXKdYe3w&utm_campaign=yelp_api_v3&utm_medium=api_v3_business_search&utm_source=gBcvfFpabk3CnzmXKdYe3w", "phone": "+12148800189", "coordinates": {"longitude": -96.8035354614258, "latitude": 32.7953033447266}, "categories": [{"alias": "cocktailbars", "title": "Cocktail Bars"}], "review_count": 41, "location": {"city": "Dallas", "address1": "2512 Maple Ave", "address3": "", "address2": "", "zip_code": "75201", "country": "US", "display_address": ["2512 Maple Ave", "Dallas, TX 75201"], "state": "TX"}, "price": "$$", "transactions": [], "display_phone": "(214) 880-0189"}, {"rating": 4.5, "is_closed": false, "distance": 14318.357525579999, "name": "El Palote Panaderia", "id": "el-palote-panaderia-dallas", "image_url": "https://s3-media1.fl.yelpcdn.com/bphoto/3Ln4Fjofgtpe0lvRZLWlgg/o.jpg", "url": "https://www.yelp.com/biz/el-palote-panaderia-dallas?adjust_creative=gBcvfFpabk3CnzmXKdYe3w&utm_campaign=yelp_api_v3&utm_medium=api_v3_business_search&utm_source=gBcvfFpabk3CnzmXKdYe3w", "phone": "+19728072673", "coordinates": {"longitude": -96.6833267211914, "latitude": 32.7559089660645}, "categories": [{"alias": "vegan", "title": "Vegan"}, {"alias": "bakeries", "title": "Bakeries"}, {"alias": "gluten_free", "title": "Gluten-Free"}], "review_count": 64, "location": {"city": "Dallas", "address1": "2537 S Buckner Blvd", "address3": "", "address2": "", "zip_code": "75227", "country": "US", "display_address": ["2537 S Buckner Blvd", "Dallas, TX 75227"], "state": "TX"}, "price": "$$", "transactions": [], "display_phone": "(972) 807-2673"}, {"rating": 4.0, "is_closed": false, "distance": 11258.30614603, "name": "Jersey Mike's Subs", "id": "jersey-mikes-subs-dallas-9", "image_url": "https://s3-media3.fl.yelpcdn.com/bphoto/ZXlwtrwf0QL3Lfj1I49S2w/o.jpg", "url": "https://www.yelp.com/biz/jersey-mikes-subs-dallas-9?adjust_creative=gBcvfFpabk3CnzmXKdYe3w&utm_campaign=yelp_api_v3&utm_medium=api_v3_business_search&utm_source=gBcvfFpabk3CnzmXKdYe3w", "phone": "+19723871900", "coordinates": {"longitude": -96.8209359645278, "latitude": 32.9388321797042}, "categories": [{"alias": "sandwiches", "title": "Sandwiches"}, {"alias": "hotdogs", "title": "Fast Food"}, {"alias": "delis", "title": "Delis"}], "review_count": 52, "location": {"city": "Dallas", "address1": "14060 Dallas Pkwy", "address3": "", "address2": "Ste 400", "zip_code": "75240", "country": "US", "display_address": ["14060 Dallas Pkwy", "Ste 400", "Dallas, TX 75240"], "state": "TX"}, "price": "$", "transactions": [], "display_phone": "(972) 387-1900"}, {"rating": 3.5, "is_closed": false, "distance": 4822.39213802, "name": "Fresh Market", "id": "fresh-market-dallas", "image_url": "https://s3-media2.fl.yelpcdn.com/bphoto/MDLm7oygMSVWmR9EpQBlzw/o.jpg", "url": "https://www.yelp.com/biz/fresh-market-dallas?adjust_creative=gBcvfFpabk3CnzmXKdYe3w&utm_campaign=yelp_api_v3&utm_medium=api_v3_business_search&utm_source=gBcvfFpabk3CnzmXKdYe3w", "phone": "+12143522296", "coordinates": {"longitude": -96.84807, "latitude": 32.822139}, "categories": [{"alias": "salad", "title": "Salad"}, {"alias": "breakfast_brunch", "title": "Breakfast & Brunch"}, {"alias": "desserts", "title": "Desserts"}], "review_count": 34, "location": {"city": "Dallas", "address1": "6300 Harry Hines Blvd", "address3": "", "address2": "Ste 130", "zip_code": "75235", "country": "US", "display_address": ["6300 Harry Hines Blvd", "Ste 130", "Dallas, TX 75235"], "state": "TX"}, "price": "$", "transactions": [], "display_phone": "(214) 352-2296"}, {"rating": 3.5, "is_closed": false, "distance": 6357.6091563, "name": "Filament", "id": "filament-dallas", "image_url": "https://s3-media4.fl.yelpcdn.com/bphoto/K0P1RuNUdrib3xDYl-j9LA/o.jpg", "url": "https://www.yelp.com/biz/filament-dallas?adjust_creative=gBcvfFpabk3CnzmXKdYe3w&utm_campaign=yelp_api_v3&utm_medium=api_v3_business_search&utm_source=gBcvfFpabk3CnzmXKdYe3w", "phone": "+12147601080", "coordinates": {"longitude": -96.78523, "latitude": 32.78333}, "categories": [{"alias": "southern", "title": "Southern"}], "review_count": 183, "location": {"city": "Dallas", "address1": "2626 Main St", "address3": "", "address2": "", "zip_code": "75226", "country": "US", "display_address": ["2626 Main St", "Dallas, TX 75226"], "state": "TX"}, "price": "$$$", "transactions": [], "display_phone": "(214) 760-1080"}, {"rating": 4.5, "is_closed": false, "distance": 6762.5834739, "name": "The Cottage", "id": "the-cottage-dallas-3", "image_url": "https://s3-media2.fl.yelpcdn.com/bphoto/hBPEWjy-QNEZR0RqRypHwA/o.jpg", "url": "https://www.yelp.com/biz/the-cottage-dallas-3?adjust_creative=gBcvfFpabk3CnzmXKdYe3w&utm_campaign=yelp_api_v3&utm_medium=api_v3_business_search&utm_source=gBcvfFpabk3CnzmXKdYe3w", "phone": "", "coordinates": {"longitude": -96.870491027832, "latitude": 32.8548164367676}, "categories": [{"alias": "divebars", "title": "Dive Bars"}, {"alias": "jazzandblues", "title": "Jazz & Blues"}], "review_count": 12, "location": {"city": "Dallas", "address1": "3006 W Northwest Hwy", "address3": "", "address2": "", "zip_code": "75220", "country": "US", "display_address": ["3006 W Northwest Hwy", "Dallas, TX 75220"], "state": "TX"}, "price": "$", "transactions": [], "display_phone": ""}, {"rating": 4.0, "is_closed": false, "distance": 10355.149687918, "name": "El Jordan Cafe", "id": "el-jordan-cafe-dallas", "image_url": "https://s3-media2.fl.yelpcdn.com/bphoto/Z0TW7AGfCYGGX6aiCu22YQ/o.jpg", "url": "https://www.yelp.com/biz/el-jordan-cafe-dallas?adjust_creative=gBcvfFpabk3CnzmXKdYe3w&utm_campaign=yelp_api_v3&utm_medium=api_v3_business_search&utm_source=gBcvfFpabk3CnzmXKdYe3w", "phone": "+12149414451", "coordinates": {"longitude": -96.8281851, "latitude": 32.7482896}, "categories": [{"alias": "tex-mex", "title": "Tex-Mex"}, {"alias": "breakfast_brunch", "title": "Breakfast & Brunch"}], "review_count": 87, "location": {"city": "Dallas", "address1": "416 N Bishop Ave", "address3": "", "address2": "", "zip_code": "75208", "country": "US", "display_address": ["416 N Bishop Ave", "Dallas, TX 75208"], "state": "TX"}, "price": "$", "transactions": [], "display_phone": "(214) 941-4451"}, {"rating": 3.5, "is_closed": false, "distance": 4595.09780779, "name": "Pour House", "id": "pour-house-dallas", "image_url": "https://s3-media2.fl.yelpcdn.com/bphoto/-JPjZVFVNIvfqjLS4EJHCw/o.jpg", "url": "https://www.yelp.com/biz/pour-house-dallas?adjust_creative=gBcvfFpabk3CnzmXKdYe3w&utm_campaign=yelp_api_v3&utm_medium=api_v3_business_search&utm_source=gBcvfFpabk3CnzmXKdYe3w", "phone": "+12148241170", "coordinates": {"longitude": -96.7618485, "latitude": 32.8132998}, "categories": [{"alias": "sportsbars", "title": "Sports Bars"}, {"alias": "sandwiches", "title": "Sandwiches"}], "review_count": 47, "location": {"city": "Dallas", "address1": "1919 Skillman St", "address3": "", "address2": "", "zip_code": "75206", "country": "US", "display_address": ["1919 Skillman St", "Dallas, TX 75206"], "state": "TX"}, "price": "$$", "transactions": [], "display_phone": "(214) 824-1170"}, {"rating": 3.5, "is_closed": false, "distance": 6309.99924641, "name": "Drugstore Cowboy", "id": "drugstore-cowboy-dallas", "image_url": "https://s3-media1.fl.yelpcdn.com/bphoto/0oqLHDr0Ns0KyCUJQhpDiQ/o.jpg", "url": "https://www.yelp.com/biz/drugstore-cowboy-dallas?adjust_creative=gBcvfFpabk3CnzmXKdYe3w&utm_campaign=yelp_api_v3&utm_medium=api_v3_business_search&utm_source=gBcvfFpabk3CnzmXKdYe3w", "phone": "+19722005635", "coordinates": {"longitude": -96.7839314, "latitude": 32.7839709}, "categories": [{"alias": "cocktailbars", "title": "Cocktail Bars"}, {"alias": "coffee", "title": "Coffee & Tea"}], "review_count": 81, "location": {"city": "Dallas", "address1": "2721 Main St", "address3": "", "address2": "", "zip_code": "75226", "country": "US", "display_address": ["2721 Main St", "Dallas, TX 75226"], "state": "TX"}, "price": "$", "transactions": [], "display_phone": "(972) 200-5635"}, {"rating": 3.5, "is_closed": false, "distance": 4175.569745768, "name": "Tacos Y Mas", "id": "tacos-y-mas-dallas-2", "image_url": "https://s3-media2.fl.yelpcdn.com/bphoto/3BXSs4454LfAmVdME5Ocmw/o.jpg", "url": "https://www.yelp.com/biz/tacos-y-mas-dallas-2?adjust_creative=gBcvfFpabk3CnzmXKdYe3w&utm_campaign=yelp_api_v3&utm_medium=api_v3_business_search&utm_source=gBcvfFpabk3CnzmXKdYe3w", "phone": "+12148248079", "coordinates": {"longitude": -96.7707456, "latitude": 32.8109384}, "categories": [{"alias": "mexican", "title": "Mexican"}], "review_count": 157, "location": {"city": "Dallas", "address1": "5419 Ross Ave", "address3": "", "address2": "", "zip_code": "75206", "country": "US", "display_address": ["5419 Ross Ave", "Dallas, TX 75206"], "state": "TX"}, "price": "$", "transactions": ["delivery"], "display_phone": "(214) 824-8079"}, {"rating": 4.5, "is_closed": false, "distance": 2948.638058822, "name": "Pie Tap Pizza Workshop + Bar", "id": "pie-tap-pizza-workshop-bar-dallas-3", "image_url": "https://s3-media1.fl.yelpcdn.com/bphoto/3HbIenlio3Fii9RiLCLs7A/o.jpg", "url": "https://www.yelp.com/biz/pie-tap-pizza-workshop-bar-dallas-3?adjust_creative=gBcvfFpabk3CnzmXKdYe3w&utm_campaign=yelp_api_v3&utm_medium=api_v3_business_search&utm_source=gBcvfFpabk3CnzmXKdYe3w", "phone": "+19724327800", "coordinates": {"longitude": -96.78153, "latitude": 32.81788}, "categories": [{"alias": "pizza", "title": "Pizza"}, {"alias": "italian", "title": "Italian"}, {"alias": "cocktailbars", "title": "Cocktail Bars"}], "review_count": 72, "location": {"city": "Dallas", "address1": "2708 N Henderson Ave", "address3": "", "address2": "", "zip_code": "75206", "country": "US", "display_address": ["2708 N Henderson Ave", "Dallas, TX 75206"], "state": "TX"}, "price": "$$", "transactions": ["pickup"], "display_phone": "(972) 432-7800"}, {"rating": 4.0, "is_closed": false, "distance": 1370.454881222, "name": "Chick-fil-A", "id": "chick-fil-a-dallas-7", "image_url": "https://s3-media1.fl.yelpcdn.com/bphoto/681i9RsYJyB8-RoovlD5sA/o.jpg", "url": "https://www.yelp.com/biz/chick-fil-a-dallas-7?adjust_creative=gBcvfFpabk3CnzmXKdYe3w&utm_campaign=yelp_api_v3&utm_medium=api_v3_business_search&utm_source=gBcvfFpabk3CnzmXKdYe3w", "phone": "+12145999944", "coordinates": {"longitude": -96.787514, "latitude": 32.844714}, "categories": [{"alias": "hotdogs", "title": "Fast Food"}], "review_count": 15, "location": {"city": "Dallas", "address1": "6423 Hillcrest Ave", "address3": "", "address2": "", "zip_code": "75205", "country": "US", "display_address": ["6423 Hillcrest Ave", "Dallas, TX 75205"], "state": "TX"}, "price": "$", "transactions": [], "display_phone": "(214) 599-9944"}, {"rating": 3.5, "is_closed": false, "distance": 3007.423708474, "name": "Snuffer's Restaurant & Bar", "id": "snuffers-restaurant-and-bar-dallas-4", "image_url": "https://s3-media4.fl.yelpcdn.com/bphoto/4CL6KVRb9wWvOBTs9Cm__w/o.jpg", "url": "https://www.yelp.com/biz/snuffers-restaurant-and-bar-dallas-4?adjust_creative=gBcvfFpabk3CnzmXKdYe3w&utm_campaign=yelp_api_v3&utm_medium=api_v3_business_search&utm_source=gBcvfFpabk3CnzmXKdYe3w", "phone": "+12148266850", "coordinates": {"longitude": -96.769816, "latitude": 32.830974}, "categories": [{"alias": "burgers", "title": "Burgers"}, {"alias": "tradamerican", "title": "American (Traditional)"}], "review_count": 230, "location": {"city": "Dallas", "address1": "3526 Greenville Ave", "address3": "", "address2": "", "zip_code": "75206", "country": "US", "display_address": ["3526 Greenville Ave", "Dallas, TX 75206"], "state": "TX"}, "price": "$$", "transactions": [], "display_phone": "(214) 826-6850"}, {"rating": 3.5, "is_closed": false, "distance": 6366.788187923999, "name": "All Good Cafe", "id": "all-good-cafe-dallas-4", "image_url": "https://s3-media2.fl.yelpcdn.com/bphoto/6g1ZsJaSkaBOa-Bydfqacw/o.jpg", "url": "https://www.yelp.com/biz/all-good-cafe-dallas-4?adjust_creative=gBcvfFpabk3CnzmXKdYe3w&utm_campaign=yelp_api_v3&utm_medium=api_v3_business_search&utm_source=gBcvfFpabk3CnzmXKdYe3w", "phone": "+12147425362", "coordinates": {"longitude": -96.7807102203369, "latitude": 32.7842619322475}, "categories": [{"alias": "breakfast_brunch", "title": "Breakfast & Brunch"}, {"alias": "musicvenues", "title": "Music Venues"}], "review_count": 441, "location": {"city": "Dallas", "address1": "2934 Main St", "address3": "", "address2": "", "zip_code": "75226", "country": "US", "display_address": ["2934 Main St", "Dallas, TX 75226"], "state": "TX"}, "price": "$$", "transactions": [], "display_phone": "(214) 742-5362"}, {"rating": 3.5, "is_closed": false, "distance": 4673.1025175899995, "name": "Gandolfo's", "id": "gandolfos-dallas-2", "image_url": "https://s3-media2.fl.yelpcdn.com/bphoto/iAzYdW9FSbJISWhzHreE4w/o.jpg", "url": "https://www.yelp.com/biz/gandolfos-dallas-2?adjust_creative=gBcvfFpabk3CnzmXKdYe3w&utm_campaign=yelp_api_v3&utm_medium=api_v3_business_search&utm_source=gBcvfFpabk3CnzmXKdYe3w", "phone": "+15124661749", "coordinates": {"longitude": -96.7553901672363, "latitude": 32.8209653382628}, "categories": [{"alias": "delis", "title": "Delis"}, {"alias": "sandwiches", "title": "Sandwiches"}, {"alias": "foodtrucks", "title": "Food Trucks"}], "review_count": 51, "location": {"city": "Dallas", "address1": "2012 Woodall Rodgers Fwy", "address3": "", "address2": "", "zip_code": "75201", "country": "US", "display_address": ["2012 Woodall Rodgers Fwy", "Dallas, TX 75201"], "state": "TX"}, "price": "$", "transactions": [], "display_phone": "(512) 466-1749"}, {"rating": 3.5, "is_closed": false, "distance": 2255.157359422, "name": "Smashburger", "id": "smashburger-dallas-6", "image_url": "https://s3-media4.fl.yelpcdn.com/bphoto/fToVyqEtiTsIh41a0sLiJQ/o.jpg", "url": "https://www.yelp.com/biz/smashburger-dallas-6?adjust_creative=gBcvfFpabk3CnzmXKdYe3w&utm_campaign=yelp_api_v3&utm_medium=api_v3_business_search&utm_source=gBcvfFpabk3CnzmXKdYe3w", "phone": "+12148657720", "coordinates": {"longitude": -96.7764155104542, "latitude": 32.8383445944102}, "categories": [{"alias": "burgers", "title": "Burgers"}], "review_count": 87, "location": {"city": "Dallas", "address1": "5319 E Mockingbird Ln", "address3": "", "address2": "Ste 120", "zip_code": "75206", "country": "US", "display_address": ["5319 E Mockingbird Ln", "Ste 120", "Dallas, TX 75206"], "state": "TX"}, "price": "$", "transactions": [], "display_phone": "(214) 865-7720"}, {"rating": 3.5, "is_closed": false, "distance": 6087.02197073, "name": "La Popular Tamale House", "id": "la-popular-tamale-house-dallas", "image_url": "https://s3-media2.fl.yelpcdn.com/bphoto/wnfEm7EiRVyc9-jhIc9x3g/o.jpg", "url": "https://www.yelp.com/biz/la-popular-tamale-house-dallas?adjust_creative=gBcvfFpabk3CnzmXKdYe3w&utm_campaign=yelp_api_v3&utm_medium=api_v3_business_search&utm_source=gBcvfFpabk3CnzmXKdYe3w", "phone": "+12148247617", "coordinates": {"longitude": -96.7697032, "latitude": 32.7908211}, "categories": [{"alias": "mexican", "title": "Mexican"}], "review_count": 45, "location": {"city": "Dallas", "address1": "132 N Peak St", "address3": "", "address2": "", "zip_code": "75214", "country": "US", "display_address": ["132 N Peak St", "Dallas, TX 75214"], "state": "TX"}, "price": "$", "transactions": [], "display_phone": "(214) 824-7617"}, {"rating": 3.5, "is_closed": false, "distance": 4583.090039248, "name": "Zo\u00ebs Kitchen", "id": "zo\u00ebs-kitchen-dallas-16", "image_url": "https://s3-media1.fl.yelpcdn.com/bphoto/XmsYufkLu0Pw68RmGXDTrQ/o.jpg", "url": "https://www.yelp.com/biz/zo%C3%ABs-kitchen-dallas-16?adjust_creative=gBcvfFpabk3CnzmXKdYe3w&utm_campaign=yelp_api_v3&utm_medium=api_v3_business_search&utm_source=gBcvfFpabk3CnzmXKdYe3w", "phone": "+14692329203", "coordinates": {"longitude": -96.7696347, "latitude": 32.8716451}, "categories": [{"alias": "sandwiches", "title": "Sandwiches"}, {"alias": "mediterranean", "title": "Mediterranean"}, {"alias": "greek", "title": "Greek"}], "review_count": 41, "location": {"city": "Dallas", "address1": "8018 Park Ln", "address3": null, "address2": "Ste 100", "zip_code": "75231", "country": "US", "display_address": ["8018 Park Ln", "Ste 100", "Dallas, TX 75231"], "state": "TX"}, "price": "$$", "transactions": [], "display_phone": "(469) 232-9203"}, {"rating": 3.0, "is_closed": false, "distance": 2835.351788202, "name": "Ozona Grill & Bar", "id": "ozona-grill-and-bar-dallas", "image_url": "https://s3-media2.fl.yelpcdn.com/bphoto/zPHkcKLKozUlCtpHbPHydQ/o.jpg", "url": "https://www.yelp.com/biz/ozona-grill-and-bar-dallas?adjust_creative=gBcvfFpabk3CnzmXKdYe3w&utm_campaign=yelp_api_v3&utm_medium=api_v3_business_search&utm_source=gBcvfFpabk3CnzmXKdYe3w", "phone": "+12142659105", "coordinates": {"longitude": -96.770591, "latitude": 32.843482}, "categories": [{"alias": "breakfast_brunch", "title": "Breakfast & Brunch"}, {"alias": "tex-mex", "title": "Tex-Mex"}, {"alias": "burgers", "title": "Burgers"}], "review_count": 288, "location": {"city": "Dallas", "address1": "4615 Greenville Ave", "address3": "", "address2": "", "zip_code": "75206", "country": "US", "display_address": ["4615 Greenville Ave", "Dallas, TX 75206"], "state": "TX"}, "price": "$$", "transactions": [], "display_phone": "(214) 265-9105"}]}