{"region": {"center": {"latitude": 32.839043482398054, "longitude": -96.800537109375}}, "businesses": [{"transactions": ["delivery"], "distance": 4404.9550914599995, "price": "$$", "display_phone": "(214) 871-1115", "phone": "+12148711115", "url": "https://www.yelp.com/biz/cremona-bistro-kitchen-dallas?adjust_creative=gBcvfFpabk3CnzmXKdYe3w&utm_campaign=yelp_api_v3&utm_medium=api_v3_business_search&utm_source=gBcvfFpabk3CnzmXKdYe3w", "name": "Cremona Bistro Kitchen", "location": {"display_address": ["2704 Worthington St", "Dallas, TX 75204"], "country": "US", "state": "TX", "address3": "", "address2": "", "address1": "2704 Worthington St", "city": "Dallas", "zip_code": "75204"}, "is_closed": false, "review_count": 136, "coordinates": {"latitude": 32.7994919446618, "longitude": -96.8032130264074}, "id": "cremona-bistro-kitchen-dallas", "image_url": "https://s3-media2.fl.yelpcdn.com/bphoto/yIA95nWt3uGL1PCwkoX3NQ/o.jpg", "categories": [{"alias": "italian", "title": "Italian"}], "rating": 3.5}, {"transactions": [], "distance": 10021.653723616, "price": "$", "display_phone": "(972) 235-4831", "phone": "+19722354831", "url": "https://www.yelp.com/biz/kazys-gourmet-shop-dallas?adjust_creative=gBcvfFpabk3CnzmXKdYe3w&utm_campaign=yelp_api_v3&utm_medium=api_v3_business_search&utm_source=gBcvfFpabk3CnzmXKdYe3w", "name": "Kazy's Gourmet Shop", "location": {"display_address": ["9256 Markville Dr", "Dallas, TX 75243"], "country": "US", "state": "TX", "address3": "", "address2": "", "address1": "9256 Markville Dr", "city": "Dallas", "zip_code": "75243"}, "is_closed": false, "review_count": 181, "coordinates": {"latitude": 32.9133, "longitude": -96.74019}, "id": "kazys-gourmet-shop-dallas", "image_url": "https://s3-media3.fl.yelpcdn.com/bphoto/I1XTA7VQF2IcMo2eSRWKPA/o.jpg", "categories": [{"alias": "sushi", "title": "Sushi Bars"}, {"alias": "japanese", "title": "Japanese"}, {"alias": "seafood", "title": "Seafood"}], "rating": 4.0}, {"transactions": ["delivery", "pickup"], "distance": 6271.951551998, "price": "$$", "display_phone": "(214) 651-1177", "phone": "+12146511177", "url": "https://www.yelp.com/biz/deep-sushi-dallas?adjust_creative=gBcvfFpabk3CnzmXKdYe3w&utm_campaign=yelp_api_v3&utm_medium=api_v3_business_search&utm_source=gBcvfFpabk3CnzmXKdYe3w", "name": "Deep Sushi", "location": {"display_address": ["2624 Elm St", "Dallas, TX 75226"], "country": "US", "state": "TX", "address3": "", "address2": "", "address1": "2624 Elm St", "city": "Dallas", "zip_code": "75226"}, "is_closed": false, "review_count": 367, "coordinates": {"latitude": 32.7840599, "longitude": -96.78554}, "id": "deep-sushi-dallas", "image_url": "https://s3-media4.fl.yelpcdn.com/bphoto/gSUOUy4u8HQC5YniEdpHUw/o.jpg", "categories": [{"alias": "sushi", "title": "Sushi Bars"}], "rating": 3.5}, {"transactions": [], "distance": 12709.870475779999, "price": "$", "display_phone": "(972) 788-0660", "phone": "+19727880660", "url": "https://www.yelp.com/biz/super-chix-dallas-2?adjust_creative=gBcvfFpabk3CnzmXKdYe3w&utm_campaign=yelp_api_v3&utm_medium=api_v3_business_search&utm_source=gBcvfFpabk3CnzmXKdYe3w", "name": "Super Chix", "location": {"display_address": ["14999 Preston Rd", "Ste 226", "Dallas, TX 75254"], "country": "US", "state": "TX", "address3": "", "address2": "Ste 226", "address1": "14999 Preston Rd", "city": "Dallas", "zip_code": "75254"}, "is_closed": false, "review_count": 338, "coordinates": {"latitude": 32.9532958668954, "longitude": -96.8045084974838}, "id": "super-chix-dallas-2", "image_url": "https://s3-media4.fl.yelpcdn.com/bphoto/PyyUvjJHPAZoVOb27wLJbA/o.jpg", "categories": [{"alias": "chickenshop", "title": "Chicken Shop"}, {"alias": "icecream", "title": "Ice Cream & Frozen Yogurt"}, {"alias": "sandwiches", "title": "Sandwiches"}], "rating": 4.0}, {"transactions": [], "distance": 2456.3209970059997, "price": "$$$", "display_phone": "(214) 520-7993", "phone": "+12145207993", "url": "https://www.yelp.com/biz/whole-foods-market-dallas-5?adjust_creative=gBcvfFpabk3CnzmXKdYe3w&utm_campaign=yelp_api_v3&utm_medium=api_v3_business_search&utm_source=gBcvfFpabk3CnzmXKdYe3w", "name": "Whole Foods Market", "location": {"display_address": ["4100 Lomo Alto Dr.", "Dallas, TX 75219"], "country": "US", "state": "TX", "address3": "", "address2": null, "address1": "4100 Lomo Alto Dr.", "city": "Dallas", "zip_code": "75219"}, "is_closed": false, "review_count": 124, "coordinates": {"latitude": 32.8204305442312, "longitude": -96.8146996661959}, "id": "whole-foods-market-dallas-5", "image_url": "https://s3-media2.fl.yelpcdn.com/bphoto/aSHQo_R5WbqTFs_zzrVi9A/o.jpg", "categories": [{"alias": "grocery", "title": "Grocery"}, {"alias": "healthmarkets", "title": "Health Markets"}, {"alias": "coffee", "title": "Coffee & Tea"}], "rating": 3.5}, {"transactions": [], "distance": 10464.880765544, "price": "$", "display_phone": "(214) 941-3322", "phone": "+12149413322", "url": "https://www.yelp.com/biz/hunkys-hamburgers-dallas-2?adjust_creative=gBcvfFpabk3CnzmXKdYe3w&utm_campaign=yelp_api_v3&utm_medium=api_v3_business_search&utm_source=gBcvfFpabk3CnzmXKdYe3w", "name": "Hunky's Hamburgers", "location": {"display_address": ["321 N Bishop Ave", "Dallas, TX 75208"], "country": "US", "state": "TX", "address3": "", "address2": "", "address1": "321 N Bishop Ave", "city": "Dallas", "zip_code": "75208"}, "is_closed": false, "review_count": 181, "coordinates": {"latitude": 32.7474564, "longitude": -96.8284549}, "id": "hunkys-hamburgers-dallas-2", "image_url": "https://s3-media2.fl.yelpcdn.com/bphoto/fdEQAn4FLadRszDEKuHX0A/o.jpg", "categories": [{"alias": "burgers", "title": "Burgers"}], "rating": 4.0}, {"transactions": [], "distance": 5542.983296257999, "price": "$", "display_phone": "(214) 954-7617", "phone": "+12149547617", "url": "https://www.yelp.com/biz/schlotzskys-dallas-6?adjust_creative=gBcvfFpabk3CnzmXKdYe3w&utm_campaign=yelp_api_v3&utm_medium=api_v3_business_search&utm_source=gBcvfFpabk3CnzmXKdYe3w", "name": "Schlotzsky's", "location": {"display_address": ["3903 Gaston Ave", "Dallas, TX 75246"], "country": "US", "state": "TX", "address3": "", "address2": "", "address1": "3903 Gaston Ave", "city": "Dallas", "zip_code": "75246"}, "is_closed": false, "review_count": 26, "coordinates": {"latitude": 32.792662, "longitude": -96.778797}, "id": "schlotzskys-dallas-6", "image_url": "https://s3-media1.fl.yelpcdn.com/bphoto/adaiYapJgtmrIRuPSkPBGg/o.jpg", "categories": [{"alias": "hotdogs", "title": "Fast Food"}, {"alias": "burgers", "title": "Burgers"}], "rating": 4.0}, {"transactions": [], "distance": 11302.81646708, "price": "$$", "display_phone": "(972) 484-2994", "phone": "+19724842994", "url": "https://www.yelp.com/biz/dal-dong-ne-dallas-2?adjust_creative=gBcvfFpabk3CnzmXKdYe3w&utm_campaign=yelp_api_v3&utm_medium=api_v3_business_search&utm_source=gBcvfFpabk3CnzmXKdYe3w", "name": "Dal Dong Ne", "location": {"display_address": ["11445 Emerald St", "Ste 109", "Dallas, TX 75229"], "country": "US", "state": "TX", "address3": "", "address2": "Ste 109", "address1": "11445 Emerald St", "city": "Dallas", "zip_code": "75229"}, "is_closed": false, "review_count": 129, "coordinates": {"latitude": 32.89719, "longitude": -96.899795}, "id": "dal-dong-ne-dallas-2", "image_url": "https://s3-media2.fl.yelpcdn.com/bphoto/XrF5pGFouT1lX6YSa9pbFw/o.jpg", "categories": [{"alias": "korean", "title": "Korean"}], "rating": 4.0}, {"transactions": [], "distance": 5670.2589157620005, "price": "$$", "display_phone": "(214) 741-7737", "phone": "+12147417737", "url": "https://www.yelp.com/biz/bowlounge-dallas?adjust_creative=gBcvfFpabk3CnzmXKdYe3w&utm_campaign=yelp_api_v3&utm_medium=api_v3_business_search&utm_source=gBcvfFpabk3CnzmXKdYe3w", "name": "Bowlounge", "location": {"display_address": ["167 Turtle Creek Blvd", "Dallas, TX 75207"], "country": "US", "state": "TX", "address3": "", "address2": "", "address1": "167 Turtle Creek Blvd", "city": "Dallas", "zip_code": "75207"}, "is_closed": false, "review_count": 147, "coordinates": {"latitude": 32.793371, "longitude": -96.827526}, "id": "bowlounge-dallas", "image_url": "https://s3-media1.fl.yelpcdn.com/bphoto/8goeB8s1Qkj7Mr_zJvLHVA/o.jpg", "categories": [{"alias": "bowling", "title": "Bowling"}, {"alias": "bars", "title": "Bars"}], "rating": 3.5}, {"transactions": ["pickup"], "distance": 4545.546068256, "price": "$$", "display_phone": "(214) 351-9010", "phone": "+12143519010", "url": "https://www.yelp.com/biz/fernandos-mexican-cuisine-dallas?adjust_creative=gBcvfFpabk3CnzmXKdYe3w&utm_campaign=yelp_api_v3&utm_medium=api_v3_business_search&utm_source=gBcvfFpabk3CnzmXKdYe3w", "name": "Fernando's Mexican Cuisine", "location": {"display_address": ["4347 W Nw Hwy", "Ste 100", "Dallas, TX 75220"], "country": "US", "state": "TX", "address3": "", "address2": "Ste 100", "address1": "4347 W Nw Hwy", "city": "Dallas", "zip_code": "75220"}, "is_closed": false, "review_count": 132, "coordinates": {"latitude": 32.866179, "longitude": -96.836929}, "id": "fernandos-mexican-cuisine-dallas", "image_url": "https://s3-media3.fl.yelpcdn.com/bphoto/6Bd6_qy_39gRkpRA88FphQ/o.jpg", "categories": [{"alias": "tex-mex", "title": "Tex-Mex"}, {"alias": "mexican", "title": "Mexican"}, {"alias": "breakfast_brunch", "title": "Breakfast & Brunch"}], "rating": 3.5}, {"transactions": [], "distance": 7625.835059239999, "price": "$$", "display_phone": "(214) 361-8887", "phone": "+12143618887", "url": "https://www.yelp.com/biz/whole-foods-market-dallas-10?adjust_creative=gBcvfFpabk3CnzmXKdYe3w&utm_campaign=yelp_api_v3&utm_medium=api_v3_business_search&utm_source=gBcvfFpabk3CnzmXKdYe3w", "name": "Whole Foods Market", "location": {"display_address": ["11700 Preston Rd", "Ste 714", "Dallas, TX 75230"], "country": "US", "state": "TX", "address3": "", "address2": "Ste 714", "address1": "11700 Preston Rd", "city": "Dallas", "zip_code": "75230"}, "is_closed": false, "review_count": 80, "coordinates": {"latitude": 32.9075848022695, "longitude": -96.803267438632}, "id": "whole-foods-market-dallas-10", "image_url": "https://s3-media4.fl.yelpcdn.com/bphoto/Jev8K2rw1Bw1Ycubl7sTZQ/o.jpg", "categories": [{"alias": "grocery", "title": "Grocery"}, {"alias": "healthmarkets", "title": "Health Markets"}, {"alias": "coffee", "title": "Coffee & Tea"}], "rating": 4.0}, {"transactions": [], "distance": 9629.482027584, "price": "$", "display_phone": "(972) 644-8628", "phone": "+19726448628", "url": "https://www.yelp.com/biz/jgs-old-fashioned-hamburgers-dallas?adjust_creative=gBcvfFpabk3CnzmXKdYe3w&utm_campaign=yelp_api_v3&utm_medium=api_v3_business_search&utm_source=gBcvfFpabk3CnzmXKdYe3w", "name": "JGs Old Fashioned Hamburgers", "location": {"display_address": ["12101 N Greenville Ave", "Ste 109", "Dallas, TX 75243"], "country": "US", "state": "TX", "address3": "", "address2": "Ste 109", "address1": "12101 N Greenville Ave", "city": "Dallas", "zip_code": "75243"}, "is_closed": false, "review_count": 141, "coordinates": {"latitude": 32.912857, "longitude": -96.746078}, "id": "jgs-old-fashioned-hamburgers-dallas", "image_url": "https://s3-media2.fl.yelpcdn.com/bphoto/G7NAcRTkSYB-MAnzoBdUxA/o.jpg", "categories": [{"alias": "burgers", "title": "Burgers"}, {"alias": "tradamerican", "title": "American (Traditional)"}, {"alias": "southern", "title": "Southern"}], "rating": 4.0}, {"transactions": [], "distance": 3429.507080548, "price": "$", "display_phone": "(214) 219-1735", "phone": "+12142191735", "url": "https://www.yelp.com/biz/starbucks-dallas-34?adjust_creative=gBcvfFpabk3CnzmXKdYe3w&utm_campaign=yelp_api_v3&utm_medium=api_v3_business_search&utm_source=gBcvfFpabk3CnzmXKdYe3w", "name": "Starbucks", "location": {"display_address": ["3699 McKinney Ave", "Dallas, TX 75204"], "country": "US", "state": "TX", "address3": "", "address2": "", "address1": "3699 McKinney Ave", "city": "Dallas", "zip_code": "75204"}, "is_closed": false, "review_count": 121, "coordinates": {"latitude": 32.8082649164217, "longitude": -96.7981502353949}, "id": "starbucks-dallas-34", "image_url": "https://s3-media3.fl.yelpcdn.com/bphoto/2P26N2_tqaybBPviSVfaQw/o.jpg", "categories": [{"alias": "coffee", "title": "Coffee & Tea"}], "rating": 3.5}, {"transactions": [], "distance": 7143.927208544001, "display_phone": "", "phone": "", "url": "https://www.yelp.com/biz/white-rock-lake-dog-park-dallas?adjust_creative=gBcvfFpabk3CnzmXKdYe3w&utm_campaign=yelp_api_v3&utm_medium=api_v3_business_search&utm_source=gBcvfFpabk3CnzmXKdYe3w", "name": "White Rock Lake Dog Park", "location": {"display_address": ["8000 E Mockingbird Ln", "Dallas, TX 75334"], "country": "US", "state": "TX", "address3": "", "address2": "", "address1": "8000 E Mockingbird Ln", "city": "Dallas", "zip_code": "75334"}, "is_closed": false, "review_count": 123, "coordinates": {"latitude": 32.8518865993654, "longitude": -96.7256113618612}, "id": "white-rock-lake-dog-park-dallas", "image_url": "https://s3-media2.fl.yelpcdn.com/bphoto/MStGVpR9jGxcNNS8sZXdGw/o.jpg", "categories": [{"alias": "dog_parks", "title": "Dog Parks"}], "rating": 4.0}, {"transactions": [], "distance": 8968.56535748, "price": "$", "display_phone": "(214) 503-0388", "phone": "+12145030388", "url": "https://www.yelp.com/biz/tonys-pizza-and-pasta-restaurant-dallas?adjust_creative=gBcvfFpabk3CnzmXKdYe3w&utm_campaign=yelp_api_v3&utm_medium=api_v3_business_search&utm_source=gBcvfFpabk3CnzmXKdYe3w", "name": "Tony's Pizza & Pasta Restaurant", "location": {"display_address": ["10233 E Nw Hwy", "Ste 504", "Dallas, TX 75238"], "country": "US", "state": "TX", "address3": "", "address2": "Ste 504", "address1": "10233 E Nw Hwy", "city": "Dallas", "zip_code": "75238"}, "is_closed": false, "review_count": 172, "coordinates": {"latitude": 32.8646368252473, "longitude": -96.7094904036201}, "id": "tonys-pizza-and-pasta-restaurant-dallas", "image_url": "https://s3-media2.fl.yelpcdn.com/bphoto/bc4p4R5zpR7gWEanjphrXg/o.jpg", "categories": [{"alias": "pizza", "title": "Pizza"}, {"alias": "italian", "title": "Italian"}, {"alias": "pastashops", "title": "Pasta Shops"}], "rating": 4.0}, {"transactions": ["pickup"], "distance": 6536.017370019999, "price": "$", "display_phone": "(214) 741-9424", "phone": "+12147419424", "url": "https://www.yelp.com/biz/which-wich-dallas-12?adjust_creative=gBcvfFpabk3CnzmXKdYe3w&utm_campaign=yelp_api_v3&utm_medium=api_v3_business_search&utm_source=gBcvfFpabk3CnzmXKdYe3w", "name": "Which Wich", "location": {"display_address": ["1410 Main St", "Dallas, TX 75202"], "country": "US", "state": "TX", "address3": "", "address2": "", "address1": "1410 Main St", "city": "Dallas", "zip_code": "75202"}, "is_closed": false, "review_count": 70, "coordinates": {"latitude": 32.7803681, "longitude": -96.7997165}, "id": "which-wich-dallas-12", "image_url": "https://s3-media3.fl.yelpcdn.com/bphoto/9ziS4EUkpyU5Mlwj8WD9Nw/o.jpg", "categories": [{"alias": "sandwiches", "title": "Sandwiches"}], "rating": 4.0}, {"transactions": [], "distance": 6983.832962156, "price": "$", "display_phone": "(214) 905-6140", "phone": "+12149056140", "url": "https://www.yelp.com/biz/freshella-kitchen-dallas?adjust_creative=gBcvfFpabk3CnzmXKdYe3w&utm_campaign=yelp_api_v3&utm_medium=api_v3_business_search&utm_source=gBcvfFpabk3CnzmXKdYe3w", "name": "Freshella Kitchen", "location": {"display_address": ["7145 John W Carpenter Fwy", "Dallas, TX 75247"], "country": "US", "state": "TX", "address3": "", "address2": "", "address1": "7145 John W Carpenter Fwy", "city": "Dallas", "zip_code": "75247"}, "is_closed": false, "review_count": 24, "coordinates": {"latitude": 32.8159866333008, "longitude": -96.8700714111328}, "id": "freshella-kitchen-dallas", "image_url": "https://s3-media4.fl.yelpcdn.com/bphoto/6Kf0dcLL1QpZqsUT6ksVBA/o.jpg", "categories": [{"alias": "diners", "title": "Diners"}, {"alias": "tradamerican", "title": "American (Traditional)"}], "rating": 4.5}, {"transactions": ["delivery"], "distance": 2074.9970572439997, "price": "$$", "display_phone": "(214) 780-1880", "phone": "+12147801880", "url": "https://www.yelp.com/biz/villa-o-dallas?adjust_creative=gBcvfFpabk3CnzmXKdYe3w&utm_campaign=yelp_api_v3&utm_medium=api_v3_business_search&utm_source=gBcvfFpabk3CnzmXKdYe3w", "name": "Villa-O", "location": {"display_address": ["4514 Travis St", "Ste 132", "Dallas, TX 75205"], "country": "US", "state": "TX", "address3": "", "address2": "Ste 132", "address1": "4514 Travis St", "city": "Dallas", "zip_code": "75205"}, "is_closed": false, "review_count": 347, "coordinates": {"latitude": 32.8223686218262, "longitude": -96.7905654907227}, "id": "villa-o-dallas", "image_url": "https://s3-media2.fl.yelpcdn.com/bphoto/iZBBYPXjtle-lC88kAkNfw/o.jpg", "categories": [{"alias": "italian", "title": "Italian"}], "rating": 3.5}, {"transactions": ["pickup"], "distance": 2241.54910225, "price": "$$", "display_phone": "(214) 352-8320", "phone": "+12143528320", "url": "https://www.yelp.com/biz/dunstons-steak-house-dallas?adjust_creative=gBcvfFpabk3CnzmXKdYe3w&utm_campaign=yelp_api_v3&utm_medium=api_v3_business_search&utm_source=gBcvfFpabk3CnzmXKdYe3w", "name": "Dunston's Steak House", "location": {"display_address": ["5423 W Lovers Ln", "Dallas, TX 75209"], "country": "US", "state": "TX", "address3": "", "address2": "", "address1": "5423 W Lovers Ln", "city": "Dallas", "zip_code": "75209"}, "is_closed": false, "review_count": 126, "coordinates": {"latitude": 32.8512246161699, "longitude": -96.8196538835764}, "id": "dunstons-steak-house-dallas", "image_url": "https://s3-media2.fl.yelpcdn.com/bphoto/XCWF6EouR9e8Fe0mTMzXYg/o.jpg", "categories": [{"alias": "steak", "title": "Steakhouses"}], "rating": 3.5}, {"transactions": [], "distance": 6385.958806938, "price": "$$$", "display_phone": "(214) 698-0470", "phone": "+12146980470", "url": "https://www.yelp.com/biz/the-palm-dallas-dallas?adjust_creative=gBcvfFpabk3CnzmXKdYe3w&utm_campaign=yelp_api_v3&utm_medium=api_v3_business_search&utm_source=gBcvfFpabk3CnzmXKdYe3w", "name": "The Palm Dallas", "location": {"display_address": ["701 Ross Ave", "Dallas, TX 75202"], "country": "US", "state": "TX", "address3": "", "address2": "", "address1": "701 Ross Ave", "city": "Dallas", "zip_code": "75202"}, "is_closed": false, "review_count": 113, "coordinates": {"latitude": 32.78198, "longitude": -96.80663}, "id": "the-palm-dallas-dallas", "image_url": "https://s3-media2.fl.yelpcdn.com/bphoto/cyz57AzB85jRL8R6K6uoMg/o.jpg", "categories": [{"alias": "steak", "title": "Steakhouses"}, {"alias": "seafood", "title": "Seafood"}], "rating": 3.5}, {"transactions": ["pickup"], "distance": 4295.04038814, "price": "$", "display_phone": "(469) 334-0434", "phone": "+14693340434", "url": "https://www.yelp.com/biz/uptown-thai-dallas?adjust_creative=gBcvfFpabk3CnzmXKdYe3w&utm_campaign=yelp_api_v3&utm_medium=api_v3_business_search&utm_source=gBcvfFpabk3CnzmXKdYe3w", "name": "Uptown Thai", "location": {"display_address": ["4817 Ross Ave", "Dallas, TX 75204"], "country": "US", "state": "TX", "address3": "", "address2": null, "address1": "4817 Ross Ave", "city": "Dallas", "zip_code": "75204"}, "is_closed": false, "review_count": 28, "coordinates": {"latitude": 32.8060122464051, "longitude": -96.7767114995994}, "id": "uptown-thai-dallas", "image_url": "https://s3-media1.fl.yelpcdn.com/bphoto/pT9QN7lWivxZv0GE9PJp5w/o.jpg", "categories": [{"alias": "thai", "title": "Thai"}, {"alias": "chicken_wings", "title": "Chicken Wings"}], "rating": 4.0}, {"transactions": [], "distance": 5011.578584522, "price": "$$", "display_phone": "(214) 741-3211", "phone": "+12147413211", "url": "https://www.yelp.com/biz/ascension-coffee-dallas?adjust_creative=gBcvfFpabk3CnzmXKdYe3w&utm_campaign=yelp_api_v3&utm_medium=api_v3_business_search&utm_source=gBcvfFpabk3CnzmXKdYe3w", "name": "Ascension Coffee", "location": {"display_address": ["1621 Oak Lawn Ave", "Dallas, TX 75207"], "country": "US", "state": "TX", "address3": "", "address2": null, "address1": "1621 Oak Lawn Ave", "city": "Dallas", "zip_code": "75207"}, "is_closed": false, "review_count": 653, "coordinates": {"latitude": 32.7970293848929, "longitude": -96.8199434699059}, "id": "ascension-coffee-dallas", "image_url": "https://s3-media1.fl.yelpcdn.com/bphoto/XmE2KzPf5OSFb02ba7LF0w/o.jpg", "categories": [{"alias": "coffee", "title": "Coffee & Tea"}, {"alias": "breakfast_brunch", "title": "Breakfast & Brunch"}, {"alias": "beer_and_wine", "title": "Beer, Wine & Spirits"}], "rating": 4.0}, {"transactions": [], "distance": 5757.363799526, "price": "$$", "display_phone": "(214) 691-3888", "phone": "+12146913888", "url": "https://www.yelp.com/biz/marianos-hacienda-ranch-dallas?adjust_creative=gBcvfFpabk3CnzmXKdYe3w&utm_campaign=yelp_api_v3&utm_medium=api_v3_business_search&utm_source=gBcvfFpabk3CnzmXKdYe3w", "name": "Marianos Hacienda Ranch", "location": {"display_address": ["6300 Skillman St", "Bldg J", "Dallas, TX 75231"], "country": "US", "state": "TX", "address3": "", "address2": "Bldg J", "address1": "6300 Skillman St", "city": "Dallas", "zip_code": "75231"}, "is_closed": false, "review_count": 205, "coordinates": {"latitude": 32.8635407513441, "longitude": -96.7462416342545}, "id": "marianos-hacienda-ranch-dallas", "image_url": "https://s3-media2.fl.yelpcdn.com/bphoto/W30Nsc_zxwvPXVsShY2B7w/o.jpg", "categories": [{"alias": "mexican", "title": "Mexican"}, {"alias": "tex-mex", "title": "Tex-Mex"}], "rating": 3.5}, {"transactions": [], "distance": 3302.183502712, "price": "$", "display_phone": "(214) 827-1977", "phone": "+12148271977", "url": "https://www.yelp.com/biz/stans-blue-note-dallas?adjust_creative=gBcvfFpabk3CnzmXKdYe3w&utm_campaign=yelp_api_v3&utm_medium=api_v3_business_search&utm_source=gBcvfFpabk3CnzmXKdYe3w", "name": "Stan's Blue Note", "location": {"display_address": ["2908 Greenville Ave", "Dallas, TX 75206"], "country": "US", "state": "TX", "address3": "", "address2": "", "address1": "2908 Greenville Ave", "city": "Dallas", "zip_code": "75206"}, "is_closed": false, "review_count": 70, "coordinates": {"latitude": 32.8240578, "longitude": -96.7700251}, "id": "stans-blue-note-dallas", "image_url": "https://s3-media1.fl.yelpcdn.com/bphoto/SjrdbpQ4Fc3m_O9Ty4LIZA/o.jpg", "categories": [{"alias": "sportsbars", "title": "Sports Bars"}], "rating": 4.0}, {"transactions": [], "distance": 11246.85971528, "price": "$$", "display_phone": "(469) 291-5001", "phone": "+14692915001", "url": "https://www.yelp.com/biz/jeds-grill-dallas-2?adjust_creative=gBcvfFpabk3CnzmXKdYe3w&utm_campaign=yelp_api_v3&utm_medium=api_v3_business_search&utm_source=gBcvfFpabk3CnzmXKdYe3w", "name": "Jed's Grill", "location": {"display_address": ["1001 W Jefferson Blvd", "Dallas, TX 75208"], "country": "US", "state": "TX", "address3": "", "address2": null, "address1": "1001 W Jefferson Blvd", "city": "Dallas", "zip_code": "75208"}, "is_closed": false, "review_count": 117, "coordinates": {"latitude": 32.7433049, "longitude": -96.8395901}, "id": "jeds-grill-dallas-2", "image_url": "https://s3-media1.fl.yelpcdn.com/bphoto/1WvvvDNFrKKyLeIfHHgUJg/o.jpg", "categories": [{"alias": "breakfast_brunch", "title": "Breakfast & Brunch"}, {"alias": "burgers", "title": "Burgers"}], "rating": 4.5}, {"transactions": [], "distance": 6254.400089958, "price": "$$", "display_phone": "(214) 613-4501", "phone": "+12146134501", "url": "https://www.yelp.com/biz/snap-kitchen-dallas-5?adjust_creative=gBcvfFpabk3CnzmXKdYe3w&utm_campaign=yelp_api_v3&utm_medium=api_v3_business_search&utm_source=gBcvfFpabk3CnzmXKdYe3w", "name": "Snap Kitchen", "location": {"display_address": ["6025 Royal Ln", "Ste 314-B", "Dallas, TX 75230"], "country": "US", "state": "TX", "address3": "", "address2": "Ste 314-B", "address1": "6025 Royal Ln", "city": "Dallas", "zip_code": "75230"}, "is_closed": false, "review_count": 16, "coordinates": {"latitude": 32.8952635586636, "longitude": -96.8025781030467}, "id": "snap-kitchen-dallas-5", "image_url": "https://s3-media2.fl.yelpcdn.com/bphoto/Xg4nBFdB88lWcXjMQvEdjg/o.jpg", "categories": [{"alias": "newamerican", "title": "American (New)"}, {"alias": "gluten_free", "title": "Gluten-Free"}, {"alias": "vegetarian", "title": "Vegetarian"}], "rating": 4.5}, {"transactions": [], "distance": 12783.687200098, "price": "$$", "display_phone": "(972) 991-7093", "phone": "+19729917093", "url": "https://www.yelp.com/biz/flying-saucer-draught-emporium-dallas-2?adjust_creative=gBcvfFpabk3CnzmXKdYe3w&utm_campaign=yelp_api_v3&utm_medium=api_v3_business_search&utm_source=gBcvfFpabk3CnzmXKdYe3w", "name": "Flying Saucer Draught Emporium", "location": {"display_address": ["14999 Montfort Dr", "Dallas, TX 75254"], "country": "US", "state": "TX", "address3": "", "address2": "", "address1": "14999 Montfort Dr", "city": "Dallas", "zip_code": "75254"}, "is_closed": false, "review_count": 440, "coordinates": {"latitude": 32.9529787776551, "longitude": -96.8188163638115}, "id": "flying-saucer-draught-emporium-dallas-2", "image_url": "https://s3-media4.fl.yelpcdn.com/bphoto/4uHBPbWs5hCYK6RkSe157g/o.jpg", "categories": [{"alias": "pubs", "title": "Pubs"}, {"alias": "newamerican", "title": "American (New)"}], "rating": 4.0}, {"transactions": [], "distance": 10052.237460041999, "price": "$", "display_phone": "(972) 247-8797", "phone": "+19722478797", "url": "https://www.yelp.com/biz/el-tizoncito-dallas-3?adjust_creative=gBcvfFpabk3CnzmXKdYe3w&utm_campaign=yelp_api_v3&utm_medium=api_v3_business_search&utm_source=gBcvfFpabk3CnzmXKdYe3w", "name": "El Tizoncito", "location": {"display_address": ["3318 Forest Ln", "Ste 100", "Dallas, TX 75234"], "country": "US", "state": "TX", "address3": "", "address2": "Ste 100", "address1": "3318 Forest Ln", "city": "Dallas", "zip_code": "75234"}, "is_closed": false, "review_count": 126, "coordinates": {"latitude": 32.90921, "longitude": -96.8684}, "id": "el-tizoncito-dallas-3", "image_url": "https://s3-media1.fl.yelpcdn.com/bphoto/nElfVK52q2p5uSMfffrBRQ/o.jpg", "categories": [{"alias": "mexican", "title": "Mexican"}], "rating": 4.0}, {"transactions": [], "distance": 7142.945672077999, "price": "$$", "display_phone": "(972) 684-5906", "phone": "+19726845906", "url": "https://www.yelp.com/biz/sushi-bayashi-at-trinity-groves-dallas?adjust_creative=gBcvfFpabk3CnzmXKdYe3w&utm_campaign=yelp_api_v3&utm_medium=api_v3_business_search&utm_source=gBcvfFpabk3CnzmXKdYe3w", "name": "Sushi Bayashi at Trinity Groves", "location": {"display_address": ["3011 Gulden Ln", "Ste 106", "Dallas, TX 75212"], "country": "US", "state": "TX", "address3": "", "address2": "Ste 106", "address1": "3011 Gulden Ln", "city": "Dallas", "zip_code": "75212"}, "is_closed": false, "review_count": 171, "coordinates": {"latitude": 32.7791881882723, "longitude": -96.8282913710144}, "id": "sushi-bayashi-at-trinity-groves-dallas", "image_url": "https://s3-media2.fl.yelpcdn.com/bphoto/8W1Qygyz2-0bDE-j3sUneA/o.jpg", "categories": [{"alias": "japanese", "title": "Japanese"}], "rating": 3.5}, {"transactions": ["delivery"], "distance": 12600.13762788, "price": "$$$", "display_phone": "(972) 503-7080", "phone": "+19725037080", "url": "https://www.yelp.com/biz/canary-by-gorji-dallas-2?adjust_creative=gBcvfFpabk3CnzmXKdYe3w&utm_campaign=yelp_api_v3&utm_medium=api_v3_business_search&utm_source=gBcvfFpabk3CnzmXKdYe3w", "name": "Canary By Gorji", "location": {"display_address": ["5100 Belt Line Rd", "Ste 402", "Dallas, TX 75254"], "country": "US", "state": "TX", "address3": "", "address2": "Ste 402", "address1": "5100 Belt Line Rd", "city": "Dallas", "zip_code": "75254"}, "is_closed": false, "review_count": 103, "coordinates": {"latitude": 32.9512950910331, "longitude": -96.8189946150665}, "id": "canary-by-gorji-dallas-2", "image_url": "https://s3-media3.fl.yelpcdn.com/bphoto/bGN-XHa5uhG_PXoPX5oZFQ/o.jpg", "categories": [{"alias": "seafood", "title": "Seafood"}, {"alias": "steak", "title": "Steakhouses"}, {"alias": "mediterranean", "title": "Mediterranean"}], "rating": 4.5}, {"transactions": [], "distance": 5266.25615672, "price": "$$", "display_phone": "(214) 484-7420", "phone": "+12144847420", "url": "https://www.yelp.com/biz/sasa-sushi-dallas-2?adjust_creative=gBcvfFpabk3CnzmXKdYe3w&utm_campaign=yelp_api_v3&utm_medium=api_v3_business_search&utm_source=gBcvfFpabk3CnzmXKdYe3w", "name": "Sasa Sushi", "location": {"display_address": ["6340 Gaston Ave", "Dallas, TX 75214"], "country": "US", "state": "TX", "address3": null, "address2": "", "address1": "6340 Gaston Ave", "city": "Dallas", "zip_code": "75214"}, "is_closed": false, "review_count": 38, "coordinates": {"latitude": 32.8133679181337, "longitude": -96.7533060908318}, "id": "sasa-sushi-dallas-2", "image_url": "https://s3-media1.fl.yelpcdn.com/bphoto/rPq4EI1AKweci-qc-5Vhww/o.jpg", "categories": [{"alias": "japanese", "title": "Japanese"}, {"alias": "poke", "title": "Poke"}, {"alias": "sushi", "title": "Sushi Bars"}], "rating": 4.5}, {"transactions": [], "distance": 6450.69177256, "price": "$$", "display_phone": "(214) 741-9453", "phone": "+12147419453", "url": "https://www.yelp.com/biz/wild-salsa-dallas?adjust_creative=gBcvfFpabk3CnzmXKdYe3w&utm_campaign=yelp_api_v3&utm_medium=api_v3_business_search&utm_source=gBcvfFpabk3CnzmXKdYe3w", "name": "Wild Salsa", "location": {"display_address": ["1800 Main St", "Ste 100", "Dallas, TX 75201"], "country": "US", "state": "TX", "address3": "", "address2": "Ste 100", "address1": "1800 Main St", "city": "Dallas", "zip_code": "75201"}, "is_closed": false, "review_count": 359, "coordinates": {"latitude": 32.7811653182464, "longitude": -96.7958165950022}, "id": "wild-salsa-dallas", "image_url": "https://s3-media1.fl.yelpcdn.com/bphoto/O33dybkGEI-ymjSA84yq3A/o.jpg", "categories": [{"alias": "mexican", "title": "Mexican"}], "rating": 3.5}, {"transactions": [], "distance": 4349.706932062, "price": "$", "display_phone": "", "phone": "", "url": "https://www.yelp.com/biz/texas-veggie-fair-reverchon-park-dallas?adjust_creative=gBcvfFpabk3CnzmXKdYe3w&utm_campaign=yelp_api_v3&utm_medium=api_v3_business_search&utm_source=gBcvfFpabk3CnzmXKdYe3w", "name": "Texas Veggie Fair - Reverchon Park", "location": {"display_address": ["3505 Maple Ave", "Dallas, TX 75219"], "country": "US", "state": "TX", "address3": "", "address2": "", "address1": "3505 Maple Ave", "city": "Dallas", "zip_code": "75219"}, "is_closed": false, "review_count": 12, "coordinates": {"latitude": 32.8010593399801, "longitude": -96.8116698693808}, "id": "texas-veggie-fair-reverchon-park-dallas", "image_url": "https://s3-media3.fl.yelpcdn.com/bphoto/P9P1XxxLcAuvQkyBin7YIA/o.jpg", "categories": [{"alias": "vegan", "title": "Vegan"}, {"alias": "markets", "title": "Fruits & Veggies"}], "rating": 4.5}, {"transactions": [], "distance": 4216.324350059999, "price": "$$", "display_phone": "(972) 925-0512", "phone": "+19729250512", "url": "https://www.yelp.com/biz/toasted-coffee-kitchen-dallas?adjust_creative=gBcvfFpabk3CnzmXKdYe3w&utm_campaign=yelp_api_v3&utm_medium=api_v3_business_search&utm_source=gBcvfFpabk3CnzmXKdYe3w", "name": "Toasted Coffee + Kitchen", "location": {"display_address": ["5420 Ross Ave", "Ste 180", "Dallas, TX 75206"], "country": "US", "state": "TX", "address3": null, "address2": "Ste 180", "address1": "5420 Ross Ave", "city": "Dallas", "zip_code": "75206"}, "is_closed": false, "review_count": 85, "coordinates": {"latitude": 32.8104805201292, "longitude": -96.7709912359715}, "id": "toasted-coffee-kitchen-dallas", "image_url": "https://s3-media3.fl.yelpcdn.com/bphoto/CH0d5_PeFlU5u9Lx8T1rrw/o.jpg", "categories": [{"alias": "coffee", "title": "Coffee & Tea"}, {"alias": "bakeries", "title": "Bakeries"}, {"alias": "bars", "title": "Bars"}], "rating": 3.5}, {"transactions": [], "distance": 4495.118686828, "price": "$$", "display_phone": "(214) 954-4141", "phone": "+12149544141", "url": "https://www.yelp.com/biz/tates-dallas?adjust_creative=gBcvfFpabk3CnzmXKdYe3w&utm_campaign=yelp_api_v3&utm_medium=api_v3_business_search&utm_source=gBcvfFpabk3CnzmXKdYe3w", "name": "Tate's", "location": {"display_address": ["2723 Mckinney Ave", "Dallas, TX 75204"], "country": "US", "state": "TX", "address3": "", "address2": "", "address1": "2723 Mckinney Ave", "city": "Dallas", "zip_code": "75204"}, "is_closed": false, "review_count": 109, "coordinates": {"latitude": 32.7986219, "longitude": -96.8013021}, "id": "tates-dallas", "image_url": "https://s3-media1.fl.yelpcdn.com/bphoto/06yqOoJyBaR7ignH6O-42A/o.jpg", "categories": [{"alias": "lounges", "title": "Lounges"}], "rating": 3.5}, {"transactions": [], "distance": 1519.13568833, "price": "$$", "display_phone": "(214) 363-9506", "phone": "+12143639506", "url": "https://www.yelp.com/biz/cisco-grill-dallas?adjust_creative=gBcvfFpabk3CnzmXKdYe3w&utm_campaign=yelp_api_v3&utm_medium=api_v3_business_search&utm_source=gBcvfFpabk3CnzmXKdYe3w", "name": "Cisco Grill", "location": {"display_address": ["6630 Snider Plz", "Dallas, TX 75205"], "country": "US", "state": "TX", "address3": "", "address2": "", "address1": "6630 Snider Plz", "city": "Dallas", "zip_code": "75205"}, "is_closed": false, "review_count": 32, "coordinates": {"latitude": 32.84737, "longitude": -96.78751}, "id": "cisco-grill-dallas", "image_url": "https://s3-media4.fl.yelpcdn.com/bphoto/BSPQdq56VoYPXYcAquoIZw/o.jpg", "categories": [{"alias": "tradamerican", "title": "American (Traditional)"}, {"alias": "tex-mex", "title": "Tex-Mex"}, {"alias": "burgers", "title": "Burgers"}], "rating": 4.0}, {"transactions": ["delivery"], "distance": 6246.182478049999, "price": "$$", "display_phone": "(469) 802-6742", "phone": "+14698026742", "url": "https://www.yelp.com/biz/stonedeck-pizza-pub-dallas?adjust_creative=gBcvfFpabk3CnzmXKdYe3w&utm_campaign=yelp_api_v3&utm_medium=api_v3_business_search&utm_source=gBcvfFpabk3CnzmXKdYe3w", "name": "Stonedeck Pizza Pub", "location": {"display_address": ["2613 Elm St", "Dallas, TX 75226"], "country": "US", "state": "TX", "address3": "", "address2": "", "address1": "2613 Elm St", "city": "Dallas", "zip_code": "75226"}, "is_closed": false, "review_count": 164, "coordinates": {"latitude": 32.7842056006193, "longitude": -96.7861906439066}, "id": "stonedeck-pizza-pub-dallas", "image_url": "https://s3-media3.fl.yelpcdn.com/bphoto/9l0fYRTQEfBwOKZF70e5CQ/o.jpg", "categories": [{"alias": "pizza", "title": "Pizza"}, {"alias": "pubs", "title": "Pubs"}], "rating": 3.5}, {"transactions": [], "distance": 3481.060195306, "price": "$", "display_phone": "(214) 821-9366", "phone": "+12148219366", "url": "https://www.yelp.com/biz/margaritas-restaurant-dallas?adjust_creative=gBcvfFpabk3CnzmXKdYe3w&utm_campaign=yelp_api_v3&utm_medium=api_v3_business_search&utm_source=gBcvfFpabk3CnzmXKdYe3w", "name": "Margarita's Restaurant", "location": {"display_address": ["2414 N Fitzhugh Ave", "Dallas, TX 75204"], "country": "US", "state": "TX", "address3": "", "address2": "", "address1": "2414 N Fitzhugh Ave", "city": "Dallas", "zip_code": "75204"}, "is_closed": false, "review_count": 42, "coordinates": {"latitude": 32.811714, "longitude": -96.782361}, "id": "margaritas-restaurant-dallas", "image_url": "https://s3-media1.fl.yelpcdn.com/bphoto/O02rdVLLsHGB4tst1OPwSg/o.jpg", "categories": [{"alias": "mexican", "title": "Mexican"}], "rating": 4.0}, {"transactions": [], "distance": 6434.076302664, "price": "$$", "display_phone": "(214) 748-0746", "phone": "+12147480746", "url": "https://www.yelp.com/biz/sapa-house-dallas?adjust_creative=gBcvfFpabk3CnzmXKdYe3w&utm_campaign=yelp_api_v3&utm_medium=api_v3_business_search&utm_source=gBcvfFpabk3CnzmXKdYe3w", "name": "Sapa House", "location": {"display_address": ["1623 Main St", "Ste 102", "Dallas, TX 75201"], "country": "US", "state": "TX", "address3": null, "address2": "Ste 102", "address1": "1623 Main St", "city": "Dallas", "zip_code": "75201"}, "is_closed": false, "review_count": 85, "coordinates": {"latitude": 32.7812356, "longitude": -96.7975281}, "id": "sapa-house-dallas", "image_url": "https://s3-media2.fl.yelpcdn.com/bphoto/ZvbNZzqrC4C_Hy2RXid4Ew/o.jpg", "categories": [{"alias": "sushi", "title": "Sushi Bars"}, {"alias": "vietnamese", "title": "Vietnamese"}, {"alias": "asianfusion", "title": "Asian Fusion"}], "rating": 4.0}, {"transactions": [], "distance": 5083.407291138, "price": "$$", "display_phone": "(214) 983-1023", "phone": "+12149831023", "url": "https://www.yelp.com/biz/shake-shack-dallas?adjust_creative=gBcvfFpabk3CnzmXKdYe3w&utm_campaign=yelp_api_v3&utm_medium=api_v3_business_search&utm_source=gBcvfFpabk3CnzmXKdYe3w", "name": "Shake Shack", "location": {"display_address": ["2500 N Pearl St", "Dallas, TX 75201"], "country": "US", "state": "TX", "address3": "", "address2": null, "address1": "2500 N Pearl St", "city": "Dallas", "zip_code": "75201"}, "is_closed": false, "review_count": 289, "coordinates": {"latitude": 32.7933762247135, "longitude": -96.8030958933778}, "id": "shake-shack-dallas", "image_url": "https://s3-media2.fl.yelpcdn.com/bphoto/1Df1UaBw3DAgDL0m3IDcjw/o.jpg", "categories": [{"alias": "burgers", "title": "Burgers"}, {"alias": "hotdogs", "title": "Fast Food"}, {"alias": "hotdog", "title": "Hot Dogs"}], "rating": 3.5}, {"transactions": [], "distance": 4856.978785828, "price": "$$", "display_phone": "(214) 361-8646", "phone": "+12143618646", "url": "https://www.yelp.com/biz/normas-cafe-dallas-7?adjust_creative=gBcvfFpabk3CnzmXKdYe3w&utm_campaign=yelp_api_v3&utm_medium=api_v3_business_search&utm_source=gBcvfFpabk3CnzmXKdYe3w", "name": "Norma's Cafe", "location": {"display_address": ["9100 N Central Expy", "Ste 151", "Dallas, TX 75225"], "country": "US", "state": "TX", "address3": "", "address2": "Ste 151", "address1": "9100 N Central Expy", "city": "Dallas", "zip_code": "75225"}, "is_closed": false, "review_count": 64, "coordinates": {"latitude": 32.87295, "longitude": -96.76809}, "id": "normas-cafe-dallas-7", "image_url": "https://s3-media3.fl.yelpcdn.com/bphoto/HNG95fCqFe92Mx465wDfDA/o.jpg", "categories": [{"alias": "tradamerican", "title": "American (Traditional)"}, {"alias": "breakfast_brunch", "title": "Breakfast & Brunch"}, {"alias": "burgers", "title": "Burgers"}], "rating": 4.0}, {"transactions": ["pickup"], "distance": 6657.171382031999, "price": "$", "display_phone": "(214) 647-1424", "phone": "+12146471424", "url": "https://www.yelp.com/biz/sandbar-cantina-and-grill-dallas?adjust_creative=gBcvfFpabk3CnzmXKdYe3w&utm_campaign=yelp_api_v3&utm_medium=api_v3_business_search&utm_source=gBcvfFpabk3CnzmXKdYe3w", "name": "Sandbar Cantina and Grill", "location": {"display_address": ["317 S 2nd Ave", "Dallas, TX 75226"], "country": "US", "state": "TX", "address3": "", "address2": null, "address1": "317 S 2nd Ave", "city": "Dallas", "zip_code": "75226"}, "is_closed": false, "review_count": 57, "coordinates": {"latitude": 32.783447265625, "longitude": -96.7744827270508}, "id": "sandbar-cantina-and-grill-dallas", "image_url": "https://s3-media1.fl.yelpcdn.com/bphoto/pgU5rHX0Nk1ju95Rdh7psg/o.jpg", "categories": [{"alias": "bars", "title": "Bars"}, {"alias": "burgers", "title": "Burgers"}, {"alias": "sandwiches", "title": "Sandwiches"}], "rating": 4.0}, {"transactions": [], "distance": 6068.749685304, "price": "$", "display_phone": "(214) 740-4071", "phone": "+12147404071", "url": "https://www.yelp.com/biz/forty-five-oaks-cafe-lincoln-plaza-dallas?adjust_creative=gBcvfFpabk3CnzmXKdYe3w&utm_campaign=yelp_api_v3&utm_medium=api_v3_business_search&utm_source=gBcvfFpabk3CnzmXKdYe3w", "name": "Forty Five Oaks Cafe - Lincoln Plaza", "location": {"display_address": ["500 N Akard St", "Fl 2", "Dallas, TX 75201"], "country": "US", "state": "TX", "address3": "", "address2": "Fl 2", "address1": "500 N Akard St", "city": "Dallas", "zip_code": "75201"}, "is_closed": false, "review_count": 15, "coordinates": {"latitude": 32.7843818664551, "longitude": -96.8002090454102}, "id": "forty-five-oaks-cafe-lincoln-plaza-dallas", "image_url": "https://s3-media4.fl.yelpcdn.com/bphoto/lBfCIrsrV83pLgTd5X7ElQ/o.jpg", "categories": [{"alias": "cafes", "title": "Cafes"}], "rating": 4.0}, {"transactions": [], "distance": 11675.727903859999, "price": "$", "display_phone": "(214) 434-6223", "phone": "+12144346223", "url": "https://www.yelp.com/biz/tacos-chaco-dallas?adjust_creative=gBcvfFpabk3CnzmXKdYe3w&utm_campaign=yelp_api_v3&utm_medium=api_v3_business_search&utm_source=gBcvfFpabk3CnzmXKdYe3w", "name": "Tacos Chaco", "location": {"display_address": ["8188 Spring Valley", "Dallas, TX 75240"], "country": "US", "state": "TX", "address3": "", "address2": "", "address1": "8188 Spring Valley", "city": "Dallas", "zip_code": "75240"}, "is_closed": false, "review_count": 24, "coordinates": {"latitude": 32.939533, "longitude": -96.764359}, "id": "tacos-chaco-dallas", "image_url": "https://s3-media2.fl.yelpcdn.com/bphoto/WoHpV8fVaXrkHPOA7MP-Tw/o.jpg", "categories": [{"alias": "mexican", "title": "Mexican"}], "rating": 4.5}, {"transactions": [], "distance": 7157.8040645619985, "price": "$$", "display_phone": "(469) 513-7457", "phone": "+14695137457", "url": "https://www.yelp.com/biz/chino-chinatown-dallas?adjust_creative=gBcvfFpabk3CnzmXKdYe3w&utm_campaign=yelp_api_v3&utm_medium=api_v3_business_search&utm_source=gBcvfFpabk3CnzmXKdYe3w", "name": "Chino Chinatown", "location": {"display_address": ["3011 Gulden Ln", "Ste 110", "Dallas, TX 75212"], "country": "US", "state": "TX", "address3": "", "address2": "Ste 110", "address1": "3011 Gulden Ln", "city": "Dallas", "zip_code": "75212"}, "is_closed": false, "review_count": 334, "coordinates": {"latitude": 32.7791985715765, "longitude": -96.8287532380982}, "id": "chino-chinatown-dallas", "image_url": "https://s3-media4.fl.yelpcdn.com/bphoto/dxaSdHuI3RlrZHIYvL80Ow/o.jpg", "categories": [{"alias": "asianfusion", "title": "Asian Fusion"}, {"alias": "latin", "title": "Latin American"}], "rating": 3.5}, {"transactions": [], "distance": 4909.157611977999, "price": "$$", "display_phone": "(214) 267-4815", "phone": "+12142674815", "url": "https://www.yelp.com/biz/asador-dallas?adjust_creative=gBcvfFpabk3CnzmXKdYe3w&utm_campaign=yelp_api_v3&utm_medium=api_v3_business_search&utm_source=gBcvfFpabk3CnzmXKdYe3w", "name": "Asador", "location": {"display_address": ["2222 N Stemmons Fwy", "Renaissance Dallas Hotel", "Dallas, TX 75207"], "country": "US", "state": "TX", "address3": "Renaissance Dallas Hotel", "address2": "", "address1": "2222 N Stemmons Fwy", "city": "Dallas", "zip_code": "75207"}, "is_closed": false, "review_count": 77, "coordinates": {"latitude": 32.8037116817239, "longitude": -96.8320381886205}, "id": "asador-dallas", "image_url": "https://s3-media3.fl.yelpcdn.com/bphoto/8UsMrPomOmSWuFK7EBziCA/o.jpg", "categories": [{"alias": "newamerican", "title": "American (New)"}, {"alias": "latin", "title": "Latin American"}], "rating": 3.5}, {"transactions": [], "distance": 6500.028343336, "price": "$", "display_phone": "(469) 399-7555", "phone": "+14693997555", "url": "https://www.yelp.com/biz/chicken-haus-dallas?adjust_creative=gBcvfFpabk3CnzmXKdYe3w&utm_campaign=yelp_api_v3&utm_medium=api_v3_business_search&utm_source=gBcvfFpabk3CnzmXKdYe3w", "name": "Chicken Haus", "location": {"display_address": ["907 Elm St", "Dallas, TX 75202"], "country": "US", "state": "TX", "address3": null, "address2": "", "address1": "907 Elm St", "city": "Dallas", "zip_code": "75202"}, "is_closed": false, "review_count": 11, "coordinates": {"latitude": 32.780731, "longitude": -96.80413}, "id": "chicken-haus-dallas", "image_url": "https://s3-media1.fl.yelpcdn.com/bphoto/II2rXdXdasQBR6lVrp3TgA/o.jpg", "categories": [{"alias": "chickenshop", "title": "Chicken Shop"}], "rating": 4.5}, {"transactions": ["delivery"], "distance": 6974.86507594, "price": "$$", "display_phone": "(214) 352-3321", "phone": "+12143523321", "url": "https://www.yelp.com/biz/stratos-greek-taverna-dallas-3?adjust_creative=gBcvfFpabk3CnzmXKdYe3w&utm_campaign=yelp_api_v3&utm_medium=api_v3_business_search&utm_source=gBcvfFpabk3CnzmXKdYe3w", "name": "Stratos Greek Taverna", "location": {"display_address": ["2907 W Northwest Hwy", "Dallas, TX 75220"], "country": "US", "state": "TX", "address3": "", "address2": "", "address1": "2907 W Northwest Hwy", "city": "Dallas", "zip_code": "75220"}, "is_closed": false, "review_count": 268, "coordinates": {"latitude": 32.8573, "longitude": -96.87187}, "id": "stratos-greek-taverna-dallas-3", "image_url": "https://s3-media1.fl.yelpcdn.com/bphoto/0V5wYMbWTqFD3DNKzaCQZQ/o.jpg", "categories": [{"alias": "greek", "title": "Greek"}, {"alias": "mediterranean", "title": "Mediterranean"}, {"alias": "sandwiches", "title": "Sandwiches"}], "rating": 3.5}, {"transactions": [], "distance": 11091.563877036, "price": "$$", "display_phone": "(214) 946-4238", "phone": "+12149464238", "url": "https://www.yelp.com/biz/el-ranchito-dallas?adjust_creative=gBcvfFpabk3CnzmXKdYe3w&utm_campaign=yelp_api_v3&utm_medium=api_v3_business_search&utm_source=gBcvfFpabk3CnzmXKdYe3w", "name": "El Ranchito", "location": {"display_address": ["610 W Jefferson Blvd", "Dallas, TX 75208"], "country": "US", "state": "TX", "address3": "", "address2": "", "address1": "610 W Jefferson Blvd", "city": "Dallas", "zip_code": "75208"}, "is_closed": false, "review_count": 171, "coordinates": {"latitude": 32.742995, "longitude": -96.832564}, "id": "el-ranchito-dallas", "image_url": "https://s3-media4.fl.yelpcdn.com/bphoto/nT1WZ2GEoO2xUo07r3x3JQ/o.jpg", "categories": [{"alias": "mexican", "title": "Mexican"}], "rating": 4.0}, {"transactions": ["delivery", "pickup"], "distance": 3784.4589266639996, "price": "$$", "display_phone": "(214) 922-8060", "phone": "+12149228060", "url": "https://www.yelp.com/biz/mimis-pizzeria-dallas-3?adjust_creative=gBcvfFpabk3CnzmXKdYe3w&utm_campaign=yelp_api_v3&utm_medium=api_v3_business_search&utm_source=gBcvfFpabk3CnzmXKdYe3w", "name": "Mimi's Pizzeria", "location": {"display_address": ["3028 N Hall St", "Dallas, TX 75204"], "country": "US", "state": "TX", "address3": "", "address2": null, "address1": "3028 N Hall St", "city": "Dallas", "zip_code": "75204"}, "is_closed": false, "review_count": 33, "coordinates": {"latitude": 32.8046301, "longitude": -96.7996482}, "id": "mimis-pizzeria-dallas-3", "image_url": "https://s3-media2.fl.yelpcdn.com/bphoto/C-iyzl74nqp2siUBfFupCQ/o.jpg", "categories": [{"alias": "pizza", "title": "Pizza"}], "rating": 4.5}], "total": 32257}