{"total": 32252, "region": {"center": {"longitude": -96.800537109375, "latitude": 32.839043482398054}}, "businesses": [{"rating": 3.5, "is_closed": false, "distance": 582.7271115116, "name": "Bistro 31", "id": "bistro-31-dallas-2", "image_url": "https://s3-media2.fl.yelpcdn.com/bphoto/q5rZgEy7gQ5yLMETKVrs-A/o.jpg", "url": "https://www.yelp.com/biz/bistro-31-dallas-2?adjust_creative=gBcvfFpabk3CnzmXKdYe3w&utm_campaign=yelp_api_v3&utm_medium=api_v3_business_search&utm_source=gBcvfFpabk3CnzmXKdYe3w", "phone": "+12144203900", "coordinates": {"longitude": -96.8056808, "latitude": 32.8358851}, "categories": [{"alias": "french", "title": "French"}, {"alias": "spanish", "title": "Spanish"}, {"alias": "modern_european", "title": "Modern European"}], "review_count": 148, "location": {"city": "Dallas", "address1": "87 Highland Park Village", "address3": "", "address2": "Ste 200", "zip_code": "75205", "country": "US", "display_address": ["87 Highland Park Village", "Ste 200", "Dallas, TX 75205"], "state": "TX"}, "price": "$$$", "transactions": [], "display_phone": "(214) 420-3900"}, {"rating": 4.5, "is_closed": false, "distance": 11403.789677359999, "name": "No.1 Plus Chicken", "id": "no-1-plus-chicken-dallas", "image_url": "https://s3-media2.fl.yelpcdn.com/bphoto/Q0QPITi9BGxA_IBDN-8qpA/o.jpg", "url": "https://www.yelp.com/biz/no-1-plus-chicken-dallas?adjust_creative=gBcvfFpabk3CnzmXKdYe3w&utm_campaign=yelp_api_v3&utm_medium=api_v3_business_search&utm_source=gBcvfFpabk3CnzmXKdYe3w", "phone": "+19724889100", "coordinates": {"longitude": -96.90319, "latitude": 32.894573}, "categories": [{"alias": "korean", "title": "Korean"}, {"alias": "chicken_wings", "title": "Chicken Wings"}, {"alias": "soup", "title": "Soup"}], "review_count": 131, "location": {"city": "Dallas", "address1": "2240 Royal Ln", "address3": "", "address2": "Ste 103", "zip_code": "75229", "country": "US", "display_address": ["2240 Royal Ln", "Ste 103", "Dallas, TX 75229"], "state": "TX"}, "price": "$$", "transactions": ["pickup"], "display_phone": "(972) 488-9100"}, {"rating": 4.0, "is_closed": false, "distance": 10213.735211844, "name": "El Corazon de Tejas", "id": "el-corazon-de-tejas-dallas", "image_url": "https://s3-media2.fl.yelpcdn.com/bphoto/ZBr7yYgRFRPSF6AuxeumZw/o.jpg", "url": "https://www.yelp.com/biz/el-corazon-de-tejas-dallas?adjust_creative=gBcvfFpabk3CnzmXKdYe3w&utm_campaign=yelp_api_v3&utm_medium=api_v3_business_search&utm_source=gBcvfFpabk3CnzmXKdYe3w", "phone": "+12149438610", "coordinates": {"longitude": -96.8233989, "latitude": 32.7492233}, "categories": [{"alias": "mexican", "title": "Mexican"}, {"alias": "tex-mex", "title": "Tex-Mex"}], "review_count": 177, "location": {"city": "Dallas", "address1": "110 W Davis St", "address3": "", "address2": "", "zip_code": "75208", "country": "US", "display_address": ["110 W Davis St", "Dallas, TX 75208"], "state": "TX"}, "price": "$$", "transactions": [], "display_phone": "(214) 943-8610"}, {"rating": 3.5, "is_closed": false, "distance": 4749.222529316, "name": "Renfield's Corner", "id": "renfields-corner-dallas", "image_url": "https://s3-media1.fl.yelpcdn.com/bphoto/Qvc60mT6PmajyRcfAsK1gg/o.jpg", "url": "https://www.yelp.com/biz/renfields-corner-dallas?adjust_creative=gBcvfFpabk3CnzmXKdYe3w&utm_campaign=yelp_api_v3&utm_medium=api_v3_business_search&utm_source=gBcvfFpabk3CnzmXKdYe3w", "phone": "+12143970300", "coordinates": {"longitude": -96.8019306, "latitude": 32.7962867}, "categories": [{"alias": "bars", "title": "Bars"}], "review_count": 86, "location": {"city": "Dallas", "address1": "2603A Routh St", "address3": "", "address2": "", "zip_code": "75201", "country": "US", "display_address": ["2603A Routh St", "Dallas, TX 75201"], "state": "TX"}, "price": "$$", "transactions": [], "display_phone": "(214) 397-0300"}, {"rating": 4.5, "is_closed": false, "distance": 9732.146171402, "name": "The Varsity Grill", "id": "the-varsity-grill-dallas", "image_url": "https://s3-media3.fl.yelpcdn.com/bphoto/xBeYhJtCSNkZgwmgfOvlhg/o.jpg", "url": "https://www.yelp.com/biz/the-varsity-grill-dallas?adjust_creative=gBcvfFpabk3CnzmXKdYe3w&utm_campaign=yelp_api_v3&utm_medium=api_v3_business_search&utm_source=gBcvfFpabk3CnzmXKdYe3w", "phone": "+12143423000", "coordinates": {"longitude": -96.7369, "latitude": 32.908184}, "categories": [{"alias": "burgers", "title": "Burgers"}, {"alias": "sandwiches", "title": "Sandwiches"}], "review_count": 68, "location": {"city": "Dallas", "address1": "9310 Forest Ln", "address3": "", "address2": "", "zip_code": "75243", "country": "US", "display_address": ["9310 Forest Ln", "Dallas, TX 75243"], "state": "TX"}, "price": "$", "transactions": [], "display_phone": "(214) 342-3000"}, {"rating": 4.0, "is_closed": false, "distance": 6248.69948581, "name": "Off the Record", "id": "off-the-record-dallas-2", "image_url": "https://s3-media2.fl.yelpcdn.com/bphoto/leS2jeM-EmDv51v6OufOAg/o.jpg", "url": "https://www.yelp.com/biz/off-the-record-dallas-2?adjust_creative=gBcvfFpabk3CnzmXKdYe3w&utm_campaign=yelp_api_v3&utm_medium=api_v3_business_search&utm_source=gBcvfFpabk3CnzmXKdYe3w", "phone": "+12147451402", "coordinates": {"longitude": -96.7844626307487, "latitude": 32.7844677865505}, "categories": [{"alias": "musicvenues", "title": "Music Venues"}, {"alias": "divebars", "title": "Dive Bars"}], "review_count": 40, "location": {"city": "Dallas", "address1": "2716 Elm St", "address3": "", "address2": null, "zip_code": "75226", "country": "US", "display_address": ["2716 Elm St", "Dallas, TX 75226"], "state": "TX"}, "price": "$$", "transactions": [], "display_phone": "(214) 745-1402"}, {"rating": 4.0, "is_closed": false, "distance": 10411.108531859998, "name": "Eno's Pizza Tavern", "id": "enos-pizza-tavern-dallas", "image_url": "https://s3-media4.fl.yelpcdn.com/bphoto/0IFMUBf0ei1Ykf812krTog/o.jpg", "url": "https://www.yelp.com/biz/enos-pizza-tavern-dallas?adjust_creative=gBcvfFpabk3CnzmXKdYe3w&utm_campaign=yelp_api_v3&utm_medium=api_v3_business_search&utm_source=gBcvfFpabk3CnzmXKdYe3w", "phone": "+12149439200", "coordinates": {"longitude": -96.8285779, "latitude": 32.748429}, "categories": [{"alias": "pizza", "title": "Pizza"}, {"alias": "bars", "title": "Bars"}, {"alias": "italian", "title": "Italian"}], "review_count": 629, "location": {"city": "Dallas", "address1": "407 N Bishop Ave", "address3": "", "address2": "", "zip_code": "75208", "country": "US", "display_address": ["407 N Bishop Ave", "Dallas, TX 75208"], "state": "TX"}, "price": "$$", "transactions": ["delivery", "pickup"], "display_phone": "(214) 943-9200"}, {"rating": 4.0, "is_closed": false, "distance": 3964.3845870699997, "name": "The Old Crow", "id": "the-old-crow-dallas", "image_url": "https://s3-media1.fl.yelpcdn.com/bphoto/M64h4UVjjeqrqLtc31iyuA/o.jpg", "url": "https://www.yelp.com/biz/the-old-crow-dallas?adjust_creative=gBcvfFpabk3CnzmXKdYe3w&utm_campaign=yelp_api_v3&utm_medium=api_v3_business_search&utm_source=gBcvfFpabk3CnzmXKdYe3w", "phone": "+12148282769", "coordinates": {"longitude": -96.77057, "latitude": 32.81389}, "categories": [{"alias": "bars", "title": "Bars"}], "review_count": 39, "location": {"city": "Dallas", "address1": "1911 Greenville Ave", "address3": "", "address2": "", "zip_code": "75206", "country": "US", "display_address": ["1911 Greenville Ave", "Dallas, TX 75206"], "state": "TX"}, "price": "$", "transactions": [], "display_phone": "(214) 828-2769"}, {"rating": 4.0, "is_closed": false, "distance": 7236.6419296799995, "name": "Digg's Tacos", "id": "diggs-tacos-dallas-2", "image_url": "https://s3-media4.fl.yelpcdn.com/bphoto/6GqFS02ijAH8JZ4O_leWgQ/o.jpg", "url": "https://www.yelp.com/biz/diggs-tacos-dallas-2?adjust_creative=gBcvfFpabk3CnzmXKdYe3w&utm_campaign=yelp_api_v3&utm_medium=api_v3_business_search&utm_source=gBcvfFpabk3CnzmXKdYe3w", "phone": "+14699309504", "coordinates": {"longitude": -96.7300297799534, "latitude": 32.812123059614}, "categories": [{"alias": "tex-mex", "title": "Tex-Mex"}, {"alias": "tacos", "title": "Tacos"}], "review_count": 104, "location": {"city": "Dallas", "address1": "7325 Gaston Ave", "address3": "", "address2": "Ste 110", "zip_code": "75214", "country": "US", "display_address": ["7325 Gaston Ave", "Ste 110", "Dallas, TX 75214"], "state": "TX"}, "price": "$", "transactions": [], "display_phone": "(469) 930-9504"}, {"rating": 4.0, "is_closed": false, "distance": 4195.542620772, "name": "Paciugo Gelato Caffe - Northpark Center", "id": "paciugo-gelato-caffe-northpark-center-dallas", "image_url": "https://s3-media3.fl.yelpcdn.com/bphoto/z8M0mVMXbCUagPMyFqZqXQ/o.jpg", "url": "https://www.yelp.com/biz/paciugo-gelato-caffe-northpark-center-dallas?adjust_creative=gBcvfFpabk3CnzmXKdYe3w&utm_campaign=yelp_api_v3&utm_medium=api_v3_business_search&utm_source=gBcvfFpabk3CnzmXKdYe3w", "phone": "+12143634390", "coordinates": {"longitude": -96.7738545018524, "latitude": 32.8693960641599}, "categories": [{"alias": "icecream", "title": "Ice Cream & Frozen Yogurt"}, {"alias": "gelato", "title": "Gelato"}, {"alias": "cafes", "title": "Cafes"}], "review_count": 17, "location": {"city": "Dallas", "address1": "8687 N Central Expy", "address3": null, "address2": "Ste 2404", "zip_code": "75225", "country": "US", "display_address": ["8687 N Central Expy", "Ste 2404", "Dallas, TX 75225"], "state": "TX"}, "price": "$", "transactions": [], "display_phone": "(214) 363-4390"}, {"rating": 4.0, "is_closed": false, "distance": 11409.434276476, "name": "Sura Korean Bistro", "id": "sura-korean-bistro-dallas-3", "image_url": "https://s3-media4.fl.yelpcdn.com/bphoto/_i7kkGSTcDtulNlevTyRnA/o.jpg", "url": "https://www.yelp.com/biz/sura-korean-bistro-dallas-3?adjust_creative=gBcvfFpabk3CnzmXKdYe3w&utm_campaign=yelp_api_v3&utm_medium=api_v3_business_search&utm_source=gBcvfFpabk3CnzmXKdYe3w", "phone": "+19722435656", "coordinates": {"longitude": -96.90318, "latitude": 32.89458}, "categories": [{"alias": "korean", "title": "Korean"}, {"alias": "japanese", "title": "Japanese"}, {"alias": "buffets", "title": "Buffets"}], "review_count": 347, "location": {"city": "Dallas", "address1": "2240 Royal Ln", "address3": "", "address2": "Ste 106", "zip_code": "75229", "country": "US", "display_address": ["2240 Royal Ln", "Ste 106", "Dallas, TX 75229"], "state": "TX"}, "price": "$$", "transactions": [], "display_phone": "(972) 243-5656"}, {"rating": 3.5, "is_closed": false, "distance": 1989.5531732939999, "name": "Highland Park Soda Fountain", "id": "highland-park-soda-fountain-dallas", "image_url": "https://s3-media2.fl.yelpcdn.com/bphoto/FSpwhcb0F_eLRKM3zPgzCA/o.jpg", "url": "https://www.yelp.com/biz/highland-park-soda-fountain-dallas?adjust_creative=gBcvfFpabk3CnzmXKdYe3w&utm_campaign=yelp_api_v3&utm_medium=api_v3_business_search&utm_source=gBcvfFpabk3CnzmXKdYe3w", "phone": "+12145212126", "coordinates": {"longitude": -96.7902603149414, "latitude": 32.823371887207}, "categories": [{"alias": "icecream", "title": "Ice Cream & Frozen Yogurt"}, {"alias": "sandwiches", "title": "Sandwiches"}], "review_count": 153, "location": {"city": "Dallas", "address1": "3229 Knox St", "address3": "", "address2": "", "zip_code": "75205", "country": "US", "display_address": ["3229 Knox St", "Dallas, TX 75205"], "state": "TX"}, "price": "$", "transactions": [], "display_phone": "(214) 521-2126"}, {"rating": 4.0, "is_closed": false, "distance": 4382.951873112, "name": "Preston Hollow Grill", "id": "preston-hollow-grill-dallas", "image_url": "https://s3-media1.fl.yelpcdn.com/bphoto/nBvLUT1ef5m-DCOap2p_yA/o.jpg", "url": "https://www.yelp.com/biz/preston-hollow-grill-dallas?adjust_creative=gBcvfFpabk3CnzmXKdYe3w&utm_campaign=yelp_api_v3&utm_medium=api_v3_business_search&utm_source=gBcvfFpabk3CnzmXKdYe3w", "phone": "+14699308212", "coordinates": {"longitude": -96.83591, "latitude": 32.86463}, "categories": [{"alias": "newamerican", "title": "American (New)"}, {"alias": "cocktailbars", "title": "Cocktail Bars"}, {"alias": "sandwiches", "title": "Sandwiches"}], "review_count": 48, "location": {"city": "Dallas", "address1": "4343 W Northwest Hwy", "address3": "", "address2": "Ste 300", "zip_code": "75220", "country": "US", "display_address": ["4343 W Northwest Hwy", "Ste 300", "Dallas, TX 75220"], "state": "TX"}, "price": "$$", "transactions": [], "display_phone": "(469) 930-8212"}, {"rating": 3.5, "is_closed": false, "distance": 7120.882103479999, "name": "Amberjax Fish Market Grille", "id": "amberjax-fish-market-grille-dallas", "image_url": "https://s3-media2.fl.yelpcdn.com/bphoto/0JXlF67N8wDkuxjYDtwXjA/o.jpg", "url": "https://www.yelp.com/biz/amberjax-fish-market-grille-dallas?adjust_creative=gBcvfFpabk3CnzmXKdYe3w&utm_campaign=yelp_api_v3&utm_medium=api_v3_business_search&utm_source=gBcvfFpabk3CnzmXKdYe3w", "phone": "+14695139088", "coordinates": {"longitude": -96.8284903815737, "latitude": 32.7794669284548}, "categories": [{"alias": "seafood", "title": "Seafood"}, {"alias": "southern", "title": "Southern"}, {"alias": "cajun", "title": "Cajun/Creole"}], "review_count": 271, "location": {"city": "Dallas", "address1": "3011 Gulden Ln", "address3": "", "address2": "Ste 107", "zip_code": "75212", "country": "US", "display_address": ["3011 Gulden Ln", "Ste 107", "Dallas, TX 75212"], "state": "TX"}, "price": "$$", "transactions": ["pickup"], "display_phone": "(469) 513-9088"}, {"rating": 4.0, "is_closed": false, "distance": 10745.345275364, "name": "9 Rabbits Bakery", "id": "9-rabbits-bakery-dallas", "image_url": "https://s3-media1.fl.yelpcdn.com/bphoto/fw0L4_76GQvwzbetynfypw/o.jpg", "url": "https://www.yelp.com/biz/9-rabbits-bakery-dallas?adjust_creative=gBcvfFpabk3CnzmXKdYe3w&utm_campaign=yelp_api_v3&utm_medium=api_v3_business_search&utm_source=gBcvfFpabk3CnzmXKdYe3w", "phone": "+19722434478", "coordinates": {"longitude": -96.8937374620407, "latitude": 32.8957035472635}, "categories": [{"alias": "bakeries", "title": "Bakeries"}, {"alias": "coffee", "title": "Coffee & Tea"}, {"alias": "bubbletea", "title": "Bubble Tea"}], "review_count": 226, "location": {"city": "Dallas", "address1": "2546 Royal Ln", "address3": "", "address2": "", "zip_code": "75229", "country": "US", "display_address": ["2546 Royal Ln", "Dallas, TX 75229"], "state": "TX"}, "price": "$", "transactions": [], "display_phone": "(972) 243-4478"}, {"rating": 4.0, "is_closed": false, "distance": 12701.60168686, "name": "Neighborhood Services", "id": "neighborhood-services-dallas-3", "image_url": "https://s3-media2.fl.yelpcdn.com/bphoto/HYRT_e4jdNpb--6sN1XmWg/o.jpg", "url": "https://www.yelp.com/biz/neighborhood-services-dallas-3?adjust_creative=gBcvfFpabk3CnzmXKdYe3w&utm_campaign=yelp_api_v3&utm_medium=api_v3_business_search&utm_source=gBcvfFpabk3CnzmXKdYe3w", "phone": "+19727899639", "coordinates": {"longitude": -96.8203831968968, "latitude": 32.9520495493779}, "categories": [{"alias": "newamerican", "title": "American (New)"}, {"alias": "bars", "title": "Bars"}, {"alias": "burgers", "title": "Burgers"}], "review_count": 309, "location": {"city": "Dallas", "address1": "5100 Beltline Rd", "address3": "", "address2": "Ste 795", "zip_code": "75254", "country": "US", "display_address": ["5100 Beltline Rd", "Ste 795", "Dallas, TX 75254"], "state": "TX"}, "price": "$$", "transactions": [], "display_phone": "(972) 789-9639"}, {"rating": 4.0, "is_closed": false, "distance": 10428.83863064, "name": "Veracruz Caf\u00e9", "id": "veracruz-caf\u00e9-dallas-2", "image_url": "https://s3-media2.fl.yelpcdn.com/bphoto/gw38oXDGS54I0mMTaXMkRw/o.jpg", "url": "https://www.yelp.com/biz/veracruz-caf%C3%A9-dallas-2?adjust_creative=gBcvfFpabk3CnzmXKdYe3w&utm_campaign=yelp_api_v3&utm_medium=api_v3_business_search&utm_source=gBcvfFpabk3CnzmXKdYe3w", "phone": "+12149484746", "coordinates": {"longitude": -96.8281523527786, "latitude": 32.7481730232409}, "categories": [{"alias": "mexican", "title": "Mexican"}, {"alias": "breakfast_brunch", "title": "Breakfast & Brunch"}, {"alias": "tex-mex", "title": "Tex-Mex"}], "review_count": 230, "location": {"city": "Dallas", "address1": "408 N Bishop Ave", "address3": "", "address2": null, "zip_code": "75208", "country": "US", "display_address": ["408 N Bishop Ave", "Dallas, TX 75208"], "state": "TX"}, "price": "$$", "transactions": [], "display_phone": "(214) 948-4746"}, {"rating": 4.0, "is_closed": false, "distance": 5874.924155318, "name": "Bellatrino Neapolitan Pizzeria & Cucina", "id": "bellatrino-neapolitan-pizzeria-and-cucina-dallas", "image_url": "https://s3-media4.fl.yelpcdn.com/bphoto/Ub3usteR1TAI6m_VXAHNCA/o.jpg", "url": "https://www.yelp.com/biz/bellatrino-neapolitan-pizzeria-and-cucina-dallas?adjust_creative=gBcvfFpabk3CnzmXKdYe3w&utm_campaign=yelp_api_v3&utm_medium=api_v3_business_search&utm_source=gBcvfFpabk3CnzmXKdYe3w", "phone": "+12144841147", "coordinates": {"longitude": -96.7990493774414, "latitude": 32.7873306274414}, "categories": [{"alias": "foodtrucks", "title": "Food Trucks"}, {"alias": "pizza", "title": "Pizza"}, {"alias": "sandwiches", "title": "Sandwiches"}], "review_count": 23, "location": {"city": "Dallas", "address1": "", "address3": "", "address2": "", "zip_code": "75201", "country": "US", "display_address": ["Dallas, TX 75201"], "state": "TX"}, "price": "$$", "transactions": [], "display_phone": "(214) 484-1147"}, {"rating": 4.0, "is_closed": false, "distance": 8463.36295402, "name": "CiboDivino Marketplace", "id": "cibodivino-marketplace-dallas", "image_url": "https://s3-media3.fl.yelpcdn.com/bphoto/tw2VbsdVrAmtl5ZE7FEq8w/o.jpg", "url": "https://www.yelp.com/biz/cibodivino-marketplace-dallas?adjust_creative=gBcvfFpabk3CnzmXKdYe3w&utm_campaign=yelp_api_v3&utm_medium=api_v3_business_search&utm_source=gBcvfFpabk3CnzmXKdYe3w", "phone": "+12146532426", "coordinates": {"longitude": -96.8355225946731, "latitude": 32.7688405057892}, "categories": [{"alias": "italian", "title": "Italian"}, {"alias": "cafes", "title": "Cafes"}], "review_count": 85, "location": {"city": "Dallas", "address1": "1868 Sylvan Ave", "address3": "", "address2": "Ste D100", "zip_code": "75208", "country": "US", "display_address": ["1868 Sylvan Ave", "Ste D100", "Dallas, TX 75208"], "state": "TX"}, "price": "$$", "transactions": [], "display_phone": "(214) 653-2426"}, {"rating": 3.5, "is_closed": false, "distance": 4115.14594893, "name": "La Duni Latin Kitchen & Coffee Studio", "id": "la-duni-latin-kitchen-and-coffee-studio-dallas", "image_url": "https://s3-media4.fl.yelpcdn.com/bphoto/7x7jZ1T5KY2_hGtBSmxhAA/o.jpg", "url": "https://www.yelp.com/biz/la-duni-latin-kitchen-and-coffee-studio-dallas?adjust_creative=gBcvfFpabk3CnzmXKdYe3w&utm_campaign=yelp_api_v3&utm_medium=api_v3_business_search&utm_source=gBcvfFpabk3CnzmXKdYe3w", "phone": "+12149872260", "coordinates": {"longitude": -96.7737699808425, "latitude": 32.8684390385074}, "categories": [{"alias": "latin", "title": "Latin American"}, {"alias": "cafes", "title": "Cafes"}, {"alias": "breakfast_brunch", "title": "Breakfast & Brunch"}], "review_count": 315, "location": {"city": "Dallas", "address1": "8687 N Central Expy", "address3": "Northpark Ctr", "address2": "Ste 1516", "zip_code": "75225", "country": "US", "display_address": ["8687 N Central Expy", "Ste 1516", "Northpark Ctr", "Dallas, TX 75225"], "state": "TX"}, "price": "$$", "transactions": [], "display_phone": "(214) 987-2260"}, {"rating": 4.0, "is_closed": false, "distance": 9656.986935656, "name": "Desta Ethiopian Restaurant", "id": "desta-ethiopian-restaurant-dallas", "image_url": "https://s3-media4.fl.yelpcdn.com/bphoto/yS9DaWwsDSEeb1cuwnjMXw/o.jpg", "url": "https://www.yelp.com/biz/desta-ethiopian-restaurant-dallas?adjust_creative=gBcvfFpabk3CnzmXKdYe3w&utm_campaign=yelp_api_v3&utm_medium=api_v3_business_search&utm_source=gBcvfFpabk3CnzmXKdYe3w", "phone": "+12145759004", "coordinates": {"longitude": -96.74608, "latitude": 32.91286}, "categories": [{"alias": "ethiopian", "title": "Ethiopian"}, {"alias": "vegetarian", "title": "Vegetarian"}, {"alias": "vegan", "title": "Vegan"}], "review_count": 168, "location": {"city": "Dallas", "address1": "12101 Greenville Ave", "address3": "", "address2": "Ste 105", "zip_code": "75243", "country": "US", "display_address": ["12101 Greenville Ave", "Ste 105", "Dallas, TX 75243"], "state": "TX"}, "price": "$$", "transactions": [], "display_phone": "(214) 575-9004"}, {"rating": 4.0, "is_closed": false, "distance": 7185.5823995, "name": "Beto & Son At Trinity Groves", "id": "beto-and-son-at-trinity-groves-dallas", "image_url": "https://s3-media4.fl.yelpcdn.com/bphoto/AHRENKG1gfx1yxTdTOBXMw/o.jpg", "url": "https://www.yelp.com/biz/beto-and-son-at-trinity-groves-dallas?adjust_creative=gBcvfFpabk3CnzmXKdYe3w&utm_campaign=yelp_api_v3&utm_medium=api_v3_business_search&utm_source=gBcvfFpabk3CnzmXKdYe3w", "phone": "+14692498590", "coordinates": {"longitude": -96.8286267702175, "latitude": 32.778886933705}, "categories": [{"alias": "mexican", "title": "Mexican"}], "review_count": 103, "location": {"city": "Dallas", "address1": "3011 Gulden Ln", "address3": "", "address2": "", "zip_code": "75212", "country": "US", "display_address": ["3011 Gulden Ln", "Dallas, TX 75212"], "state": "TX"}, "price": "$$", "transactions": [], "display_phone": "(469) 249-8590"}, {"rating": 3.5, "is_closed": false, "distance": 6313.945991826, "name": "Taco Borracho", "id": "taco-borracho-dallas", "image_url": "https://s3-media2.fl.yelpcdn.com/bphoto/MFEuAC41XsJlHu2aBc1ivw/o.jpg", "url": "https://www.yelp.com/biz/taco-borracho-dallas?adjust_creative=gBcvfFpabk3CnzmXKdYe3w&utm_campaign=yelp_api_v3&utm_medium=api_v3_business_search&utm_source=gBcvfFpabk3CnzmXKdYe3w", "phone": "+14695472047", "coordinates": {"longitude": -96.799660392528, "latitude": 32.78226305852}, "categories": [{"alias": "mexican", "title": "Mexican"}], "review_count": 165, "location": {"city": "Dallas", "address1": "300 N Akard St", "address3": "", "address2": "", "zip_code": "75201", "country": "US", "display_address": ["300 N Akard St", "Dallas, TX 75201"], "state": "TX"}, "price": "$", "transactions": ["delivery", "pickup"], "display_phone": "(469) 547-2047"}, {"rating": 4.5, "is_closed": false, "distance": 2362.141132734, "name": "Glencoe Park", "id": "glencoe-park-dallas", "image_url": "https://s3-media1.fl.yelpcdn.com/bphoto/B-4AgXfOgwUL3Yn326xHdA/o.jpg", "url": "https://www.yelp.com/biz/glencoe-park-dallas?adjust_creative=gBcvfFpabk3CnzmXKdYe3w&utm_campaign=yelp_api_v3&utm_medium=api_v3_business_search&utm_source=gBcvfFpabk3CnzmXKdYe3w", "phone": "", "coordinates": {"longitude": -96.7767599970102, "latitude": 32.8317900002003}, "categories": [{"alias": "parks", "title": "Parks"}, {"alias": "playgrounds", "title": "Playgrounds"}], "review_count": 11, "location": {"city": "Dallas", "address1": "Glencoe St & Martel Ave", "address3": "", "address2": "", "zip_code": "75204", "country": "US", "display_address": ["Glencoe St & Martel Ave", "Dallas, TX 75204"], "state": "TX"}, "transactions": [], "display_phone": ""}, {"rating": 4.0, "is_closed": false, "distance": 10542.5207989, "name": "Sahara Restaurant", "id": "sahara-restaurant-dallas-2", "image_url": "https://s3-media1.fl.yelpcdn.com/bphoto/Dk9T6zfJXDNP34BL-x6fRw/o.jpg", "url": "https://www.yelp.com/biz/sahara-restaurant-dallas-2?adjust_creative=gBcvfFpabk3CnzmXKdYe3w&utm_campaign=yelp_api_v3&utm_medium=api_v3_business_search&utm_source=gBcvfFpabk3CnzmXKdYe3w", "phone": "+19727881898", "coordinates": {"longitude": -96.8140182495117, "latitude": 32.9331130981445}, "categories": [{"alias": "mideastern", "title": "Middle Eastern"}, {"alias": "persian", "title": "Persian/Iranian"}, {"alias": "buffets", "title": "Buffets"}], "review_count": 137, "location": {"city": "Dallas", "address1": "5441 Alpha Rd", "address3": "", "address2": "", "zip_code": "75240", "country": "US", "display_address": ["5441 Alpha Rd", "Dallas, TX 75240"], "state": "TX"}, "price": "$$", "transactions": ["pickup"], "display_phone": "(972) 788-1898"}, {"rating": 4.5, "is_closed": false, "distance": 12723.309430384, "name": "Pera Wine & Tapas", "id": "pera-wine-and-tapas-dallas", "image_url": "https://s3-media2.fl.yelpcdn.com/bphoto/kn9mgd21PVoBXZmF5tdjHg/o.jpg", "url": "https://www.yelp.com/biz/pera-wine-and-tapas-dallas?adjust_creative=gBcvfFpabk3CnzmXKdYe3w&utm_campaign=yelp_api_v3&utm_medium=api_v3_business_search&utm_source=gBcvfFpabk3CnzmXKdYe3w", "phone": "+19724041700", "coordinates": {"longitude": -96.8028877415947, "latitude": 32.9534500219539}, "categories": [{"alias": "wine_bars", "title": "Wine Bars"}, {"alias": "tapas", "title": "Tapas Bars"}, {"alias": "mediterranean", "title": "Mediterranean"}], "review_count": 165, "location": {"city": "Dallas", "address1": "6006 Beltline Rd", "address3": "", "address2": "", "zip_code": "75254", "country": "US", "display_address": ["6006 Beltline Rd", "Dallas, TX 75254"], "state": "TX"}, "price": "$$", "transactions": ["pickup"], "display_phone": "(972) 404-1700"}, {"rating": 4.0, "is_closed": false, "distance": 5024.174888702, "name": "The Great Outdoors", "id": "the-great-outdoors-dallas-5", "image_url": "https://s3-media3.fl.yelpcdn.com/bphoto/JFE8y3kkaQ9ji7fSV-H_cQ/o.jpg", "url": "https://www.yelp.com/biz/the-great-outdoors-dallas-5?adjust_creative=gBcvfFpabk3CnzmXKdYe3w&utm_campaign=yelp_api_v3&utm_medium=api_v3_business_search&utm_source=gBcvfFpabk3CnzmXKdYe3w", "phone": "+12147391928", "coordinates": {"longitude": -96.76381, "latitude": 32.8721}, "categories": [{"alias": "sandwiches", "title": "Sandwiches"}], "review_count": 62, "location": {"city": "Dallas", "address1": "6918 Greenville Ave", "address3": "", "address2": "", "zip_code": "75231", "country": "US", "display_address": ["6918 Greenville Ave", "Dallas, TX 75231"], "state": "TX"}, "price": "$", "transactions": ["delivery"], "display_phone": "(214) 739-1928"}, {"rating": 3.5, "is_closed": false, "distance": 6381.354485198, "name": "Buzzbrews Kitchen", "id": "buzzbrews-kitchen-dallas-5", "image_url": "https://s3-media4.fl.yelpcdn.com/bphoto/emDGvRCRQmKPt6lNgOf89w/o.jpg", "url": "https://www.yelp.com/biz/buzzbrews-kitchen-dallas-5?adjust_creative=gBcvfFpabk3CnzmXKdYe3w&utm_campaign=yelp_api_v3&utm_medium=api_v3_business_search&utm_source=gBcvfFpabk3CnzmXKdYe3w", "phone": "+12147412801", "coordinates": {"longitude": -96.783249, "latitude": 32.783522}, "categories": [{"alias": "tradamerican", "title": "American (Traditional)"}, {"alias": "sandwiches", "title": "Sandwiches"}, {"alias": "breakfast_brunch", "title": "Breakfast & Brunch"}], "review_count": 285, "location": {"city": "Dallas", "address1": "2801 Commerce St", "address3": "", "address2": "", "zip_code": "75226", "country": "US", "display_address": ["2801 Commerce St", "Dallas, TX 75226"], "state": "TX"}, "price": "$$", "transactions": ["delivery"], "display_phone": "(214) 741-2801"}, {"rating": 4.0, "is_closed": false, "distance": 3934.697253024, "name": "The Mansion Bar", "id": "the-mansion-bar-dallas", "image_url": "https://s3-media2.fl.yelpcdn.com/bphoto/Q0wCxbjeHs7N6esyd_pK9w/o.jpg", "url": "https://www.yelp.com/biz/the-mansion-bar-dallas?adjust_creative=gBcvfFpabk3CnzmXKdYe3w&utm_campaign=yelp_api_v3&utm_medium=api_v3_business_search&utm_source=gBcvfFpabk3CnzmXKdYe3w", "phone": "+12144434747", "coordinates": {"longitude": -96.8073217, "latitude": 32.80412}, "categories": [{"alias": "lounges", "title": "Lounges"}, {"alias": "cocktailbars", "title": "Cocktail Bars"}], "review_count": 30, "location": {"city": "Dallas", "address1": "2821 Turtle Creek Blvd", "address3": "Rosewood Mansion On Turtle Creek", "address2": "", "zip_code": "75219", "country": "US", "display_address": ["2821 Turtle Creek Blvd", "Rosewood Mansion On Turtle Creek", "Dallas, TX 75219"], "state": "TX"}, "price": "$$$$", "transactions": [], "display_phone": "(214) 443-4747"}, {"rating": 5.0, "is_closed": false, "distance": 6200.052195356, "name": "CMYE: Yelp Loves The Nightlife, Baby!", "id": "cmye-yelp-loves-the-nightlife-baby-dallas", "image_url": "https://s3-media1.fl.yelpcdn.com/bphoto/y7IOThoS1w9_NdLkDFoJeg/o.jpg", "url": "https://www.yelp.com/biz/cmye-yelp-loves-the-nightlife-baby-dallas?adjust_creative=gBcvfFpabk3CnzmXKdYe3w&utm_campaign=yelp_api_v3&utm_medium=api_v3_business_search&utm_source=gBcvfFpabk3CnzmXKdYe3w", "phone": "", "coordinates": {"longitude": -96.809761, "latitude": 32.7837601}, "categories": [{"alias": "localflavor", "title": "Local Flavor"}], "review_count": 7, "location": {"city": "Dallas", "address1": "703 McKinney Ave", "address3": "", "address2": "", "zip_code": "75202", "country": "US", "display_address": ["703 McKinney Ave", "Dallas, TX 75202"], "state": "TX"}, "transactions": [], "display_phone": ""}, {"rating": 4.0, "is_closed": false, "distance": 3726.4171139600003, "name": "La Paisanita", "id": "la-paisanita-dallas-3", "image_url": "https://s3-media3.fl.yelpcdn.com/bphoto/9Q4IQovrTD5sweim1NUp1Q/o.jpg", "url": "https://www.yelp.com/biz/la-paisanita-dallas-3?adjust_creative=gBcvfFpabk3CnzmXKdYe3w&utm_campaign=yelp_api_v3&utm_medium=api_v3_business_search&utm_source=gBcvfFpabk3CnzmXKdYe3w", "phone": "+12145210200", "coordinates": {"longitude": -96.8228, "latitude": 32.8112}, "categories": [{"alias": "mexican", "title": "Mexican"}], "review_count": 22, "location": {"city": "Dallas", "address1": "4447 Maple Ave", "address3": "", "address2": "", "zip_code": "75219", "country": "US", "display_address": ["4447 Maple Ave", "Dallas, TX 75219"], "state": "TX"}, "price": "$", "transactions": [], "display_phone": "(214) 521-0200"}, {"rating": 4.5, "is_closed": false, "distance": 5996.317637122, "name": "Taqueria La Pasadita", "id": "taqueria-la-pasadita-dallas", "image_url": "https://s3-media1.fl.yelpcdn.com/bphoto/-twTY5j_1A3XWUpe4tNzCA/o.jpg", "url": "https://www.yelp.com/biz/taqueria-la-pasadita-dallas?adjust_creative=gBcvfFpabk3CnzmXKdYe3w&utm_campaign=yelp_api_v3&utm_medium=api_v3_business_search&utm_source=gBcvfFpabk3CnzmXKdYe3w", "phone": "+12148241909", "coordinates": {"longitude": -96.768593, "latitude": 32.792252}, "categories": [{"alias": "mexican", "title": "Mexican"}, {"alias": "latin", "title": "Latin American"}], "review_count": 20, "location": {"city": "Dallas", "address1": "205 N Carroll Ave", "address3": "", "address2": "", "zip_code": "75246", "country": "US", "display_address": ["205 N Carroll Ave", "Dallas, TX 75246"], "state": "TX"}, "price": "$", "transactions": [], "display_phone": "(214) 824-1909"}, {"rating": 3.5, "is_closed": false, "distance": 5123.890721639999, "name": "Paciugo Gelato Caffe - Lakewood", "id": "paciugo-gelato-caffe-lakewood-dallas", "image_url": "https://s3-media1.fl.yelpcdn.com/bphoto/JftDCMP3GK_57q1li4z8cA/o.jpg", "url": "https://www.yelp.com/biz/paciugo-gelato-caffe-lakewood-dallas?adjust_creative=gBcvfFpabk3CnzmXKdYe3w&utm_campaign=yelp_api_v3&utm_medium=api_v3_business_search&utm_source=gBcvfFpabk3CnzmXKdYe3w", "phone": "+12148288777", "coordinates": {"longitude": -96.7532577514648, "latitude": 32.8156661987305}, "categories": [{"alias": "coffee", "title": "Coffee & Tea"}, {"alias": "gelato", "title": "Gelato"}], "review_count": 70, "location": {"city": "Dallas", "address1": "2115 Abrams Rd", "address3": "", "address2": "", "zip_code": "75214", "country": "US", "display_address": ["2115 Abrams Rd", "Dallas, TX 75214"], "state": "TX"}, "price": "$", "transactions": [], "display_phone": "(214) 828-8777"}, {"rating": 4.0, "is_closed": false, "distance": 7901.896414819999, "name": "El Paisa", "id": "el-paisa-dallas", "image_url": "https://s3-media3.fl.yelpcdn.com/bphoto/tRXvtDPi5K_i02AeyBCHPw/o.jpg", "url": "https://www.yelp.com/biz/el-paisa-dallas?adjust_creative=gBcvfFpabk3CnzmXKdYe3w&utm_campaign=yelp_api_v3&utm_medium=api_v3_business_search&utm_source=gBcvfFpabk3CnzmXKdYe3w", "phone": "+12143669789", "coordinates": {"longitude": -96.8812637329102, "latitude": 32.8602066040039}, "categories": [{"alias": "mexican", "title": "Mexican"}], "review_count": 47, "location": {"city": "Dallas", "address1": "10091 Harry Hines Blvd", "address3": "", "address2": "", "zip_code": "75220", "country": "US", "display_address": ["10091 Harry Hines Blvd", "Dallas, TX 75220"], "state": "TX"}, "price": "$", "transactions": [], "display_phone": "(214) 366-9789"}, {"rating": 4.0, "is_closed": false, "distance": 10370.572475939998, "name": "Dallas Grilled Cheese Co", "id": "dallas-grilled-cheese-co-dallas-2", "image_url": "https://s3-media1.fl.yelpcdn.com/bphoto/vsEQDShdEm9ijffbqU6Wnw/o.jpg", "url": "https://www.yelp.com/biz/dallas-grilled-cheese-co-dallas-2?adjust_creative=gBcvfFpabk3CnzmXKdYe3w&utm_campaign=yelp_api_v3&utm_medium=api_v3_business_search&utm_source=gBcvfFpabk3CnzmXKdYe3w", "phone": "+12149445515", "coordinates": {"longitude": -96.827462, "latitude": 32.748565}, "categories": [{"alias": "tradamerican", "title": "American (Traditional)"}, {"alias": "sandwiches", "title": "Sandwiches"}, {"alias": "gastropubs", "title": "Gastropubs"}], "review_count": 398, "location": {"city": "Dallas", "address1": "310 W 7th St", "address3": "", "address2": "", "zip_code": "75208", "country": "US", "display_address": ["310 W 7th St", "Dallas, TX 75208"], "state": "TX"}, "price": "$$", "transactions": [], "display_phone": "(214) 944-5515"}, {"rating": 3.5, "is_closed": false, "distance": 3957.934674218, "name": "Mansion Restaurant", "id": "mansion-restaurant-dallas", "image_url": "https://s3-media1.fl.yelpcdn.com/bphoto/1DfD1uiry_v4j5va1zgm6w/o.jpg", "url": "https://www.yelp.com/biz/mansion-restaurant-dallas?adjust_creative=gBcvfFpabk3CnzmXKdYe3w&utm_campaign=yelp_api_v3&utm_medium=api_v3_business_search&utm_source=gBcvfFpabk3CnzmXKdYe3w", "phone": "+12144434747", "coordinates": {"longitude": -96.8069296999695, "latitude": 32.8038549073665}, "categories": [{"alias": "newamerican", "title": "American (New)"}], "review_count": 118, "location": {"city": "Dallas", "address1": "Rosewood Mansion on Turtle Creek", "address3": "", "address2": "2821 Turtle Creek Blvd", "zip_code": "75219", "country": "US", "display_address": ["Rosewood Mansion on Turtle Creek", "2821 Turtle Creek Blvd", "Dallas, TX 75219"], "state": "TX"}, "price": "$$$$", "transactions": [], "display_phone": "(214) 443-4747"}, {"rating": 4.0, "is_closed": false, "distance": 9617.1905324, "name": "Cindi's NY Delicatessen Restaurant & Bakery", "id": "cindis-ny-delicatessen-restaurant-and-bakery-dallas-4", "image_url": "https://s3-media3.fl.yelpcdn.com/bphoto/F10RhcvWHFn7RLwOVFhrPg/o.jpg", "url": "https://www.yelp.com/biz/cindis-ny-delicatessen-restaurant-and-bakery-dallas-4?adjust_creative=gBcvfFpabk3CnzmXKdYe3w&utm_campaign=yelp_api_v3&utm_medium=api_v3_business_search&utm_source=gBcvfFpabk3CnzmXKdYe3w", "phone": "+19722419204", "coordinates": {"longitude": -96.8594091507874, "latitude": 32.910006950141}, "categories": [{"alias": "delis", "title": "Delis"}, {"alias": "breakfast_brunch", "title": "Breakfast & Brunch"}, {"alias": "diners", "title": "Diners"}], "review_count": 141, "location": {"city": "Dallas", "address1": "3565 Forest Ln", "address3": "", "address2": "", "zip_code": "75234", "country": "US", "display_address": ["3565 Forest Ln", "Dallas, TX 75234"], "state": "TX"}, "price": "$", "transactions": ["delivery", "pickup"], "display_phone": "(972) 241-9204"}, {"rating": 3.5, "is_closed": false, "distance": 3293.5609808599997, "name": "Blue Goose", "id": "blue-goose-dallas", "image_url": "https://s3-media1.fl.yelpcdn.com/bphoto/C1P2PybNKyD50MN_JP0D7w/o.jpg", "url": "https://www.yelp.com/biz/blue-goose-dallas?adjust_creative=gBcvfFpabk3CnzmXKdYe3w&utm_campaign=yelp_api_v3&utm_medium=api_v3_business_search&utm_source=gBcvfFpabk3CnzmXKdYe3w", "phone": "+12148238339", "coordinates": {"longitude": -96.7702949, "latitude": 32.8236551}, "categories": [{"alias": "tex-mex", "title": "Tex-Mex"}], "review_count": 205, "location": {"city": "Dallas", "address1": "2905 Greenville Ave", "address3": "", "address2": "", "zip_code": "75206", "country": "US", "display_address": ["2905 Greenville Ave", "Dallas, TX 75206"], "state": "TX"}, "price": "$$", "transactions": [], "display_phone": "(214) 823-8339"}, {"rating": 3.5, "is_closed": false, "distance": 7903.380870036, "name": "The Cedars Social", "id": "the-cedars-social-dallas", "image_url": "https://s3-media3.fl.yelpcdn.com/bphoto/E2Ol8esQ9BhPeQ1LeuUgsw/o.jpg", "url": "https://www.yelp.com/biz/the-cedars-social-dallas?adjust_creative=gBcvfFpabk3CnzmXKdYe3w&utm_campaign=yelp_api_v3&utm_medium=api_v3_business_search&utm_source=gBcvfFpabk3CnzmXKdYe3w", "phone": "+12149287700", "coordinates": {"longitude": -96.79559, "latitude": 32.76816}, "categories": [{"alias": "newamerican", "title": "American (New)"}, {"alias": "lounges", "title": "Lounges"}], "review_count": 505, "location": {"city": "Dallas", "address1": "1326 S Lamar St", "address3": "", "address2": "", "zip_code": "75215", "country": "US", "display_address": ["1326 S Lamar St", "Dallas, TX 75215"], "state": "TX"}, "price": "$$", "transactions": [], "display_phone": "(214) 928-7700"}, {"rating": 4.0, "is_closed": false, "distance": 7058.590023835999, "name": "El Taquito Cafe", "id": "el-taquito-cafe-dallas", "image_url": "https://s3-media4.fl.yelpcdn.com/bphoto/fAHblvfld13feuYXHqnhbw/o.jpg", "url": "https://www.yelp.com/biz/el-taquito-cafe-dallas?adjust_creative=gBcvfFpabk3CnzmXKdYe3w&utm_campaign=yelp_api_v3&utm_medium=api_v3_business_search&utm_source=gBcvfFpabk3CnzmXKdYe3w", "phone": "+12148235872", "coordinates": {"longitude": -96.7488293, "latitude": 32.7925777}, "categories": [{"alias": "tex-mex", "title": "Tex-Mex"}], "review_count": 66, "location": {"city": "Dallas", "address1": "5427 E Grand Ave", "address3": "", "address2": "", "zip_code": "75223", "country": "US", "display_address": ["5427 E Grand Ave", "Dallas, TX 75223"], "state": "TX"}, "price": "$", "transactions": [], "display_phone": "(214) 823-5872"}, {"rating": 4.5, "is_closed": false, "distance": 2908.700838316, "name": "Jersey Mike's Subs", "id": "jersey-mikes-subs-dallas-11", "image_url": "https://s3-media2.fl.yelpcdn.com/bphoto/qmKpkKGkAwVg8U3Iz9xRCg/o.jpg", "url": "https://www.yelp.com/biz/jersey-mikes-subs-dallas-11?adjust_creative=gBcvfFpabk3CnzmXKdYe3w&utm_campaign=yelp_api_v3&utm_medium=api_v3_business_search&utm_source=gBcvfFpabk3CnzmXKdYe3w", "phone": "+12146917827", "coordinates": {"longitude": -96.80474, "latitude": 32.864952}, "categories": [{"alias": "sandwiches", "title": "Sandwiches"}, {"alias": "hotdogs", "title": "Fast Food"}, {"alias": "delis", "title": "Delis"}], "review_count": 15, "location": {"city": "Dallas", "address1": "8411 Preston Rd", "address3": "", "address2": "Ste 118", "zip_code": "75225", "country": "US", "display_address": ["8411 Preston Rd", "Ste 118", "Dallas, TX 75225"], "state": "TX"}, "price": "$", "transactions": [], "display_phone": "(214) 691-7827"}, {"rating": 5.0, "is_closed": false, "distance": 2512.654334366, "name": "Becerra's Tamales", "id": "becerras-tamales-dallas", "image_url": "https://s3-media1.fl.yelpcdn.com/bphoto/oMinWAfrN81C6cogHxkDLA/o.jpg", "url": "https://www.yelp.com/biz/becerras-tamales-dallas?adjust_creative=gBcvfFpabk3CnzmXKdYe3w&utm_campaign=yelp_api_v3&utm_medium=api_v3_business_search&utm_source=gBcvfFpabk3CnzmXKdYe3w", "phone": "+12144548952", "coordinates": {"longitude": -96.8101, "latitude": 32.8607}, "categories": [{"alias": "gourmet", "title": "Specialty Food"}, {"alias": "foodstands", "title": "Food Stands"}, {"alias": "tex-mex", "title": "Tex-Mex"}], "review_count": 12, "location": {"city": "Dallas", "address1": "8011 Douglas Ave", "address3": "Saint Michael's Farmer's Market", "address2": "", "zip_code": "75225", "country": "US", "display_address": ["8011 Douglas Ave", "Saint Michael's Farmer's Market", "Dallas, TX 75225"], "state": "TX"}, "price": "$$", "transactions": [], "display_phone": "(214) 454-8952"}, {"rating": 4.0, "is_closed": false, "distance": 4299.323807484, "name": "Starbucks", "id": "starbucks-dallas-38", "image_url": "https://s3-media1.fl.yelpcdn.com/bphoto/IXK-5UMgVy4q4wtcW6Xyxg/o.jpg", "url": "https://www.yelp.com/biz/starbucks-dallas-38?adjust_creative=gBcvfFpabk3CnzmXKdYe3w&utm_campaign=yelp_api_v3&utm_medium=api_v3_business_search&utm_source=gBcvfFpabk3CnzmXKdYe3w", "phone": "+12149659696", "coordinates": {"longitude": -96.8010953296752, "latitude": 32.800378943484}, "categories": [{"alias": "coffee", "title": "Coffee & Tea"}], "review_count": 41, "location": {"city": "Dallas", "address1": "2801 Allen St", "address3": null, "address2": null, "zip_code": "75204", "country": "US", "display_address": ["2801 Allen St", "Dallas, TX 75204"], "state": "TX"}, "price": "$", "transactions": [], "display_phone": "(214) 965-9696"}, {"rating": 3.5, "is_closed": false, "distance": 3201.3514315499997, "name": "CEDAR GROVE", "id": "cedar-grove-dallas", "image_url": "https://s3-media3.fl.yelpcdn.com/bphoto/pXDhdYhrS6Anbj99y3F5eQ/o.jpg", "url": "https://www.yelp.com/biz/cedar-grove-dallas?adjust_creative=gBcvfFpabk3CnzmXKdYe3w&utm_campaign=yelp_api_v3&utm_medium=api_v3_business_search&utm_source=gBcvfFpabk3CnzmXKdYe3w", "phone": "+12145223474", "coordinates": {"longitude": -96.8131166917988, "latitude": 32.8122647492166}, "categories": [{"alias": "cocktailbars", "title": "Cocktail Bars"}, {"alias": "newamerican", "title": "American (New)"}], "review_count": 89, "location": {"city": "Dallas", "address1": "4123 Cedar Springs Rd", "address3": "", "address2": "Ste 110", "zip_code": "75219", "country": "US", "display_address": ["4123 Cedar Springs Rd", "Ste 110", "Dallas, TX 75219"], "state": "TX"}, "price": "$$", "transactions": [], "display_phone": "(214) 522-3474"}, {"rating": 3.5, "is_closed": false, "distance": 6236.469306479999, "name": "Mama Mia Pizza & Pasta", "id": "mama-mia-pizza-and-pasta-dallas", "image_url": "https://s3-media2.fl.yelpcdn.com/bphoto/kILhAk6gJI05Umion9kc9Q/o.jpg", "url": "https://www.yelp.com/biz/mama-mia-pizza-and-pasta-dallas?adjust_creative=gBcvfFpabk3CnzmXKdYe3w&utm_campaign=yelp_api_v3&utm_medium=api_v3_business_search&utm_source=gBcvfFpabk3CnzmXKdYe3w", "phone": "+12147446262", "coordinates": {"longitude": -96.781127, "latitude": 32.785381}, "categories": [{"alias": "italian", "title": "Italian"}, {"alias": "pizza", "title": "Pizza"}], "review_count": 150, "location": {"city": "Dallas", "address1": "2935 Elm St", "address3": "", "address2": "", "zip_code": "75226", "country": "US", "display_address": ["2935 Elm St", "Dallas, TX 75226"], "state": "TX"}, "price": "$", "transactions": [], "display_phone": "(214) 744-6262"}, {"rating": 3.5, "is_closed": false, "distance": 4157.361833941999, "name": "Burger House", "id": "burger-house-dallas", "image_url": "https://s3-media4.fl.yelpcdn.com/bphoto/G8Tulaw30UKoJCG8MrSEQA/o.jpg", "url": "https://www.yelp.com/biz/burger-house-dallas?adjust_creative=gBcvfFpabk3CnzmXKdYe3w&utm_campaign=yelp_api_v3&utm_medium=api_v3_business_search&utm_source=gBcvfFpabk3CnzmXKdYe3w", "phone": "+12148282732", "coordinates": {"longitude": -96.7561830783023, "latitude": 32.8360663581907}, "categories": [{"alias": "burgers", "title": "Burgers"}, {"alias": "hotdog", "title": "Hot Dogs"}, {"alias": "sandwiches", "title": "Sandwiches"}], "review_count": 122, "location": {"city": "Dallas", "address1": "6248 E Mockingbird Ln", "address3": "", "address2": "", "zip_code": "75214", "country": "US", "display_address": ["6248 E Mockingbird Ln", "Dallas, TX 75214"], "state": "TX"}, "price": "$", "transactions": [], "display_phone": "(214) 828-2732"}, {"rating": 3.5, "is_closed": false, "distance": 2832.44564203, "name": "Bangkok at Greenville", "id": "bangkok-at-greenville-dallas", "image_url": "https://s3-media3.fl.yelpcdn.com/bphoto/2NSktJdVWUi5w1_Ig62YIg/o.jpg", "url": "https://www.yelp.com/biz/bangkok-at-greenville-dallas?adjust_creative=gBcvfFpabk3CnzmXKdYe3w&utm_campaign=yelp_api_v3&utm_medium=api_v3_business_search&utm_source=gBcvfFpabk3CnzmXKdYe3w", "phone": "+12146918233", "coordinates": {"longitude": -96.770401, "latitude": 32.842231}, "categories": [{"alias": "thai", "title": "Thai"}, {"alias": "noodles", "title": "Noodles"}, {"alias": "soup", "title": "Soup"}], "review_count": 173, "location": {"city": "Dallas", "address1": "4503 Greenville Ave", "address3": "", "address2": "", "zip_code": "75206", "country": "US", "display_address": ["4503 Greenville Ave", "Dallas, TX 75206"], "state": "TX"}, "price": "$$", "transactions": ["delivery", "pickup"], "display_phone": "(214) 691-8233"}, {"rating": 3.5, "is_closed": false, "distance": 1570.465426696, "name": "Drip Coffee", "id": "drip-coffee-dallas", "image_url": "https://s3-media1.fl.yelpcdn.com/bphoto/3dd7q9lGbI8oQRJnNUruZQ/o.jpg", "url": "https://www.yelp.com/biz/drip-coffee-dallas?adjust_creative=gBcvfFpabk3CnzmXKdYe3w&utm_campaign=yelp_api_v3&utm_medium=api_v3_business_search&utm_source=gBcvfFpabk3CnzmXKdYe3w", "phone": "+12145997800", "coordinates": {"longitude": -96.809684, "latitude": 32.850887}, "categories": [{"alias": "coffee", "title": "Coffee & Tea"}], "review_count": 101, "location": {"city": "Dallas", "address1": "4343 Lovers Ln", "address3": "", "address2": "", "zip_code": "75225", "country": "US", "display_address": ["4343 Lovers Ln", "Dallas, TX 75225"], "state": "TX"}, "price": "$", "transactions": [], "display_phone": "(214) 599-7800"}, {"rating": 4.0, "is_closed": false, "distance": 8878.234068884, "name": "Offshore's Nextdoor", "id": "offshores-nextdoor-dallas", "image_url": "https://s3-media1.fl.yelpcdn.com/bphoto/JUGZOPFgcUhsjPmQZ4q4yQ/o.jpg", "url": "https://www.yelp.com/biz/offshores-nextdoor-dallas?adjust_creative=gBcvfFpabk3CnzmXKdYe3w&utm_campaign=yelp_api_v3&utm_medium=api_v3_business_search&utm_source=gBcvfFpabk3CnzmXKdYe3w", "phone": "+12145031012", "coordinates": {"longitude": -96.7169782600896, "latitude": 32.8771011554292}, "categories": [{"alias": "seafood", "title": "Seafood"}, {"alias": "cajun", "title": "Cajun/Creole"}, {"alias": "bars", "title": "Bars"}], "review_count": 105, "location": {"city": "Dallas", "address1": "9660 Audelia Rd", "address3": "", "address2": "Ste 305", "zip_code": "75238", "country": "US", "display_address": ["9660 Audelia Rd", "Ste 305", "Dallas, TX 75238"], "state": "TX"}, "price": "$$", "transactions": [], "display_phone": "(214) 503-1012"}, {"rating": 3.5, "is_closed": false, "distance": 3281.1021143159996, "name": "Green Papaya", "id": "green-papaya-dallas-2", "image_url": "https://s3-media2.fl.yelpcdn.com/bphoto/VBj22GbiBWWjuW9xSQVkwg/o.jpg", "url": "https://www.yelp.com/biz/green-papaya-dallas-2?adjust_creative=gBcvfFpabk3CnzmXKdYe3w&utm_campaign=yelp_api_v3&utm_medium=api_v3_business_search&utm_source=gBcvfFpabk3CnzmXKdYe3w", "phone": "+12145214811", "coordinates": {"longitude": -96.80834, "latitude": 32.8103}, "categories": [{"alias": "vietnamese", "title": "Vietnamese"}], "review_count": 256, "location": {"city": "Dallas", "address1": "3211 Oak Lawn Ave", "address3": "", "address2": "Ste B", "zip_code": "75219", "country": "US", "display_address": ["3211 Oak Lawn Ave", "Ste B", "Dallas, TX 75219"], "state": "TX"}, "price": "$$", "transactions": ["delivery"], "display_phone": "(214) 521-4811"}]}