{"region": {"center": {"latitude": 32.839043482398054, "longitude": -96.800537109375}}, "businesses": [{"transactions": [], "distance": 5200.77130745, "price": "$$", "display_phone": "(214) 824-5800", "phone": "+12148245800", "url": "https://www.yelp.com/biz/the-heights-dallas?adjust_creative=gBcvfFpabk3CnzmXKdYe3w&utm_campaign=yelp_api_v3&utm_medium=api_v3_business_search&utm_source=gBcvfFpabk3CnzmXKdYe3w", "name": "The Heights", "location": {"display_address": ["2015 Abrams Rd", "Dallas, TX 75214"], "country": "US", "state": "TX", "address3": "", "address2": null, "address1": "2015 Abrams Rd", "city": "Dallas", "zip_code": "75214"}, "is_closed": false, "review_count": 81, "coordinates": {"latitude": 32.8145049377987, "longitude": -96.7531488987329}, "id": "the-heights-dallas", "image_url": "https://s3-media2.fl.yelpcdn.com/bphoto/ycyUruaRo2ujEDETVbLnKg/o.jpg", "categories": [{"alias": "newamerican", "title": "American (New)"}, {"alias": "coffee", "title": "Coffee & Tea"}, {"alias": "breakfast_brunch", "title": "Breakfast & Brunch"}], "rating": 4.0}, {"transactions": [], "distance": 6444.26809195, "price": "$$", "display_phone": "(214) 741-2747", "phone": "+12147412747", "url": "https://www.yelp.com/biz/chop-house-burger-dallas?adjust_creative=gBcvfFpabk3CnzmXKdYe3w&utm_campaign=yelp_api_v3&utm_medium=api_v3_business_search&utm_source=gBcvfFpabk3CnzmXKdYe3w", "name": "Chop House Burger", "location": {"display_address": ["1501 Main St", "Dallas, TX 75201"], "country": "US", "state": "TX", "address3": "", "address2": "", "address1": "1501 Main St", "city": "Dallas", "zip_code": "75201"}, "is_closed": false, "review_count": 366, "coordinates": {"latitude": 32.7811092396051, "longitude": -96.7986842224298}, "id": "chop-house-burger-dallas", "image_url": "https://s3-media2.fl.yelpcdn.com/bphoto/-QZ5c-qX5PNVVPJ8lGi8-g/o.jpg", "categories": [{"alias": "burgers", "title": "Burgers"}], "rating": 3.5}, {"transactions": [], "distance": 3396.5817544219994, "price": "$$", "display_phone": "(214) 559-7249", "phone": "+12145597249", "url": "https://www.yelp.com/biz/buda-juice-dallas?adjust_creative=gBcvfFpabk3CnzmXKdYe3w&utm_campaign=yelp_api_v3&utm_medium=api_v3_business_search&utm_source=gBcvfFpabk3CnzmXKdYe3w", "name": "Buda Juice", "location": {"display_address": ["3699 McKinney Ave", "Ste 318", "Dallas, TX 75204"], "country": "US", "state": "TX", "address3": "", "address2": "Ste 318", "address1": "3699 McKinney Ave", "city": "Dallas", "zip_code": "75204"}, "is_closed": false, "review_count": 32, "coordinates": {"latitude": 32.8086630947752, "longitude": -96.7967503968677}, "id": "buda-juice-dallas", "image_url": "https://s3-media2.fl.yelpcdn.com/bphoto/jXRa2855Foz_p020SLC7iQ/o.jpg", "categories": [{"alias": "juicebars", "title": "Juice Bars & Smoothies"}, {"alias": "organic_stores", "title": "Organic Stores"}, {"alias": "vegetarian", "title": "Vegetarian"}], "rating": 4.0}, {"transactions": [], "distance": 8166.8372309999995, "price": "$$", "display_phone": "(214) 484-8368", "phone": "+12144848368", "url": "https://www.yelp.com/biz/macs-southside-dallas-2?adjust_creative=gBcvfFpabk3CnzmXKdYe3w&utm_campaign=yelp_api_v3&utm_medium=api_v3_business_search&utm_source=gBcvfFpabk3CnzmXKdYe3w", "name": "Mac's SouthSide", "location": {"display_address": ["1701 S Lamar St", "Dallas, TX 75215"], "country": "US", "state": "TX", "address3": null, "address2": "", "address1": "1701 S Lamar St", "city": "Dallas", "zip_code": "75215"}, "is_closed": false, "review_count": 15, "coordinates": {"latitude": 32.7658202505048, "longitude": -96.7937310039997}, "id": "macs-southside-dallas-2", "image_url": "https://s3-media2.fl.yelpcdn.com/bphoto/umAEfbPPfcCs_Qj0yceUCQ/o.jpg", "categories": [{"alias": "sportsbars", "title": "Sports Bars"}, {"alias": "pizza", "title": "Pizza"}], "rating": 4.5}, {"transactions": ["delivery"], "distance": 7961.520208744, "price": "$$", "display_phone": "(972) 991-7627", "phone": "+19729917627", "url": "https://www.yelp.com/biz/snappy-salads-dallas-5?adjust_creative=gBcvfFpabk3CnzmXKdYe3w&utm_campaign=yelp_api_v3&utm_medium=api_v3_business_search&utm_source=gBcvfFpabk3CnzmXKdYe3w", "name": "Snappy Salads", "location": {"display_address": ["5915 Forest Ln", "Dallas, TX 75230"], "country": "US", "state": "TX", "address3": "", "address2": null, "address1": "5915 Forest Ln", "city": "Dallas", "zip_code": "75230"}, "is_closed": false, "review_count": 138, "coordinates": {"latitude": 32.9105048504956, "longitude": -96.8058508404754}, "id": "snappy-salads-dallas-5", "image_url": "https://s3-media2.fl.yelpcdn.com/bphoto/qDCAhEEqFTSQOv2rXqsW1w/o.jpg", "categories": [{"alias": "salad", "title": "Salad"}], "rating": 4.0}, {"transactions": ["pickup"], "distance": 6721.551741259999, "price": "$", "display_phone": "(469) 899-6499", "phone": "+14698996499", "url": "https://www.yelp.com/biz/latin-deli-dallas-2?adjust_creative=gBcvfFpabk3CnzmXKdYe3w&utm_campaign=yelp_api_v3&utm_medium=api_v3_business_search&utm_source=gBcvfFpabk3CnzmXKdYe3w", "name": "Latin Deli", "location": {"display_address": ["701 Commerce St", "Ste 120", "Dallas, TX 75202"], "country": "US", "state": "TX", "address3": "", "address2": "Ste 120", "address1": "701 Commerce St", "city": "Dallas", "zip_code": "75202"}, "is_closed": false, "review_count": 49, "coordinates": {"latitude": 32.77873, "longitude": -96.80567}, "id": "latin-deli-dallas-2", "image_url": "https://s3-media1.fl.yelpcdn.com/bphoto/gJMmmJoyGid9mW7Ndo1Cmg/o.jpg", "categories": [{"alias": "sandwiches", "title": "Sandwiches"}, {"alias": "salad", "title": "Salad"}, {"alias": "cupcakes", "title": "Cupcakes"}], "rating": 4.5}, {"transactions": [], "distance": 2093.595394954, "price": "$$", "display_phone": "(214) 443-9600", "phone": "+12144439600", "url": "https://www.yelp.com/biz/little-katana-dallas-3?adjust_creative=gBcvfFpabk3CnzmXKdYe3w&utm_campaign=yelp_api_v3&utm_medium=api_v3_business_search&utm_source=gBcvfFpabk3CnzmXKdYe3w", "name": "Little Katana", "location": {"display_address": ["4525 Cole Ave", "Ste 160", "Dallas, TX 75205"], "country": "US", "state": "TX", "address3": "", "address2": "Ste 160", "address1": "4525 Cole Ave", "city": "Dallas", "zip_code": "75205"}, "is_closed": false, "review_count": 50, "coordinates": {"latitude": 32.82253, "longitude": -96.78976}, "id": "little-katana-dallas-3", "image_url": "https://s3-media3.fl.yelpcdn.com/bphoto/YRuCFLuUBF6_voFTdPSbsQ/o.jpg", "categories": [{"alias": "japanese", "title": "Japanese"}, {"alias": "sushi", "title": "Sushi Bars"}, {"alias": "asianfusion", "title": "Asian Fusion"}], "rating": 3.5}, {"transactions": [], "distance": 5580.948592462, "price": "$", "display_phone": "(972) 971-4859", "phone": "+19729714859", "url": "https://www.yelp.com/biz/taco-stop-dallas?adjust_creative=gBcvfFpabk3CnzmXKdYe3w&utm_campaign=yelp_api_v3&utm_medium=api_v3_business_search&utm_source=gBcvfFpabk3CnzmXKdYe3w", "name": "Taco Stop", "location": {"display_address": ["1900 Irving Blvd", "Dallas, TX 75207"], "country": "US", "state": "TX", "address3": "", "address2": "", "address1": "1900 Irving Blvd", "city": "Dallas", "zip_code": "75207"}, "is_closed": false, "review_count": 111, "coordinates": {"latitude": 32.7946396, "longitude": -96.8268967}, "id": "taco-stop-dallas", "image_url": "https://s3-media4.fl.yelpcdn.com/bphoto/MG_SWACv8HevdfUus71Naw/o.jpg", "categories": [{"alias": "mexican", "title": "Mexican"}], "rating": 4.0}, {"transactions": ["delivery"], "distance": 4218.235602244, "price": "$$", "display_phone": "(214) 369-7600", "phone": "+12143697600", "url": "https://www.yelp.com/biz/kona-grill-dallas?adjust_creative=gBcvfFpabk3CnzmXKdYe3w&utm_campaign=yelp_api_v3&utm_medium=api_v3_business_search&utm_source=gBcvfFpabk3CnzmXKdYe3w", "name": "Kona Grill", "location": {"display_address": ["Northpark center", "8687 N Central Exwy", "Dallas, TX 75225"], "country": "US", "state": "TX", "address3": "", "address2": "8687 N Central Exwy", "address1": "Northpark center", "city": "Dallas", "zip_code": "75225"}, "is_closed": false, "review_count": 481, "coordinates": {"latitude": 32.8694445612653, "longitude": -96.7735303837321}, "id": "kona-grill-dallas", "image_url": "https://s3-media3.fl.yelpcdn.com/bphoto/UhcXOPEJEhIQ3oLnVDNa9w/o.jpg", "categories": [{"alias": "newamerican", "title": "American (New)"}, {"alias": "sushi", "title": "Sushi Bars"}], "rating": 3.5}, {"transactions": ["delivery"], "distance": 6466.591568957999, "price": "$$", "display_phone": "(214) 744-9600", "phone": "+12147449600", "url": "https://www.yelp.com/biz/sushiya-dallas?adjust_creative=gBcvfFpabk3CnzmXKdYe3w&utm_campaign=yelp_api_v3&utm_medium=api_v3_business_search&utm_source=gBcvfFpabk3CnzmXKdYe3w", "name": "Sushiya", "location": {"display_address": ["1306 Elm St", "Dallas, TX 75202"], "country": "US", "state": "TX", "address3": "", "address2": "", "address1": "1306 Elm St", "city": "Dallas", "zip_code": "75202"}, "is_closed": false, "review_count": 148, "coordinates": {"latitude": 32.7809124, "longitude": -96.8010059}, "id": "sushiya-dallas", "image_url": "https://s3-media2.fl.yelpcdn.com/bphoto/6KRVJrUDVypnNCXzanN76g/o.jpg", "categories": [{"alias": "sushi", "title": "Sushi Bars"}, {"alias": "japanese", "title": "Japanese"}], "rating": 4.0}, {"transactions": [], "distance": 5021.688941204, "price": "$$", "display_phone": "(469) 687-0050", "phone": "+14696870050", "url": "https://www.yelp.com/biz/moxies-dallas?adjust_creative=gBcvfFpabk3CnzmXKdYe3w&utm_campaign=yelp_api_v3&utm_medium=api_v3_business_search&utm_source=gBcvfFpabk3CnzmXKdYe3w", "name": "Moxie's", "location": {"display_address": ["100 Crescent Ct", "Ste 140", "Dallas, TX 75201"], "country": "US", "state": "TX", "address3": null, "address2": "Ste 140", "address1": "100 Crescent Ct", "city": "Dallas", "zip_code": "75201"}, "is_closed": false, "review_count": 84, "coordinates": {"latitude": 32.7940649, "longitude": -96.8034594}, "id": "moxies-dallas", "image_url": "https://s3-media2.fl.yelpcdn.com/bphoto/xCbTYirm9n3-NltaNYQqGw/o.jpg", "categories": [{"alias": "tradamerican", "title": "American (Traditional)"}, {"alias": "burgers", "title": "Burgers"}, {"alias": "cocktailbars", "title": "Cocktail Bars"}], "rating": 4.0}, {"transactions": [], "distance": 10295.5756226, "display_phone": "(214) 519-9599", "phone": "+12145199599", "url": "https://www.yelp.com/biz/bishop-arts-district-dallas?adjust_creative=gBcvfFpabk3CnzmXKdYe3w&utm_campaign=yelp_api_v3&utm_medium=api_v3_business_search&utm_source=gBcvfFpabk3CnzmXKdYe3w", "name": "Bishop Arts District", "location": {"display_address": ["N Bishop Ave & W Davis St", "Dallas, TX 75208"], "country": "US", "state": "TX", "address3": "", "address2": "", "address1": "N Bishop Ave & W Davis St", "city": "Dallas", "zip_code": "75208"}, "is_closed": false, "review_count": 98, "coordinates": {"latitude": 32.7494644847, "longitude": -96.8282972820217}, "id": "bishop-arts-district-dallas", "image_url": "https://s3-media2.fl.yelpcdn.com/bphoto/lWu_cLAclHu75Hr0gpgU0g/o.jpg", "categories": [{"alias": "localflavor", "title": "Local Flavor"}], "rating": 4.5}, {"transactions": [], "distance": 3347.948143358, "price": "$$", "display_phone": "(469) 573-2007", "phone": "+14695732007", "url": "https://www.yelp.com/biz/zalat-pizza-dallas-2?adjust_creative=gBcvfFpabk3CnzmXKdYe3w&utm_campaign=yelp_api_v3&utm_medium=api_v3_business_search&utm_source=gBcvfFpabk3CnzmXKdYe3w", "name": "ZaLat Pizza", "location": {"display_address": ["2519 N Fitzhugh Ave", "Dallas, TX 75204"], "country": "US", "state": "TX", "address3": "", "address2": "", "address1": "2519 N Fitzhugh Ave", "city": "Dallas", "zip_code": "75204"}, "is_closed": false, "review_count": 192, "coordinates": {"latitude": 32.81234812657, "longitude": -96.7839628444112}, "id": "zalat-pizza-dallas-2", "image_url": "https://s3-media3.fl.yelpcdn.com/bphoto/q35ndtx0iyJX6Lvz665Wig/o.jpg", "categories": [{"alias": "pizza", "title": "Pizza"}], "rating": 3.5}, {"transactions": [], "distance": 5109.425812786, "price": "$$$", "display_phone": "(214) 741-2277", "phone": "+12147412277", "url": "https://www.yelp.com/biz/mortons-the-steakhouse-dallas-3?adjust_creative=gBcvfFpabk3CnzmXKdYe3w&utm_campaign=yelp_api_v3&utm_medium=api_v3_business_search&utm_source=gBcvfFpabk3CnzmXKdYe3w", "name": "Morton's The Steakhouse", "location": {"display_address": ["2222 McKinney", "Dallas, TX 75201"], "country": "US", "state": "TX", "address3": "", "address2": "", "address1": "2222 McKinney", "city": "Dallas", "zip_code": "75201"}, "is_closed": false, "review_count": 156, "coordinates": {"latitude": 32.7931145209747, "longitude": -96.8022000789642}, "id": "mortons-the-steakhouse-dallas-3", "image_url": "https://s3-media2.fl.yelpcdn.com/bphoto/2Fisiwpye8Od28Tynpa_Ug/o.jpg", "categories": [{"alias": "steak", "title": "Steakhouses"}, {"alias": "tradamerican", "title": "American (Traditional)"}], "rating": 3.5}, {"transactions": [], "distance": 5445.242284434, "price": "$$$", "display_phone": "(214) 306-7111", "phone": "+12143067111", "url": "https://www.yelp.com/biz/water-grill-dallas?adjust_creative=gBcvfFpabk3CnzmXKdYe3w&utm_campaign=yelp_api_v3&utm_medium=api_v3_business_search&utm_source=gBcvfFpabk3CnzmXKdYe3w", "name": "Water Grill", "location": {"display_address": ["1920 McKinney Ave", "Ste 100", "Dallas, TX 75201"], "country": "US", "state": "TX", "address3": "", "address2": "Ste 100", "address1": "1920 McKinney Ave", "city": "Dallas", "zip_code": "75201"}, "is_closed": false, "review_count": 79, "coordinates": {"latitude": 32.79017, "longitude": -96.80352}, "id": "water-grill-dallas", "image_url": "https://s3-media3.fl.yelpcdn.com/bphoto/NrfTMSDg9BrtsT_gjUwOwg/o.jpg", "categories": [{"alias": "seafood", "title": "Seafood"}], "rating": 4.0}, {"transactions": [], "distance": 12938.012123519999, "price": "$$", "display_phone": "(972) 807-6268", "phone": "+19728076268", "url": "https://www.yelp.com/biz/osteria-panevino-dallas?adjust_creative=gBcvfFpabk3CnzmXKdYe3w&utm_campaign=yelp_api_v3&utm_medium=api_v3_business_search&utm_source=gBcvfFpabk3CnzmXKdYe3w", "name": "Osteria PaneVino", "location": {"display_address": ["5000 Belt Line Rd", "Ste 300", "Dallas, TX 75254"], "country": "US", "state": "TX", "address3": "", "address2": "Ste 300", "address1": "5000 Belt Line Rd", "city": "Dallas", "zip_code": "75254"}, "is_closed": false, "review_count": 135, "coordinates": {"latitude": 32.9536037737994, "longitude": -96.8247576294169}, "id": "osteria-panevino-dallas", "image_url": "https://s3-media3.fl.yelpcdn.com/bphoto/pnxNR-7NKy06vz0jL0-_-A/o.jpg", "categories": [{"alias": "italian", "title": "Italian"}, {"alias": "modern_european", "title": "Modern European"}, {"alias": "wine_bars", "title": "Wine Bars"}], "rating": 4.5}, {"transactions": [], "distance": 2617.208004278, "price": "$$", "display_phone": "(214) 256-4818", "phone": "+12142564818", "url": "https://www.yelp.com/biz/casa-de-montecristo-dallas-2?adjust_creative=gBcvfFpabk3CnzmXKdYe3w&utm_campaign=yelp_api_v3&utm_medium=api_v3_business_search&utm_source=gBcvfFpabk3CnzmXKdYe3w", "name": "Casa de Montecristo", "location": {"display_address": ["3878 Oak Lawn Ave", "Ste 350", "Dallas, TX 75219"], "country": "US", "state": "TX", "address3": null, "address2": "Ste 350", "address1": "3878 Oak Lawn Ave", "city": "Dallas", "zip_code": "75219"}, "is_closed": false, "review_count": 15, "coordinates": {"latitude": 32.8156417, "longitude": -96.8022251}, "id": "casa-de-montecristo-dallas-2", "image_url": "https://s3-media1.fl.yelpcdn.com/bphoto/Y-fFTOqcxROIVEJEYxVdGQ/o.jpg", "categories": [{"alias": "tobaccoshops", "title": "Tobacco Shops"}, {"alias": "lounges", "title": "Lounges"}], "rating": 4.5}, {"transactions": [], "distance": 6440.527181119999, "price": "$$", "display_phone": "(469) 248-0856", "phone": "+14692480856", "url": "https://www.yelp.com/biz/fluellen-cupcakes-dallas?adjust_creative=gBcvfFpabk3CnzmXKdYe3w&utm_campaign=yelp_api_v3&utm_medium=api_v3_business_search&utm_source=gBcvfFpabk3CnzmXKdYe3w", "name": "Fluellen Cupcakes", "location": {"display_address": ["1408 Elm St", "Dallas, TX 75202"], "country": "US", "state": "TX", "address3": "", "address2": null, "address1": "1408 Elm St", "city": "Dallas", "zip_code": "75202"}, "is_closed": false, "review_count": 181, "coordinates": {"latitude": 32.7810901, "longitude": -96.8001414}, "id": "fluellen-cupcakes-dallas", "image_url": "https://s3-media3.fl.yelpcdn.com/bphoto/INiEMV0Oyq0YDB6N4qTtxA/o.jpg", "categories": [{"alias": "bakeries", "title": "Bakeries"}, {"alias": "coffee", "title": "Coffee & Tea"}, {"alias": "cupcakes", "title": "Cupcakes"}], "rating": 4.0}, {"transactions": ["delivery"], "distance": 1578.396737018, "price": "$$", "display_phone": "(214) 373-9911", "phone": "+12143739911", "url": "https://www.yelp.com/biz/penne-pomodoro-dallas?adjust_creative=gBcvfFpabk3CnzmXKdYe3w&utm_campaign=yelp_api_v3&utm_medium=api_v3_business_search&utm_source=gBcvfFpabk3CnzmXKdYe3w", "name": "Penne Pomodoro", "location": {"display_address": ["6815 Snider Pl", "Dallas, TX 75205"], "country": "US", "state": "TX", "address3": "", "address2": "", "address1": "6815 Snider Pl", "city": "Dallas", "zip_code": "75205"}, "is_closed": false, "review_count": 103, "coordinates": {"latitude": 32.8487968444824, "longitude": -96.7882843017578}, "id": "penne-pomodoro-dallas", "image_url": "https://s3-media1.fl.yelpcdn.com/bphoto/4DsUThzalMk0nAr9ubWYGQ/o.jpg", "categories": [{"alias": "italian", "title": "Italian"}, {"alias": "breakfast_brunch", "title": "Breakfast & Brunch"}, {"alias": "pizza", "title": "Pizza"}], "rating": 3.5}, {"transactions": ["delivery", "pickup"], "distance": 2043.657896622, "price": "$$", "display_phone": "(214) 528-1731", "phone": "+12145281731", "url": "https://www.yelp.com/biz/cafe-madrid-dallas?adjust_creative=gBcvfFpabk3CnzmXKdYe3w&utm_campaign=yelp_api_v3&utm_medium=api_v3_business_search&utm_source=gBcvfFpabk3CnzmXKdYe3w", "name": "Cafe Madrid", "location": {"display_address": ["4501 Travis St", "Dallas, TX 75205"], "country": "US", "state": "TX", "address3": "", "address2": "", "address1": "4501 Travis St", "city": "Dallas", "zip_code": "75205"}, "is_closed": false, "review_count": 221, "coordinates": {"latitude": 32.822332, "longitude": -96.791436}, "id": "cafe-madrid-dallas", "image_url": "https://s3-media1.fl.yelpcdn.com/bphoto/SOy9cyBWNKdVlTgwMbbNDw/o.jpg", "categories": [{"alias": "spanish", "title": "Spanish"}, {"alias": "tapas", "title": "Tapas Bars"}], "rating": 3.5}, {"transactions": [], "distance": 6301.92277362, "price": "$$", "display_phone": "(214) 749-0600", "phone": "+12147490600", "url": "https://www.yelp.com/biz/braindead-brewing-dallas-2?adjust_creative=gBcvfFpabk3CnzmXKdYe3w&utm_campaign=yelp_api_v3&utm_medium=api_v3_business_search&utm_source=gBcvfFpabk3CnzmXKdYe3w", "name": "Braindead Brewing", "location": {"display_address": ["2625 Main St", "Dallas, TX 75226"], "country": "US", "state": "TX", "address3": "", "address2": "", "address1": "2625 Main St", "city": "Dallas", "zip_code": "75226"}, "is_closed": false, "review_count": 327, "coordinates": {"latitude": 32.783817, "longitude": -96.785385}, "id": "braindead-brewing-dallas-2", "image_url": "https://s3-media4.fl.yelpcdn.com/bphoto/2qHmvmiZWKiBGR72IOAT6Q/o.jpg", "categories": [{"alias": "newamerican", "title": "American (New)"}, {"alias": "bars", "title": "Bars"}], "rating": 3.5}, {"transactions": [], "distance": 3496.2750565999995, "price": "$$", "display_phone": "(469) 533-5663", "phone": "+14695335663", "url": "https://www.yelp.com/biz/mi-cocina-dallas-6?adjust_creative=gBcvfFpabk3CnzmXKdYe3w&utm_campaign=yelp_api_v3&utm_medium=api_v3_business_search&utm_source=gBcvfFpabk3CnzmXKdYe3w", "name": "Mi Cocina", "location": {"display_address": ["3699 McKinney Ave", "Dallas, TX 75204"], "country": "US", "state": "TX", "address3": "", "address2": "", "address1": "3699 McKinney Ave", "city": "Dallas", "zip_code": "75204"}, "is_closed": false, "review_count": 296, "coordinates": {"latitude": 32.807677088899, "longitude": -96.797899737718}, "id": "mi-cocina-dallas-6", "image_url": "https://s3-media2.fl.yelpcdn.com/bphoto/nxFgNFmv0JCbfzYR5GRpLg/o.jpg", "categories": [{"alias": "mexican", "title": "Mexican"}, {"alias": "tex-mex", "title": "Tex-Mex"}], "rating": 3.5}, {"transactions": [], "distance": 7125.161338539999, "price": "$$$", "display_phone": "(214) 571-5784", "phone": "+12145715784", "url": "https://www.yelp.com/biz/five-sixty-dallas?adjust_creative=gBcvfFpabk3CnzmXKdYe3w&utm_campaign=yelp_api_v3&utm_medium=api_v3_business_search&utm_source=gBcvfFpabk3CnzmXKdYe3w", "name": "Five Sixty", "location": {"display_address": ["300 Reunion Blvd E", "Dallas, TX 75207"], "country": "US", "state": "TX", "address3": "", "address2": "", "address1": "300 Reunion Blvd E", "city": "Dallas", "zip_code": "75207"}, "is_closed": false, "review_count": 700, "coordinates": {"latitude": 32.7753525880943, "longitude": -96.8089150962046}, "id": "five-sixty-dallas", "image_url": "https://s3-media1.fl.yelpcdn.com/bphoto/CW8fKJpYxBXNBAdyNxJksA/o.jpg", "categories": [{"alias": "asianfusion", "title": "Asian Fusion"}, {"alias": "sushi", "title": "Sushi Bars"}, {"alias": "wine_bars", "title": "Wine Bars"}], "rating": 3.5}, {"transactions": [], "distance": 9700.34834888, "price": "$$", "display_phone": "(972) 707-7442", "phone": "+19727077442", "url": "https://www.yelp.com/biz/20-feet-seafood-joint-dallas?adjust_creative=gBcvfFpabk3CnzmXKdYe3w&utm_campaign=yelp_api_v3&utm_medium=api_v3_business_search&utm_source=gBcvfFpabk3CnzmXKdYe3w", "name": "20 Feet Seafood Joint", "location": {"display_address": ["1160 Peavy Rd", "Dallas, TX 75218"], "country": "US", "state": "TX", "address3": "", "address2": "", "address1": "1160 Peavy Rd", "city": "Dallas", "zip_code": "75218"}, "is_closed": false, "review_count": 380, "coordinates": {"latitude": 32.8395195007324, "longitude": -96.6967086791992}, "id": "20-feet-seafood-joint-dallas", "image_url": "https://s3-media4.fl.yelpcdn.com/bphoto/fI2iTsBUAhQqF34cUCvwbQ/o.jpg", "categories": [{"alias": "seafood", "title": "Seafood"}], "rating": 4.0}, {"transactions": ["delivery"], "distance": 6925.2072809, "price": "$$", "display_phone": "(214) 289-5500", "phone": "+12142895500", "url": "https://www.yelp.com/biz/boom-juice-dallas?adjust_creative=gBcvfFpabk3CnzmXKdYe3w&utm_campaign=yelp_api_v3&utm_medium=api_v3_business_search&utm_source=gBcvfFpabk3CnzmXKdYe3w", "name": "Boom Juice", "location": {"display_address": ["1010 S Pearl Expy", "Shed 2, Lot 58", "Dallas, TX 75225"], "country": "US", "state": "TX", "address3": "Shed 2, Lot 58", "address2": "", "address1": "1010 S Pearl Expy", "city": "Dallas", "zip_code": "75225"}, "is_closed": false, "review_count": 39, "coordinates": {"latitude": 32.7775220303733, "longitude": -96.7889921430095}, "id": "boom-juice-dallas", "image_url": "https://s3-media3.fl.yelpcdn.com/bphoto/Ik_ZrXtm3ovIgLmrJV8mWw/o.jpg", "categories": [{"alias": "gluten_free", "title": "Gluten-Free"}, {"alias": "juicebars", "title": "Juice Bars & Smoothies"}, {"alias": "markets", "title": "Fruits & Veggies"}], "rating": 4.5}, {"transactions": [], "distance": 7910.424790281999, "price": "$$", "display_phone": "(214) 749-1112", "phone": "+12147491112", "url": "https://www.yelp.com/biz/the-foundry-dallas?adjust_creative=gBcvfFpabk3CnzmXKdYe3w&utm_campaign=yelp_api_v3&utm_medium=api_v3_business_search&utm_source=gBcvfFpabk3CnzmXKdYe3w", "name": "The Foundry", "location": {"display_address": ["2303 Pittman St", "Dallas, TX 75208"], "country": "US", "state": "TX", "address3": "", "address2": "", "address1": "2303 Pittman St", "city": "Dallas", "zip_code": "75208"}, "is_closed": false, "review_count": 173, "coordinates": {"latitude": 32.7719193, "longitude": -96.8315964}, "id": "the-foundry-dallas", "image_url": "https://s3-media2.fl.yelpcdn.com/bphoto/HPIVnosYTVu_C-7FaJRLKQ/o.jpg", "categories": [{"alias": "newamerican", "title": "American (New)"}, {"alias": "lounges", "title": "Lounges"}], "rating": 4.0}, {"transactions": [], "distance": 6428.417541356, "price": "$", "display_phone": "(214) 358-7261", "phone": "+12143587261", "url": "https://www.yelp.com/biz/la-nueva-fresh-and-hot-dallas?adjust_creative=gBcvfFpabk3CnzmXKdYe3w&utm_campaign=yelp_api_v3&utm_medium=api_v3_business_search&utm_source=gBcvfFpabk3CnzmXKdYe3w", "name": "La Nueva Fresh & Hot", "location": {"display_address": ["9625 Webb Chapel Rd", "Dallas, TX 75220"], "country": "US", "state": "TX", "address3": null, "address2": null, "address1": "9625 Webb Chapel Rd", "city": "Dallas", "zip_code": "75220"}, "is_closed": false, "review_count": 35, "coordinates": {"latitude": 32.864407, "longitude": -96.86232}, "id": "la-nueva-fresh-and-hot-dallas", "image_url": "https://s3-media2.fl.yelpcdn.com/bphoto/6rXhTzeObSOPIJA7mJNAZg/o.jpg", "categories": [{"alias": "mexican", "title": "Mexican"}, {"alias": "vegan", "title": "Vegan"}, {"alias": "vegetarian", "title": "Vegetarian"}], "rating": 4.0}, {"transactions": [], "distance": 2875.444310018, "price": "$$", "display_phone": "(214) 613-4490", "phone": "+12146134490", "url": "https://www.yelp.com/biz/snap-kitchen-dallas-6?adjust_creative=gBcvfFpabk3CnzmXKdYe3w&utm_campaign=yelp_api_v3&utm_medium=api_v3_business_search&utm_source=gBcvfFpabk3CnzmXKdYe3w", "name": "Snap Kitchen", "location": {"display_address": ["4164 N Central Expy", "Dallas, TX 75204"], "country": "US", "state": "TX", "address3": "", "address2": "", "address1": "4164 N Central Expy", "city": "Dallas", "zip_code": "75204"}, "is_closed": false, "review_count": 22, "coordinates": {"latitude": 32.8151121788922, "longitude": -96.7888748634858}, "id": "snap-kitchen-dallas-6", "image_url": "https://s3-media4.fl.yelpcdn.com/bphoto/NuqTUSH1XtcXYoY58XDAJg/o.jpg", "categories": [{"alias": "gluten_free", "title": "Gluten-Free"}, {"alias": "newamerican", "title": "American (New)"}, {"alias": "vegetarian", "title": "Vegetarian"}], "rating": 4.5}, {"transactions": [], "distance": 3323.156421592, "price": "$$$", "display_phone": "(214) 526-7171", "phone": "+12145267171", "url": "https://www.yelp.com/biz/the-rose-room-theatre-and-lounge-dallas?adjust_creative=gBcvfFpabk3CnzmXKdYe3w&utm_campaign=yelp_api_v3&utm_medium=api_v3_business_search&utm_source=gBcvfFpabk3CnzmXKdYe3w", "name": "The Rose Room Theatre & Lounge", "location": {"display_address": ["3911 Cedar Springs Rd", "Dallas, TX 75219"], "country": "US", "state": "TX", "address3": "", "address2": "", "address1": "3911 Cedar Springs Rd", "city": "Dallas", "zip_code": "75219"}, "is_closed": false, "review_count": 13, "coordinates": {"latitude": 32.8103884, "longitude": -96.810662}, "id": "the-rose-room-theatre-and-lounge-dallas", "image_url": "https://s3-media3.fl.yelpcdn.com/bphoto/gi9eXhza1TXAloo--MOktQ/o.jpg", "categories": [{"alias": "gaybars", "title": "Gay Bars"}], "rating": 4.5}, {"transactions": [], "distance": 3518.952427474, "price": "$$", "display_phone": "(214) 303-1166", "phone": "+12143031166", "url": "https://www.yelp.com/biz/glorias-latin-cuisine-dallas?adjust_creative=gBcvfFpabk3CnzmXKdYe3w&utm_campaign=yelp_api_v3&utm_medium=api_v3_business_search&utm_source=gBcvfFpabk3CnzmXKdYe3w", "name": "Gloria's Latin Cuisine", "location": {"display_address": ["3223 Lemmon Ave", "Dallas, TX 75204"], "country": "US", "state": "TX", "address3": "", "address2": "", "address1": "3223 Lemmon Ave", "city": "Dallas", "zip_code": "75204"}, "is_closed": false, "review_count": 116, "coordinates": {"latitude": 32.807243, "longitude": -96.800674}, "id": "glorias-latin-cuisine-dallas", "image_url": "https://s3-media2.fl.yelpcdn.com/bphoto/qc8dVBMe_cB4b3TPgvPK5g/o.jpg", "categories": [{"alias": "latin", "title": "Latin American"}, {"alias": "bars", "title": "Bars"}, {"alias": "mexican", "title": "Mexican"}], "rating": 3.5}, {"transactions": ["pickup"], "distance": 10894.64760958, "price": "$$", "display_phone": "(214) 941-4246", "phone": "+12149414246", "url": "https://www.yelp.com/biz/mesa-dallas?adjust_creative=gBcvfFpabk3CnzmXKdYe3w&utm_campaign=yelp_api_v3&utm_medium=api_v3_business_search&utm_source=gBcvfFpabk3CnzmXKdYe3w", "name": "Mesa", "location": {"display_address": ["118 W Jefferson Blvd", "Dallas, TX 75208"], "country": "US", "state": "TX", "address3": "", "address2": "", "address1": "118 W Jefferson Blvd", "city": "Dallas", "zip_code": "75208"}, "is_closed": false, "review_count": 247, "coordinates": {"latitude": 32.7429695129395, "longitude": -96.8237075805664}, "id": "mesa-dallas", "image_url": "https://s3-media2.fl.yelpcdn.com/bphoto/i9b-eURRJMWrQLqBfSa4Jg/o.jpg", "categories": [{"alias": "mexican", "title": "Mexican"}, {"alias": "seafood", "title": "Seafood"}], "rating": 4.0}, {"transactions": [], "distance": 3895.9052388620003, "price": "$$", "display_phone": "(214) 443-8335", "phone": "+12144438335", "url": "https://www.yelp.com/biz/18th-and-vine-barbeque-dallas?adjust_creative=gBcvfFpabk3CnzmXKdYe3w&utm_campaign=yelp_api_v3&utm_medium=api_v3_business_search&utm_source=gBcvfFpabk3CnzmXKdYe3w", "name": "18th & Vine Barbeque", "location": {"display_address": ["4100 Maple Ave", "Dallas, TX 75219"], "country": "US", "state": "TX", "address3": "", "address2": "", "address1": "4100 Maple Ave", "city": "Dallas", "zip_code": "75219"}, "is_closed": false, "review_count": 263, "coordinates": {"latitude": 32.8069, "longitude": -96.81662}, "id": "18th-and-vine-barbeque-dallas", "image_url": "https://s3-media1.fl.yelpcdn.com/bphoto/05qmngDJEWB0NR65gDdIfA/o.jpg", "categories": [{"alias": "bbq", "title": "Barbeque"}, {"alias": "bars", "title": "Bars"}], "rating": 3.5}, {"transactions": [], "distance": 4822.91356418, "price": "$$", "display_phone": "(469) 518-5814", "phone": "+14695185814", "url": "https://www.yelp.com/biz/whole-foods-market-dallas-12?adjust_creative=gBcvfFpabk3CnzmXKdYe3w&utm_campaign=yelp_api_v3&utm_medium=api_v3_business_search&utm_source=gBcvfFpabk3CnzmXKdYe3w", "name": "Whole Foods Market", "location": {"display_address": ["2510 McKinney Ave", "Dallas, TX 75201"], "country": "US", "state": "TX", "address3": null, "address2": null, "address1": "2510 McKinney Ave", "city": "Dallas", "zip_code": "75201"}, "is_closed": false, "review_count": 54, "coordinates": {"latitude": 32.795619, "longitude": -96.8017932}, "id": "whole-foods-market-dallas-12", "image_url": "https://s3-media2.fl.yelpcdn.com/bphoto/WksQqm2xaT3D3De3E3BV8A/o.jpg", "categories": [{"alias": "grocery", "title": "Grocery"}, {"alias": "healthmarkets", "title": "Health Markets"}, {"alias": "coffee", "title": "Coffee & Tea"}], "rating": 4.0}, {"transactions": ["delivery", "pickup"], "distance": 2263.298366746, "price": "$$", "display_phone": "(214) 823-4723", "phone": "+12148234723", "url": "https://www.yelp.com/biz/urban-taco-dallas?adjust_creative=gBcvfFpabk3CnzmXKdYe3w&utm_campaign=yelp_api_v3&utm_medium=api_v3_business_search&utm_source=gBcvfFpabk3CnzmXKdYe3w", "name": "Urban Taco", "location": {"display_address": ["5331 E Mockingbird Ln", "Ste 125", "Dallas, TX 75206"], "country": "US", "state": "TX", "address3": "", "address2": "Ste 125", "address1": "5331 E Mockingbird Ln", "city": "Dallas", "zip_code": "75206"}, "is_closed": false, "review_count": 277, "coordinates": {"latitude": 32.8368056, "longitude": -96.7773499}, "id": "urban-taco-dallas", "image_url": "https://s3-media2.fl.yelpcdn.com/bphoto/2SewOWSHJZd7PsXlybmn3Q/o.jpg", "categories": [{"alias": "mexican", "title": "Mexican"}], "rating": 3.5}, {"transactions": [], "distance": 10409.38492872, "price": "$$", "display_phone": "(214) 367-9367", "phone": "+12143679367", "url": "https://www.yelp.com/biz/bolsa-dallas?adjust_creative=gBcvfFpabk3CnzmXKdYe3w&utm_campaign=yelp_api_v3&utm_medium=api_v3_business_search&utm_source=gBcvfFpabk3CnzmXKdYe3w", "name": "Bolsa", "location": {"display_address": ["614 W Davis St", "Dallas, TX 75208"], "country": "US", "state": "TX", "address3": "", "address2": "", "address1": "614 W Davis St", "city": "Dallas", "zip_code": "75208"}, "is_closed": false, "review_count": 857, "coordinates": {"latitude": 32.749241, "longitude": -96.831991}, "id": "bolsa-dallas", "image_url": "https://s3-media1.fl.yelpcdn.com/bphoto/YvewhTx98WUfxOOrcw3dkQ/o.jpg", "categories": [{"alias": "newamerican", "title": "American (New)"}, {"alias": "breakfast_brunch", "title": "Breakfast & Brunch"}], "rating": 4.0}, {"transactions": ["delivery", "pickup"], "distance": 1496.7071214199998, "price": "$$", "display_phone": "(214) 987-9188", "phone": "+12149879188", "url": "https://www.yelp.com/biz/peggy-sue-bbq-dallas?adjust_creative=gBcvfFpabk3CnzmXKdYe3w&utm_campaign=yelp_api_v3&utm_medium=api_v3_business_search&utm_source=gBcvfFpabk3CnzmXKdYe3w", "name": "Peggy Sue BBQ", "location": {"display_address": ["6600 Snider Plz", "Dallas, TX 75205"], "country": "US", "state": "TX", "address3": "", "address2": "", "address1": "6600 Snider Plz", "city": "Dallas", "zip_code": "75205"}, "is_closed": false, "review_count": 193, "coordinates": {"latitude": 32.84685, "longitude": -96.78749}, "id": "peggy-sue-bbq-dallas", "image_url": "https://s3-media2.fl.yelpcdn.com/bphoto/yMzX5VCEBTeA7jA9nE4wfg/o.jpg", "categories": [{"alias": "bbq", "title": "Barbeque"}], "rating": 3.5}, {"transactions": [], "distance": 6523.451643299999, "price": "$$", "display_phone": "(214) 741-1919", "phone": "+12147411919", "url": "https://www.yelp.com/biz/frankies-dallas-2?adjust_creative=gBcvfFpabk3CnzmXKdYe3w&utm_campaign=yelp_api_v3&utm_medium=api_v3_business_search&utm_source=gBcvfFpabk3CnzmXKdYe3w", "name": "Frankie's", "location": {"display_address": ["1303 Main St", "Dallas, TX 75202"], "country": "US", "state": "TX", "address3": "", "address2": null, "address1": "1303 Main St", "city": "Dallas", "zip_code": "75202"}, "is_closed": false, "review_count": 198, "coordinates": {"latitude": 32.7803765266146, "longitude": -96.8008640035987}, "id": "frankies-dallas-2", "image_url": "https://s3-media2.fl.yelpcdn.com/bphoto/9S2-od5KknNFaDZ9rB3FGw/o.jpg", "categories": [{"alias": "sportsbars", "title": "Sports Bars"}, {"alias": "tradamerican", "title": "American (Traditional)"}, {"alias": "newamerican", "title": "American (New)"}], "rating": 3.5}, {"transactions": [], "distance": 2807.756596156, "price": "$", "display_phone": "(214) 368-9212", "phone": "+12143689212", "url": "https://www.yelp.com/biz/milo-butterfingers-dallas?adjust_creative=gBcvfFpabk3CnzmXKdYe3w&utm_campaign=yelp_api_v3&utm_medium=api_v3_business_search&utm_source=gBcvfFpabk3CnzmXKdYe3w", "name": "Milo Butterfingers", "location": {"display_address": ["5645 Smu Blvd", "Dallas, TX 75206"], "country": "US", "state": "TX", "address3": "", "address2": "", "address1": "5645 Smu Blvd", "city": "Dallas", "zip_code": "75206"}, "is_closed": false, "review_count": 101, "coordinates": {"latitude": 32.84235, "longitude": -96.77069}, "id": "milo-butterfingers-dallas", "image_url": "https://s3-media2.fl.yelpcdn.com/bphoto/UhZeDQ4nrSDKx7BRMxD6PQ/o.jpg", "categories": [{"alias": "sportsbars", "title": "Sports Bars"}], "rating": 4.0}, {"transactions": [], "distance": 3726.489695194, "price": "$", "display_phone": "(800) 786-1000", "phone": "+18007861000", "url": "https://www.yelp.com/biz/in-n-out-burger-dallas?adjust_creative=gBcvfFpabk3CnzmXKdYe3w&utm_campaign=yelp_api_v3&utm_medium=api_v3_business_search&utm_source=gBcvfFpabk3CnzmXKdYe3w", "name": "In-N-Out Burger", "location": {"display_address": ["7940 N Central Expy", "Dallas, TX 75206"], "country": "US", "state": "TX", "address3": "", "address2": "", "address1": "7940 N Central Expy", "city": "Dallas", "zip_code": "75206"}, "is_closed": false, "review_count": 368, "coordinates": {"latitude": 32.859979133293, "longitude": -96.769386415873}, "id": "in-n-out-burger-dallas", "image_url": "https://s3-media3.fl.yelpcdn.com/bphoto/S-iVS74ZTVTAuN_YdYI-BQ/o.jpg", "categories": [{"alias": "burgers", "title": "Burgers"}, {"alias": "hotdogs", "title": "Fast Food"}], "rating": 3.5}, {"transactions": [], "distance": 6864.8666869399985, "price": "$$", "display_phone": "(214) 698-7000", "phone": "+12146987000", "url": "https://www.yelp.com/biz/mudhen-meat-and-greens-dallas-2?adjust_creative=gBcvfFpabk3CnzmXKdYe3w&utm_campaign=yelp_api_v3&utm_medium=api_v3_business_search&utm_source=gBcvfFpabk3CnzmXKdYe3w", "name": "Mudhen Meat and Greens", "location": {"display_address": ["900 S Harwood", "Dallas, TX 75201"], "country": "US", "state": "TX", "address3": "", "address2": "", "address1": "900 S Harwood", "city": "Dallas", "zip_code": "75201"}, "is_closed": false, "review_count": 174, "coordinates": {"latitude": 32.7777951, "longitude": -96.7909951}, "id": "mudhen-meat-and-greens-dallas-2", "image_url": "https://s3-media2.fl.yelpcdn.com/bphoto/ouIkQK06M3ZwwDT0M6ONAA/o.jpg", "categories": [{"alias": "juicebars", "title": "Juice Bars & Smoothies"}, {"alias": "breakfast_brunch", "title": "Breakfast & Brunch"}, {"alias": "tradamerican", "title": "American (Traditional)"}], "rating": 4.0}, {"transactions": [], "distance": 3895.9836137199995, "price": "$", "display_phone": "(214) 688-0236", "phone": "+12146880236", "url": "https://www.yelp.com/biz/tortas-la-hechizera-dallas-2?adjust_creative=gBcvfFpabk3CnzmXKdYe3w&utm_campaign=yelp_api_v3&utm_medium=api_v3_business_search&utm_source=gBcvfFpabk3CnzmXKdYe3w", "name": "Tortas La Hechizera", "location": {"display_address": ["5611 Maple Ave", "Dallas, TX 75235"], "country": "US", "state": "TX", "address3": "", "address2": "", "address1": "5611 Maple Ave", "city": "Dallas", "zip_code": "75235"}, "is_closed": false, "review_count": 72, "coordinates": {"latitude": 32.820518, "longitude": -96.836082}, "id": "tortas-la-hechizera-dallas-2", "image_url": "https://s3-media1.fl.yelpcdn.com/bphoto/eKZo_ZmdH0PjeWnTbJNupg/o.jpg", "categories": [{"alias": "mexican", "title": "Mexican"}], "rating": 4.0}, {"transactions": [], "distance": 2039.387673866, "price": "$$$", "display_phone": "(469) 730-2937", "phone": "+14697302937", "url": "https://www.yelp.com/biz/le-bilboquet-dallas?adjust_creative=gBcvfFpabk3CnzmXKdYe3w&utm_campaign=yelp_api_v3&utm_medium=api_v3_business_search&utm_source=gBcvfFpabk3CnzmXKdYe3w", "name": "Le Bilboquet", "location": {"display_address": ["4514 Travis St", "Ste 124", "Dallas, TX 75205"], "country": "US", "state": "TX", "address3": "", "address2": "Ste 124", "address1": "4514 Travis St", "city": "Dallas", "zip_code": "75205"}, "is_closed": false, "review_count": 97, "coordinates": {"latitude": 32.8226429, "longitude": -96.7907626}, "id": "le-bilboquet-dallas", "image_url": "https://s3-media1.fl.yelpcdn.com/bphoto/mJ_pkin5Oj5YV9hg4wulHg/o.jpg", "categories": [{"alias": "french", "title": "French"}], "rating": 3.5}, {"transactions": ["delivery"], "distance": 2354.725615882, "price": "$$", "display_phone": "(214) 521-3655", "phone": "+12145213655", "url": "https://www.yelp.com/biz/roti-grill-dallas?adjust_creative=gBcvfFpabk3CnzmXKdYe3w&utm_campaign=yelp_api_v3&utm_medium=api_v3_business_search&utm_source=gBcvfFpabk3CnzmXKdYe3w", "name": "Roti Grill", "location": {"display_address": ["4438 Mckinney Ave", "Dallas, TX 75205"], "country": "US", "state": "TX", "address3": "", "address2": "", "address1": "4438 Mckinney Ave", "city": "Dallas", "zip_code": "75205"}, "is_closed": false, "review_count": 306, "coordinates": {"latitude": 32.820442, "longitude": -96.788493}, "id": "roti-grill-dallas", "image_url": "https://s3-media2.fl.yelpcdn.com/bphoto/dL4yQ_TWCwcNk-86Hnre7w/o.jpg", "categories": [{"alias": "indpak", "title": "Indian"}, {"alias": "desserts", "title": "Desserts"}, {"alias": "wraps", "title": "Wraps"}], "rating": 3.5}, {"transactions": [], "distance": 10756.469677179999, "price": "$$", "display_phone": "(214) 484-7123", "phone": "+12144847123", "url": "https://www.yelp.com/biz/nova-dallas?adjust_creative=gBcvfFpabk3CnzmXKdYe3w&utm_campaign=yelp_api_v3&utm_medium=api_v3_business_search&utm_source=gBcvfFpabk3CnzmXKdYe3w", "name": "Nova", "location": {"display_address": ["1417 W Davis St", "Dallas, TX 75208"], "country": "US", "state": "TX", "address3": "", "address2": "", "address1": "1417 W Davis St", "city": "Dallas", "zip_code": "75208"}, "is_closed": false, "review_count": 231, "coordinates": {"latitude": 32.74973, "longitude": -96.84493}, "id": "nova-dallas", "image_url": "https://s3-media2.fl.yelpcdn.com/bphoto/prsyO1ziBDUT38Q3aKLv9w/o.jpg", "categories": [{"alias": "gastropubs", "title": "Gastropubs"}, {"alias": "newamerican", "title": "American (New)"}, {"alias": "breakfast_brunch", "title": "Breakfast & Brunch"}], "rating": 4.0}, {"transactions": [], "distance": 9494.931225675999, "price": "$$", "display_phone": "(214) 358-1912", "phone": "+12143581912", "url": "https://www.yelp.com/biz/pappadeaux-seafood-kitchen-dallas?adjust_creative=gBcvfFpabk3CnzmXKdYe3w&utm_campaign=yelp_api_v3&utm_medium=api_v3_business_search&utm_source=gBcvfFpabk3CnzmXKdYe3w", "name": "Pappadeaux Seafood Kitchen", "location": {"display_address": ["10428 Lombardy Ln", "Dallas, TX 75220"], "country": "US", "state": "TX", "address3": "", "address2": "", "address1": "10428 Lombardy Ln", "city": "Dallas", "zip_code": "75220"}, "is_closed": false, "review_count": 265, "coordinates": {"latitude": 32.8659948571179, "longitude": -96.8969844434917}, "id": "pappadeaux-seafood-kitchen-dallas", "image_url": "https://s3-media3.fl.yelpcdn.com/bphoto/hOB1wKXu0MjpLRR5jq1x2A/o.jpg", "categories": [{"alias": "seafood", "title": "Seafood"}], "rating": 4.0}, {"transactions": ["pickup"], "distance": 2344.95482994, "price": "$", "display_phone": "(214) 350-7611", "phone": "+12143507611", "url": "https://www.yelp.com/biz/jersey-mikes-subs-dallas-10?adjust_creative=gBcvfFpabk3CnzmXKdYe3w&utm_campaign=yelp_api_v3&utm_medium=api_v3_business_search&utm_source=gBcvfFpabk3CnzmXKdYe3w", "name": "Jersey Mike's Subs", "location": {"display_address": ["5301 W Lovers Ln", "Ste 108", "Dallas, TX 75209"], "country": "US", "state": "TX", "address3": "", "address2": "Ste 108", "address1": "5301 W Lovers Ln", "city": "Dallas", "zip_code": "75209"}, "is_closed": false, "review_count": 24, "coordinates": {"latitude": 32.851490020752, "longitude": -96.8207397460938}, "id": "jersey-mikes-subs-dallas-10", "image_url": "https://s3-media1.fl.yelpcdn.com/bphoto/LVzBfdjoYyO_Ph3L1k0z4Q/o.jpg", "categories": [{"alias": "sandwiches", "title": "Sandwiches"}, {"alias": "hotdogs", "title": "Fast Food"}, {"alias": "delis", "title": "Delis"}], "rating": 4.5}, {"transactions": [], "distance": 7185.40859078, "price": "$$", "display_phone": "(214) 660-3644", "phone": "+12146603644", "url": "https://www.yelp.com/biz/cane-rosso-dallas-2?adjust_creative=gBcvfFpabk3CnzmXKdYe3w&utm_campaign=yelp_api_v3&utm_medium=api_v3_business_search&utm_source=gBcvfFpabk3CnzmXKdYe3w", "name": "Cane Rosso", "location": {"display_address": ["7328 Gaston Ave", "Ste 100", "Dallas, TX 75214"], "country": "US", "state": "TX", "address3": "", "address2": "Ste 100", "address1": "7328 Gaston Ave", "city": "Dallas", "zip_code": "75214"}, "is_closed": false, "review_count": 287, "coordinates": {"latitude": 32.8109251073022, "longitude": -96.7313021380982}, "id": "cane-rosso-dallas-2", "image_url": "https://s3-media3.fl.yelpcdn.com/bphoto/CZpb8GFD9RwgVbHm0sRYjA/o.jpg", "categories": [{"alias": "italian", "title": "Italian"}, {"alias": "pizza", "title": "Pizza"}], "rating": 4.0}, {"transactions": [], "distance": 6567.08246004, "price": "$", "display_phone": "(214) 749-0819", "phone": "+12147490819", "url": "https://www.yelp.com/biz/bread-zeppelin-salads-elevated-dallas?adjust_creative=gBcvfFpabk3CnzmXKdYe3w&utm_campaign=yelp_api_v3&utm_medium=api_v3_business_search&utm_source=gBcvfFpabk3CnzmXKdYe3w", "name": "Bread Zeppelin Salads Elevated", "location": {"display_address": ["1300 Main St", "Dallas, TX 75202"], "country": "US", "state": "TX", "address3": null, "address2": "", "address1": "1300 Main St", "city": "Dallas", "zip_code": "75202"}, "is_closed": false, "review_count": 25, "coordinates": {"latitude": 32.7799819, "longitude": -96.8006744}, "id": "bread-zeppelin-salads-elevated-dallas", "image_url": "https://s3-media3.fl.yelpcdn.com/bphoto/A2hW-t3E74czynzH6LGu2A/o.jpg", "categories": [{"alias": "salad", "title": "Salad"}], "rating": 4.5}, {"transactions": [], "distance": 6320.843784, "price": "$", "display_phone": "(469) 458-3324", "phone": "+14694583324", "url": "https://www.yelp.com/biz/the-nines-dallas?adjust_creative=gBcvfFpabk3CnzmXKdYe3w&utm_campaign=yelp_api_v3&utm_medium=api_v3_business_search&utm_source=gBcvfFpabk3CnzmXKdYe3w", "name": "The Nines", "location": {"display_address": ["2911 Main St", "Dallas, TX 75226"], "country": "US", "state": "TX", "address3": "", "address2": "", "address1": "2911 Main St", "city": "Dallas", "zip_code": "75226"}, "is_closed": false, "review_count": 29, "coordinates": {"latitude": 32.7844505, "longitude": -96.7819901}, "id": "the-nines-dallas", "image_url": "https://s3-media2.fl.yelpcdn.com/bphoto/Nxvp2mNaNVzb6Y1nSgcpQA/o.jpg", "categories": [{"alias": "danceclubs", "title": "Dance Clubs"}, {"alias": "lounges", "title": "Lounges"}], "rating": 4.0}, {"transactions": [], "distance": 4708.102122042, "price": "$", "display_phone": "(214) 826-9887", "phone": "+12148269887", "url": "https://www.yelp.com/biz/mais-vietnamese-restaurant-dallas?adjust_creative=gBcvfFpabk3CnzmXKdYe3w&utm_campaign=yelp_api_v3&utm_medium=api_v3_business_search&utm_source=gBcvfFpabk3CnzmXKdYe3w", "name": "Mai's Vietnamese Restaurant", "location": {"display_address": ["4812 Bryan St", "Ste 100", "Dallas, TX 75204"], "country": "US", "state": "TX", "address3": "", "address2": "Ste 100", "address1": "4812 Bryan St", "city": "Dallas", "zip_code": "75204"}, "is_closed": false, "review_count": 174, "coordinates": {"latitude": 32.8031234741211, "longitude": -96.7737426757812}, "id": "mais-vietnamese-restaurant-dallas", "image_url": "https://s3-media2.fl.yelpcdn.com/bphoto/0fXwlQ5i4RCzYg4GfDUHWQ/o.jpg", "categories": [{"alias": "vietnamese", "title": "Vietnamese"}, {"alias": "desserts", "title": "Desserts"}, {"alias": "salad", "title": "Salad"}], "rating": 3.5}], "total": 32259}