{"total": 32253, "region": {"center": {"longitude": -96.800537109375, "latitude": 32.839043482398054}}, "businesses": [{"rating": 3.5, "is_closed": false, "distance": 2090.5453737860003, "name": "Lovers Pizza & Pasta", "id": "lovers-pizza-and-pasta-dallas-2", "image_url": "https://s3-media4.fl.yelpcdn.com/bphoto/dJr4mavqaBXa-QX2ULFmZQ/o.jpg", "url": "https://www.yelp.com/biz/lovers-pizza-and-pasta-dallas-2?adjust_creative=gBcvfFpabk3CnzmXKdYe3w&utm_campaign=yelp_api_v3&utm_medium=api_v3_business_search&utm_source=gBcvfFpabk3CnzmXKdYe3w", "phone": "+12143530509", "coordinates": {"longitude": -96.8171463012695, "latitude": 32.8514823913574}, "categories": [{"alias": "pizza", "title": "Pizza"}], "review_count": 55, "location": {"city": "Dallas", "address1": "5605 W Lovers Ln", "address3": "", "address2": "", "zip_code": "75209", "country": "US", "display_address": ["5605 W Lovers Ln", "Dallas, TX 75209"], "state": "TX"}, "price": "$", "transactions": [], "display_phone": "(214) 353-0509"}, {"rating": 3.5, "is_closed": false, "distance": 4553.4746427, "name": "R Taco", "id": "r-taco-dallas-4", "image_url": "https://s3-media2.fl.yelpcdn.com/bphoto/87jHbpGdVhJWRSln7dwFyQ/o.jpg", "url": "https://www.yelp.com/biz/r-taco-dallas-4?adjust_creative=gBcvfFpabk3CnzmXKdYe3w&utm_campaign=yelp_api_v3&utm_medium=api_v3_business_search&utm_source=gBcvfFpabk3CnzmXKdYe3w", "phone": "+12143820860", "coordinates": {"longitude": -96.83883, "latitude": 32.81372}, "categories": [{"alias": "mexican", "title": "Mexican"}, {"alias": "tex-mex", "title": "Tex-Mex"}], "review_count": 123, "location": {"city": "Dallas", "address1": "5350 Harry Hines Blvd", "address3": "", "address2": "", "zip_code": "75230", "country": "US", "display_address": ["5350 Harry Hines Blvd", "Dallas, TX 75230"], "state": "TX"}, "price": "$", "transactions": [], "display_phone": "(214) 382-0860"}, {"rating": 4.0, "is_closed": false, "distance": 10256.304025118001, "name": "The Oceanaire Seafood Room", "id": "the-oceanaire-seafood-room-dallas", "image_url": "https://s3-media2.fl.yelpcdn.com/bphoto/RBZhxhpIhP6aGjnu9ftWbA/o.jpg", "url": "https://www.yelp.com/biz/the-oceanaire-seafood-room-dallas?adjust_creative=gBcvfFpabk3CnzmXKdYe3w&utm_campaign=yelp_api_v3&utm_medium=api_v3_business_search&utm_source=gBcvfFpabk3CnzmXKdYe3w", "phone": "+19727592277", "coordinates": {"longitude": -96.820221, "latitude": 32.929788}, "categories": [{"alias": "seafood", "title": "Seafood"}], "review_count": 319, "location": {"city": "Dallas", "address1": "13340 Dallas Pkwy", "address3": "", "address2": "Ste 1369", "zip_code": "75240", "country": "US", "display_address": ["13340 Dallas Pkwy", "Ste 1369", "Dallas, TX 75240"], "state": "TX"}, "price": "$$$", "transactions": [], "display_phone": "(972) 759-2277"}, {"rating": 3.5, "is_closed": false, "distance": 3805.099999636, "name": "Blue Mesa Grill", "id": "blue-mesa-grill-dallas-2", "image_url": "https://s3-media4.fl.yelpcdn.com/bphoto/nGA6MuaCYKXUgHBS9r0SAA/o.jpg", "url": "https://www.yelp.com/biz/blue-mesa-grill-dallas-2?adjust_creative=gBcvfFpabk3CnzmXKdYe3w&utm_campaign=yelp_api_v3&utm_medium=api_v3_business_search&utm_source=gBcvfFpabk3CnzmXKdYe3w", "phone": "+12143788686", "coordinates": {"longitude": -96.7731495066071, "latitude": 32.8643726118168}, "categories": [{"alias": "mexican", "title": "Mexican"}, {"alias": "breakfast_brunch", "title": "Breakfast & Brunch"}, {"alias": "buffets", "title": "Buffets"}], "review_count": 223, "location": {"city": "Dallas", "address1": "7700 W Nw Hwy", "address3": "", "address2": "", "zip_code": "75225", "country": "US", "display_address": ["7700 W Nw Hwy", "Dallas, TX 75225"], "state": "TX"}, "price": "$$", "transactions": ["delivery"], "display_phone": "(214) 378-8686"}, {"rating": 3.5, "is_closed": false, "distance": 1857.298738632, "name": "City Cafe", "id": "city-cafe-dallas-2", "image_url": "https://s3-media2.fl.yelpcdn.com/bphoto/ej5wmmhakZ3qVJU-76UbcQ/o.jpg", "url": "https://www.yelp.com/biz/city-cafe-dallas-2?adjust_creative=gBcvfFpabk3CnzmXKdYe3w&utm_campaign=yelp_api_v3&utm_medium=api_v3_business_search&utm_source=gBcvfFpabk3CnzmXKdYe3w", "phone": "+12143512233", "coordinates": {"longitude": -96.8138275146484, "latitude": 32.8514747619629}, "categories": [{"alias": "newamerican", "title": "American (New)"}], "review_count": 45, "location": {"city": "Dallas", "address1": "5757 W Lovers Ln", "address3": "", "address2": "", "zip_code": "75209", "country": "US", "display_address": ["5757 W Lovers Ln", "Dallas, TX 75209"], "state": "TX"}, "price": "$$$", "transactions": ["delivery"], "display_phone": "(214) 351-2233"}, {"rating": 3.5, "is_closed": false, "distance": 2474.435728046, "name": "Nick and Sam's Grill", "id": "nick-and-sams-grill-dallas-2", "image_url": "https://s3-media3.fl.yelpcdn.com/bphoto/e7H-VhZ6H05W1w3fgTVayw/o.jpg", "url": "https://www.yelp.com/biz/nick-and-sams-grill-dallas-2?adjust_creative=gBcvfFpabk3CnzmXKdYe3w&utm_campaign=yelp_api_v3&utm_medium=api_v3_business_search&utm_source=gBcvfFpabk3CnzmXKdYe3w", "phone": "+12143791111", "coordinates": {"longitude": -96.8044030292614, "latitude": 32.861059186958}, "categories": [{"alias": "newamerican", "title": "American (New)"}], "review_count": 100, "location": {"city": "Dallas", "address1": "8111 Preston Rd", "address3": "", "address2": "Ste 150", "zip_code": "75225", "country": "US", "display_address": ["8111 Preston Rd", "Ste 150", "Dallas, TX 75225"], "state": "TX"}, "price": "$$$", "transactions": [], "display_phone": "(214) 379-1111"}, {"rating": 3.5, "is_closed": false, "distance": 6518.635371482, "name": "NOLA Brasserie", "id": "nola-brasserie-dallas", "image_url": "https://s3-media2.fl.yelpcdn.com/bphoto/sgZgmCcpOUOZD66Y5cC8Rg/o.jpg", "url": "https://www.yelp.com/biz/nola-brasserie-dallas?adjust_creative=gBcvfFpabk3CnzmXKdYe3w&utm_campaign=yelp_api_v3&utm_medium=api_v3_business_search&utm_source=gBcvfFpabk3CnzmXKdYe3w", "phone": "+14698721820", "coordinates": {"longitude": -96.80207, "latitude": 32.78045}, "categories": [{"alias": "cajun", "title": "Cajun/Creole"}, {"alias": "seafood", "title": "Seafood"}, {"alias": "pizza", "title": "Pizza"}], "review_count": 106, "location": {"city": "Dallas", "address1": "1201 Main St", "address3": "", "address2": "", "zip_code": "75202", "country": "US", "display_address": ["1201 Main St", "Dallas, TX 75202"], "state": "TX"}, "price": "$$", "transactions": ["pickup"], "display_phone": "(469) 872-1820"}, {"rating": 4.5, "is_closed": false, "distance": 12410.721206692, "name": "Pho DK", "id": "pho-dk-dallas", "image_url": "https://s3-media2.fl.yelpcdn.com/bphoto/EmQOh45JDjzTMAptXjBkxQ/o.jpg", "url": "https://www.yelp.com/biz/pho-dk-dallas?adjust_creative=gBcvfFpabk3CnzmXKdYe3w&utm_campaign=yelp_api_v3&utm_medium=api_v3_business_search&utm_source=gBcvfFpabk3CnzmXKdYe3w", "phone": "+19727081050", "coordinates": {"longitude": -96.804115, "latitude": 32.950592}, "categories": [{"alias": "vietnamese", "title": "Vietnamese"}], "review_count": 60, "location": {"city": "Dallas", "address1": "14891 Preston Rd", "address3": null, "address2": "", "zip_code": "75254", "country": "US", "display_address": ["14891 Preston Rd", "Dallas, TX 75254"], "state": "TX"}, "price": "$", "transactions": [], "display_phone": "(972) 708-1050"}, {"rating": 3.5, "is_closed": false, "distance": 3011.8273455159997, "name": "Big Al's Smokehouse BBQ", "id": "big-als-smokehouse-bbq-dallas", "image_url": "https://s3-media1.fl.yelpcdn.com/bphoto/i4-s3hSrmbZmARStpvWjwA/o.jpg", "url": "https://www.yelp.com/biz/big-als-smokehouse-bbq-dallas?adjust_creative=gBcvfFpabk3CnzmXKdYe3w&utm_campaign=yelp_api_v3&utm_medium=api_v3_business_search&utm_source=gBcvfFpabk3CnzmXKdYe3w", "phone": "+12143502649", "coordinates": {"longitude": -96.8298, "latitude": 32.82767}, "categories": [{"alias": "bbq", "title": "Barbeque"}], "review_count": 135, "location": {"city": "Dallas", "address1": "3317 Inwood Rd", "address3": "", "address2": "", "zip_code": "75235", "country": "US", "display_address": ["3317 Inwood Rd", "Dallas, TX 75235"], "state": "TX"}, "price": "$$", "transactions": ["delivery", "pickup"], "display_phone": "(214) 350-2649"}, {"rating": 3.5, "is_closed": false, "distance": 5161.277781981999, "name": "La Paloma Taqueria", "id": "la-paloma-taqueria-dallas-9", "image_url": "https://s3-media2.fl.yelpcdn.com/bphoto/I8NDdfhxH-pSq-RLoJFQSQ/o.jpg", "url": "https://www.yelp.com/biz/la-paloma-taqueria-dallas-9?adjust_creative=gBcvfFpabk3CnzmXKdYe3w&utm_campaign=yelp_api_v3&utm_medium=api_v3_business_search&utm_source=gBcvfFpabk3CnzmXKdYe3w", "phone": "+12143788220", "coordinates": {"longitude": -96.7709952701299, "latitude": 32.8782701774646}, "categories": [{"alias": "mexican", "title": "Mexican"}], "review_count": 55, "location": {"city": "Dallas", "address1": "9661 N Central Expy", "address3": "", "address2": "", "zip_code": "75231", "country": "US", "display_address": ["9661 N Central Expy", "Dallas, TX 75231"], "state": "TX"}, "price": "$", "transactions": [], "display_phone": "(214) 378-8220"}, {"rating": 4.0, "is_closed": false, "distance": 5769.624395381999, "name": "Meadows Foundation Dog Park", "id": "meadows-foundation-dog-park-dallas", "image_url": "https://s3-media2.fl.yelpcdn.com/bphoto/ic4eWawfKyU0Bapw-1p0Hw/o.jpg", "url": "https://www.yelp.com/biz/meadows-foundation-dog-park-dallas?adjust_creative=gBcvfFpabk3CnzmXKdYe3w&utm_campaign=yelp_api_v3&utm_medium=api_v3_business_search&utm_source=gBcvfFpabk3CnzmXKdYe3w", "phone": "+12148269431", "coordinates": {"longitude": -96.785581111908, "latitude": 32.7886996110587}, "categories": [{"alias": "dog_parks", "title": "Dog Parks"}], "review_count": 32, "location": {"city": "Dallas", "address1": "500 Liberty St", "address3": "", "address2": "", "zip_code": "75204", "country": "US", "display_address": ["500 Liberty St", "Dallas, TX 75204"], "state": "TX"}, "transactions": [], "display_phone": "(214) 826-9431"}, {"rating": 3.5, "is_closed": false, "distance": 4736.826105164, "name": "The Nodding Donkey", "id": "the-nodding-donkey-dallas", "image_url": "https://s3-media1.fl.yelpcdn.com/bphoto/3bjZjdTr7titr1_tmzZclQ/o.jpg", "url": "https://www.yelp.com/biz/the-nodding-donkey-dallas?adjust_creative=gBcvfFpabk3CnzmXKdYe3w&utm_campaign=yelp_api_v3&utm_medium=api_v3_business_search&utm_source=gBcvfFpabk3CnzmXKdYe3w", "phone": "+12149228898", "coordinates": {"longitude": -96.796815, "latitude": 32.79656}, "categories": [{"alias": "bbq", "title": "Barbeque"}, {"alias": "sportsbars", "title": "Sports Bars"}, {"alias": "tex-mex", "title": "Tex-Mex"}], "review_count": 180, "location": {"city": "Dallas", "address1": "2900 Thomas Ave", "address3": "", "address2": "", "zip_code": "75204", "country": "US", "display_address": ["2900 Thomas Ave", "Dallas, TX 75204"], "state": "TX"}, "price": "$$", "transactions": ["delivery"], "display_phone": "(214) 922-8898"}, {"rating": 3.5, "is_closed": false, "distance": 9390.56568761, "name": "India Palace", "id": "india-palace-dallas-4", "image_url": "https://s3-media2.fl.yelpcdn.com/bphoto/ITdXl4oNzR4BznxqOvSyjg/o.jpg", "url": "https://www.yelp.com/biz/india-palace-dallas-4?adjust_creative=gBcvfFpabk3CnzmXKdYe3w&utm_campaign=yelp_api_v3&utm_medium=api_v3_business_search&utm_source=gBcvfFpabk3CnzmXKdYe3w", "phone": "+19723920190", "coordinates": {"longitude": -96.8044165440414, "latitude": 32.923432980726}, "categories": [{"alias": "indpak", "title": "Indian"}], "review_count": 326, "location": {"city": "Dallas", "address1": "12817 Preston Rd", "address3": "", "address2": "Ste 105", "zip_code": "75230", "country": "US", "display_address": ["12817 Preston Rd", "Ste 105", "Dallas, TX 75230"], "state": "TX"}, "price": "$$", "transactions": ["delivery", "pickup"], "display_phone": "(972) 392-0190"}, {"rating": 4.0, "is_closed": false, "distance": 6947.225144242, "name": "Old World Sausage Company", "id": "old-world-sausage-company-dallas", "image_url": "https://s3-media1.fl.yelpcdn.com/bphoto/-Fr6iATisPGTc0GSir366Q/o.jpg", "url": "https://www.yelp.com/biz/old-world-sausage-company-dallas?adjust_creative=gBcvfFpabk3CnzmXKdYe3w&utm_campaign=yelp_api_v3&utm_medium=api_v3_business_search&utm_source=gBcvfFpabk3CnzmXKdYe3w", "phone": "", "coordinates": {"longitude": -96.7883453369141, "latitude": 32.7771263122559}, "categories": [{"alias": "delis", "title": "Delis"}, {"alias": "sandwiches", "title": "Sandwiches"}], "review_count": 19, "location": {"city": "Dallas", "address1": "1010 S Pearl St", "address3": "Farmers Market Shed 2", "address2": "", "zip_code": "75201", "country": "US", "display_address": ["1010 S Pearl St", "Farmers Market Shed 2", "Dallas, TX 75201"], "state": "TX"}, "price": "$", "transactions": [], "display_phone": ""}, {"rating": 4.0, "is_closed": false, "distance": 6427.262678972, "name": "Burguesa Burger", "id": "burguesa-burger-dallas-2", "image_url": "https://s3-media3.fl.yelpcdn.com/bphoto/we95rkU7rwX0c9BkZiMZUw/o.jpg", "url": "https://www.yelp.com/biz/burguesa-burger-dallas-2?adjust_creative=gBcvfFpabk3CnzmXKdYe3w&utm_campaign=yelp_api_v3&utm_medium=api_v3_business_search&utm_source=gBcvfFpabk3CnzmXKdYe3w", "phone": "+12147607376", "coordinates": {"longitude": -96.801986, "latitude": 32.78125}, "categories": [{"alias": "burgers", "title": "Burgers"}], "review_count": 30, "location": {"city": "Dallas", "address1": "1201 Elm St", "address3": "", "address2": "Lower Level Food Court #LL7", "zip_code": "75270", "country": "US", "display_address": ["1201 Elm St", "Lower Level Food Court #LL7", "Dallas, TX 75270"], "state": "TX"}, "price": "$", "transactions": [], "display_phone": "(214) 760-7376"}, {"rating": 4.0, "is_closed": false, "distance": 10211.100883198, "name": "Two Guys From Italy", "id": "two-guys-from-italy-dallas", "image_url": "https://s3-media2.fl.yelpcdn.com/bphoto/EEah9JKbgUzPdGqctPqQ6g/o.jpg", "url": "https://www.yelp.com/biz/two-guys-from-italy-dallas?adjust_creative=gBcvfFpabk3CnzmXKdYe3w&utm_campaign=yelp_api_v3&utm_medium=api_v3_business_search&utm_source=gBcvfFpabk3CnzmXKdYe3w", "phone": "+19722476814", "coordinates": {"longitude": -96.87279, "latitude": 32.90792}, "categories": [{"alias": "pizza", "title": "Pizza"}, {"alias": "italian", "title": "Italian"}], "review_count": 233, "location": {"city": "Dallas", "address1": "11637 Webb Chapel Rd", "address3": "", "address2": "", "zip_code": "75229", "country": "US", "display_address": ["11637 Webb Chapel Rd", "Dallas, TX 75229"], "state": "TX"}, "price": "$$", "transactions": [], "display_phone": "(972) 247-6814"}, {"rating": 4.0, "is_closed": false, "distance": 8368.715093675999, "name": "Elaine's Kitchen", "id": "elaines-kitchen-dallas", "image_url": "https://s3-media1.fl.yelpcdn.com/bphoto/UbjmUdrlFnrz6akg64UsfA/o.jpg", "url": "https://www.yelp.com/biz/elaines-kitchen-dallas?adjust_creative=gBcvfFpabk3CnzmXKdYe3w&utm_campaign=yelp_api_v3&utm_medium=api_v3_business_search&utm_source=gBcvfFpabk3CnzmXKdYe3w", "phone": "+12145651008", "coordinates": {"longitude": -96.76937, "latitude": 32.76883}, "categories": [{"alias": "caribbean", "title": "Caribbean"}], "review_count": 109, "location": {"city": "Dallas", "address1": "2717 Martin Luther King Junior Blvd", "address3": "", "address2": "", "zip_code": "75215", "country": "US", "display_address": ["2717 Martin Luther King Junior Blvd", "Dallas, TX 75215"], "state": "TX"}, "price": "$$", "transactions": [], "display_phone": "(214) 565-1008"}, {"rating": 3.5, "is_closed": false, "distance": 5265.607914568, "name": "Saint Ann", "id": "saint-ann-dallas", "image_url": "https://s3-media1.fl.yelpcdn.com/bphoto/mQndJVuVlrV1RRCbXTqS6w/o.jpg", "url": "https://www.yelp.com/biz/saint-ann-dallas?adjust_creative=gBcvfFpabk3CnzmXKdYe3w&utm_campaign=yelp_api_v3&utm_medium=api_v3_business_search&utm_source=gBcvfFpabk3CnzmXKdYe3w", "phone": "+12147829807", "coordinates": {"longitude": -96.806671191207, "latitude": 32.791969541535}, "categories": [{"alias": "newamerican", "title": "American (New)"}, {"alias": "bars", "title": "Bars"}], "review_count": 370, "location": {"city": "Dallas", "address1": "2501 N Harwood St", "address3": "", "address2": "", "zip_code": "75201", "country": "US", "display_address": ["2501 N Harwood St", "Dallas, TX 75201"], "state": "TX"}, "price": "$$", "transactions": [], "display_phone": "(214) 782-9807"}, {"rating": 4.5, "is_closed": false, "distance": 3792.1329035199997, "name": "Paciugo Gelato & Caffe", "id": "paciugo-gelato-and-caffe-dallas-2", "image_url": "https://s3-media2.fl.yelpcdn.com/bphoto/6JWJSFxZvyMfiHIjKvGA-g/o.jpg", "url": "https://www.yelp.com/biz/paciugo-gelato-and-caffe-dallas-2?adjust_creative=gBcvfFpabk3CnzmXKdYe3w&utm_campaign=yelp_api_v3&utm_medium=api_v3_business_search&utm_source=gBcvfFpabk3CnzmXKdYe3w", "phone": "", "coordinates": {"longitude": -96.840335726738, "latitude": 32.8315693885088}, "categories": [{"alias": "cafes", "title": "Cafes"}, {"alias": "icecream", "title": "Ice Cream & Frozen Yogurt"}], "review_count": 11, "location": {"city": "Dallas", "address1": "3001 W Mockingbird Ln", "address3": "", "address2": "", "zip_code": "75235", "country": "US", "display_address": ["3001 W Mockingbird Ln", "Dallas, TX 75235"], "state": "TX"}, "price": "$", "transactions": [], "display_phone": ""}, {"rating": 5.0, "is_closed": false, "distance": 2786.346258664, "name": "Waxing The City", "id": "waxing-the-city-dallas", "image_url": "https://s3-media2.fl.yelpcdn.com/bphoto/sgNiZUC1BB5fGLNlmwPkRA/o.jpg", "url": "https://www.yelp.com/biz/waxing-the-city-dallas?adjust_creative=gBcvfFpabk3CnzmXKdYe3w&utm_campaign=yelp_api_v3&utm_medium=api_v3_business_search&utm_source=gBcvfFpabk3CnzmXKdYe3w", "phone": "+12142650121", "coordinates": {"longitude": -96.80471, "latitude": 32.86389}, "categories": [{"alias": "waxing", "title": "Waxing"}], "review_count": 280, "location": {"city": "Dallas", "address1": "6131 Luther Ln", "address3": "", "address2": "", "zip_code": "75225", "country": "US", "display_address": ["6131 Luther Ln", "Dallas, TX 75225"], "state": "TX"}, "price": "$$", "transactions": [], "display_phone": "(214) 265-0121"}, {"rating": 4.0, "is_closed": false, "distance": 10537.298490599998, "name": "bbbop Seoul Kitchen R&D", "id": "bbbop-seoul-kitchen-r-and-d-dallas", "image_url": "https://s3-media4.fl.yelpcdn.com/bphoto/wF7o1y5R1Wi2vlTvop38Ew/o.jpg", "url": "https://www.yelp.com/biz/bbbop-seoul-kitchen-r-and-d-dallas?adjust_creative=gBcvfFpabk3CnzmXKdYe3w&utm_campaign=yelp_api_v3&utm_medium=api_v3_business_search&utm_source=gBcvfFpabk3CnzmXKdYe3w", "phone": "+14692483702", "coordinates": {"longitude": -96.83681, "latitude": 32.74924}, "categories": [{"alias": "korean", "title": "Korean"}, {"alias": "asianfusion", "title": "Asian Fusion"}], "review_count": 113, "location": {"city": "Dallas", "address1": "828 W Davis St", "address3": "", "address2": "", "zip_code": "75208", "country": "US", "display_address": ["828 W Davis St", "Dallas, TX 75208"], "state": "TX"}, "price": "$$", "transactions": [], "display_phone": "(469) 248-3702"}, {"rating": 3.5, "is_closed": false, "distance": 4703.569094064, "name": "Buzzbrews Kitchen", "id": "buzzbrews-kitchen-dallas-8", "image_url": "https://s3-media1.fl.yelpcdn.com/bphoto/bHQA-Tx8AqSaB5FvwCzcsw/o.jpg", "url": "https://www.yelp.com/biz/buzzbrews-kitchen-dallas-8?adjust_creative=gBcvfFpabk3CnzmXKdYe3w&utm_campaign=yelp_api_v3&utm_medium=api_v3_business_search&utm_source=gBcvfFpabk3CnzmXKdYe3w", "phone": "+12143705815", "coordinates": {"longitude": -96.7616024985909, "latitude": 32.8122273906844}, "categories": [{"alias": "breakfast_brunch", "title": "Breakfast & Brunch"}, {"alias": "diners", "title": "Diners"}, {"alias": "newamerican", "title": "American (New)"}], "review_count": 111, "location": {"city": "Dallas", "address1": "5815 Live Oak St", "address3": "", "address2": "Ste 102", "zip_code": "75214", "country": "US", "display_address": ["5815 Live Oak St", "Ste 102", "Dallas, TX 75214"], "state": "TX"}, "price": "$$", "transactions": ["pickup"], "display_phone": "(214) 370-5815"}, {"rating": 4.0, "is_closed": false, "distance": 3915.2676912039997, "name": "The Mermaid Bar", "id": "the-mermaid-bar-dallas-2", "image_url": "", "url": "https://www.yelp.com/biz/the-mermaid-bar-dallas-2?adjust_creative=gBcvfFpabk3CnzmXKdYe3w&utm_campaign=yelp_api_v3&utm_medium=api_v3_business_search&utm_source=gBcvfFpabk3CnzmXKdYe3w", "phone": "+12148911209", "coordinates": {"longitude": -96.7741549015045, "latitude": 32.8666050732136}, "categories": [{"alias": "newamerican", "title": "American (New)"}], "review_count": 25, "location": {"city": "Dallas", "address1": "400 Northpark Ctr", "address3": null, "address2": null, "zip_code": "75225", "country": "US", "display_address": ["400 Northpark Ctr", "Dallas, TX 75225"], "state": "TX"}, "price": "$$", "transactions": [], "display_phone": "(214) 891-1209"}, {"rating": 4.0, "is_closed": false, "distance": 10417.62314018, "name": "Al Kabob Grill & Cafe", "id": "al-kabob-grill-and-cafe-dallas", "image_url": "https://s3-media2.fl.yelpcdn.com/bphoto/8LtP_ZF9mRgQz4VKPhzU0Q/o.jpg", "url": "https://www.yelp.com/biz/al-kabob-grill-and-cafe-dallas?adjust_creative=gBcvfFpabk3CnzmXKdYe3w&utm_campaign=yelp_api_v3&utm_medium=api_v3_business_search&utm_source=gBcvfFpabk3CnzmXKdYe3w", "phone": "+19726209300", "coordinates": {"longitude": -96.890865, "latitude": 32.894011}, "categories": [{"alias": "indpak", "title": "Indian"}, {"alias": "pakistani", "title": "Pakistani"}], "review_count": 63, "location": {"city": "Dallas", "address1": "11350 Harry Hines Blvd", "address3": "", "address2": "", "zip_code": "75229", "country": "US", "display_address": ["11350 Harry Hines Blvd", "Dallas, TX 75229"], "state": "TX"}, "price": "$", "transactions": [], "display_phone": "(972) 620-9300"}, {"rating": 4.0, "is_closed": false, "distance": 3971.43430094, "name": "La Bodega's", "id": "la-bodegas-dallas-3", "image_url": "https://s3-media4.fl.yelpcdn.com/bphoto/QBXCisyvs6XNriVl-eruvg/o.jpg", "url": "https://www.yelp.com/biz/la-bodegas-dallas-3?adjust_creative=gBcvfFpabk3CnzmXKdYe3w&utm_campaign=yelp_api_v3&utm_medium=api_v3_business_search&utm_source=gBcvfFpabk3CnzmXKdYe3w", "phone": "+19728072048", "coordinates": {"longitude": -96.77057, "latitude": 32.81371}, "categories": [{"alias": "latin", "title": "Latin American"}, {"alias": "seafood", "title": "Seafood"}, {"alias": "cocktailbars", "title": "Cocktail Bars"}], "review_count": 44, "location": {"city": "Dallas", "address1": "1905 Greenville Ave", "address3": "", "address2": null, "zip_code": "75206", "country": "US", "display_address": ["1905 Greenville Ave", "Dallas, TX 75206"], "state": "TX"}, "price": "$$", "transactions": [], "display_phone": "(972) 807-2048"}, {"rating": 3.5, "is_closed": false, "distance": 3401.888231204, "name": "Salata", "id": "salata-dallas-3", "image_url": "https://s3-media2.fl.yelpcdn.com/bphoto/Cuz9oSp53EtwkNjOa3DoiA/o.jpg", "url": "https://www.yelp.com/biz/salata-dallas-3?adjust_creative=gBcvfFpabk3CnzmXKdYe3w&utm_campaign=yelp_api_v3&utm_medium=api_v3_business_search&utm_source=gBcvfFpabk3CnzmXKdYe3w", "phone": "+12145998507", "coordinates": {"longitude": -96.79489, "latitude": 32.808817}, "categories": [{"alias": "salad", "title": "Salad"}], "review_count": 95, "location": {"city": "Dallas", "address1": "3000 Blackburn St", "address3": "", "address2": "", "zip_code": "75204", "country": "US", "display_address": ["3000 Blackburn St", "Dallas, TX 75204"], "state": "TX"}, "price": "$$", "transactions": [], "display_phone": "(214) 599-8507"}, {"rating": 3.5, "is_closed": false, "distance": 6499.632445695999, "name": "Ravenna Urban Italian Restaurant", "id": "ravenna-urban-italian-restaurant-dallas", "image_url": "https://s3-media2.fl.yelpcdn.com/bphoto/1ttpALjOTWVFDVDLjtAS7A/o.jpg", "url": "https://www.yelp.com/biz/ravenna-urban-italian-restaurant-dallas?adjust_creative=gBcvfFpabk3CnzmXKdYe3w&utm_campaign=yelp_api_v3&utm_medium=api_v3_business_search&utm_source=gBcvfFpabk3CnzmXKdYe3w", "phone": "+12147449333", "coordinates": {"longitude": -96.80089, "latitude": 32.78052}, "categories": [{"alias": "italian", "title": "Italian"}, {"alias": "seafood", "title": "Seafood"}, {"alias": "steak", "title": "Steakhouses"}], "review_count": 143, "location": {"city": "Dallas", "address1": "1301 Main St", "address3": "", "address2": "", "zip_code": "75202", "country": "US", "display_address": ["1301 Main St", "Dallas, TX 75202"], "state": "TX"}, "price": "$$", "transactions": ["pickup"], "display_phone": "(214) 744-9333"}, {"rating": 4.0, "is_closed": false, "distance": 10685.53238399, "name": "Rice Chicken - Dallas", "id": "rice-chicken-dallas-dallas", "image_url": "https://s3-media4.fl.yelpcdn.com/bphoto/57OVIhqhWdhPDpkB_Bjchg/o.jpg", "url": "https://www.yelp.com/biz/rice-chicken-dallas-dallas?adjust_creative=gBcvfFpabk3CnzmXKdYe3w&utm_campaign=yelp_api_v3&utm_medium=api_v3_business_search&utm_source=gBcvfFpabk3CnzmXKdYe3w", "phone": "+19722411332", "coordinates": {"longitude": -96.8929801136255, "latitude": 32.8956591024619}, "categories": [{"alias": "korean", "title": "Korean"}, {"alias": "chickenshop", "title": "Chicken Shop"}, {"alias": "wine_bars", "title": "Wine Bars"}], "review_count": 104, "location": {"city": "Dallas", "address1": "2558 Royal Ln", "address3": "", "address2": "", "zip_code": "75229", "country": "US", "display_address": ["2558 Royal Ln", "Dallas, TX 75229"], "state": "TX"}, "price": "$$", "transactions": ["pickup"], "display_phone": "(972) 241-1332"}, {"rating": 4.0, "is_closed": false, "distance": 5612.086263716, "name": "In The Sack", "id": "in-the-sack-dallas", "image_url": "https://s3-media1.fl.yelpcdn.com/bphoto/uyIgCnluQGZ9m53_N3zDSg/o.jpg", "url": "https://www.yelp.com/biz/in-the-sack-dallas?adjust_creative=gBcvfFpabk3CnzmXKdYe3w&utm_campaign=yelp_api_v3&utm_medium=api_v3_business_search&utm_source=gBcvfFpabk3CnzmXKdYe3w", "phone": "+12146463117", "coordinates": {"longitude": -96.8055190687866, "latitude": 32.7887450796474}, "categories": [{"alias": "sandwiches", "title": "Sandwiches"}, {"alias": "beer_and_wine", "title": "Beer, Wine & Spirits"}, {"alias": "salad", "title": "Salad"}], "review_count": 46, "location": {"city": "Dallas", "address1": "1700 Cedar Springs Rd", "address3": "", "address2": "Ste 120", "zip_code": "75202", "country": "US", "display_address": ["1700 Cedar Springs Rd", "Ste 120", "Dallas, TX 75202"], "state": "TX"}, "price": "$$", "transactions": ["delivery", "pickup"], "display_phone": "(214) 646-3117"}, {"rating": 4.0, "is_closed": false, "distance": 12616.5335838, "name": "Mercy Wine Bar", "id": "mercy-wine-bar-dallas", "image_url": "https://s3-media4.fl.yelpcdn.com/bphoto/Jm9ISZL0KxFxKCr32fzFiA/o.jpg", "url": "https://www.yelp.com/biz/mercy-wine-bar-dallas?adjust_creative=gBcvfFpabk3CnzmXKdYe3w&utm_campaign=yelp_api_v3&utm_medium=api_v3_business_search&utm_source=gBcvfFpabk3CnzmXKdYe3w", "phone": "+19727029463", "coordinates": {"longitude": -96.8205709325409, "latitude": 32.9512529358137}, "categories": [{"alias": "newamerican", "title": "American (New)"}, {"alias": "wine_bars", "title": "Wine Bars"}, {"alias": "musicvenues", "title": "Music Venues"}], "review_count": 385, "location": {"city": "Dallas", "address1": "5100 Belt Line Rd", "address3": "", "address2": "Ste 544", "zip_code": "75254", "country": "US", "display_address": ["5100 Belt Line Rd", "Ste 544", "Dallas, TX 75254"], "state": "TX"}, "price": "$$", "transactions": [], "display_phone": "(972) 702-9463"}, {"rating": 4.0, "is_closed": false, "distance": 6465.979858823999, "name": "Kuai Dumplings & Soups", "id": "kuai-dumplings-and-soups-dallas-2", "image_url": "https://s3-media4.fl.yelpcdn.com/bphoto/KfgCFFPW_HKzMuTDvOVLVg/o.jpg", "url": "https://www.yelp.com/biz/kuai-dumplings-and-soups-dallas-2?adjust_creative=gBcvfFpabk3CnzmXKdYe3w&utm_campaign=yelp_api_v3&utm_medium=api_v3_business_search&utm_source=gBcvfFpabk3CnzmXKdYe3w", "phone": "+12145714544", "coordinates": {"longitude": -96.80202, "latitude": 32.78128}, "categories": [{"alias": "asianfusion", "title": "Asian Fusion"}, {"alias": "thai", "title": "Thai"}], "review_count": 64, "location": {"city": "Dallas", "address1": "1201 Elm St", "address3": "Renaissance Tower", "address2": "", "zip_code": "75202", "country": "US", "display_address": ["1201 Elm St", "Renaissance Tower", "Dallas, TX 75202"], "state": "TX"}, "price": "$", "transactions": ["pickup"], "display_phone": "(214) 571-4544"}, {"rating": 4.5, "is_closed": false, "distance": 4237.798739284, "name": "Chick-fil-A", "id": "chick-fil-a-dallas-10", "image_url": "https://s3-media3.fl.yelpcdn.com/bphoto/dhCciGmdVfATe1o4PrXOYA/o.jpg", "url": "https://www.yelp.com/biz/chick-fil-a-dallas-10?adjust_creative=gBcvfFpabk3CnzmXKdYe3w&utm_campaign=yelp_api_v3&utm_medium=api_v3_business_search&utm_source=gBcvfFpabk3CnzmXKdYe3w", "phone": "+12143634627", "coordinates": {"longitude": -96.773483, "latitude": 32.869635}, "categories": [{"alias": "hotdogs", "title": "Fast Food"}], "review_count": 14, "location": {"city": "Dallas", "address1": "8687 N Central Expy", "address3": "", "address2": "Ste 2386", "zip_code": "75225", "country": "US", "display_address": ["8687 N Central Expy", "Ste 2386", "Dallas, TX 75225"], "state": "TX"}, "price": "$", "transactions": [], "display_phone": "(214) 363-4627"}, {"rating": 4.0, "is_closed": false, "distance": 10875.331667164, "name": "Seoul Garden", "id": "seoul-garden-dallas", "image_url": "https://s3-media4.fl.yelpcdn.com/bphoto/v-eWj92q3RFC_d5kmwUAEQ/o.jpg", "url": "https://www.yelp.com/biz/seoul-garden-dallas?adjust_creative=gBcvfFpabk3CnzmXKdYe3w&utm_campaign=yelp_api_v3&utm_medium=api_v3_business_search&utm_source=gBcvfFpabk3CnzmXKdYe3w", "phone": "+19724846090", "coordinates": {"longitude": -96.89566, "latitude": 32.89568}, "categories": [{"alias": "korean", "title": "Korean"}], "review_count": 192, "location": {"city": "Dallas", "address1": "2502 Royal Ln", "address3": "", "address2": "Ste 103", "zip_code": "75229", "country": "US", "display_address": ["2502 Royal Ln", "Ste 103", "Dallas, TX 75229"], "state": "TX"}, "price": "$$", "transactions": [], "display_phone": "(972) 484-6090"}, {"rating": 4.5, "is_closed": false, "distance": 3465.348208886, "name": "Yelp's Arabian Night at Baboush", "id": "yelps-arabian-night-at-baboush-dallas", "image_url": "https://s3-media2.fl.yelpcdn.com/bphoto/K7Rn_VAmqmVVs4r78UpPAQ/o.jpg", "url": "https://www.yelp.com/biz/yelps-arabian-night-at-baboush-dallas?adjust_creative=gBcvfFpabk3CnzmXKdYe3w&utm_campaign=yelp_api_v3&utm_medium=api_v3_business_search&utm_source=gBcvfFpabk3CnzmXKdYe3w", "phone": "", "coordinates": {"longitude": -96.7969813, "latitude": 32.8080233}, "categories": [{"alias": "yelpevents", "title": "Yelp Events"}], "review_count": 9, "location": {"city": "Dallas", "address1": "3699 McKinney Ave", "address3": null, "address2": "Ste 160", "zip_code": "75204", "country": "US", "display_address": ["3699 McKinney Ave", "Ste 160", "Dallas, TX 75204"], "state": "TX"}, "transactions": [], "display_phone": ""}, {"rating": 4.0, "is_closed": false, "distance": 3846.671504912, "name": "Starbucks", "id": "starbucks-dallas-92", "image_url": "https://s3-media1.fl.yelpcdn.com/bphoto/b7RnbWCWS2u58kA37DA6aA/o.jpg", "url": "https://www.yelp.com/biz/starbucks-dallas-92?adjust_creative=gBcvfFpabk3CnzmXKdYe3w&utm_campaign=yelp_api_v3&utm_medium=api_v3_business_search&utm_source=gBcvfFpabk3CnzmXKdYe3w", "phone": "+12143600288", "coordinates": {"longitude": -96.768014, "latitude": 32.86026}, "categories": [{"alias": "coffee", "title": "Coffee & Tea"}], "review_count": 34, "location": {"city": "Dallas", "address1": "6123 Greenville Ave", "address3": "", "address2": "", "zip_code": "75206", "country": "US", "display_address": ["6123 Greenville Ave", "Dallas, TX 75206"], "state": "TX"}, "price": "$", "transactions": [], "display_phone": "(214) 360-0288"}, {"rating": 4.0, "is_closed": false, "distance": 6392.83197621, "name": "Planet Sub", "id": "planet-sub-dallas-3", "image_url": "https://s3-media1.fl.yelpcdn.com/bphoto/feC03ab2gyuxpgE5Tpqdnw/o.jpg", "url": "https://www.yelp.com/biz/planet-sub-dallas-3?adjust_creative=gBcvfFpabk3CnzmXKdYe3w&utm_campaign=yelp_api_v3&utm_medium=api_v3_business_search&utm_source=gBcvfFpabk3CnzmXKdYe3w", "phone": "+12147601299", "coordinates": {"longitude": -96.782906, "latitude": 32.783494}, "categories": [{"alias": "sandwiches", "title": "Sandwiches"}, {"alias": "delis", "title": "Delis"}, {"alias": "salad", "title": "Salad"}], "review_count": 27, "location": {"city": "Dallas", "address1": "2813 Commerce St", "address3": "", "address2": null, "zip_code": "75226", "country": "US", "display_address": ["2813 Commerce St", "Dallas, TX 75226"], "state": "TX"}, "price": "$", "transactions": ["pickup"], "display_phone": "(214) 760-1299"}, {"rating": 4.0, "is_closed": false, "distance": 1993.2202154179997, "name": "Chelsea Corner", "id": "chelsea-corner-dallas", "image_url": "https://s3-media2.fl.yelpcdn.com/bphoto/v6wa95K99Pk_y8tT9ePqVA/o.jpg", "url": "https://www.yelp.com/biz/chelsea-corner-dallas?adjust_creative=gBcvfFpabk3CnzmXKdYe3w&utm_campaign=yelp_api_v3&utm_medium=api_v3_business_search&utm_source=gBcvfFpabk3CnzmXKdYe3w", "phone": "+14697262211", "coordinates": {"longitude": -96.78515, "latitude": 32.82664}, "categories": [{"alias": "pubs", "title": "Pubs"}, {"alias": "tradamerican", "title": "American (Traditional)"}, {"alias": "breakfast_brunch", "title": "Breakfast & Brunch"}], "review_count": 53, "location": {"city": "Dallas", "address1": "4830 McKinney Ave", "address3": "", "address2": null, "zip_code": "75205", "country": "US", "display_address": ["4830 McKinney Ave", "Dallas, TX 75205"], "state": "TX"}, "price": "$$", "transactions": [], "display_phone": "(469) 726-2211"}, {"rating": 4.5, "is_closed": false, "distance": 5647.0855463, "name": "Aca Las Tortas", "id": "aca-las-tortas-dallas-2", "image_url": "https://s3-media1.fl.yelpcdn.com/bphoto/5nVomWQo8iErPtkr-Zcd8g/o.jpg", "url": "https://www.yelp.com/biz/aca-las-tortas-dallas-2?adjust_creative=gBcvfFpabk3CnzmXKdYe3w&utm_campaign=yelp_api_v3&utm_medium=api_v3_business_search&utm_source=gBcvfFpabk3CnzmXKdYe3w", "phone": "+14697303141", "coordinates": {"longitude": -96.771339, "latitude": 32.794579}, "categories": [{"alias": "mexican", "title": "Mexican"}], "review_count": 20, "location": {"city": "Dallas", "address1": "4420 Worth St", "address3": "", "address2": "", "zip_code": "75246", "country": "US", "display_address": ["4420 Worth St", "Dallas, TX 75246"], "state": "TX"}, "price": "$", "transactions": [], "display_phone": "(469) 730-3141"}, {"rating": 4.0, "is_closed": false, "distance": 5739.354963057999, "name": "Tortaco Meson Mezcal", "id": "tortaco-meson-mezcal-dallas", "image_url": "https://s3-media2.fl.yelpcdn.com/bphoto/v-p2BUuv2CkzZ6IeKRJN4w/o.jpg", "url": "https://www.yelp.com/biz/tortaco-meson-mezcal-dallas?adjust_creative=gBcvfFpabk3CnzmXKdYe3w&utm_campaign=yelp_api_v3&utm_medium=api_v3_business_search&utm_source=gBcvfFpabk3CnzmXKdYe3w", "phone": "+14699987342", "coordinates": {"longitude": -96.79765, "latitude": 32.78751}, "categories": [{"alias": "mexican", "title": "Mexican"}, {"alias": "breakfast_brunch", "title": "Breakfast & Brunch"}, {"alias": "bars", "title": "Bars"}], "review_count": 57, "location": {"city": "Dallas", "address1": "2100 Ross Ave", "address3": null, "address2": "Ste 100", "zip_code": "75201", "country": "US", "display_address": ["2100 Ross Ave", "Ste 100", "Dallas, TX 75201"], "state": "TX"}, "price": "$$", "transactions": [], "display_phone": "(469) 998-7342"}, {"rating": 4.0, "is_closed": false, "distance": 11061.24004902, "name": "The Lodge", "id": "the-lodge-dallas", "image_url": "https://s3-media1.fl.yelpcdn.com/bphoto/2hLqd978WrAUpDc5288bvw/o.jpg", "url": "https://www.yelp.com/biz/the-lodge-dallas?adjust_creative=gBcvfFpabk3CnzmXKdYe3w&utm_campaign=yelp_api_v3&utm_medium=api_v3_business_search&utm_source=gBcvfFpabk3CnzmXKdYe3w", "phone": "+19725069229", "coordinates": {"longitude": -96.9129618, "latitude": 32.8702796}, "categories": [{"alias": "adultentertainment", "title": "Adult Entertainment"}, {"alias": "newamerican", "title": "American (New)"}], "review_count": 69, "location": {"city": "Dallas", "address1": "10530 Spangler Rd", "address3": "", "address2": "", "zip_code": "75220", "country": "US", "display_address": ["10530 Spangler Rd", "Dallas, TX 75220"], "state": "TX"}, "price": "$$", "transactions": [], "display_phone": "(972) 506-9229"}, {"rating": 3.5, "is_closed": false, "distance": 7090.251535259999, "name": "Pizza Lounge", "id": "pizza-lounge-dallas", "image_url": "https://s3-media1.fl.yelpcdn.com/bphoto/ZvFyJict4S4FAM6u4d5cHA/o.jpg", "url": "https://www.yelp.com/biz/pizza-lounge-dallas?adjust_creative=gBcvfFpabk3CnzmXKdYe3w&utm_campaign=yelp_api_v3&utm_medium=api_v3_business_search&utm_source=gBcvfFpabk3CnzmXKdYe3w", "phone": "+12148876900", "coordinates": {"longitude": -96.7666027, "latitude": 32.7820139}, "categories": [{"alias": "pizza", "title": "Pizza"}], "review_count": 272, "location": {"city": "Dallas", "address1": "841 Exposition Ave", "address3": "", "address2": "", "zip_code": "75226", "country": "US", "display_address": ["841 Exposition Ave", "Dallas, TX 75226"], "state": "TX"}, "price": "$$", "transactions": [], "display_phone": "(214) 887-6900"}, {"rating": 3.5, "is_closed": false, "distance": 6624.310590439999, "name": "Lake House Bar and Grill", "id": "lake-house-bar-and-grill-dallas", "image_url": "https://s3-media1.fl.yelpcdn.com/bphoto/N1mAgCP4jpxU0h5u3tTbaw/o.jpg", "url": "https://www.yelp.com/biz/lake-house-bar-and-grill-dallas?adjust_creative=gBcvfFpabk3CnzmXKdYe3w&utm_campaign=yelp_api_v3&utm_medium=api_v3_business_search&utm_source=gBcvfFpabk3CnzmXKdYe3w", "phone": "+12144848624", "coordinates": {"longitude": -96.7323111, "latitude": 32.8552717}, "categories": [{"alias": "newamerican", "title": "American (New)"}, {"alias": "desserts", "title": "Desserts"}, {"alias": "seafood", "title": "Seafood"}], "review_count": 147, "location": {"city": "Dallas", "address1": "7510 E Nw Hwy", "address3": "", "address2": "", "zip_code": "75214", "country": "US", "display_address": ["7510 E Nw Hwy", "Dallas, TX 75214"], "state": "TX"}, "price": "$$", "transactions": [], "display_phone": "(214) 484-8624"}, {"rating": 3.0, "is_closed": false, "distance": 3448.22499222, "name": "Sushi Axiom - Dallas", "id": "sushi-axiom-dallas-dallas", "image_url": "https://s3-media4.fl.yelpcdn.com/bphoto/v_lzdu1y8s1TVAgFry5Tsg/o.jpg", "url": "https://www.yelp.com/biz/sushi-axiom-dallas-dallas?adjust_creative=gBcvfFpabk3CnzmXKdYe3w&utm_campaign=yelp_api_v3&utm_medium=api_v3_business_search&utm_source=gBcvfFpabk3CnzmXKdYe3w", "phone": "+12148282288", "coordinates": {"longitude": -96.778469, "latitude": 32.81419}, "categories": [{"alias": "sushi", "title": "Sushi Bars"}, {"alias": "japanese", "title": "Japanese"}, {"alias": "desserts", "title": "Desserts"}], "review_count": 277, "location": {"city": "Dallas", "address1": "2323 N Henderson Ave", "address3": "", "address2": "", "zip_code": "75206", "country": "US", "display_address": ["2323 N Henderson Ave", "Dallas, TX 75206"], "state": "TX"}, "price": "$$", "transactions": [], "display_phone": "(214) 828-2288"}, {"rating": 3.5, "is_closed": false, "distance": 6230.539049514, "name": "Cafe Brazil", "id": "cafe-brazil-dallas-9", "image_url": "https://s3-media1.fl.yelpcdn.com/bphoto/5q2nHvirnH8Wo_npj4f76g/o.jpg", "url": "https://www.yelp.com/biz/cafe-brazil-dallas-9?adjust_creative=gBcvfFpabk3CnzmXKdYe3w&utm_campaign=yelp_api_v3&utm_medium=api_v3_business_search&utm_source=gBcvfFpabk3CnzmXKdYe3w", "phone": "+12147472730", "coordinates": {"longitude": -96.7829031, "latitude": 32.7849484}, "categories": [{"alias": "sandwiches", "title": "Sandwiches"}, {"alias": "coffee", "title": "Coffee & Tea"}, {"alias": "soup", "title": "Soup"}], "review_count": 200, "location": {"city": "Dallas", "address1": "2815 Elm St", "address3": "", "address2": "", "zip_code": "75226", "country": "US", "display_address": ["2815 Elm St", "Dallas, TX 75226"], "state": "TX"}, "price": "$", "transactions": [], "display_phone": "(214) 747-2730"}, {"rating": 3.5, "is_closed": false, "distance": 3535.38282327, "name": "Uptown Pub", "id": "uptown-pub-dallas-2", "image_url": "https://s3-media2.fl.yelpcdn.com/bphoto/Br-8Pw67LAvGj37vyWD-lA/o.jpg", "url": "https://www.yelp.com/biz/uptown-pub-dallas-2?adjust_creative=gBcvfFpabk3CnzmXKdYe3w&utm_campaign=yelp_api_v3&utm_medium=api_v3_business_search&utm_source=gBcvfFpabk3CnzmXKdYe3w", "phone": "+12145225100", "coordinates": {"longitude": -96.79769, "latitude": 32.80742}, "categories": [{"alias": "pubs", "title": "Pubs"}, {"alias": "burgers", "title": "Burgers"}, {"alias": "karaoke", "title": "Karaoke"}], "review_count": 101, "location": {"city": "Dallas", "address1": "3605 McKinney Ave", "address3": "", "address2": "", "zip_code": "75204", "country": "US", "display_address": ["3605 McKinney Ave", "Dallas, TX 75204"], "state": "TX"}, "price": "$", "transactions": [], "display_phone": "(214) 522-5100"}, {"rating": 4.0, "is_closed": false, "distance": 10267.137458262, "name": "Cretia's Eatery & Bake Shoppe", "id": "cretias-eatery-and-bake-shoppe-dallas-4", "image_url": "https://s3-media4.fl.yelpcdn.com/bphoto/trvUWwfWeDRJelvN4u8GAQ/o.jpg", "url": "https://www.yelp.com/biz/cretias-eatery-and-bake-shoppe-dallas-4?adjust_creative=gBcvfFpabk3CnzmXKdYe3w&utm_campaign=yelp_api_v3&utm_medium=api_v3_business_search&utm_source=gBcvfFpabk3CnzmXKdYe3w", "phone": "+12149429887", "coordinates": {"longitude": -96.825819, "latitude": 32.7491879}, "categories": [{"alias": "bakeries", "title": "Bakeries"}, {"alias": "desserts", "title": "Desserts"}, {"alias": "sandwiches", "title": "Sandwiches"}], "review_count": 102, "location": {"city": "Dallas", "address1": "228 W Davis St", "address3": "", "address2": "", "zip_code": "75208", "country": "US", "display_address": ["228 W Davis St", "Dallas, TX 75208"], "state": "TX"}, "price": "$$", "transactions": [], "display_phone": "(214) 942-9887"}, {"rating": 3.5, "is_closed": false, "distance": 5516.920356826, "name": "Savor Gastropub", "id": "savor-gastropub-dallas-2", "image_url": "https://s3-media4.fl.yelpcdn.com/bphoto/4BxwZvGMTYRQ2YdxB4JVVQ/o.jpg", "url": "https://www.yelp.com/biz/savor-gastropub-dallas-2?adjust_creative=gBcvfFpabk3CnzmXKdYe3w&utm_campaign=yelp_api_v3&utm_medium=api_v3_business_search&utm_source=gBcvfFpabk3CnzmXKdYe3w", "phone": "+12143065597", "coordinates": {"longitude": -96.8018543625621, "latitude": 32.7894393370082}, "categories": [{"alias": "gastropubs", "title": "Gastropubs"}], "review_count": 413, "location": {"city": "Dallas", "address1": "2000 Woodall Rodgers Fwy", "address3": "", "address2": "", "zip_code": "75201", "country": "US", "display_address": ["2000 Woodall Rodgers Fwy", "Dallas, TX 75201"], "state": "TX"}, "price": "$$", "transactions": [], "display_phone": "(214) 306-5597"}, {"rating": 4.0, "is_closed": false, "distance": 11154.722747204, "name": "La Calle Doce", "id": "la-calle-doce-dallas-2", "image_url": "https://s3-media2.fl.yelpcdn.com/bphoto/Vmdm6mEw0AZvxWGxHiuWzQ/o.jpg", "url": "https://www.yelp.com/biz/la-calle-doce-dallas-2?adjust_creative=gBcvfFpabk3CnzmXKdYe3w&utm_campaign=yelp_api_v3&utm_medium=api_v3_business_search&utm_source=gBcvfFpabk3CnzmXKdYe3w", "phone": "+12149414304", "coordinates": {"longitude": -96.82898, "latitude": 32.7416}, "categories": [{"alias": "seafood", "title": "Seafood"}, {"alias": "mexican", "title": "Mexican"}, {"alias": "tex-mex", "title": "Tex-Mex"}], "review_count": 190, "location": {"city": "Dallas", "address1": "415 W 12th St", "address3": "", "address2": "", "zip_code": "75208", "country": "US", "display_address": ["415 W 12th St", "Dallas, TX 75208"], "state": "TX"}, "price": "$$", "transactions": [], "display_phone": "(214) 941-4304"}, {"rating": 4.0, "is_closed": false, "distance": 12244.581313659999, "name": "Torchy's Tacos", "id": "torchys-tacos-dallas-4", "image_url": "https://s3-media3.fl.yelpcdn.com/bphoto/cFSIofwyNtbPZhz21nHiDw/o.jpg", "url": "https://www.yelp.com/biz/torchys-tacos-dallas-4?adjust_creative=gBcvfFpabk3CnzmXKdYe3w&utm_campaign=yelp_api_v3&utm_medium=api_v3_business_search&utm_source=gBcvfFpabk3CnzmXKdYe3w", "phone": "+12143791550", "coordinates": {"longitude": -96.8029406091232, "latitude": 32.9491425500229}, "categories": [{"alias": "mexican", "title": "Mexican"}, {"alias": "tex-mex", "title": "Tex-Mex"}, {"alias": "breakfast_brunch", "title": "Breakfast & Brunch"}], "review_count": 399, "location": {"city": "Dallas", "address1": "14760 Preston Rd", "address3": "", "address2": "Ste 124", "zip_code": "75254", "country": "US", "display_address": ["14760 Preston Rd", "Ste 124", "Dallas, TX 75254"], "state": "TX"}, "price": "$", "transactions": [], "display_phone": "(214) 379-1550"}, {"rating": 3.5, "is_closed": false, "distance": 6055.109241331999, "name": "Brother's Pizza", "id": "brothers-pizza-dallas-2", "image_url": "https://s3-media3.fl.yelpcdn.com/bphoto/WBhmfDrB-erj2M_VCOw_qA/o.jpg", "url": "https://www.yelp.com/biz/brothers-pizza-dallas-2?adjust_creative=gBcvfFpabk3CnzmXKdYe3w&utm_campaign=yelp_api_v3&utm_medium=api_v3_business_search&utm_source=gBcvfFpabk3CnzmXKdYe3w", "phone": "+12143682821", "coordinates": {"longitude": -96.771827, "latitude": 32.887868}, "categories": [{"alias": "pizza", "title": "Pizza"}], "review_count": 42, "location": {"city": "Dallas", "address1": "10455 N Central Expy", "address3": "", "address2": "Ste 104", "zip_code": "75231", "country": "US", "display_address": ["10455 N Central Expy", "Ste 104", "Dallas, TX 75231"], "state": "TX"}, "price": "$", "transactions": ["pickup"], "display_phone": "(214) 368-2821"}]}