{"total": 32252, "region": {"center": {"longitude": -96.800537109375, "latitude": 32.839043482398054}}, "businesses": [{"rating": 4.0, "is_closed": false, "distance": 1737.64141282, "name": "Burger House", "id": "burger-house-dallas-6", "image_url": "https://s3-media2.fl.yelpcdn.com/bphoto/vVJeM150dCXZAFuQUY5ECQ/o.jpg", "url": "https://www.yelp.com/biz/burger-house-dallas-6?adjust_creative=gBcvfFpabk3CnzmXKdYe3w&utm_campaign=yelp_api_v3&utm_medium=api_v3_business_search&utm_source=gBcvfFpabk3CnzmXKdYe3w", "phone": "+12143610370", "coordinates": {"longitude": -96.787133, "latitude": 32.849875}, "categories": [{"alias": "burgers", "title": "Burgers"}], "review_count": 93, "location": {"city": "Dallas", "address1": "6913 Hillcrest Ave", "address3": "", "address2": "", "zip_code": "75205", "country": "US", "display_address": ["6913 Hillcrest Ave", "Dallas, TX 75205"], "state": "TX"}, "price": "$", "transactions": [], "display_phone": "(214) 361-0370"}, {"rating": 3.5, "is_closed": false, "distance": 4886.166580738, "name": "Vietnam Restaurant", "id": "vietnam-restaurant-dallas", "image_url": "https://s3-media2.fl.yelpcdn.com/bphoto/t3FkdsLkyngXpHW-K42buQ/o.jpg", "url": "https://www.yelp.com/biz/vietnam-restaurant-dallas?adjust_creative=gBcvfFpabk3CnzmXKdYe3w&utm_campaign=yelp_api_v3&utm_medium=api_v3_business_search&utm_source=gBcvfFpabk3CnzmXKdYe3w", "phone": "+12148214542", "coordinates": {"longitude": -96.778907, "latitude": 32.79877}, "categories": [{"alias": "vietnamese", "title": "Vietnamese"}, {"alias": "buffets", "title": "Buffets"}, {"alias": "bars", "title": "Bars"}], "review_count": 323, "location": {"city": "Dallas", "address1": "4302 Bryan St", "address3": "", "address2": "", "zip_code": "75204", "country": "US", "display_address": ["4302 Bryan St", "Dallas, TX 75204"], "state": "TX"}, "price": "$", "transactions": ["delivery", "pickup"], "display_phone": "(214) 821-4542"}, {"rating": 3.5, "is_closed": false, "distance": 4304.111593984, "name": "Katy Trail Ice House", "id": "katy-trail-ice-house-dallas-3", "image_url": "https://s3-media2.fl.yelpcdn.com/bphoto/ettKIYYOqZRMrqJFqV6nEA/o.jpg", "url": "https://www.yelp.com/biz/katy-trail-ice-house-dallas-3?adjust_creative=gBcvfFpabk3CnzmXKdYe3w&utm_campaign=yelp_api_v3&utm_medium=api_v3_business_search&utm_source=gBcvfFpabk3CnzmXKdYe3w", "phone": "+12144680600", "coordinates": {"longitude": -96.807568415719, "latitude": 32.800788376894}, "categories": [{"alias": "bars", "title": "Bars"}, {"alias": "tradamerican", "title": "American (Traditional)"}, {"alias": "beergardens", "title": "Beer Gardens"}], "review_count": 507, "location": {"city": "Dallas", "address1": "3127 Routh St", "address3": "", "address2": "", "zip_code": "75201", "country": "US", "display_address": ["3127 Routh St", "Dallas, TX 75201"], "state": "TX"}, "price": "$$", "transactions": [], "display_phone": "(214) 468-0600"}, {"rating": 4.5, "is_closed": false, "distance": 8162.689157149999, "name": "European In Texas Market & Deli", "id": "european-in-texas-market-and-deli-dallas-2", "image_url": "https://s3-media2.fl.yelpcdn.com/bphoto/f6M_h5nSJsCdBFwh_X_DwA/o.jpg", "url": "https://www.yelp.com/biz/european-in-texas-market-and-deli-dallas-2?adjust_creative=gBcvfFpabk3CnzmXKdYe3w&utm_campaign=yelp_api_v3&utm_medium=api_v3_business_search&utm_source=gBcvfFpabk3CnzmXKdYe3w", "phone": "+12146965441", "coordinates": {"longitude": -96.77039, "latitude": 32.90813}, "categories": [{"alias": "delis", "title": "Delis"}, {"alias": "polish", "title": "Polish"}], "review_count": 38, "location": {"city": "Dallas", "address1": "11613 N Central Expy", "address3": "", "address2": "Ste 111A", "zip_code": "75243", "country": "US", "display_address": ["11613 N Central Expy", "Ste 111A", "Dallas, TX 75243"], "state": "TX"}, "price": "$", "transactions": [], "display_phone": "(214) 696-5441"}, {"rating": 4.5, "is_closed": false, "distance": 9265.858252877999, "name": "Flaming Cheese Saganaki", "id": "flaming-cheese-saganaki-dallas", "image_url": "https://s3-media1.fl.yelpcdn.com/bphoto/LXG5w9AhlMAUXzHRoVtDoA/o.jpg", "url": "https://www.yelp.com/biz/flaming-cheese-saganaki-dallas?adjust_creative=gBcvfFpabk3CnzmXKdYe3w&utm_campaign=yelp_api_v3&utm_medium=api_v3_business_search&utm_source=gBcvfFpabk3CnzmXKdYe3w", "phone": "+12146471620", "coordinates": {"longitude": -96.74799, "latitude": 32.91002}, "categories": [{"alias": "greek", "title": "Greek"}, {"alias": "sandwiches", "title": "Sandwiches"}], "review_count": 117, "location": {"city": "Dallas", "address1": "9025 Forest Ln", "address3": "", "address2": "", "zip_code": "75243", "country": "US", "display_address": ["9025 Forest Ln", "Dallas, TX 75243"], "state": "TX"}, "price": "$$", "transactions": [], "display_phone": "(214) 647-1620"}, {"rating": 4.0, "is_closed": false, "distance": 3672.5864612339997, "name": "Ichiro Ramen Shop", "id": "ichiro-ramen-shop-dallas", "image_url": "https://s3-media2.fl.yelpcdn.com/bphoto/kW9ZauJ9x-L4hUH_R11m_w/o.jpg", "url": "https://www.yelp.com/biz/ichiro-ramen-shop-dallas?adjust_creative=gBcvfFpabk3CnzmXKdYe3w&utm_campaign=yelp_api_v3&utm_medium=api_v3_business_search&utm_source=gBcvfFpabk3CnzmXKdYe3w", "phone": "+12146436602", "coordinates": {"longitude": -96.82769, "latitude": 32.815181}, "categories": [{"alias": "ramen", "title": "Ramen"}], "review_count": 132, "location": {"city": "Dallas", "address1": "4906 Maple Ave", "address3": null, "address2": "", "zip_code": "75235", "country": "US", "display_address": ["4906 Maple Ave", "Dallas, TX 75235"], "state": "TX"}, "price": "$$", "transactions": [], "display_phone": "(214) 643-6602"}, {"rating": 4.0, "is_closed": false, "distance": 2305.0135860839996, "name": "Fireside Pies", "id": "fireside-pies-dallas-3", "image_url": "https://s3-media1.fl.yelpcdn.com/bphoto/ODk30ZhNvsN6-z_wD9XRDw/o.jpg", "url": "https://www.yelp.com/biz/fireside-pies-dallas-3?adjust_creative=gBcvfFpabk3CnzmXKdYe3w&utm_campaign=yelp_api_v3&utm_medium=api_v3_business_search&utm_source=gBcvfFpabk3CnzmXKdYe3w", "phone": "+12143573800", "coordinates": {"longitude": -96.8216454678137, "latitude": 32.8497725931939}, "categories": [{"alias": "pizza", "title": "Pizza"}, {"alias": "italian", "title": "Italian"}, {"alias": "cocktailbars", "title": "Cocktail Bars"}], "review_count": 104, "location": {"city": "Dallas", "address1": "7709 Inwood Rd", "address3": "", "address2": "", "zip_code": "75209", "country": "US", "display_address": ["7709 Inwood Rd", "Dallas, TX 75209"], "state": "TX"}, "price": "$$", "transactions": [], "display_phone": "(214) 357-3800"}, {"rating": 4.0, "is_closed": false, "distance": 6348.0311692899995, "name": "Maracas Cocina Mexicana", "id": "maracas-cocina-mexicana-dallas-2", "image_url": "https://s3-media3.fl.yelpcdn.com/bphoto/8UYwK2_-rFywWUUAQjvTAw/o.jpg", "url": "https://www.yelp.com/biz/maracas-cocina-mexicana-dallas-2?adjust_creative=gBcvfFpabk3CnzmXKdYe3w&utm_campaign=yelp_api_v3&utm_medium=api_v3_business_search&utm_source=gBcvfFpabk3CnzmXKdYe3w", "phone": "+12147487140", "coordinates": {"longitude": -96.7814712524414, "latitude": 32.7842483520508}, "categories": [{"alias": "mexican", "title": "Mexican"}], "review_count": 187, "location": {"city": "Dallas", "address1": "2914 Main St", "address3": "", "address2": "", "zip_code": "75226", "country": "US", "display_address": ["2914 Main St", "Dallas, TX 75226"], "state": "TX"}, "price": "$$", "transactions": ["pickup", "delivery"], "display_phone": "(214) 748-7140"}, {"rating": 4.0, "is_closed": false, "distance": 3357.424741948, "name": "Thai Lotus Kitchen", "id": "thai-lotus-kitchen-dallas", "image_url": "https://s3-media2.fl.yelpcdn.com/bphoto/UQlmxn_oGvFSmm_Gdzkphw/o.jpg", "url": "https://www.yelp.com/biz/thai-lotus-kitchen-dallas?adjust_creative=gBcvfFpabk3CnzmXKdYe3w&utm_campaign=yelp_api_v3&utm_medium=api_v3_business_search&utm_source=gBcvfFpabk3CnzmXKdYe3w", "phone": "+12145209385", "coordinates": {"longitude": -96.8103790283203, "latitude": 32.8099822998047}, "categories": [{"alias": "thai", "title": "Thai"}], "review_count": 153, "location": {"city": "Dallas", "address1": "3851 Cedar Springs Rd", "address3": "", "address2": "Ste D", "zip_code": "75219", "country": "US", "display_address": ["3851 Cedar Springs Rd", "Ste D", "Dallas, TX 75219"], "state": "TX"}, "price": "$$", "transactions": ["delivery", "pickup"], "display_phone": "(214) 520-9385"}, {"rating": 3.5, "is_closed": false, "distance": 2756.697870646, "name": "Miss Chi Vietnamese", "id": "miss-chi-vietnamese-dallas", "image_url": "https://s3-media1.fl.yelpcdn.com/bphoto/LR5V72YVCWo41BIn_9izUQ/o.jpg", "url": "https://www.yelp.com/biz/miss-chi-vietnamese-dallas?adjust_creative=gBcvfFpabk3CnzmXKdYe3w&utm_campaign=yelp_api_v3&utm_medium=api_v3_business_search&utm_source=gBcvfFpabk3CnzmXKdYe3w", "phone": "+12146921000", "coordinates": {"longitude": -96.806982, "latitude": 32.8632347}, "categories": [{"alias": "vietnamese", "title": "Vietnamese"}, {"alias": "cocktailbars", "title": "Cocktail Bars"}, {"alias": "gluten_free", "title": "Gluten-Free"}], "review_count": 144, "location": {"city": "Dallas", "address1": "6030 Luther Ln", "address3": "", "address2": "Ste 130", "zip_code": "75225", "country": "US", "display_address": ["6030 Luther Ln", "Ste 130", "Dallas, TX 75225"], "state": "TX"}, "price": "$$", "transactions": ["delivery"], "display_phone": "(214) 692-1000"}, {"rating": 3.5, "is_closed": false, "distance": 2696.62780674, "name": "Ming Place China Bistro", "id": "ming-place-china-bistro-dallas", "image_url": "https://s3-media2.fl.yelpcdn.com/bphoto/9ob5TSeFuFcrH_BZM9mTHw/o.jpg", "url": "https://www.yelp.com/biz/ming-place-china-bistro-dallas?adjust_creative=gBcvfFpabk3CnzmXKdYe3w&utm_campaign=yelp_api_v3&utm_medium=api_v3_business_search&utm_source=gBcvfFpabk3CnzmXKdYe3w", "phone": "+12143508188", "coordinates": {"longitude": -96.82728, "latitude": 32.82997}, "categories": [{"alias": "chinese", "title": "Chinese"}], "review_count": 195, "location": {"city": "Dallas", "address1": "5715 Lemmon Ave", "address3": "", "address2": "Ste 3", "zip_code": "75209", "country": "US", "display_address": ["5715 Lemmon Ave", "Ste 3", "Dallas, TX 75209"], "state": "TX"}, "price": "$$", "transactions": ["delivery", "pickup"], "display_phone": "(214) 350-8188"}, {"rating": 4.0, "is_closed": false, "distance": 6034.8157857999995, "name": "Power House Deli", "id": "power-house-deli-dallas", "image_url": "https://s3-media2.fl.yelpcdn.com/bphoto/5LokxLpwR3eI4G6ryfFdFA/o.jpg", "url": "https://www.yelp.com/biz/power-house-deli-dallas?adjust_creative=gBcvfFpabk3CnzmXKdYe3w&utm_campaign=yelp_api_v3&utm_medium=api_v3_business_search&utm_source=gBcvfFpabk3CnzmXKdYe3w", "phone": "+19725603883", "coordinates": {"longitude": -96.8008776638279, "latitude": 32.7847715786524}, "categories": [{"alias": "delis", "title": "Delis"}, {"alias": "sandwiches", "title": "Sandwiches"}], "review_count": 31, "location": {"city": "Dallas", "address1": "601 N Akard St", "address3": "", "address2": "", "zip_code": "75201", "country": "US", "display_address": ["601 N Akard St", "Dallas, TX 75201"], "state": "TX"}, "price": "$", "transactions": [], "display_phone": "(972) 560-3883"}, {"rating": 4.0, "is_closed": false, "distance": 6748.61601204, "name": "Green Door Public House", "id": "green-door-public-house-dallas", "image_url": "https://s3-media2.fl.yelpcdn.com/bphoto/zyqUS14HVzpKVbaX-pK6vg/o.jpg", "url": "https://www.yelp.com/biz/green-door-public-house-dallas?adjust_creative=gBcvfFpabk3CnzmXKdYe3w&utm_campaign=yelp_api_v3&utm_medium=api_v3_business_search&utm_source=gBcvfFpabk3CnzmXKdYe3w", "phone": "+12147490240", "coordinates": {"longitude": -96.79187, "latitude": 32.7787999}, "categories": [{"alias": "bars", "title": "Bars"}, {"alias": "tradamerican", "title": "American (Traditional)"}], "review_count": 142, "location": {"city": "Dallas", "address1": "600 S Harwood St", "address3": "", "address2": "", "zip_code": "75201", "country": "US", "display_address": ["600 S Harwood St", "Dallas, TX 75201"], "state": "TX"}, "price": "$$", "transactions": [], "display_phone": "(214) 749-0240"}, {"rating": 4.5, "is_closed": false, "distance": 11663.354654204, "name": "House of Cigars", "id": "house-of-cigars-dallas", "image_url": "https://s3-media2.fl.yelpcdn.com/bphoto/N4ZdrTmX1eTetQoJFWgcNA/o.jpg", "url": "https://www.yelp.com/biz/house-of-cigars-dallas?adjust_creative=gBcvfFpabk3CnzmXKdYe3w&utm_campaign=yelp_api_v3&utm_medium=api_v3_business_search&utm_source=gBcvfFpabk3CnzmXKdYe3w", "phone": "+18775435013", "coordinates": {"longitude": -96.8395004, "latitude": 32.9388199}, "categories": [{"alias": "tobaccoshops", "title": "Tobacco Shops"}, {"alias": "lounges", "title": "Lounges"}], "review_count": 56, "location": {"city": "Dallas", "address1": "13901 Midway Rd", "address3": "", "address2": "Ste 110", "zip_code": "75244", "country": "US", "display_address": ["13901 Midway Rd", "Ste 110", "Dallas, TX 75244"], "state": "TX"}, "price": "$$", "transactions": [], "display_phone": "(877) 543-5013"}, {"rating": 4.0, "is_closed": false, "distance": 8372.57364726, "name": "Ten Ramen", "id": "ten-ramen-dallas", "image_url": "https://s3-media2.fl.yelpcdn.com/bphoto/iaZEydnGcLmsxyGPvqhV_g/o.jpg", "url": "https://www.yelp.com/biz/ten-ramen-dallas?adjust_creative=gBcvfFpabk3CnzmXKdYe3w&utm_campaign=yelp_api_v3&utm_medium=api_v3_business_search&utm_source=gBcvfFpabk3CnzmXKdYe3w", "phone": "+19728034400", "coordinates": {"longitude": -96.8356946788991, "latitude": 32.7697886088857}, "categories": [{"alias": "ramen", "title": "Ramen"}], "review_count": 377, "location": {"city": "Dallas", "address1": "1888 Sylvan Ave", "address3": "Ste F 100", "address2": "", "zip_code": "75208", "country": "US", "display_address": ["1888 Sylvan Ave", "Ste F 100", "Dallas, TX 75208"], "state": "TX"}, "price": "$$", "transactions": [], "display_phone": "(972) 803-4400"}, {"rating": 4.5, "is_closed": false, "distance": 12764.47055396, "name": "Roman Cucina", "id": "roman-cucina-dallas", "image_url": "https://s3-media3.fl.yelpcdn.com/bphoto/jGz_vzogi2KMmZ4bIzdleg/o.jpg", "url": "https://www.yelp.com/biz/roman-cucina-dallas?adjust_creative=gBcvfFpabk3CnzmXKdYe3w&utm_campaign=yelp_api_v3&utm_medium=api_v3_business_search&utm_source=gBcvfFpabk3CnzmXKdYe3w", "phone": "+19727169950", "coordinates": {"longitude": -96.7708798988525, "latitude": 32.9511035027499}, "categories": [{"alias": "italian", "title": "Italian"}, {"alias": "cocktailbars", "title": "Cocktail Bars"}], "review_count": 326, "location": {"city": "Dallas", "address1": "7989 Belt Line Rd", "address3": "", "address2": "Ste 315", "zip_code": "75248", "country": "US", "display_address": ["7989 Belt Line Rd", "Ste 315", "Dallas, TX 75248"], "state": "TX"}, "price": "$$", "transactions": [], "display_phone": "(972) 716-9950"}, {"rating": 4.0, "is_closed": false, "distance": 10684.3680265, "name": "Koryo Kalbi Korean BBQ", "id": "koryo-kalbi-korean-bbq-dallas", "image_url": "https://s3-media2.fl.yelpcdn.com/bphoto/9jt_JxpX4vuwTNyvmJ0jhg/o.jpg", "url": "https://www.yelp.com/biz/koryo-kalbi-korean-bbq-dallas?adjust_creative=gBcvfFpabk3CnzmXKdYe3w&utm_campaign=yelp_api_v3&utm_medium=api_v3_business_search&utm_source=gBcvfFpabk3CnzmXKdYe3w", "phone": "+19724060087", "coordinates": {"longitude": -96.89317, "latitude": 32.89551}, "categories": [{"alias": "korean", "title": "Korean"}], "review_count": 564, "location": {"city": "Dallas", "address1": "2560 Royal Ln", "address3": "", "address2": "Ste 105", "zip_code": "75229", "country": "US", "display_address": ["2560 Royal Ln", "Ste 105", "Dallas, TX 75229"], "state": "TX"}, "price": "$$", "transactions": ["pickup"], "display_phone": "(972) 406-0087"}, {"rating": 4.0, "is_closed": false, "distance": 6358.8879378639995, "name": "TJ's Seafood Market & Grill", "id": "tjs-seafood-market-and-grill-dallas-2", "image_url": "https://s3-media2.fl.yelpcdn.com/bphoto/dV_4zT7uZq1fl30ojOxYsw/o.jpg", "url": "https://www.yelp.com/biz/tjs-seafood-market-and-grill-dallas-2?adjust_creative=gBcvfFpabk3CnzmXKdYe3w&utm_campaign=yelp_api_v3&utm_medium=api_v3_business_search&utm_source=gBcvfFpabk3CnzmXKdYe3w", "phone": "+12146912369", "coordinates": {"longitude": -96.8031701735413, "latitude": 32.8961879834968}, "categories": [{"alias": "seafood", "title": "Seafood"}, {"alias": "seafoodmarkets", "title": "Seafood Markets"}], "review_count": 101, "location": {"city": "Dallas", "address1": "6025 Royal Ln", "address3": "", "address2": "Ste 110", "zip_code": "75230", "country": "US", "display_address": ["6025 Royal Ln", "Ste 110", "Dallas, TX 75230"], "state": "TX"}, "price": "$$", "transactions": ["pickup"], "display_phone": "(214) 691-2369"}, {"rating": 3.5, "is_closed": false, "distance": 3291.3079048600002, "name": "Pho Is For Lovers", "id": "pho-is-for-lovers-dallas-2", "image_url": "https://s3-media3.fl.yelpcdn.com/bphoto/PpoHAvdHENjjuD7BshK6xw/o.jpg", "url": "https://www.yelp.com/biz/pho-is-for-lovers-dallas-2?adjust_creative=gBcvfFpabk3CnzmXKdYe3w&utm_campaign=yelp_api_v3&utm_medium=api_v3_business_search&utm_source=gBcvfFpabk3CnzmXKdYe3w", "phone": "+19727081028", "coordinates": {"longitude": -96.7695555835962, "latitude": 32.8532979637384}, "categories": [{"alias": "vietnamese", "title": "Vietnamese"}, {"alias": "korean", "title": "Korean"}, {"alias": "vegetarian", "title": "Vegetarian"}], "review_count": 367, "location": {"city": "Dallas", "address1": "5521 Greenville Ave", "address3": "", "address2": "Ste 105", "zip_code": "75206", "country": "US", "display_address": ["5521 Greenville Ave", "Ste 105", "Dallas, TX 75206"], "state": "TX"}, "price": "$", "transactions": [], "display_phone": "(972) 708-1028"}, {"rating": 4.5, "is_closed": false, "distance": 8815.534343418, "name": "Resident Taqueria", "id": "resident-taqueria-dallas-3", "image_url": "https://s3-media4.fl.yelpcdn.com/bphoto/bzDWxtgNxXUObPPXuOElqg/o.jpg", "url": "https://www.yelp.com/biz/resident-taqueria-dallas-3?adjust_creative=gBcvfFpabk3CnzmXKdYe3w&utm_campaign=yelp_api_v3&utm_medium=api_v3_business_search&utm_source=gBcvfFpabk3CnzmXKdYe3w", "phone": "+19726855280", "coordinates": {"longitude": -96.71856, "latitude": 32.87807}, "categories": [{"alias": "mexican", "title": "Mexican"}], "review_count": 130, "location": {"city": "Dallas", "address1": "9661 Audelia Rd", "address3": "", "address2": "Ste 112", "zip_code": "75238", "country": "US", "display_address": ["9661 Audelia Rd", "Ste 112", "Dallas, TX 75238"], "state": "TX"}, "price": "$", "transactions": [], "display_phone": "(972) 685-5280"}, {"rating": 4.0, "is_closed": false, "distance": 6428.110157416, "name": "St. Pete's Dancing Marlin", "id": "st-petes-dancing-marlin-dallas", "image_url": "https://s3-media3.fl.yelpcdn.com/bphoto/swh2fInFSjnmoic1Zo13Mg/o.jpg", "url": "https://www.yelp.com/biz/st-petes-dancing-marlin-dallas?adjust_creative=gBcvfFpabk3CnzmXKdYe3w&utm_campaign=yelp_api_v3&utm_medium=api_v3_business_search&utm_source=gBcvfFpabk3CnzmXKdYe3w", "phone": "+12146981511", "coordinates": {"longitude": -96.783356, "latitude": 32.783066}, "categories": [{"alias": "seafood", "title": "Seafood"}, {"alias": "newamerican", "title": "American (New)"}], "review_count": 150, "location": {"city": "Dallas", "address1": "2730 Commerce St", "address3": "", "address2": "", "zip_code": "75226", "country": "US", "display_address": ["2730 Commerce St", "Dallas, TX 75226"], "state": "TX"}, "price": "$$", "transactions": ["delivery"], "display_phone": "(214) 698-1511"}, {"rating": 3.5, "is_closed": false, "distance": 1829.1999840999997, "name": "Javier's Gourmet Mexicano", "id": "javiers-gourmet-mexicano-dallas", "image_url": "https://s3-media1.fl.yelpcdn.com/bphoto/lYf-uX87Z8loXEFluraQbQ/o.jpg", "url": "https://www.yelp.com/biz/javiers-gourmet-mexicano-dallas?adjust_creative=gBcvfFpabk3CnzmXKdYe3w&utm_campaign=yelp_api_v3&utm_medium=api_v3_business_search&utm_source=gBcvfFpabk3CnzmXKdYe3w", "phone": "+12145214211", "coordinates": {"longitude": -96.7860212089358, "latitude": 32.828006234608}, "categories": [{"alias": "mexican", "title": "Mexican"}], "review_count": 353, "location": {"city": "Dallas", "address1": "4912 Cole Ave", "address3": "", "address2": "", "zip_code": "75205", "country": "US", "display_address": ["4912 Cole Ave", "Dallas, TX 75205"], "state": "TX"}, "price": "$$$", "transactions": [], "display_phone": "(214) 521-4211"}, {"rating": 4.0, "is_closed": false, "distance": 5360.942319356, "name": "Lakewood Smokehouse", "id": "lakewood-smokehouse-dallas", "image_url": "https://s3-media1.fl.yelpcdn.com/bphoto/uz-M4Pa0XQljKLdM_LwuvA/o.jpg", "url": "https://www.yelp.com/biz/lakewood-smokehouse-dallas?adjust_creative=gBcvfFpabk3CnzmXKdYe3w&utm_campaign=yelp_api_v3&utm_medium=api_v3_business_search&utm_source=gBcvfFpabk3CnzmXKdYe3w", "phone": "+19726777906", "coordinates": {"longitude": -96.752144357729, "latitude": 32.8131436734495}, "categories": [{"alias": "cocktailbars", "title": "Cocktail Bars"}, {"alias": "bbq", "title": "Barbeque"}, {"alias": "smokehouse", "title": "Smokehouse"}], "review_count": 170, "location": {"city": "Dallas", "address1": "1901 Abrams Rd", "address3": "", "address2": "", "zip_code": "75214", "country": "US", "display_address": ["1901 Abrams Rd", "Dallas, TX 75214"], "state": "TX"}, "price": "$$", "transactions": [], "display_phone": "(972) 677-7906"}, {"rating": 4.0, "is_closed": false, "distance": 3473.6206992879997, "name": "P\u014dk The Raw Bar", "id": "p\u014dk-the-raw-bar-dallas", "image_url": "https://s3-media3.fl.yelpcdn.com/bphoto/YywmEdq6eHiGX9aFUgqBDw/o.jpg", "url": "https://www.yelp.com/biz/p%C5%8Dk-the-raw-bar-dallas?adjust_creative=gBcvfFpabk3CnzmXKdYe3w&utm_campaign=yelp_api_v3&utm_medium=api_v3_business_search&utm_source=gBcvfFpabk3CnzmXKdYe3w", "phone": "+12144841139", "coordinates": {"longitude": -96.7981356949012, "latitude": 32.8078684509002}, "categories": [{"alias": "japanese", "title": "Japanese"}, {"alias": "poke", "title": "Poke"}], "review_count": 144, "location": {"city": "Dallas", "address1": "3699 McKinney Ave", "address3": "", "address2": "Ste 306", "zip_code": "75204", "country": "US", "display_address": ["3699 McKinney Ave", "Ste 306", "Dallas, TX 75204"], "state": "TX"}, "price": "$$", "transactions": [], "display_phone": "(214) 484-1139"}, {"rating": 3.5, "is_closed": false, "distance": 2153.3949288060003, "name": "Wild About Harry's", "id": "wild-about-harrys-dallas-2", "image_url": "https://s3-media1.fl.yelpcdn.com/bphoto/bRxGusjaXHMJl4c6GmWudQ/o.jpg", "url": "https://www.yelp.com/biz/wild-about-harrys-dallas-2?adjust_creative=gBcvfFpabk3CnzmXKdYe3w&utm_campaign=yelp_api_v3&utm_medium=api_v3_business_search&utm_source=gBcvfFpabk3CnzmXKdYe3w", "phone": "+12145203113", "coordinates": {"longitude": -96.78777, "latitude": 32.82261}, "categories": [{"alias": "hotdog", "title": "Hot Dogs"}, {"alias": "icecream", "title": "Ice Cream & Frozen Yogurt"}], "review_count": 240, "location": {"city": "Dallas", "address1": "3113 Knox St", "address3": "", "address2": "", "zip_code": "75205", "country": "US", "display_address": ["3113 Knox St", "Dallas, TX 75205"], "state": "TX"}, "price": "$", "transactions": ["delivery"], "display_phone": "(214) 520-3113"}, {"rating": 4.0, "is_closed": false, "distance": 2297.2195524639997, "name": "The T Room", "id": "the-t-room-dallas", "image_url": "https://s3-media3.fl.yelpcdn.com/bphoto/_TWrDn-Br2qzBP1FkcOEog/o.jpg", "url": "https://www.yelp.com/biz/the-t-room-dallas?adjust_creative=gBcvfFpabk3CnzmXKdYe3w&utm_campaign=yelp_api_v3&utm_medium=api_v3_business_search&utm_source=gBcvfFpabk3CnzmXKdYe3w", "phone": "+12145592332", "coordinates": {"longitude": -96.787811, "latitude": 32.821239}, "categories": [{"alias": "cafes", "title": "Cafes"}], "review_count": 25, "location": {"city": "Dallas", "address1": "4510 McKinney Ave", "address3": "", "address2": "", "zip_code": "75205", "country": "US", "display_address": ["4510 McKinney Ave", "Dallas, TX 75205"], "state": "TX"}, "price": "$$", "transactions": [], "display_phone": "(214) 559-2332"}, {"rating": 4.0, "is_closed": false, "distance": 6499.40971304, "name": "Americano", "id": "americano-dallas", "image_url": "https://s3-media1.fl.yelpcdn.com/bphoto/ceXyC-a11BXEOw1Vng3bpA/o.jpg", "url": "https://www.yelp.com/biz/americano-dallas?adjust_creative=gBcvfFpabk3CnzmXKdYe3w&utm_campaign=yelp_api_v3&utm_medium=api_v3_business_search&utm_source=gBcvfFpabk3CnzmXKdYe3w", "phone": "+12142614600", "coordinates": {"longitude": -96.7984, "latitude": 32.780578}, "categories": [{"alias": "italian", "title": "Italian"}], "review_count": 112, "location": {"city": "Dallas", "address1": "1530 Main St", "address3": "", "address2": "", "zip_code": "75201", "country": "US", "display_address": ["1530 Main St", "Dallas, TX 75201"], "state": "TX"}, "price": "$$", "transactions": [], "display_phone": "(214) 261-4600"}, {"rating": 3.5, "is_closed": false, "distance": 6340.927059728, "name": "Royal China", "id": "royal-china-dallas", "image_url": "https://s3-media1.fl.yelpcdn.com/bphoto/mQ2i9_QB1ggE4dEnftpTiA/o.jpg", "url": "https://www.yelp.com/biz/royal-china-dallas?adjust_creative=gBcvfFpabk3CnzmXKdYe3w&utm_campaign=yelp_api_v3&utm_medium=api_v3_business_search&utm_source=gBcvfFpabk3CnzmXKdYe3w", "phone": "+12143611771", "coordinates": {"longitude": -96.8022708804692, "latitude": 32.896050718553}, "categories": [{"alias": "chinese", "title": "Chinese"}, {"alias": "gluten_free", "title": "Gluten-Free"}, {"alias": "chicken_wings", "title": "Chicken Wings"}], "review_count": 536, "location": {"city": "Dallas", "address1": "6025 Royal Ln", "address3": "", "address2": "Ste 201", "zip_code": "75230", "country": "US", "display_address": ["6025 Royal Ln", "Ste 201", "Dallas, TX 75230"], "state": "TX"}, "price": "$$", "transactions": ["pickup"], "display_phone": "(214) 361-1771"}, {"rating": 4.0, "is_closed": false, "distance": 4214.923902391999, "name": "Pho Kitchen", "id": "pho-kitchen-dallas", "image_url": "https://s3-media2.fl.yelpcdn.com/bphoto/MyY-v0O5Jo0sRtmlCYpAaQ/o.jpg", "url": "https://www.yelp.com/biz/pho-kitchen-dallas?adjust_creative=gBcvfFpabk3CnzmXKdYe3w&utm_campaign=yelp_api_v3&utm_medium=api_v3_business_search&utm_source=gBcvfFpabk3CnzmXKdYe3w", "phone": "+12147063595", "coordinates": {"longitude": -96.7735207761963, "latitude": 32.8694049917868}, "categories": [{"alias": "vietnamese", "title": "Vietnamese"}], "review_count": 77, "location": {"city": "Dallas", "address1": "8687 N Central Expy", "address3": "", "address2": "", "zip_code": "75225", "country": "US", "display_address": ["8687 N Central Expy", "Dallas, TX 75225"], "state": "TX"}, "price": "$", "transactions": [], "display_phone": "(214) 706-3595"}, {"rating": 4.0, "is_closed": false, "distance": 6281.97178564, "name": "Local", "id": "local-dallas", "image_url": "https://s3-media1.fl.yelpcdn.com/bphoto/3hLlqPczArghKbgNi_hfMw/o.jpg", "url": "https://www.yelp.com/biz/local-dallas?adjust_creative=gBcvfFpabk3CnzmXKdYe3w&utm_campaign=yelp_api_v3&utm_medium=api_v3_business_search&utm_source=gBcvfFpabk3CnzmXKdYe3w", "phone": "+12147527500", "coordinates": {"longitude": -96.781059, "latitude": 32.7849}, "categories": [{"alias": "newamerican", "title": "American (New)"}], "review_count": 211, "location": {"city": "Dallas", "address1": "2936 Elm St", "address3": "", "address2": null, "zip_code": "75226", "country": "US", "display_address": ["2936 Elm St", "Dallas, TX 75226"], "state": "TX"}, "price": "$$$", "transactions": [], "display_phone": "(214) 752-7500"}, {"rating": 4.0, "is_closed": false, "distance": 4810.652324588, "name": "The Grove at Harwood", "id": "the-grove-at-harwood-dallas", "image_url": "https://s3-media2.fl.yelpcdn.com/bphoto/G7H0XSIJyEegtf1jYuRbUg/o.jpg", "url": "https://www.yelp.com/biz/the-grove-at-harwood-dallas?adjust_creative=gBcvfFpabk3CnzmXKdYe3w&utm_campaign=yelp_api_v3&utm_medium=api_v3_business_search&utm_source=gBcvfFpabk3CnzmXKdYe3w", "phone": "+12146631001", "coordinates": {"longitude": -96.810356, "latitude": 32.796573}, "categories": [{"alias": "cocktailbars", "title": "Cocktail Bars"}, {"alias": "tradamerican", "title": "American (Traditional)"}], "review_count": 37, "location": {"city": "Dallas", "address1": "3019 McKinnon St", "address3": "", "address2": "", "zip_code": "75201", "country": "US", "display_address": ["3019 McKinnon St", "Dallas, TX 75201"], "state": "TX"}, "price": "$", "transactions": [], "display_phone": "(214) 663-1001"}, {"rating": 4.0, "is_closed": false, "distance": 6587.465877678, "name": "Spice In The City Dallas", "id": "spice-in-the-city-dallas-dallas", "image_url": "https://s3-media3.fl.yelpcdn.com/bphoto/QyUMxNVgy1Q_kehnRlaWGg/o.jpg", "url": "https://www.yelp.com/biz/spice-in-the-city-dallas-dallas?adjust_creative=gBcvfFpabk3CnzmXKdYe3w&utm_campaign=yelp_api_v3&utm_medium=api_v3_business_search&utm_source=gBcvfFpabk3CnzmXKdYe3w", "phone": "+14695540348", "coordinates": {"longitude": -96.79787, "latitude": 32.77989}, "categories": [{"alias": "indpak", "title": "Indian"}], "review_count": 167, "location": {"city": "Dallas", "address1": "1512 Commerce St", "address3": "", "address2": "Ste 101", "zip_code": "75201", "country": "US", "display_address": ["1512 Commerce St", "Ste 101", "Dallas, TX 75201"], "state": "TX"}, "price": "$$", "transactions": ["delivery", "pickup"], "display_phone": "(469) 554-0348"}, {"rating": 4.5, "is_closed": false, "distance": 10195.757918439998, "name": "Dylan's Barbeque Saloon", "id": "dylans-barbeque-saloon-dallas", "image_url": "https://s3-media1.fl.yelpcdn.com/bphoto/K7iDh5pP8DVpuTvkv7MDHQ/o.jpg", "url": "https://www.yelp.com/biz/dylans-barbeque-saloon-dallas?adjust_creative=gBcvfFpabk3CnzmXKdYe3w&utm_campaign=yelp_api_v3&utm_medium=api_v3_business_search&utm_source=gBcvfFpabk3CnzmXKdYe3w", "phone": "+14699065263", "coordinates": {"longitude": -96.9049135883606, "latitude": 32.8658564510732}, "categories": [{"alias": "bars", "title": "Bars"}, {"alias": "tradamerican", "title": "American (Traditional)"}, {"alias": "bbq", "title": "Barbeque"}], "review_count": 138, "location": {"city": "Dallas", "address1": "2110 W Northwest Hwy", "address3": "", "address2": "Ste B", "zip_code": "75220", "country": "US", "display_address": ["2110 W Northwest Hwy", "Ste B", "Dallas, TX 75220"], "state": "TX"}, "price": "$$", "transactions": ["pickup"], "display_phone": "(469) 906-5263"}, {"rating": 4.0, "is_closed": false, "distance": 8035.135282759999, "name": "Liberty Burger - Forest & Inwood", "id": "liberty-burger-forest-and-inwood-dallas", "image_url": "https://s3-media2.fl.yelpcdn.com/bphoto/HD9lSkHzA5rSBJmmGlsfOQ/o.jpg", "url": "https://www.yelp.com/biz/liberty-burger-forest-and-inwood-dallas?adjust_creative=gBcvfFpabk3CnzmXKdYe3w&utm_campaign=yelp_api_v3&utm_medium=api_v3_business_search&utm_source=gBcvfFpabk3CnzmXKdYe3w", "phone": "+19722392100", "coordinates": {"longitude": -96.8174795251312, "latitude": 32.9098874045586}, "categories": [{"alias": "burgers", "title": "Burgers"}], "review_count": 276, "location": {"city": "Dallas", "address1": "5211 Forest Ln", "address3": "", "address2": "", "zip_code": "75244", "country": "US", "display_address": ["5211 Forest Ln", "Dallas, TX 75244"], "state": "TX"}, "price": "$$", "transactions": [], "display_phone": "(972) 239-2100"}, {"rating": 4.0, "is_closed": false, "distance": 4635.7601969, "name": "Dickey's Barbecue Pit", "id": "dickeys-barbecue-pit-dallas-26", "image_url": "https://s3-media2.fl.yelpcdn.com/bphoto/Sd52VYr0GaSODoL04O1oZw/o.jpg", "url": "https://www.yelp.com/biz/dickeys-barbecue-pit-dallas-26?adjust_creative=gBcvfFpabk3CnzmXKdYe3w&utm_campaign=yelp_api_v3&utm_medium=api_v3_business_search&utm_source=gBcvfFpabk3CnzmXKdYe3w", "phone": "+12143587277", "coordinates": {"longitude": -96.849482730031, "latitude": 32.8459166301407}, "categories": [{"alias": "bbq", "title": "Barbeque"}], "review_count": 76, "location": {"city": "Dallas", "address1": "Love Field Airport", "address3": "", "address2": "8006 Cedar Springs, Space C-2190", "zip_code": "75235", "country": "US", "display_address": ["Love Field Airport", "8006 Cedar Springs, Space C-2190", "Dallas, TX 75235"], "state": "TX"}, "price": "$$", "transactions": ["pickup"], "display_phone": "(214) 358-7277"}, {"rating": 4.0, "is_closed": false, "distance": 7608.40268836, "name": "Ku Sushi & Japanese Cuisine", "id": "ku-sushi-and-japanese-cuisine-dallas", "image_url": "https://s3-media1.fl.yelpcdn.com/bphoto/-YC4GZ0gTsvbareEVo-YYQ/o.jpg", "url": "https://www.yelp.com/biz/ku-sushi-and-japanese-cuisine-dallas?adjust_creative=gBcvfFpabk3CnzmXKdYe3w&utm_campaign=yelp_api_v3&utm_medium=api_v3_business_search&utm_source=gBcvfFpabk3CnzmXKdYe3w", "phone": "+12148910400", "coordinates": {"longitude": -96.8061075522537, "latitude": 32.9073078340058}, "categories": [{"alias": "sushi", "title": "Sushi Bars"}, {"alias": "japanese", "title": "Japanese"}, {"alias": "bars", "title": "Bars"}], "review_count": 153, "location": {"city": "Dallas", "address1": "11661 Preston Rd", "address3": "", "address2": "Ste 160", "zip_code": "75230", "country": "US", "display_address": ["11661 Preston Rd", "Ste 160", "Dallas, TX 75230"], "state": "TX"}, "price": "$$", "transactions": [], "display_phone": "(214) 891-0400"}, {"rating": 3.5, "is_closed": false, "distance": 3691.64169057, "name": "Hook Line & Sinker", "id": "hook-line-and-sinker-dallas", "image_url": "https://s3-media2.fl.yelpcdn.com/bphoto/vP0_EjbLGxU51kbEKHKf9A/o.jpg", "url": "https://www.yelp.com/biz/hook-line-and-sinker-dallas?adjust_creative=gBcvfFpabk3CnzmXKdYe3w&utm_campaign=yelp_api_v3&utm_medium=api_v3_business_search&utm_source=gBcvfFpabk3CnzmXKdYe3w", "phone": "+12149650707", "coordinates": {"longitude": -96.7987, "latitude": 32.80592}, "categories": [{"alias": "seafood", "title": "Seafood"}], "review_count": 275, "location": {"city": "Dallas", "address1": "3103 Lemmon Ave", "address3": "", "address2": "", "zip_code": "75204", "country": "US", "display_address": ["3103 Lemmon Ave", "Dallas, TX 75204"], "state": "TX"}, "price": "$$", "transactions": [], "display_phone": "(214) 965-0707"}, {"rating": 3.5, "is_closed": false, "distance": 3636.279268032, "name": "Snappy Salads", "id": "snappy-salads-dallas-7", "image_url": "https://s3-media2.fl.yelpcdn.com/bphoto/VPYJ3N1rL_YZgusQs7GdyA/o.jpg", "url": "https://www.yelp.com/biz/snappy-salads-dallas-7?adjust_creative=gBcvfFpabk3CnzmXKdYe3w&utm_campaign=yelp_api_v3&utm_medium=api_v3_business_search&utm_source=gBcvfFpabk3CnzmXKdYe3w", "phone": "+12143617627", "coordinates": {"longitude": -96.7687505, "latitude": 32.8579202}, "categories": [{"alias": "salad", "title": "Salad"}, {"alias": "newamerican", "title": "American (New)"}], "review_count": 116, "location": {"city": "Dallas", "address1": "5941 Greenville Ave", "address3": "", "address2": "", "zip_code": "75206", "country": "US", "display_address": ["5941 Greenville Ave", "Dallas, TX 75206"], "state": "TX"}, "price": "$$", "transactions": ["delivery"], "display_phone": "(214) 361-7627"}, {"rating": 3.5, "is_closed": false, "distance": 4808.705827858, "name": "Bryan Street Tavern", "id": "bryan-street-tavern-dallas", "image_url": "https://s3-media1.fl.yelpcdn.com/bphoto/TvtcfKkibMoMSwqI6GIRFg/o.jpg", "url": "https://www.yelp.com/biz/bryan-street-tavern-dallas?adjust_creative=gBcvfFpabk3CnzmXKdYe3w&utm_campaign=yelp_api_v3&utm_medium=api_v3_business_search&utm_source=gBcvfFpabk3CnzmXKdYe3w", "phone": "+12148214447", "coordinates": {"longitude": -96.779167175293, "latitude": 32.7996139526367}, "categories": [{"alias": "pizza", "title": "Pizza"}, {"alias": "divebars", "title": "Dive Bars"}, {"alias": "sportsbars", "title": "Sports Bars"}], "review_count": 249, "location": {"city": "Dallas", "address1": "4315 Bryan St", "address3": "", "address2": null, "zip_code": "75204", "country": "US", "display_address": ["4315 Bryan St", "Dallas, TX 75204"], "state": "TX"}, "price": "$$", "transactions": ["delivery", "pickup"], "display_phone": "(214) 821-4447"}, {"rating": 4.0, "is_closed": false, "distance": 4603.719364038, "name": "The Gold Rush Cafe", "id": "the-gold-rush-cafe-dallas", "image_url": "https://s3-media1.fl.yelpcdn.com/bphoto/aHAym9cUao4nQa32PO9FbQ/o.jpg", "url": "https://www.yelp.com/biz/the-gold-rush-cafe-dallas?adjust_creative=gBcvfFpabk3CnzmXKdYe3w&utm_campaign=yelp_api_v3&utm_medium=api_v3_business_search&utm_source=gBcvfFpabk3CnzmXKdYe3w", "phone": "+12148236923", "coordinates": {"longitude": -96.7618777602911, "latitude": 32.812972292304}, "categories": [{"alias": "breakfast_brunch", "title": "Breakfast & Brunch"}, {"alias": "tex-mex", "title": "Tex-Mex"}], "review_count": 92, "location": {"city": "Dallas", "address1": "1913 Skillman St", "address3": "", "address2": "", "zip_code": "75206", "country": "US", "display_address": ["1913 Skillman St", "Dallas, TX 75206"], "state": "TX"}, "price": "$", "transactions": [], "display_phone": "(214) 823-6923"}, {"rating": 4.5, "is_closed": false, "distance": 2938.95900526, "name": "LG Taps", "id": "lg-taps-dallas-2", "image_url": "https://s3-media2.fl.yelpcdn.com/bphoto/GQuttFXFYwYlvlWt-JcgPg/o.jpg", "url": "https://www.yelp.com/biz/lg-taps-dallas-2?adjust_creative=gBcvfFpabk3CnzmXKdYe3w&utm_campaign=yelp_api_v3&utm_medium=api_v3_business_search&utm_source=gBcvfFpabk3CnzmXKdYe3w", "phone": "+19728079329", "coordinates": {"longitude": -96.77043, "latitude": 32.83159}, "categories": [{"alias": "bars", "title": "Bars"}, {"alias": "newamerican", "title": "American (New)"}], "review_count": 27, "location": {"city": "Dallas", "address1": "3619 Greenville Ave", "address3": "", "address2": null, "zip_code": "75206", "country": "US", "display_address": ["3619 Greenville Ave", "Dallas, TX 75206"], "state": "TX"}, "price": "$$", "transactions": [], "display_phone": "(972) 807-9329"}, {"rating": 4.5, "is_closed": false, "distance": 6328.701386549999, "name": "I Am The Juice Place", "id": "i-am-the-juice-place-dallas", "image_url": "https://s3-media1.fl.yelpcdn.com/bphoto/36pQQkkuYtrI8D2VYhpdFQ/o.jpg", "url": "https://www.yelp.com/biz/i-am-the-juice-place-dallas?adjust_creative=gBcvfFpabk3CnzmXKdYe3w&utm_campaign=yelp_api_v3&utm_medium=api_v3_business_search&utm_source=gBcvfFpabk3CnzmXKdYe3w", "phone": "+12143920049", "coordinates": {"longitude": -96.7975997924805, "latitude": 32.7821807861328}, "categories": [{"alias": "juicebars", "title": "Juice Bars & Smoothies"}, {"alias": "coffee", "title": "Coffee & Tea"}], "review_count": 27, "location": {"city": "Dallas", "address1": "211 N Ervay", "address3": "", "address2": "Ste 103", "zip_code": "75201", "country": "US", "display_address": ["211 N Ervay", "Ste 103", "Dallas, TX 75201"], "state": "TX"}, "price": "$$", "transactions": [], "display_phone": "(214) 392-0049"}, {"rating": 5.0, "is_closed": false, "distance": 6947.225144242, "name": "Just Encased", "id": "just-encased-dallas-2", "image_url": "https://s3-media3.fl.yelpcdn.com/bphoto/4vgJy1IxJZMfEvbyAospMg/o.jpg", "url": "https://www.yelp.com/biz/just-encased-dallas-2?adjust_creative=gBcvfFpabk3CnzmXKdYe3w&utm_campaign=yelp_api_v3&utm_medium=api_v3_business_search&utm_source=gBcvfFpabk3CnzmXKdYe3w", "phone": "+12146649110", "coordinates": {"longitude": -96.7889868, "latitude": 32.7773585}, "categories": [{"alias": "foodstands", "title": "Food Stands"}], "review_count": 15, "location": {"city": "Dallas", "address1": "1010 S Pearl Expy", "address3": "", "address2": null, "zip_code": "75201", "country": "US", "display_address": ["1010 S Pearl Expy", "Dallas, TX 75201"], "state": "TX"}, "price": "$$", "transactions": [], "display_phone": "(214) 664-9110"}, {"rating": 3.5, "is_closed": false, "distance": 3370.8591904, "name": "Capitol Pub", "id": "capitol-pub-dallas", "image_url": "https://s3-media2.fl.yelpcdn.com/bphoto/DLGTjIM_FDLToTrPACe7GA/o.jpg", "url": "https://www.yelp.com/biz/capitol-pub-dallas?adjust_creative=gBcvfFpabk3CnzmXKdYe3w&utm_campaign=yelp_api_v3&utm_medium=api_v3_business_search&utm_source=gBcvfFpabk3CnzmXKdYe3w", "phone": "+12148879330", "coordinates": {"longitude": -96.778818, "latitude": 32.814838}, "categories": [{"alias": "pubs", "title": "Pubs"}, {"alias": "tradamerican", "title": "American (Traditional)"}], "review_count": 197, "location": {"city": "Dallas", "address1": "2401 N Henderson Ave", "address3": "", "address2": "", "zip_code": "75206", "country": "US", "display_address": ["2401 N Henderson Ave", "Dallas, TX 75206"], "state": "TX"}, "price": "$$", "transactions": [], "display_phone": "(214) 887-9330"}, {"rating": 4.0, "is_closed": false, "distance": 3793.82110118, "name": "i Fratelli Pizza", "id": "i-fratelli-pizza-dallas-9", "image_url": "https://s3-media1.fl.yelpcdn.com/bphoto/XvpskqUYt8EqPJBpE_Y5QA/o.jpg", "url": "https://www.yelp.com/biz/i-fratelli-pizza-dallas-9?adjust_creative=gBcvfFpabk3CnzmXKdYe3w&utm_campaign=yelp_api_v3&utm_medium=api_v3_business_search&utm_source=gBcvfFpabk3CnzmXKdYe3w", "phone": "+12148910600", "coordinates": {"longitude": -96.7684440214864, "latitude": 32.8599473446461}, "categories": [{"alias": "pizza", "title": "Pizza"}], "review_count": 49, "location": {"city": "Dallas", "address1": "6109 Greenville Ave", "address3": "", "address2": "Ste A", "zip_code": "75206", "country": "US", "display_address": ["6109 Greenville Ave", "Ste A", "Dallas, TX 75206"], "state": "TX"}, "price": "$$", "transactions": [], "display_phone": "(214) 891-0600"}, {"rating": 3.5, "is_closed": false, "distance": 3945.24229244, "name": "Louie's", "id": "louies-dallas", "image_url": "https://s3-media1.fl.yelpcdn.com/bphoto/oT3hA2zs8PLTYrt7GGhW4g/o.jpg", "url": "https://www.yelp.com/biz/louies-dallas?adjust_creative=gBcvfFpabk3CnzmXKdYe3w&utm_campaign=yelp_api_v3&utm_medium=api_v3_business_search&utm_source=gBcvfFpabk3CnzmXKdYe3w", "phone": "+12148260505", "coordinates": {"longitude": -96.77451, "latitude": 32.8111}, "categories": [{"alias": "divebars", "title": "Dive Bars"}, {"alias": "pizza", "title": "Pizza"}], "review_count": 252, "location": {"city": "Dallas", "address1": "1839 N Henderson Ave", "address3": "", "address2": "", "zip_code": "75206", "country": "US", "display_address": ["1839 N Henderson Ave", "Dallas, TX 75206"], "state": "TX"}, "price": "$$", "transactions": [], "display_phone": "(214) 826-0505"}, {"rating": 4.0, "is_closed": false, "distance": 2327.402724164, "name": "Fadi's Mediterranean Grill", "id": "fadis-mediterranean-grill-dallas-2", "image_url": "https://s3-media1.fl.yelpcdn.com/bphoto/jhVLOuquqAcdbfZwoor84w/o.jpg", "url": "https://www.yelp.com/biz/fadis-mediterranean-grill-dallas-2?adjust_creative=gBcvfFpabk3CnzmXKdYe3w&utm_campaign=yelp_api_v3&utm_medium=api_v3_business_search&utm_source=gBcvfFpabk3CnzmXKdYe3w", "phone": "+12145281800", "coordinates": {"longitude": -96.78701, "latitude": 32.82143}, "categories": [{"alias": "mideastern", "title": "Middle Eastern"}, {"alias": "mediterranean", "title": "Mediterranean"}], "review_count": 330, "location": {"city": "Dallas", "address1": "3001 Knox St", "address3": "", "address2": "Ste 110", "zip_code": "75205", "country": "US", "display_address": ["3001 Knox St", "Ste 110", "Dallas, TX 75205"], "state": "TX"}, "price": "$$", "transactions": ["delivery"], "display_phone": "(214) 528-1800"}, {"rating": 3.5, "is_closed": false, "distance": 3801.3206255799996, "name": "The Original Pancake House", "id": "the-original-pancake-house-dallas", "image_url": "https://s3-media1.fl.yelpcdn.com/bphoto/V7GnvfmRk6qLhyEWh2_NAw/o.jpg", "url": "https://www.yelp.com/biz/the-original-pancake-house-dallas?adjust_creative=gBcvfFpabk3CnzmXKdYe3w&utm_campaign=yelp_api_v3&utm_medium=api_v3_business_search&utm_source=gBcvfFpabk3CnzmXKdYe3w", "phone": "+12145287215", "coordinates": {"longitude": -96.796863, "latitude": 32.8049962}, "categories": [{"alias": "breakfast_brunch", "title": "Breakfast & Brunch"}, {"alias": "tradamerican", "title": "American (Traditional)"}, {"alias": "juicebars", "title": "Juice Bars & Smoothies"}], "review_count": 249, "location": {"city": "Dallas", "address1": "2900 Lemmon Ave", "address3": "", "address2": "Ste 200", "zip_code": "75204", "country": "US", "display_address": ["2900 Lemmon Ave", "Ste 200", "Dallas, TX 75204"], "state": "TX"}, "price": "$$", "transactions": [], "display_phone": "(214) 528-7215"}, {"rating": 4.0, "is_closed": false, "distance": 2841.438312082, "name": "Salata", "id": "salata-dallas", "image_url": "https://s3-media2.fl.yelpcdn.com/bphoto/2dQ6HanPr53fgOSUwvd_XA/o.jpg", "url": "https://www.yelp.com/biz/salata-dallas?adjust_creative=gBcvfFpabk3CnzmXKdYe3w&utm_campaign=yelp_api_v3&utm_medium=api_v3_business_search&utm_source=gBcvfFpabk3CnzmXKdYe3w", "phone": "+12143636991", "coordinates": {"longitude": -96.806743362099, "latitude": 32.864059095885}, "categories": [{"alias": "salad", "title": "Salad"}], "review_count": 70, "location": {"city": "Dallas", "address1": "8307 Westchester Dr", "address3": "", "address2": "", "zip_code": "75225", "country": "US", "display_address": ["8307 Westchester Dr", "Dallas, TX 75225"], "state": "TX"}, "price": "$", "transactions": [], "display_phone": "(214) 363-6991"}, {"rating": 4.0, "is_closed": false, "distance": 7157.946813019999, "name": "LUCK local urban craft kitchen", "id": "luck-local-urban-craft-kitchen-dallas", "image_url": "https://s3-media1.fl.yelpcdn.com/bphoto/3_0IW-wIdtuPW1shR47Xfw/o.jpg", "url": "https://www.yelp.com/biz/luck-local-urban-craft-kitchen-dallas?adjust_creative=gBcvfFpabk3CnzmXKdYe3w&utm_campaign=yelp_api_v3&utm_medium=api_v3_business_search&utm_source=gBcvfFpabk3CnzmXKdYe3w", "phone": "+14692500679", "coordinates": {"longitude": -96.828906124012, "latitude": 32.7792481838216}, "categories": [{"alias": "newamerican", "title": "American (New)"}, {"alias": "tradamerican", "title": "American (Traditional)"}, {"alias": "bars", "title": "Bars"}], "review_count": 511, "location": {"city": "Dallas", "address1": "3011 Gulden Ln", "address3": "", "address2": "Ste 112", "zip_code": "75212", "country": "US", "display_address": ["3011 Gulden Ln", "Ste 112", "Dallas, TX 75212"], "state": "TX"}, "price": "$$", "transactions": [], "display_phone": "(469) 250-0679"}]}