{"total": 32253, "region": {"center": {"longitude": -96.800537109375, "latitude": 32.839043482398054}}, "businesses": [{"rating": 5.0, "is_closed": false, "distance": 4583.090039248, "name": "I Love Juice Bar", "id": "i-love-juice-bar-dallas-7", "image_url": "https://s3-media2.fl.yelpcdn.com/bphoto/_w8umpYvjkHeyqlP7DeJAw/o.jpg", "url": "https://www.yelp.com/biz/i-love-juice-bar-dallas-7?adjust_creative=gBcvfFpabk3CnzmXKdYe3w&utm_campaign=yelp_api_v3&utm_medium=api_v3_business_search&utm_source=gBcvfFpabk3CnzmXKdYe3w", "phone": "+14694530452", "coordinates": {"longitude": -96.7690028, "latitude": 32.8706206}, "categories": [{"alias": "juicebars", "title": "Juice Bars & Smoothies"}, {"alias": "salad", "title": "Salad"}, {"alias": "soup", "title": "Soup"}], "review_count": 17, "location": {"city": "Dallas", "address1": "8018 Park Ln", "address3": "", "address2": "Ste 120", "zip_code": "75231", "country": "US", "display_address": ["8018 Park Ln", "Ste 120", "Dallas, TX 75231"], "state": "TX"}, "price": "$", "transactions": [], "display_phone": "(469) 453-0452"}, {"rating": 4.0, "is_closed": false, "distance": 3878.09579962, "name": "Mudsmith", "id": "mudsmith-dallas", "image_url": "https://s3-media3.fl.yelpcdn.com/bphoto/yI_ssZ9pUVvs4offQN946g/o.jpg", "url": "https://www.yelp.com/biz/mudsmith-dallas?adjust_creative=gBcvfFpabk3CnzmXKdYe3w&utm_campaign=yelp_api_v3&utm_medium=api_v3_business_search&utm_source=gBcvfFpabk3CnzmXKdYe3w", "phone": "+12143709535", "coordinates": {"longitude": -96.770166, "latitude": 32.8152742}, "categories": [{"alias": "coffee", "title": "Coffee & Tea"}, {"alias": "bars", "title": "Bars"}, {"alias": "juicebars", "title": "Juice Bars & Smoothies"}], "review_count": 391, "location": {"city": "Dallas", "address1": "2114 Greenville Ave", "address3": "", "address2": "", "zip_code": "75206", "country": "US", "display_address": ["2114 Greenville Ave", "Dallas, TX 75206"], "state": "TX"}, "price": "$$", "transactions": [], "display_phone": "(214) 370-9535"}, {"rating": 4.0, "is_closed": false, "distance": 3876.56451261, "name": "Hopdoddy Burger Bar", "id": "hopdoddy-burger-bar-dallas-2", "image_url": "https://s3-media1.fl.yelpcdn.com/bphoto/AhSQyyrAP-0BWcBMN27PEg/o.jpg", "url": "https://www.yelp.com/biz/hopdoddy-burger-bar-dallas-2?adjust_creative=gBcvfFpabk3CnzmXKdYe3w&utm_campaign=yelp_api_v3&utm_medium=api_v3_business_search&utm_source=gBcvfFpabk3CnzmXKdYe3w", "phone": "+12148712337", "coordinates": {"longitude": -96.7996555348203, "latitude": 32.8041871112378}, "categories": [{"alias": "burgers", "title": "Burgers"}], "review_count": 448, "location": {"city": "Dallas", "address1": "3227 McKinney Ave", "address3": "", "address2": "Ste 102", "zip_code": "75204", "country": "US", "display_address": ["3227 McKinney Ave", "Ste 102", "Dallas, TX 75204"], "state": "TX"}, "price": "$$", "transactions": [], "display_phone": "(214) 871-2337"}, {"rating": 4.0, "is_closed": false, "distance": 1327.5108503269998, "name": "Olivella's Neo Pizza Napoletana", "id": "olivellas-neo-pizza-napoletana-dallas-4", "image_url": "https://s3-media1.fl.yelpcdn.com/bphoto/yhbJNkZOoJUNnsoy1u-BSg/o.jpg", "url": "https://www.yelp.com/biz/olivellas-neo-pizza-napoletana-dallas-4?adjust_creative=gBcvfFpabk3CnzmXKdYe3w&utm_campaign=yelp_api_v3&utm_medium=api_v3_business_search&utm_source=gBcvfFpabk3CnzmXKdYe3w", "phone": "+12145287070", "coordinates": {"longitude": -96.7876892089844, "latitude": 32.8440933227539}, "categories": [{"alias": "pizza", "title": "Pizza"}, {"alias": "italian", "title": "Italian"}], "review_count": 178, "location": {"city": "Dallas", "address1": "3406 McFarlin Dr", "address3": "", "address2": "", "zip_code": "75205", "country": "US", "display_address": ["3406 McFarlin Dr", "Dallas, TX 75205"], "state": "TX"}, "price": "$$", "transactions": [], "display_phone": "(214) 528-7070"}, {"rating": 4.0, "is_closed": false, "distance": 3629.47047236, "name": "Maple and Motor", "id": "maple-and-motor-dallas", "image_url": "https://s3-media1.fl.yelpcdn.com/bphoto/3VJE2juCUe8keqiyAs8EpQ/o.jpg", "url": "https://www.yelp.com/biz/maple-and-motor-dallas?adjust_creative=gBcvfFpabk3CnzmXKdYe3w&utm_campaign=yelp_api_v3&utm_medium=api_v3_business_search&utm_source=gBcvfFpabk3CnzmXKdYe3w", "phone": "+12145224400", "coordinates": {"longitude": -96.8270299, "latitude": 32.81524}, "categories": [{"alias": "burgers", "title": "Burgers"}], "review_count": 1046, "location": {"city": "Dallas", "address1": "4810 Maple Ave", "address3": "", "address2": "", "zip_code": "75219", "country": "US", "display_address": ["4810 Maple Ave", "Dallas, TX 75219"], "state": "TX"}, "price": "$", "transactions": [], "display_phone": "(214) 522-4400"}, {"rating": 4.0, "is_closed": false, "distance": 2417.35984121, "name": "El Tizoncito", "id": "el-tizoncito-dallas-6", "image_url": "https://s3-media4.fl.yelpcdn.com/bphoto/Zgs9k-heMEGrzUy06--_mA/o.jpg", "url": "https://www.yelp.com/biz/el-tizoncito-dallas-6?adjust_creative=gBcvfFpabk3CnzmXKdYe3w&utm_campaign=yelp_api_v3&utm_medium=api_v3_business_search&utm_source=gBcvfFpabk3CnzmXKdYe3w", "phone": "+12145210201", "coordinates": {"longitude": -96.8205735878357, "latitude": 32.8252873518826}, "categories": [{"alias": "mexican", "title": "Mexican"}, {"alias": "tex-mex", "title": "Tex-Mex"}, {"alias": "breakfast_brunch", "title": "Breakfast & Brunch"}], "review_count": 173, "location": {"city": "Dallas", "address1": "5150 Lemmon Ave", "address3": "", "address2": "Ste 111", "zip_code": "75209", "country": "US", "display_address": ["5150 Lemmon Ave", "Ste 111", "Dallas, TX 75209"], "state": "TX"}, "price": "$", "transactions": [], "display_phone": "(214) 521-0201"}, {"rating": 4.5, "is_closed": false, "distance": 6074.674309579999, "name": "Harvey B's", "id": "harvey-bs-dallas-2", "image_url": "https://s3-media2.fl.yelpcdn.com/bphoto/vVHWeF63haHxG2fgzbzmwA/o.jpg", "url": "https://www.yelp.com/biz/harvey-bs-dallas-2?adjust_creative=gBcvfFpabk3CnzmXKdYe3w&utm_campaign=yelp_api_v3&utm_medium=api_v3_business_search&utm_source=gBcvfFpabk3CnzmXKdYe3w", "phone": "+14693340980", "coordinates": {"longitude": -96.7674295976758, "latitude": 32.7920271611804}, "categories": [{"alias": "burgers", "title": "Burgers"}], "review_count": 102, "location": {"city": "Dallas", "address1": "4506 Columbia Ave", "address3": "", "address2": "Ste 100", "zip_code": "75226", "country": "US", "display_address": ["4506 Columbia Ave", "Ste 100", "Dallas, TX 75226"], "state": "TX"}, "price": "$", "transactions": ["pickup"], "display_phone": "(469) 334-0980"}, {"rating": 4.0, "is_closed": false, "distance": 1891.783676152, "name": "Toulouse Caf\u00e9 and Bar", "id": "toulouse-caf\u00e9-and-bar-dallas-2", "image_url": "https://s3-media3.fl.yelpcdn.com/bphoto/qefFLXd8tbKrUZ9s6pd6CA/o.jpg", "url": "https://www.yelp.com/biz/toulouse-caf%C3%A9-and-bar-dallas-2?adjust_creative=gBcvfFpabk3CnzmXKdYe3w&utm_campaign=yelp_api_v3&utm_medium=api_v3_business_search&utm_source=gBcvfFpabk3CnzmXKdYe3w", "phone": "+12145208999", "coordinates": {"longitude": -96.79085333429, "latitude": 32.824102128296}, "categories": [{"alias": "french", "title": "French"}, {"alias": "breakfast_brunch", "title": "Breakfast & Brunch"}], "review_count": 485, "location": {"city": "Dallas", "address1": "3314 Knox St", "address3": "", "address2": null, "zip_code": "75205", "country": "US", "display_address": ["3314 Knox St", "Dallas, TX 75205"], "state": "TX"}, "price": "$$", "transactions": ["delivery"], "display_phone": "(214) 520-8999"}, {"rating": 4.0, "is_closed": false, "distance": 4034.121473554, "name": "Daddy Jack's", "id": "daddy-jacks-dallas", "image_url": "https://s3-media2.fl.yelpcdn.com/bphoto/w7zNJtM6GdmNWev47EzLIA/o.jpg", "url": "https://www.yelp.com/biz/daddy-jacks-dallas?adjust_creative=gBcvfFpabk3CnzmXKdYe3w&utm_campaign=yelp_api_v3&utm_medium=api_v3_business_search&utm_source=gBcvfFpabk3CnzmXKdYe3w", "phone": "+12148264910", "coordinates": {"longitude": -96.769973, "latitude": 32.813381}, "categories": [{"alias": "seafood", "title": "Seafood"}], "review_count": 223, "location": {"city": "Dallas", "address1": "1916 Greenville Ave", "address3": "", "address2": "", "zip_code": "75206", "country": "US", "display_address": ["1916 Greenville Ave", "Dallas, TX 75206"], "state": "TX"}, "price": "$$", "transactions": [], "display_phone": "(214) 826-4910"}, {"rating": 4.0, "is_closed": false, "distance": 2315.9836521939997, "name": "Kozy Kitchen", "id": "kozy-kitchen-dallas-2", "image_url": "https://s3-media1.fl.yelpcdn.com/bphoto/hEawrp4d2sezqcFLuusosQ/o.jpg", "url": "https://www.yelp.com/biz/kozy-kitchen-dallas-2?adjust_creative=gBcvfFpabk3CnzmXKdYe3w&utm_campaign=yelp_api_v3&utm_medium=api_v3_business_search&utm_source=gBcvfFpabk3CnzmXKdYe3w", "phone": "+12142195044", "coordinates": {"longitude": -96.788909, "latitude": 32.82065}, "categories": [{"alias": "bakeries", "title": "Bakeries"}, {"alias": "newamerican", "title": "American (New)"}, {"alias": "gluten_free", "title": "Gluten-Free"}], "review_count": 363, "location": {"city": "Dallas", "address1": "4433 McKinney Ave", "address3": "", "address2": "", "zip_code": "75205", "country": "US", "display_address": ["4433 McKinney Ave", "Dallas, TX 75205"], "state": "TX"}, "price": "$$", "transactions": ["delivery", "pickup"], "display_phone": "(214) 219-5044"}, {"rating": 4.5, "is_closed": false, "distance": 4596.05697443, "name": "Bodega Wine Bar", "id": "bodega-wine-bar-dallas-2", "image_url": "https://s3-media1.fl.yelpcdn.com/bphoto/1VOlVuvwlaEGG4LMzmQnig/o.jpg", "url": "https://www.yelp.com/biz/bodega-wine-bar-dallas-2?adjust_creative=gBcvfFpabk3CnzmXKdYe3w&utm_campaign=yelp_api_v3&utm_medium=api_v3_business_search&utm_source=gBcvfFpabk3CnzmXKdYe3w", "phone": "+12147044538", "coordinates": {"longitude": -96.751686707139, "latitude": 32.8363765776157}, "categories": [{"alias": "wine_bars", "title": "Wine Bars"}], "review_count": 30, "location": {"city": "Dallas", "address1": "6434 E Mockingbird Ln", "address3": "", "address2": "Ste 109", "zip_code": "75214", "country": "US", "display_address": ["6434 E Mockingbird Ln", "Ste 109", "Dallas, TX 75214"], "state": "TX"}, "price": "$$", "transactions": [], "display_phone": "(214) 704-4538"}, {"rating": 4.0, "is_closed": false, "distance": 2916.6147677659997, "name": "Great American Hero", "id": "great-american-hero-dallas", "image_url": "https://s3-media1.fl.yelpcdn.com/bphoto/MgD4kIIXgWTLXgbPeqikCQ/o.jpg", "url": "https://www.yelp.com/biz/great-american-hero-dallas?adjust_creative=gBcvfFpabk3CnzmXKdYe3w&utm_campaign=yelp_api_v3&utm_medium=api_v3_business_search&utm_source=gBcvfFpabk3CnzmXKdYe3w", "phone": "+12145212070", "coordinates": {"longitude": -96.8081764, "latitude": 32.8136114}, "categories": [{"alias": "sandwiches", "title": "Sandwiches"}, {"alias": "salad", "title": "Salad"}, {"alias": "tradamerican", "title": "American (Traditional)"}], "review_count": 251, "location": {"city": "Dallas", "address1": "4001 Lemmon Ave", "address3": "", "address2": "", "zip_code": "75219", "country": "US", "display_address": ["4001 Lemmon Ave", "Dallas, TX 75219"], "state": "TX"}, "price": "$", "transactions": ["delivery", "pickup"], "display_phone": "(214) 521-2070"}, {"rating": 4.5, "is_closed": false, "distance": 6359.152352425999, "name": "Emporium Pies", "id": "emporium-pies-dallas-4", "image_url": "https://s3-media4.fl.yelpcdn.com/bphoto/hqxyKJ5yHEkjkBr-WrZDsg/o.jpg", "url": "https://www.yelp.com/biz/emporium-pies-dallas-4?adjust_creative=gBcvfFpabk3CnzmXKdYe3w&utm_campaign=yelp_api_v3&utm_medium=api_v3_business_search&utm_source=gBcvfFpabk3CnzmXKdYe3w", "phone": "+19729822757", "coordinates": {"longitude": -96.783653, "latitude": 32.783641}, "categories": [{"alias": "desserts", "title": "Desserts"}, {"alias": "coffee", "title": "Coffee & Tea"}], "review_count": 92, "location": {"city": "Dallas", "address1": "2708 Main St", "address3": null, "address2": "", "zip_code": "75226", "country": "US", "display_address": ["2708 Main St", "Dallas, TX 75226"], "state": "TX"}, "price": "$$", "transactions": [], "display_phone": "(972) 982-2757"}, {"rating": 4.5, "is_closed": false, "distance": 6884.05967578, "name": "Kalachandji's", "id": "kalachandjis-dallas-2", "image_url": "https://s3-media3.fl.yelpcdn.com/bphoto/d7TkpexcAkFR8hLcABFCUQ/o.jpg", "url": "https://www.yelp.com/biz/kalachandjis-dallas-2?adjust_creative=gBcvfFpabk3CnzmXKdYe3w&utm_campaign=yelp_api_v3&utm_medium=api_v3_business_search&utm_source=gBcvfFpabk3CnzmXKdYe3w", "phone": "+12148211048", "coordinates": {"longitude": -96.74991, "latitude": 32.79407}, "categories": [{"alias": "vegetarian", "title": "Vegetarian"}, {"alias": "venues", "title": "Venues & Event Spaces"}], "review_count": 458, "location": {"city": "Dallas", "address1": "5430 Gurley Ave", "address3": "", "address2": "", "zip_code": "75223", "country": "US", "display_address": ["5430 Gurley Ave", "Dallas, TX 75223"], "state": "TX"}, "price": "$$", "transactions": [], "display_phone": "(214) 821-1048"}, {"rating": 4.0, "is_closed": false, "distance": 4964.565739772, "name": "Truluck's", "id": "trulucks-dallas-2", "image_url": "https://s3-media2.fl.yelpcdn.com/bphoto/K34iq6X8C-vQ5ZyH8WGddg/o.jpg", "url": "https://www.yelp.com/biz/trulucks-dallas-2?adjust_creative=gBcvfFpabk3CnzmXKdYe3w&utm_campaign=yelp_api_v3&utm_medium=api_v3_business_search&utm_source=gBcvfFpabk3CnzmXKdYe3w", "phone": "+12142202401", "coordinates": {"longitude": -96.80262550422, "latitude": 32.794429968597}, "categories": [{"alias": "steak", "title": "Steakhouses"}, {"alias": "seafood", "title": "Seafood"}], "review_count": 463, "location": {"city": "Dallas", "address1": "2401 McKinney Ave", "address3": "", "address2": "", "zip_code": "75201", "country": "US", "display_address": ["2401 McKinney Ave", "Dallas, TX 75201"], "state": "TX"}, "price": "$$$", "transactions": [], "display_phone": "(214) 220-2401"}, {"rating": 4.5, "is_closed": false, "distance": 582.7271115116, "name": "Lounge 31", "id": "lounge-31-dallas", "image_url": "https://s3-media1.fl.yelpcdn.com/bphoto/wLIbaeghzAMbrUXTOmeuPw/o.jpg", "url": "https://www.yelp.com/biz/lounge-31-dallas?adjust_creative=gBcvfFpabk3CnzmXKdYe3w&utm_campaign=yelp_api_v3&utm_medium=api_v3_business_search&utm_source=gBcvfFpabk3CnzmXKdYe3w", "phone": "+12144203900", "coordinates": {"longitude": -96.8056808, "latitude": 32.8358851}, "categories": [{"alias": "lounges", "title": "Lounges"}, {"alias": "sushi", "title": "Sushi Bars"}, {"alias": "mediterranean", "title": "Mediterranean"}], "review_count": 36, "location": {"city": "Dallas", "address1": "87 Highland Park Village", "address3": "", "address2": "Fl 2", "zip_code": "75205", "country": "US", "display_address": ["87 Highland Park Village", "Fl 2", "Dallas, TX 75205"], "state": "TX"}, "price": "$$$", "transactions": [], "display_phone": "(214) 420-3900"}, {"rating": 4.0, "is_closed": false, "distance": 3946.3789692819996, "name": "Blind Butcher", "id": "blind-butcher-dallas", "image_url": "https://s3-media2.fl.yelpcdn.com/bphoto/HjvowQHPcWg4qExXaSalWw/o.jpg", "url": "https://www.yelp.com/biz/blind-butcher-dallas?adjust_creative=gBcvfFpabk3CnzmXKdYe3w&utm_campaign=yelp_api_v3&utm_medium=api_v3_business_search&utm_source=gBcvfFpabk3CnzmXKdYe3w", "phone": "+12148870000", "coordinates": {"longitude": -96.77057, "latitude": 32.81422}, "categories": [{"alias": "newamerican", "title": "American (New)"}, {"alias": "gastropubs", "title": "Gastropubs"}], "review_count": 367, "location": {"city": "Dallas", "address1": "1919 Greenville Ave", "address3": "", "address2": "", "zip_code": "75206", "country": "US", "display_address": ["1919 Greenville Ave", "Dallas, TX 75206"], "state": "TX"}, "price": "$$", "transactions": [], "display_phone": "(214) 887-0000"}, {"rating": 4.0, "is_closed": false, "distance": 3392.95301459, "name": "Malai Kitchen", "id": "malai-kitchen-dallas", "image_url": "https://s3-media4.fl.yelpcdn.com/bphoto/n_w6zygECS6IF_-kGVgqwg/o.jpg", "url": "https://www.yelp.com/biz/malai-kitchen-dallas?adjust_creative=gBcvfFpabk3CnzmXKdYe3w&utm_campaign=yelp_api_v3&utm_medium=api_v3_business_search&utm_source=gBcvfFpabk3CnzmXKdYe3w", "phone": "+12145997857", "coordinates": {"longitude": -96.7968686711639, "latitude": 32.8086852490262}, "categories": [{"alias": "thai", "title": "Thai"}, {"alias": "vietnamese", "title": "Vietnamese"}, {"alias": "cocktailbars", "title": "Cocktail Bars"}], "review_count": 657, "location": {"city": "Dallas", "address1": "3699 McKinney Ave", "address3": "", "address2": "Ste 319", "zip_code": "75204", "country": "US", "display_address": ["3699 McKinney Ave", "Ste 319", "Dallas, TX 75204"], "state": "TX"}, "price": "$$", "transactions": ["pickup"], "display_phone": "(214) 599-7857"}, {"rating": 4.0, "is_closed": false, "distance": 4569.011854796, "name": "Bowen House", "id": "bowen-house-dallas-2", "image_url": "https://s3-media2.fl.yelpcdn.com/bphoto/TA-PUPJ28fwNnlXWXNCrAA/o.jpg", "url": "https://www.yelp.com/biz/bowen-house-dallas-2?adjust_creative=gBcvfFpabk3CnzmXKdYe3w&utm_campaign=yelp_api_v3&utm_medium=api_v3_business_search&utm_source=gBcvfFpabk3CnzmXKdYe3w", "phone": "+12144841385", "coordinates": {"longitude": -96.8019539862871, "latitude": 32.7979714014959}, "categories": [{"alias": "cocktailbars", "title": "Cocktail Bars"}], "review_count": 137, "location": {"city": "Dallas", "address1": "2614 Boll St", "address3": "", "address2": "", "zip_code": "75204", "country": "US", "display_address": ["2614 Boll St", "Dallas, TX 75204"], "state": "TX"}, "price": "$$", "transactions": [], "display_phone": "(214) 484-1385"}, {"rating": 4.5, "is_closed": false, "distance": 3991.173177908, "name": "Social Pie", "id": "social-pie-dallas", "image_url": "https://s3-media2.fl.yelpcdn.com/bphoto/KxduxpwDfSyqy4jOu56Okw/o.jpg", "url": "https://www.yelp.com/biz/social-pie-dallas?adjust_creative=gBcvfFpabk3CnzmXKdYe3w&utm_campaign=yelp_api_v3&utm_medium=api_v3_business_search&utm_source=gBcvfFpabk3CnzmXKdYe3w", "phone": "+14699304483", "coordinates": {"longitude": -96.8382263183594, "latitude": 32.8223648071289}, "categories": [{"alias": "pizza", "title": "Pizza"}, {"alias": "beerbar", "title": "Beer Bar"}], "review_count": 97, "location": {"city": "Dallas", "address1": "5855 Maple Ave", "address3": null, "address2": "", "zip_code": "75235", "country": "US", "display_address": ["5855 Maple Ave", "Dallas, TX 75235"], "state": "TX"}, "price": "$$", "transactions": ["delivery", "pickup"], "display_phone": "(469) 930-4483"}, {"rating": 4.5, "is_closed": false, "distance": 6603.334452879999, "name": "Mokah Coffee Bar", "id": "mokah-coffee-bar-dallas-2", "image_url": "https://s3-media2.fl.yelpcdn.com/bphoto/O9F0MVRBV6XR4x7KLSSCBg/o.jpg", "url": "https://www.yelp.com/biz/mokah-coffee-bar-dallas-2?adjust_creative=gBcvfFpabk3CnzmXKdYe3w&utm_campaign=yelp_api_v3&utm_medium=api_v3_business_search&utm_source=gBcvfFpabk3CnzmXKdYe3w", "phone": "+12146510633", "coordinates": {"longitude": -96.78236, "latitude": 32.78164}, "categories": [{"alias": "coffee", "title": "Coffee & Tea"}], "review_count": 96, "location": {"city": "Dallas", "address1": "2803 Taylor St", "address3": "", "address2": "", "zip_code": "75226", "country": "US", "display_address": ["2803 Taylor St", "Dallas, TX 75226"], "state": "TX"}, "price": "$", "transactions": [], "display_phone": "(214) 651-0633"}, {"rating": 4.0, "is_closed": false, "distance": 4592.442557724, "name": "Mike Anderson's BBQ House", "id": "mike-andersons-bbq-house-dallas", "image_url": "https://s3-media1.fl.yelpcdn.com/bphoto/PaOQls803xvm0SQ9-ZzQtQ/o.jpg", "url": "https://www.yelp.com/biz/mike-andersons-bbq-house-dallas?adjust_creative=gBcvfFpabk3CnzmXKdYe3w&utm_campaign=yelp_api_v3&utm_medium=api_v3_business_search&utm_source=gBcvfFpabk3CnzmXKdYe3w", "phone": "+12146300735", "coordinates": {"longitude": -96.839806, "latitude": 32.8142038}, "categories": [{"alias": "bbq", "title": "Barbeque"}], "review_count": 312, "location": {"city": "Dallas", "address1": "5410 Harry Hines Blvd", "address3": "", "address2": null, "zip_code": "75235", "country": "US", "display_address": ["5410 Harry Hines Blvd", "Dallas, TX 75235"], "state": "TX"}, "price": "$$", "transactions": ["delivery", "pickup"], "display_phone": "(214) 630-0735"}, {"rating": 4.0, "is_closed": false, "distance": 5257.741299714, "name": "Cock & Bull", "id": "cock-and-bull-dallas", "image_url": "https://s3-media2.fl.yelpcdn.com/bphoto/QQ_eK2LgTvz6TmiuZ5oQFA/o.jpg", "url": "https://www.yelp.com/biz/cock-and-bull-dallas?adjust_creative=gBcvfFpabk3CnzmXKdYe3w&utm_campaign=yelp_api_v3&utm_medium=api_v3_business_search&utm_source=gBcvfFpabk3CnzmXKdYe3w", "phone": "+12148419111", "coordinates": {"longitude": -96.7534959893492, "latitude": 32.8130993984912}, "categories": [{"alias": "tradamerican", "title": "American (Traditional)"}, {"alias": "divebars", "title": "Dive Bars"}], "review_count": 178, "location": {"city": "Dallas", "address1": "6330 Gaston Ave", "address3": "", "address2": "", "zip_code": "75214", "country": "US", "display_address": ["6330 Gaston Ave", "Dallas, TX 75214"], "state": "TX"}, "price": "$$", "transactions": [], "display_phone": "(214) 841-9111"}, {"rating": 4.0, "is_closed": false, "distance": 3956.40467468, "name": "Teppo Yakitori and Sushi Bar", "id": "teppo-yakitori-and-sushi-bar-dallas", "image_url": "https://s3-media4.fl.yelpcdn.com/bphoto/Zu-WUfsEL1PQfnaS6FFYjw/o.jpg", "url": "https://www.yelp.com/biz/teppo-yakitori-and-sushi-bar-dallas?adjust_creative=gBcvfFpabk3CnzmXKdYe3w&utm_campaign=yelp_api_v3&utm_medium=api_v3_business_search&utm_source=gBcvfFpabk3CnzmXKdYe3w", "phone": "+12148268989", "coordinates": {"longitude": -96.7700551, "latitude": 32.8142216}, "categories": [{"alias": "japanese", "title": "Japanese"}, {"alias": "sushi", "title": "Sushi Bars"}], "review_count": 320, "location": {"city": "Dallas", "address1": "2014 Greenville Ave", "address3": "", "address2": "", "zip_code": "75206", "country": "US", "display_address": ["2014 Greenville Ave", "Dallas, TX 75206"], "state": "TX"}, "price": "$$$", "transactions": [], "display_phone": "(214) 826-8989"}, {"rating": 4.0, "is_closed": false, "distance": 1467.449803022, "name": "Kuby's Sausage House", "id": "kubys-sausage-house-dallas", "image_url": "https://s3-media1.fl.yelpcdn.com/bphoto/r8lBzJSeV2WZPeoAzXXjkw/o.jpg", "url": "https://www.yelp.com/biz/kubys-sausage-house-dallas?adjust_creative=gBcvfFpabk3CnzmXKdYe3w&utm_campaign=yelp_api_v3&utm_medium=api_v3_business_search&utm_source=gBcvfFpabk3CnzmXKdYe3w", "phone": "+12143632231", "coordinates": {"longitude": -96.78831, "latitude": 32.847325}, "categories": [{"alias": "meats", "title": "Meat Shops"}, {"alias": "german", "title": "German"}, {"alias": "sandwiches", "title": "Sandwiches"}], "review_count": 248, "location": {"city": "Dallas", "address1": "6601 Snider Plz", "address3": "", "address2": "", "zip_code": "75205", "country": "US", "display_address": ["6601 Snider Plz", "Dallas, TX 75205"], "state": "TX"}, "price": "$", "transactions": [], "display_phone": "(214) 363-2231"}, {"rating": 4.5, "is_closed": false, "distance": 6926.810988210001, "name": "Caribbean Cabana", "id": "caribbean-cabana-dallas", "image_url": "https://s3-media1.fl.yelpcdn.com/bphoto/B_u3e7TdjaINBkkToQ1l7A/o.jpg", "url": "https://www.yelp.com/biz/caribbean-cabana-dallas?adjust_creative=gBcvfFpabk3CnzmXKdYe3w&utm_campaign=yelp_api_v3&utm_medium=api_v3_business_search&utm_source=gBcvfFpabk3CnzmXKdYe3w", "phone": "+19727078131", "coordinates": {"longitude": -96.7903115227818, "latitude": 32.7773442476487}, "categories": [{"alias": "caribbean", "title": "Caribbean"}], "review_count": 73, "location": {"city": "Dallas", "address1": "920 South Harwood St", "address3": "", "address2": "", "zip_code": "75201", "country": "US", "display_address": ["920 South Harwood St", "Dallas, TX 75201"], "state": "TX"}, "price": "$$", "transactions": ["pickup"], "display_phone": "(972) 707-8131"}, {"rating": 4.5, "is_closed": false, "distance": 2097.6873028379996, "name": "Cafe 43", "id": "cafe-43-dallas", "image_url": "https://s3-media2.fl.yelpcdn.com/bphoto/lBywGO-YeqUoyitg3VU4CA/o.jpg", "url": "https://www.yelp.com/biz/cafe-43-dallas?adjust_creative=gBcvfFpabk3CnzmXKdYe3w&utm_campaign=yelp_api_v3&utm_medium=api_v3_business_search&utm_source=gBcvfFpabk3CnzmXKdYe3w", "phone": "+12142004302", "coordinates": {"longitude": -96.7783176898956, "latitude": 32.8417747655711}, "categories": [{"alias": "cafes", "title": "Cafes"}], "review_count": 36, "location": {"city": "Dallas", "address1": "2943 Smu Blvd", "address3": "", "address2": "", "zip_code": "75205", "country": "US", "display_address": ["2943 Smu Blvd", "Dallas, TX 75205"], "state": "TX"}, "price": "$$", "transactions": [], "display_phone": "(214) 200-4302"}, {"rating": 4.0, "is_closed": false, "distance": 3308.888656888, "name": "Terilli's Restaurant & Bar", "id": "terillis-restaurant-and-bar-dallas-4", "image_url": "https://s3-media1.fl.yelpcdn.com/bphoto/Tt8wMUHSpU0kDZ6sSl-WjQ/o.jpg", "url": "https://www.yelp.com/biz/terillis-restaurant-and-bar-dallas-4?adjust_creative=gBcvfFpabk3CnzmXKdYe3w&utm_campaign=yelp_api_v3&utm_medium=api_v3_business_search&utm_source=gBcvfFpabk3CnzmXKdYe3w", "phone": "+12148273993", "coordinates": {"longitude": -96.770487, "latitude": 32.8233}, "categories": [{"alias": "italian", "title": "Italian"}, {"alias": "bars", "title": "Bars"}, {"alias": "salad", "title": "Salad"}], "review_count": 353, "location": {"city": "Dallas", "address1": "2815 Greenville Ave", "address3": "", "address2": null, "zip_code": "75206", "country": "US", "display_address": ["2815 Greenville Ave", "Dallas, TX 75206"], "state": "TX"}, "price": "$$", "transactions": ["delivery"], "display_phone": "(214) 827-3993"}, {"rating": 4.0, "is_closed": false, "distance": 5331.35556906, "name": "Liberty Burger - Lakewood", "id": "liberty-burger-lakewood-dallas", "image_url": "https://s3-media1.fl.yelpcdn.com/bphoto/G_fcXQcglW_N3BpmGOMCAg/o.jpg", "url": "https://www.yelp.com/biz/liberty-burger-lakewood-dallas?adjust_creative=gBcvfFpabk3CnzmXKdYe3w&utm_campaign=yelp_api_v3&utm_medium=api_v3_business_search&utm_source=gBcvfFpabk3CnzmXKdYe3w", "phone": "+12148879999", "coordinates": {"longitude": -96.752565905374, "latitude": 32.8130868051182}, "categories": [{"alias": "burgers", "title": "Burgers"}, {"alias": "newamerican", "title": "American (New)"}], "review_count": 166, "location": {"city": "Dallas", "address1": "1904 Abrams Pkwy", "address3": "", "address2": "", "zip_code": "75214", "country": "US", "display_address": ["1904 Abrams Pkwy", "Dallas, TX 75214"], "state": "TX"}, "price": "$$", "transactions": [], "display_phone": "(214) 887-9999"}, {"rating": 4.5, "is_closed": false, "distance": 6566.041860795999, "name": "Flying Horse Cafe - Liquid Culture", "id": "flying-horse-cafe-liquid-culture-dallas", "image_url": "https://s3-media3.fl.yelpcdn.com/bphoto/JoYH3GA6BoTjXH2RtB_M2Q/o.jpg", "url": "https://www.yelp.com/biz/flying-horse-cafe-liquid-culture-dallas?adjust_creative=gBcvfFpabk3CnzmXKdYe3w&utm_campaign=yelp_api_v3&utm_medium=api_v3_business_search&utm_source=gBcvfFpabk3CnzmXKdYe3w", "phone": "+12147411731", "coordinates": {"longitude": -96.7992528252317, "latitude": 32.780001559012}, "categories": [{"alias": "newamerican", "title": "American (New)"}, {"alias": "coffee", "title": "Coffee & Tea"}], "review_count": 134, "location": {"city": "Dallas", "address1": "1401 A Commerce St", "address3": "The Hotel Magnolia", "address2": "", "zip_code": "75201", "country": "US", "display_address": ["1401 A Commerce St", "The Hotel Magnolia", "Dallas, TX 75201"], "state": "TX"}, "price": "$", "transactions": [], "display_phone": "(214) 741-1731"}, {"rating": 4.0, "is_closed": false, "distance": 2647.075101602, "name": "Fireside Pies", "id": "fireside-pies-dallas", "image_url": "https://s3-media2.fl.yelpcdn.com/bphoto/W7G3uFTCF-UdqJbDVHEJMg/o.jpg", "url": "https://www.yelp.com/biz/fireside-pies-dallas?adjust_creative=gBcvfFpabk3CnzmXKdYe3w&utm_campaign=yelp_api_v3&utm_medium=api_v3_business_search&utm_source=gBcvfFpabk3CnzmXKdYe3w", "phone": "+12143703916", "coordinates": {"longitude": -96.7839447, "latitude": 32.8197476}, "categories": [{"alias": "pizza", "title": "Pizza"}, {"alias": "gluten_free", "title": "Gluten-Free"}], "review_count": 313, "location": {"city": "Dallas", "address1": "2820 N Henderson Ave", "address3": "", "address2": null, "zip_code": "75206", "country": "US", "display_address": ["2820 N Henderson Ave", "Dallas, TX 75206"], "state": "TX"}, "price": "$$", "transactions": [], "display_phone": "(214) 370-3916"}, {"rating": 4.5, "is_closed": false, "distance": 5543.737272048, "name": "Town Hearth", "id": "town-hearth-dallas", "image_url": "https://s3-media2.fl.yelpcdn.com/bphoto/dg4cvqWfO6U7i5Io9UO8GQ/o.jpg", "url": "https://www.yelp.com/biz/town-hearth-dallas?adjust_creative=gBcvfFpabk3CnzmXKdYe3w&utm_campaign=yelp_api_v3&utm_medium=api_v3_business_search&utm_source=gBcvfFpabk3CnzmXKdYe3w", "phone": "+12147611617", "coordinates": {"longitude": -96.8220625, "latitude": 32.7925824}, "categories": [{"alias": "tradamerican", "title": "American (Traditional)"}, {"alias": "seafood", "title": "Seafood"}, {"alias": "steak", "title": "Steakhouses"}], "review_count": 50, "location": {"city": "Dallas", "address1": "1617 Market Center Blvd", "address3": null, "address2": "", "zip_code": "75207", "country": "US", "display_address": ["1617 Market Center Blvd", "Dallas, TX 75207"], "state": "TX"}, "price": "$$$", "transactions": [], "display_phone": "(214) 761-1617"}, {"rating": 4.0, "is_closed": false, "distance": 3918.2955034799998, "name": "Houndstooth Coffee", "id": "houndstooth-coffee-dallas", "image_url": "https://s3-media3.fl.yelpcdn.com/bphoto/5Ppouneccq0a7_66yiG0MA/o.jpg", "url": "https://www.yelp.com/biz/houndstooth-coffee-dallas?adjust_creative=gBcvfFpabk3CnzmXKdYe3w&utm_campaign=yelp_api_v3&utm_medium=api_v3_business_search&utm_source=gBcvfFpabk3CnzmXKdYe3w", "phone": "+19728639080", "coordinates": {"longitude": -96.774345, "latitude": 32.81152}, "categories": [{"alias": "coffee", "title": "Coffee & Tea"}], "review_count": 147, "location": {"city": "Dallas", "address1": "1900 N Henderson Ave", "address3": "", "address2": "", "zip_code": "75206", "country": "US", "display_address": ["1900 N Henderson Ave", "Dallas, TX 75206"], "state": "TX"}, "price": "$$", "transactions": [], "display_phone": "(972) 863-9080"}, {"rating": 4.5, "is_closed": false, "distance": 3358.7767484819997, "name": "Pera Henderson", "id": "pera-henderson-dallas", "image_url": "https://s3-media4.fl.yelpcdn.com/bphoto/pfI_mh-9rhkNtiO7-qWXqQ/o.jpg", "url": "https://www.yelp.com/biz/pera-henderson-dallas?adjust_creative=gBcvfFpabk3CnzmXKdYe3w&utm_campaign=yelp_api_v3&utm_medium=api_v3_business_search&utm_source=gBcvfFpabk3CnzmXKdYe3w", "phone": "+12144845194", "coordinates": {"longitude": -96.7788412, "latitude": 32.8149566}, "categories": [{"alias": "mediterranean", "title": "Mediterranean"}, {"alias": "tapasmallplates", "title": "Tapas/Small Plates"}, {"alias": "wine_bars", "title": "Wine Bars"}], "review_count": 68, "location": {"city": "Dallas", "address1": "2405 N Henderson Ave", "address3": "", "address2": null, "zip_code": "75206", "country": "US", "display_address": ["2405 N Henderson Ave", "Dallas, TX 75206"], "state": "TX"}, "price": "$$", "transactions": ["pickup"], "display_phone": "(214) 484-5194"}, {"rating": 4.0, "is_closed": false, "distance": 2333.927954128, "name": "Trinity Hall Irish Pub", "id": "trinity-hall-irish-pub-dallas", "image_url": "https://s3-media3.fl.yelpcdn.com/bphoto/KR0kIWoI8g2G4tZ6mGBvsg/o.jpg", "url": "https://www.yelp.com/biz/trinity-hall-irish-pub-dallas?adjust_creative=gBcvfFpabk3CnzmXKdYe3w&utm_campaign=yelp_api_v3&utm_medium=api_v3_business_search&utm_source=gBcvfFpabk3CnzmXKdYe3w", "phone": "+12148873600", "coordinates": {"longitude": -96.7755807197213, "latitude": 32.838089170731}, "categories": [{"alias": "irish", "title": "Irish"}, {"alias": "breakfast_brunch", "title": "Breakfast & Brunch"}, {"alias": "irish_pubs", "title": "Irish Pub"}], "review_count": 392, "location": {"city": "Dallas", "address1": "5321 E Mockingbird Ln", "address3": "", "address2": "Fl 2", "zip_code": "75206", "country": "US", "display_address": ["5321 E Mockingbird Ln", "Fl 2", "Dallas, TX 75206"], "state": "TX"}, "price": "$$", "transactions": [], "display_phone": "(214) 887-3600"}, {"rating": 4.0, "is_closed": false, "distance": 2911.7574577779997, "name": "Gloria's Latin Cuisine", "id": "glorias-latin-cuisine-dallas-2", "image_url": "https://s3-media3.fl.yelpcdn.com/bphoto/SihlwvOC7VqiH4nyXSSxBA/o.jpg", "url": "https://www.yelp.com/biz/glorias-latin-cuisine-dallas-2?adjust_creative=gBcvfFpabk3CnzmXKdYe3w&utm_campaign=yelp_api_v3&utm_medium=api_v3_business_search&utm_source=gBcvfFpabk3CnzmXKdYe3w", "phone": "+12148740088", "coordinates": {"longitude": -96.770407, "latitude": 32.8323449}, "categories": [{"alias": "mexican", "title": "Mexican"}, {"alias": "latin", "title": "Latin American"}, {"alias": "desserts", "title": "Desserts"}], "review_count": 278, "location": {"city": "Dallas", "address1": "3715 Greenville Ave", "address3": "", "address2": "", "zip_code": "75206", "country": "US", "display_address": ["3715 Greenville Ave", "Dallas, TX 75206"], "state": "TX"}, "price": "$$", "transactions": [], "display_phone": "(214) 874-0088"}, {"rating": 4.0, "is_closed": false, "distance": 4469.276709778, "name": "Crushcraft Thai Street Eats", "id": "crushcraft-thai-street-eats-dallas-2", "image_url": "https://s3-media4.fl.yelpcdn.com/bphoto/zHVv_mWunvogcKP1hnJOcg/o.jpg", "url": "https://www.yelp.com/biz/crushcraft-thai-street-eats-dallas-2?adjust_creative=gBcvfFpabk3CnzmXKdYe3w&utm_campaign=yelp_api_v3&utm_medium=api_v3_business_search&utm_source=gBcvfFpabk3CnzmXKdYe3w", "phone": "+19726777038", "coordinates": {"longitude": -96.803516, "latitude": 32.798929}, "categories": [{"alias": "thai", "title": "Thai"}], "review_count": 625, "location": {"city": "Dallas", "address1": "2800 Routh St", "address3": "", "address2": "Ste 150", "zip_code": "75201", "country": "US", "display_address": ["2800 Routh St", "Ste 150", "Dallas, TX 75201"], "state": "TX"}, "price": "$", "transactions": [], "display_phone": "(972) 677-7038"}, {"rating": 4.0, "is_closed": false, "distance": 4558.465849776, "name": "Nick & Sam's", "id": "nick-and-sams-dallas", "image_url": "https://s3-media1.fl.yelpcdn.com/bphoto/iVYU-aZIJ-vUhFffCFhrCQ/o.jpg", "url": "https://www.yelp.com/biz/nick-and-sams-dallas?adjust_creative=gBcvfFpabk3CnzmXKdYe3w&utm_campaign=yelp_api_v3&utm_medium=api_v3_business_search&utm_source=gBcvfFpabk3CnzmXKdYe3w", "phone": "+12148717444", "coordinates": {"longitude": -96.8074539666488, "latitude": 32.798462335543}, "categories": [{"alias": "steak", "title": "Steakhouses"}, {"alias": "seafood", "title": "Seafood"}], "review_count": 747, "location": {"city": "Dallas", "address1": "3008 Maple Ave", "address3": "", "address2": "", "zip_code": "75201", "country": "US", "display_address": ["3008 Maple Ave", "Dallas, TX 75201"], "state": "TX"}, "price": "$$$$", "transactions": [], "display_phone": "(214) 871-7444"}, {"rating": 4.0, "is_closed": false, "distance": 3775.4371275579997, "name": "Oak Lawn Coffee", "id": "oak-lawn-coffee-dallas", "image_url": "https://s3-media1.fl.yelpcdn.com/bphoto/uv18o3XSDOreWifTwFvTVQ/o.jpg", "url": "https://www.yelp.com/biz/oak-lawn-coffee-dallas?adjust_creative=gBcvfFpabk3CnzmXKdYe3w&utm_campaign=yelp_api_v3&utm_medium=api_v3_business_search&utm_source=gBcvfFpabk3CnzmXKdYe3w", "phone": "+12148129914", "coordinates": {"longitude": -96.8113174438477, "latitude": 32.8063201904297}, "categories": [{"alias": "coffee", "title": "Coffee & Tea"}, {"alias": "breakfast_brunch", "title": "Breakfast & Brunch"}], "review_count": 320, "location": {"city": "Dallas", "address1": "2720 Oak Lawn Ave", "address3": "", "address2": "Ste A", "zip_code": "75219", "country": "US", "display_address": ["2720 Oak Lawn Ave", "Ste A", "Dallas, TX 75219"], "state": "TX"}, "price": "$", "transactions": [], "display_phone": "(214) 812-9914"}, {"rating": 4.5, "is_closed": false, "distance": 1894.73150423, "name": "Roly Poly", "id": "roly-poly-dallas-2", "image_url": "https://s3-media1.fl.yelpcdn.com/bphoto/8r8xJKAsPBCVKa2NkycgAA/o.jpg", "url": "https://www.yelp.com/biz/roly-poly-dallas-2?adjust_creative=gBcvfFpabk3CnzmXKdYe3w&utm_campaign=yelp_api_v3&utm_medium=api_v3_business_search&utm_source=gBcvfFpabk3CnzmXKdYe3w", "phone": "+12143630522", "coordinates": {"longitude": -96.7804294023773, "latitude": 32.8368447935078}, "categories": [{"alias": "delis", "title": "Delis"}, {"alias": "sandwiches", "title": "Sandwiches"}, {"alias": "vegetarian", "title": "Vegetarian"}], "review_count": 75, "location": {"city": "Dallas", "address1": "3038 Mockingbird Ln", "address3": "", "address2": "", "zip_code": "75205", "country": "US", "display_address": ["3038 Mockingbird Ln", "Dallas, TX 75205"], "state": "TX"}, "price": "$", "transactions": ["delivery", "pickup"], "display_phone": "(214) 363-0522"}, {"rating": 4.0, "is_closed": false, "distance": 6442.110127944, "name": "Cane Rosso", "id": "cane-rosso-dallas", "image_url": "https://s3-media1.fl.yelpcdn.com/bphoto/K83PSl6JiTJnLDOBdPKqng/o.jpg", "url": "https://www.yelp.com/biz/cane-rosso-dallas?adjust_creative=gBcvfFpabk3CnzmXKdYe3w&utm_campaign=yelp_api_v3&utm_medium=api_v3_business_search&utm_source=gBcvfFpabk3CnzmXKdYe3w", "phone": "+12147411188", "coordinates": {"longitude": -96.785507, "latitude": 32.782503}, "categories": [{"alias": "pizza", "title": "Pizza"}, {"alias": "italian", "title": "Italian"}, {"alias": "sandwiches", "title": "Sandwiches"}], "review_count": 1170, "location": {"city": "Dallas", "address1": "2612 Commerce St", "address3": "", "address2": "", "zip_code": "75226", "country": "US", "display_address": ["2612 Commerce St", "Dallas, TX 75226"], "state": "TX"}, "price": "$$", "transactions": [], "display_phone": "(214) 741-1188"}, {"rating": 4.0, "is_closed": false, "distance": 5357.039669856, "name": "Blue Sushi Sake Grill", "id": "blue-sushi-sake-grill-dallas", "image_url": "https://s3-media4.fl.yelpcdn.com/bphoto/iX1y7U2VcYdjgHyI1HXLoQ/o.jpg", "url": "https://www.yelp.com/biz/blue-sushi-sake-grill-dallas?adjust_creative=gBcvfFpabk3CnzmXKdYe3w&utm_campaign=yelp_api_v3&utm_medium=api_v3_business_search&utm_source=gBcvfFpabk3CnzmXKdYe3w", "phone": "+19726777887", "coordinates": {"longitude": -96.7728805558197, "latitude": 32.8812484431577}, "categories": [{"alias": "sushi", "title": "Sushi Bars"}, {"alias": "japanese", "title": "Japanese"}], "review_count": 417, "location": {"city": "Dallas", "address1": "7859 Walnut Hill Ln", "address3": "", "address2": "Ste 180", "zip_code": "75230", "country": "US", "display_address": ["7859 Walnut Hill Ln", "Ste 180", "Dallas, TX 75230"], "state": "TX"}, "price": "$$", "transactions": [], "display_phone": "(972) 677-7887"}, {"rating": 4.5, "is_closed": false, "distance": 4578.540435068, "name": "The Alcove", "id": "the-alcove-dallas-3", "image_url": "https://s3-media4.fl.yelpcdn.com/bphoto/7WgG2Yjtq7WjxR2zZl0PSQ/o.jpg", "url": "https://www.yelp.com/biz/the-alcove-dallas-3?adjust_creative=gBcvfFpabk3CnzmXKdYe3w&utm_campaign=yelp_api_v3&utm_medium=api_v3_business_search&utm_source=gBcvfFpabk3CnzmXKdYe3w", "phone": "+12148712200", "coordinates": {"longitude": -96.798046, "latitude": 32.7979211}, "categories": [{"alias": "wine_bars", "title": "Wine Bars"}, {"alias": "coffee", "title": "Coffee & Tea"}], "review_count": 77, "location": {"city": "Dallas", "address1": "2907 State St", "address3": "", "address2": null, "zip_code": "75204", "country": "US", "display_address": ["2907 State St", "Dallas, TX 75204"], "state": "TX"}, "price": "$$", "transactions": [], "display_phone": "(214) 871-2200"}, {"rating": 5.0, "is_closed": false, "distance": 5184.11383378, "name": "Yenat Guada Ethiopian Cuisine", "id": "yenat-guada-ethiopian-cuisine-dallas", "image_url": "https://s3-media2.fl.yelpcdn.com/bphoto/qDpEtwWgn8NlF7a8syAWHg/o.jpg", "url": "https://www.yelp.com/biz/yenat-guada-ethiopian-cuisine-dallas?adjust_creative=gBcvfFpabk3CnzmXKdYe3w&utm_campaign=yelp_api_v3&utm_medium=api_v3_business_search&utm_source=gBcvfFpabk3CnzmXKdYe3w", "phone": "+12144783193", "coordinates": {"longitude": -96.763587, "latitude": 32.873828}, "categories": [{"alias": "ethiopian", "title": "Ethiopian"}, {"alias": "cafes", "title": "Cafes"}, {"alias": "juicebars", "title": "Juice Bars & Smoothies"}], "review_count": 31, "location": {"city": "Dallas", "address1": "7015 Greenville Ave", "address3": null, "address2": "Ste 300", "zip_code": "75231", "country": "US", "display_address": ["7015 Greenville Ave", "Ste 300", "Dallas, TX 75231"], "state": "TX"}, "price": "$$", "transactions": [], "display_phone": "(214) 478-3193"}, {"rating": 4.0, "is_closed": false, "distance": 6328.701386549999, "name": "Cafe Izmir", "id": "cafe-izmir-dallas-3", "image_url": "https://s3-media1.fl.yelpcdn.com/bphoto/7b7cuzQNht_UeZAHhAk9GA/o.jpg", "url": "https://www.yelp.com/biz/cafe-izmir-dallas-3?adjust_creative=gBcvfFpabk3CnzmXKdYe3w&utm_campaign=yelp_api_v3&utm_medium=api_v3_business_search&utm_source=gBcvfFpabk3CnzmXKdYe3w", "phone": "+14699980123", "coordinates": {"longitude": -96.7976, "latitude": 32.782182}, "categories": [{"alias": "mediterranean", "title": "Mediterranean"}, {"alias": "mideastern", "title": "Middle Eastern"}, {"alias": "tapas", "title": "Tapas Bars"}], "review_count": 87, "location": {"city": "Dallas", "address1": "211 N Ervay St", "address3": "", "address2": null, "zip_code": "75201", "country": "US", "display_address": ["211 N Ervay St", "Dallas, TX 75201"], "state": "TX"}, "price": "$$", "transactions": ["delivery", "pickup"], "display_phone": "(469) 998-0123"}, {"rating": 4.0, "is_closed": false, "distance": 2599.35688313, "name": "Mesero - Henderson", "id": "mesero-henderson-dallas-6", "image_url": "https://s3-media3.fl.yelpcdn.com/bphoto/32xB60Za5vDun19A7HMMFw/o.jpg", "url": "https://www.yelp.com/biz/mesero-henderson-dallas-6?adjust_creative=gBcvfFpabk3CnzmXKdYe3w&utm_campaign=yelp_api_v3&utm_medium=api_v3_business_search&utm_source=gBcvfFpabk3CnzmXKdYe3w", "phone": "+12148216426", "coordinates": {"longitude": -96.784255, "latitude": 32.820089}, "categories": [{"alias": "mexican", "title": "Mexican"}, {"alias": "tex-mex", "title": "Tex-Mex"}], "review_count": 194, "location": {"city": "Dallas", "address1": "2822 N Henderson Ave", "address3": "", "address2": "", "zip_code": "75206", "country": "US", "display_address": ["2822 N Henderson Ave", "Dallas, TX 75206"], "state": "TX"}, "price": "$$", "transactions": [], "display_phone": "(214) 821-6426"}, {"rating": 4.0, "is_closed": false, "distance": 4425.270273081999, "name": "Whole Foods Market", "id": "whole-foods-market-dallas-8", "image_url": "https://s3-media3.fl.yelpcdn.com/bphoto/iydoUGpsXcLGl91zbLeYDw/o.jpg", "url": "https://www.yelp.com/biz/whole-foods-market-dallas-8?adjust_creative=gBcvfFpabk3CnzmXKdYe3w&utm_campaign=yelp_api_v3&utm_medium=api_v3_business_search&utm_source=gBcvfFpabk3CnzmXKdYe3w", "phone": "+12143424850", "coordinates": {"longitude": -96.7680970742611, "latitude": 32.8680440176994}, "categories": [{"alias": "grocery", "title": "Grocery"}, {"alias": "healthmarkets", "title": "Health Markets"}, {"alias": "coffee", "title": "Coffee & Tea"}], "review_count": 194, "location": {"city": "Dallas", "address1": "8190 Park Ln", "address3": "", "address2": "Ste 351", "zip_code": "75231", "country": "US", "display_address": ["8190 Park Ln", "Ste 351", "Dallas, TX 75231"], "state": "TX"}, "price": "$$$", "transactions": [], "display_phone": "(214) 342-4850"}, {"rating": 4.0, "is_closed": false, "distance": 3738.0854726959997, "name": "Sevan G & G Cafe", "id": "sevan-g-and-g-cafe-dallas-4", "image_url": "https://s3-media4.fl.yelpcdn.com/bphoto/hLpaHfh3_VWBLycibScuLw/o.jpg", "url": "https://www.yelp.com/biz/sevan-g-and-g-cafe-dallas-4?adjust_creative=gBcvfFpabk3CnzmXKdYe3w&utm_campaign=yelp_api_v3&utm_medium=api_v3_business_search&utm_source=gBcvfFpabk3CnzmXKdYe3w", "phone": "+12148210601", "coordinates": {"longitude": -96.7703149, "latitude": 32.8165976}, "categories": [{"alias": "mediterranean", "title": "Mediterranean"}, {"alias": "newamerican", "title": "American (New)"}], "review_count": 156, "location": {"city": "Dallas", "address1": "2221 Greenville Ave", "address3": "", "address2": "", "zip_code": "75206", "country": "US", "display_address": ["2221 Greenville Ave", "Dallas, TX 75206"], "state": "TX"}, "price": "$$", "transactions": ["pickup"], "display_phone": "(214) 821-0601"}, {"rating": 4.0, "is_closed": false, "distance": 3989.4637369599996, "name": "Seasons 52", "id": "seasons-52-dallas-2", "image_url": "https://s3-media1.fl.yelpcdn.com/bphoto/t7UxzWd4Q3wsJZM7BQkX8g/o.jpg", "url": "https://www.yelp.com/biz/seasons-52-dallas-2?adjust_creative=gBcvfFpabk3CnzmXKdYe3w&utm_campaign=yelp_api_v3&utm_medium=api_v3_business_search&utm_source=gBcvfFpabk3CnzmXKdYe3w", "phone": "+12143615252", "coordinates": {"longitude": -96.773491889499, "latitude": 32.8668085247836}, "categories": [{"alias": "newamerican", "title": "American (New)"}, {"alias": "wine_bars", "title": "Wine Bars"}, {"alias": "breakfast_brunch", "title": "Breakfast & Brunch"}], "review_count": 228, "location": {"city": "Dallas", "address1": "8687 N Central Expy", "address3": "", "address2": "Ste B307", "zip_code": "75225", "country": "US", "display_address": ["8687 N Central Expy", "Ste B307", "Dallas, TX 75225"], "state": "TX"}, "price": "$$", "transactions": ["delivery"], "display_phone": "(214) 361-5252"}, {"rating": 4.0, "is_closed": false, "distance": 2964.0980225979997, "name": "Grub Burger Bar", "id": "grub-burger-bar-dallas", "image_url": "https://s3-media4.fl.yelpcdn.com/bphoto/6kdnw2dJgBGtWqQJoe2vOA/o.jpg", "url": "https://www.yelp.com/biz/grub-burger-bar-dallas?adjust_creative=gBcvfFpabk3CnzmXKdYe3w&utm_campaign=yelp_api_v3&utm_medium=api_v3_business_search&utm_source=gBcvfFpabk3CnzmXKdYe3w", "phone": "+19723703636", "coordinates": {"longitude": -96.7702493447083, "latitude": 32.8469826836581}, "categories": [{"alias": "burgers", "title": "Burgers"}], "review_count": 385, "location": {"city": "Dallas", "address1": "4925 Greenville Ave", "address3": "", "address2": "", "zip_code": "75206", "country": "US", "display_address": ["4925 Greenville Ave", "Dallas, TX 75206"], "state": "TX"}, "price": "$$", "transactions": [], "display_phone": "(972) 370-3636"}]}