{"total": 32252, "region": {"center": {"longitude": -96.800537109375, "latitude": 32.839043482398054}}, "businesses": [{"rating": 4.0, "is_closed": false, "distance": 6917.679753983999, "name": "Pioneer Plaza Cattle Drive", "id": "pioneer-plaza-cattle-drive-dallas", "image_url": "https://s3-media1.fl.yelpcdn.com/bphoto/9qrAMcpU2lLTE7pu0MtmrA/o.jpg", "url": "https://www.yelp.com/biz/pioneer-plaza-cattle-drive-dallas?adjust_creative=gBcvfFpabk3CnzmXKdYe3w&utm_campaign=yelp_api_v3&utm_medium=api_v3_business_search&utm_source=gBcvfFpabk3CnzmXKdYe3w", "phone": "+12149531184", "coordinates": {"longitude": -96.8022846767937, "latitude": 32.7768598529474}, "categories": [{"alias": "localflavor", "title": "Local Flavor"}], "review_count": 37, "location": {"city": "Dallas", "address1": "Young St & Griffin St", "address3": "", "address2": "", "zip_code": "75202", "country": "US", "display_address": ["Young St & Griffin St", "Dallas, TX 75202"], "state": "TX"}, "transactions": [], "display_phone": "(214) 953-1184"}, {"rating": 3.5, "is_closed": false, "distance": 5077.82819216, "name": "S\u0112R Steak & Spirits", "id": "s\u0113r-steak-and-spirits-dallas-2", "image_url": "https://s3-media1.fl.yelpcdn.com/bphoto/krbRRGUN4Uejv-83vZoJBg/o.jpg", "url": "https://www.yelp.com/biz/s%C4%93r-steak-and-spirits-dallas-2?adjust_creative=gBcvfFpabk3CnzmXKdYe3w&utm_campaign=yelp_api_v3&utm_medium=api_v3_business_search&utm_source=gBcvfFpabk3CnzmXKdYe3w", "phone": "+12147617479", "coordinates": {"longitude": -96.8290370343933, "latitude": 32.8001625852709}, "categories": [{"alias": "seafood", "title": "Seafood"}, {"alias": "steak", "title": "Steakhouses"}, {"alias": "wine_bars", "title": "Wine Bars"}], "review_count": 153, "location": {"city": "Dallas", "address1": "2201 N Stemmons Fwy", "address3": "", "address2": "Fl 27", "zip_code": "75207", "country": "US", "display_address": ["2201 N Stemmons Fwy", "Fl 27", "Dallas, TX 75207"], "state": "TX"}, "price": "$$$$", "transactions": [], "display_phone": "(214) 761-7479"}, {"rating": 4.0, "is_closed": false, "distance": 7970.890429959999, "name": "Baby Back Shak", "id": "baby-back-shak-dallas", "image_url": "https://s3-media2.fl.yelpcdn.com/bphoto/zagjXscRCUh-__QBKYHV6g/o.jpg", "url": "https://www.yelp.com/biz/baby-back-shak-dallas?adjust_creative=gBcvfFpabk3CnzmXKdYe3w&utm_campaign=yelp_api_v3&utm_medium=api_v3_business_search&utm_source=gBcvfFpabk3CnzmXKdYe3w", "phone": "+12144287427", "coordinates": {"longitude": -96.7898330688477, "latitude": 32.7678718566895}, "categories": [{"alias": "bbq", "title": "Barbeque"}], "review_count": 111, "location": {"city": "Dallas", "address1": "1800 S Akard St", "address3": "", "address2": "", "zip_code": "75215", "country": "US", "display_address": ["1800 S Akard St", "Dallas, TX 75215"], "state": "TX"}, "price": "$$", "transactions": [], "display_phone": "(214) 428-7427"}, {"rating": 3.5, "is_closed": false, "distance": 4115.47827764, "name": "Dallas Beer Kitchen", "id": "dallas-beer-kitchen-dallas", "image_url": "https://s3-media2.fl.yelpcdn.com/bphoto/JeKmop5EhXZvh0Ou4Cm79Q/o.jpg", "url": "https://www.yelp.com/biz/dallas-beer-kitchen-dallas?adjust_creative=gBcvfFpabk3CnzmXKdYe3w&utm_campaign=yelp_api_v3&utm_medium=api_v3_business_search&utm_source=gBcvfFpabk3CnzmXKdYe3w", "phone": "+12144842481", "coordinates": {"longitude": -96.7699971422553, "latitude": 32.8123730724531}, "categories": [{"alias": "bars", "title": "Bars"}], "review_count": 108, "location": {"city": "Dallas", "address1": "1802 Greenville Ave", "address3": "", "address2": "Ste 110", "zip_code": "75206", "country": "US", "display_address": ["1802 Greenville Ave", "Ste 110", "Dallas, TX 75206"], "state": "TX"}, "price": "$$", "transactions": [], "display_phone": "(214) 484-2481"}, {"rating": 3.5, "is_closed": false, "distance": 2183.564903918, "name": "Cafe Express", "id": "cafe-express-dallas-2", "image_url": "https://s3-media2.fl.yelpcdn.com/bphoto/w2oZ5lfN3y8zo-eTFhV7jg/o.jpg", "url": "https://www.yelp.com/biz/cafe-express-dallas-2?adjust_creative=gBcvfFpabk3CnzmXKdYe3w&utm_campaign=yelp_api_v3&utm_medium=api_v3_business_search&utm_source=gBcvfFpabk3CnzmXKdYe3w", "phone": "+12148419444", "coordinates": {"longitude": -96.77772, "latitude": 32.83685}, "categories": [{"alias": "sandwiches", "title": "Sandwiches"}, {"alias": "mexican", "title": "Mexican"}], "review_count": 104, "location": {"city": "Dallas", "address1": "5307 E Mockingbird Ln", "address3": "", "address2": "", "zip_code": "75206", "country": "US", "display_address": ["5307 E Mockingbird Ln", "Dallas, TX 75206"], "state": "TX"}, "price": "$$", "transactions": [], "display_phone": "(214) 841-9444"}, {"rating": 4.5, "is_closed": false, "distance": 4736.611580142, "name": "East Bound and Down Icehouse", "id": "east-bound-and-down-icehouse-dallas", "image_url": "https://s3-media2.fl.yelpcdn.com/bphoto/nSUKzc2UNa9QFd_FkPNvEA/o.jpg", "url": "https://www.yelp.com/biz/east-bound-and-down-icehouse-dallas?adjust_creative=gBcvfFpabk3CnzmXKdYe3w&utm_campaign=yelp_api_v3&utm_medium=api_v3_business_search&utm_source=gBcvfFpabk3CnzmXKdYe3w", "phone": "+12144553112", "coordinates": {"longitude": -96.78502, "latitude": 32.7984}, "categories": [{"alias": "divebars", "title": "Dive Bars"}], "review_count": 13, "location": {"city": "Dallas", "address1": "3826 Ross Ave", "address3": "", "address2": "", "zip_code": "75204", "country": "US", "display_address": ["3826 Ross Ave", "Dallas, TX 75204"], "state": "TX"}, "price": "$", "transactions": [], "display_phone": "(214) 455-3112"}, {"rating": 4.5, "is_closed": false, "distance": 12789.34370833, "name": "Gyu-Kaku Japanese BBQ", "id": "gyu-kaku-japanese-bbq-dallas", "image_url": "https://s3-media1.fl.yelpcdn.com/bphoto/mjIqUnGMpT8jEd5dogduNw/o.jpg", "url": "https://www.yelp.com/biz/gyu-kaku-japanese-bbq-dallas?adjust_creative=gBcvfFpabk3CnzmXKdYe3w&utm_campaign=yelp_api_v3&utm_medium=api_v3_business_search&utm_source=gBcvfFpabk3CnzmXKdYe3w", "phone": "+14695673237", "coordinates": {"longitude": -96.81707, "latitude": 32.953247}, "categories": [{"alias": "japanese", "title": "Japanese"}, {"alias": "bbq", "title": "Barbeque"}], "review_count": 142, "location": {"city": "Dallas", "address1": "5290 Belt Line Rd", "address3": null, "address2": "Ste 115", "zip_code": "75254", "country": "US", "display_address": ["5290 Belt Line Rd", "Ste 115", "Dallas, TX 75254"], "state": "TX"}, "price": "$$", "transactions": [], "display_phone": "(469) 567-3237"}, {"rating": 3.5, "is_closed": false, "distance": 6367.04954474, "name": "Kaze", "id": "kaze-dallas", "image_url": "https://s3-media1.fl.yelpcdn.com/bphoto/CsGNJO-IYNm4UqxLCF-YMQ/o.jpg", "url": "https://www.yelp.com/biz/kaze-dallas?adjust_creative=gBcvfFpabk3CnzmXKdYe3w&utm_campaign=yelp_api_v3&utm_medium=api_v3_business_search&utm_source=gBcvfFpabk3CnzmXKdYe3w", "phone": "+12149872333", "coordinates": {"longitude": -96.75928, "latitude": 32.88469}, "categories": [{"alias": "japanese", "title": "Japanese"}], "review_count": 104, "location": {"city": "Dallas", "address1": "7525 Greenville Ave", "address3": "", "address2": "", "zip_code": "75231", "country": "US", "display_address": ["7525 Greenville Ave", "Dallas, TX 75231"], "state": "TX"}, "price": "$$", "transactions": [], "display_phone": "(214) 987-2333"}, {"rating": 3.5, "is_closed": false, "distance": 5306.899072816, "name": "Penne Pomodoro", "id": "penne-pomodoro-dallas-3", "image_url": "https://s3-media1.fl.yelpcdn.com/bphoto/y59ZkkAOUk36Kpj81-bfsg/o.jpg", "url": "https://www.yelp.com/biz/penne-pomodoro-dallas-3?adjust_creative=gBcvfFpabk3CnzmXKdYe3w&utm_campaign=yelp_api_v3&utm_medium=api_v3_business_search&utm_source=gBcvfFpabk3CnzmXKdYe3w", "phone": "+12148266075", "coordinates": {"longitude": -96.7525851, "latitude": 32.8129691}, "categories": [{"alias": "italian", "title": "Italian"}, {"alias": "breakfast_brunch", "title": "Breakfast & Brunch"}, {"alias": "pizza", "title": "Pizza"}], "review_count": 105, "location": {"city": "Dallas", "address1": "1924 Abrams Pkwy", "address3": "", "address2": "", "zip_code": "75214", "country": "US", "display_address": ["1924 Abrams Pkwy", "Dallas, TX 75214"], "state": "TX"}, "price": "$$", "transactions": ["delivery", "pickup"], "display_phone": "(214) 826-6075"}, {"rating": 4.5, "is_closed": false, "distance": 8644.08861734, "name": "The Original Snappy Catfish", "id": "the-original-snappy-catfish-dallas-3", "image_url": "https://s3-media3.fl.yelpcdn.com/bphoto/-xvNa7xI2Gn4TQQTyy4vyw/o.jpg", "url": "https://www.yelp.com/biz/the-original-snappy-catfish-dallas-3?adjust_creative=gBcvfFpabk3CnzmXKdYe3w&utm_campaign=yelp_api_v3&utm_medium=api_v3_business_search&utm_source=gBcvfFpabk3CnzmXKdYe3w", "phone": "+12148193862", "coordinates": {"longitude": -96.8605388, "latitude": 32.7789049}, "categories": [{"alias": "fishnchips", "title": "Fish & Chips"}, {"alias": "sandwiches", "title": "Sandwiches"}], "review_count": 29, "location": {"city": "Dallas", "address1": "2223 Singleton", "address3": "", "address2": "Ste 222", "zip_code": "75212", "country": "US", "display_address": ["2223 Singleton", "Ste 222", "Dallas, TX 75212"], "state": "TX"}, "price": "$", "transactions": [], "display_phone": "(214) 819-3862"}, {"rating": 4.0, "is_closed": false, "distance": 2024.0010959939998, "name": "Snap Kitchen", "id": "snap-kitchen-dallas-11", "image_url": "https://s3-media4.fl.yelpcdn.com/bphoto/9sN4UJYtK7f0z5Ru0czWOg/o.jpg", "url": "https://www.yelp.com/biz/snap-kitchen-dallas-11?adjust_creative=gBcvfFpabk3CnzmXKdYe3w&utm_campaign=yelp_api_v3&utm_medium=api_v3_business_search&utm_source=gBcvfFpabk3CnzmXKdYe3w", "phone": "+12146134489", "coordinates": {"longitude": -96.8164221569896, "latitude": 32.8514212588301}, "categories": [{"alias": "newamerican", "title": "American (New)"}, {"alias": "gluten_free", "title": "Gluten-Free"}, {"alias": "vegetarian", "title": "Vegetarian"}], "review_count": 10, "location": {"city": "Dallas", "address1": "5627 Lovers Ln", "address3": "", "address2": "", "zip_code": "75209", "country": "US", "display_address": ["5627 Lovers Ln", "Dallas, TX 75209"], "state": "TX"}, "price": "$$", "transactions": [], "display_phone": "(214) 613-4489"}, {"rating": 4.5, "is_closed": false, "distance": 2066.42313746, "name": "Grange Hall Restaurant", "id": "grange-hall-restaurant-dallas", "image_url": "https://s3-media4.fl.yelpcdn.com/bphoto/ICrzefmBEFe0X4xa7Oi8Qg/o.jpg", "url": "https://www.yelp.com/biz/grange-hall-restaurant-dallas?adjust_creative=gBcvfFpabk3CnzmXKdYe3w&utm_campaign=yelp_api_v3&utm_medium=api_v3_business_search&utm_source=gBcvfFpabk3CnzmXKdYe3w", "phone": "+12144435175", "coordinates": {"longitude": -96.7917557, "latitude": 32.8212242}, "categories": [{"alias": "newamerican", "title": "American (New)"}], "review_count": 13, "location": {"city": "Dallas", "address1": "4445 Travis St", "address3": "", "address2": "", "zip_code": "75205", "country": "US", "display_address": ["4445 Travis St", "Dallas, TX 75205"], "state": "TX"}, "price": "$$$", "transactions": [], "display_phone": "(214) 443-5175"}, {"rating": 4.0, "is_closed": false, "distance": 4305.873016613999, "name": "Antoine's Foods", "id": "antoines-foods-dallas", "image_url": "https://s3-media1.fl.yelpcdn.com/bphoto/iw_Rldgl7MnKEwRg5HC8Ew/o.jpg", "url": "https://www.yelp.com/biz/antoines-foods-dallas?adjust_creative=gBcvfFpabk3CnzmXKdYe3w&utm_campaign=yelp_api_v3&utm_medium=api_v3_business_search&utm_source=gBcvfFpabk3CnzmXKdYe3w", "phone": "+12145285291", "coordinates": {"longitude": -96.82262, "latitude": 32.80506}, "categories": [{"alias": "delis", "title": "Delis"}, {"alias": "sandwiches", "title": "Sandwiches"}], "review_count": 36, "location": {"city": "Dallas", "address1": "4234 Harry Hines Blvd", "address3": "", "address2": "", "zip_code": "75219", "country": "US", "display_address": ["4234 Harry Hines Blvd", "Dallas, TX 75219"], "state": "TX"}, "price": "$", "transactions": [], "display_phone": "(214) 528-5291"}, {"rating": 3.5, "is_closed": false, "distance": 7139.80311386, "name": "Saint Rocco's at Trinity Groves", "id": "saint-roccos-new-york-italian-dallas", "image_url": "https://s3-media2.fl.yelpcdn.com/bphoto/GDoOCZPLgXyjVeo-em66QA/o.jpg", "url": "https://www.yelp.com/biz/saint-roccos-new-york-italian-dallas?adjust_creative=gBcvfFpabk3CnzmXKdYe3w&utm_campaign=yelp_api_v3&utm_medium=api_v3_business_search&utm_source=gBcvfFpabk3CnzmXKdYe3w", "phone": "+14693209707", "coordinates": {"longitude": -96.828607, "latitude": 32.7793225}, "categories": [{"alias": "italian", "title": "Italian"}, {"alias": "salad", "title": "Salad"}], "review_count": 148, "location": {"city": "Dallas", "address1": "3011 Gulden Ln", "address3": "", "address2": "Ste 100", "zip_code": "75212", "country": "US", "display_address": ["3011 Gulden Ln", "Ste 100", "Dallas, TX 75212"], "state": "TX"}, "price": "$$", "transactions": [], "display_phone": "(469) 320-9707"}, {"rating": 4.0, "is_closed": false, "distance": 11265.87406738, "name": "Carmine's Pizzeria", "id": "carmines-pizzeria-dallas", "image_url": "https://s3-media3.fl.yelpcdn.com/bphoto/pA-9AfWER4EezsBabNi8mA/o.jpg", "url": "https://www.yelp.com/biz/carmines-pizzeria-dallas?adjust_creative=gBcvfFpabk3CnzmXKdYe3w&utm_campaign=yelp_api_v3&utm_medium=api_v3_business_search&utm_source=gBcvfFpabk3CnzmXKdYe3w", "phone": "+19724048110", "coordinates": {"longitude": -96.815259, "latitude": 32.939602}, "categories": [{"alias": "italian", "title": "Italian"}, {"alias": "pizza", "title": "Pizza"}], "review_count": 135, "location": {"city": "Dallas", "address1": "5365 Spring Valley Rd", "address3": "", "address2": "", "zip_code": "75254", "country": "US", "display_address": ["5365 Spring Valley Rd", "Dallas, TX 75254"], "state": "TX"}, "price": "$", "transactions": [], "display_phone": "(972) 404-8110"}, {"rating": 5.0, "is_closed": false, "distance": 6212.632728004, "name": "Buda Juice", "id": "buda-juice-dallas-2", "image_url": "https://s3-media2.fl.yelpcdn.com/bphoto/lUlZG66MutEcj8vSl_ogrw/o.jpg", "url": "https://www.yelp.com/biz/buda-juice-dallas-2?adjust_creative=gBcvfFpabk3CnzmXKdYe3w&utm_campaign=yelp_api_v3&utm_medium=api_v3_business_search&utm_source=gBcvfFpabk3CnzmXKdYe3w", "phone": "+19728034495", "coordinates": {"longitude": -96.8049622, "latitude": 32.8946342}, "categories": [{"alias": "juicebars", "title": "Juice Bars & Smoothies"}, {"alias": "organic_stores", "title": "Organic Stores"}, {"alias": "vegetarian", "title": "Vegetarian"}], "review_count": 9, "location": {"city": "Dallas", "address1": "5954 Royal Ln", "address3": "", "address2": null, "zip_code": "75230", "country": "US", "display_address": ["5954 Royal Ln", "Dallas, TX 75230"], "state": "TX"}, "price": "$$", "transactions": [], "display_phone": "(972) 803-4495"}, {"rating": 4.0, "is_closed": false, "distance": 4607.318170146, "name": "My Family's Pizza", "id": "my-familys-pizza-dallas", "image_url": "https://s3-media2.fl.yelpcdn.com/bphoto/eozUT6felO39DqKq4hpR9Q/o.jpg", "url": "https://www.yelp.com/biz/my-familys-pizza-dallas?adjust_creative=gBcvfFpabk3CnzmXKdYe3w&utm_campaign=yelp_api_v3&utm_medium=api_v3_business_search&utm_source=gBcvfFpabk3CnzmXKdYe3w", "phone": "+12145159009", "coordinates": {"longitude": -96.7620556141556, "latitude": 32.8131355982048}, "categories": [{"alias": "pizza", "title": "Pizza"}], "review_count": 43, "location": {"city": "Dallas", "address1": "1915 Skillman St", "address3": "", "address2": "", "zip_code": "75206", "country": "US", "display_address": ["1915 Skillman St", "Dallas, TX 75206"], "state": "TX"}, "price": "$$", "transactions": ["delivery", "pickup"], "display_phone": "(214) 515-9009"}, {"rating": 4.0, "is_closed": false, "distance": 12816.30980937, "name": "Chamberlain's Steak & Chop House", "id": "chamberlains-steak-and-chop-house-dallas-4", "image_url": "https://s3-media3.fl.yelpcdn.com/bphoto/CoAiWEIANU9sh-yUoEsIXg/o.jpg", "url": "https://www.yelp.com/biz/chamberlains-steak-and-chop-house-dallas-4?adjust_creative=gBcvfFpabk3CnzmXKdYe3w&utm_campaign=yelp_api_v3&utm_medium=api_v3_business_search&utm_source=gBcvfFpabk3CnzmXKdYe3w", "phone": "+19729342467", "coordinates": {"longitude": -96.8147202456752, "latitude": 32.9536858174411}, "categories": [{"alias": "steak", "title": "Steakhouses"}], "review_count": 321, "location": {"city": "Dallas", "address1": "5330 Belt Line Rd", "address3": "", "address2": "", "zip_code": "75254", "country": "US", "display_address": ["5330 Belt Line Rd", "Dallas, TX 75254"], "state": "TX"}, "price": "$$$", "transactions": [], "display_phone": "(972) 934-2467"}, {"rating": 4.0, "is_closed": false, "distance": 3904.734078102, "name": "Simply Fondue", "id": "simply-fondue-dallas-2", "image_url": "https://s3-media2.fl.yelpcdn.com/bphoto/f0KRiJZd2sRU2pYVj4T0sA/o.jpg", "url": "https://www.yelp.com/biz/simply-fondue-dallas-2?adjust_creative=gBcvfFpabk3CnzmXKdYe3w&utm_campaign=yelp_api_v3&utm_medium=api_v3_business_search&utm_source=gBcvfFpabk3CnzmXKdYe3w", "phone": "+12148278878", "coordinates": {"longitude": -96.7700451, "latitude": 32.8150956}, "categories": [{"alias": "fondue", "title": "Fondue"}], "review_count": 63, "location": {"city": "Dallas", "address1": "2108 Greenville Ave", "address3": null, "address2": "", "zip_code": "75206", "country": "US", "display_address": ["2108 Greenville Ave", "Dallas, TX 75206"], "state": "TX"}, "price": "$$$", "transactions": [], "display_phone": "(214) 827-8878"}, {"rating": 3.5, "is_closed": false, "distance": 4572.897123424, "name": "Gordon Biersch Brewery Restaurant", "id": "gordon-biersch-brewery-restaurant-dallas", "image_url": "https://s3-media2.fl.yelpcdn.com/bphoto/Bf4s_t88mV5aM6OrNCn3Ng/o.jpg", "url": "https://www.yelp.com/biz/gordon-biersch-brewery-restaurant-dallas?adjust_creative=gBcvfFpabk3CnzmXKdYe3w&utm_campaign=yelp_api_v3&utm_medium=api_v3_business_search&utm_source=gBcvfFpabk3CnzmXKdYe3w", "phone": "+12143692739", "coordinates": {"longitude": -96.768567, "latitude": 32.870189}, "categories": [{"alias": "breweries", "title": "Breweries"}, {"alias": "bars", "title": "Bars"}, {"alias": "newamerican", "title": "American (New)"}], "review_count": 240, "location": {"city": "Dallas", "address1": "8060 Park Ln", "address3": "", "address2": "Ste 125", "zip_code": "75231", "country": "US", "display_address": ["8060 Park Ln", "Ste 125", "Dallas, TX 75231"], "state": "TX"}, "price": "$$", "transactions": [], "display_phone": "(214) 369-2739"}, {"rating": 3.5, "is_closed": false, "distance": 2988.694370488, "name": "R Taco", "id": "r-taco-dallas-3", "image_url": "https://s3-media4.fl.yelpcdn.com/bphoto/obTJH5sq4As3ESA3shh02A/o.jpg", "url": "https://www.yelp.com/biz/r-taco-dallas-3?adjust_creative=gBcvfFpabk3CnzmXKdYe3w&utm_campaign=yelp_api_v3&utm_medium=api_v3_business_search&utm_source=gBcvfFpabk3CnzmXKdYe3w", "phone": "+12146130508", "coordinates": {"longitude": -96.769586, "latitude": 32.845837}, "categories": [{"alias": "mexican", "title": "Mexican"}, {"alias": "tex-mex", "title": "Tex-Mex"}], "review_count": 359, "location": {"city": "Dallas", "address1": "4802 Greenville Ave", "address3": "", "address2": "", "zip_code": "75206", "country": "US", "display_address": ["4802 Greenville Ave", "Dallas, TX 75206"], "state": "TX"}, "price": "$", "transactions": [], "display_phone": "(214) 613-0508"}, {"rating": 4.0, "is_closed": false, "distance": 10106.624139738, "name": "Bennys Classic Grill", "id": "bennys-classic-grill-dallas", "image_url": "https://s3-media4.fl.yelpcdn.com/bphoto/vBaK-oWtv-I0MD9vcjCqWQ/o.jpg", "url": "https://www.yelp.com/biz/bennys-classic-grill-dallas?adjust_creative=gBcvfFpabk3CnzmXKdYe3w&utm_campaign=yelp_api_v3&utm_medium=api_v3_business_search&utm_source=gBcvfFpabk3CnzmXKdYe3w", "phone": "+12143241312", "coordinates": {"longitude": -96.69239, "latitude": 32.84129}, "categories": [{"alias": "sandwiches", "title": "Sandwiches"}, {"alias": "burgers", "title": "Burgers"}], "review_count": 87, "location": {"city": "Dallas", "address1": "10302 Garland Rd", "address3": "", "address2": "", "zip_code": "75218", "country": "US", "display_address": ["10302 Garland Rd", "Dallas, TX 75218"], "state": "TX"}, "price": "$", "transactions": [], "display_phone": "(214) 324-1312"}, {"rating": 3.5, "is_closed": false, "distance": 6270.98482146, "name": "Anvil Pub", "id": "anvil-pub-dallas", "image_url": "https://s3-media2.fl.yelpcdn.com/bphoto/mYtT4j9kQ9vxk19eEIsMCg/o.jpg", "url": "https://www.yelp.com/biz/anvil-pub-dallas?adjust_creative=gBcvfFpabk3CnzmXKdYe3w&utm_campaign=yelp_api_v3&utm_medium=api_v3_business_search&utm_source=gBcvfFpabk3CnzmXKdYe3w", "phone": "+12147411271", "coordinates": {"longitude": -96.785026, "latitude": 32.784172}, "categories": [{"alias": "pubs", "title": "Pubs"}, {"alias": "newamerican", "title": "American (New)"}, {"alias": "vegan", "title": "Vegan"}], "review_count": 346, "location": {"city": "Dallas", "address1": "2638 Elm St", "address3": "", "address2": "", "zip_code": "75226", "country": "US", "display_address": ["2638 Elm St", "Dallas, TX 75226"], "state": "TX"}, "price": "$$", "transactions": [], "display_phone": "(214) 741-1271"}, {"rating": 3.0, "is_closed": false, "distance": 3817.8313274419997, "name": "The Cheesecake Factory", "id": "the-cheesecake-factory-dallas", "image_url": "https://s3-media4.fl.yelpcdn.com/bphoto/Q8OPgzaCbEFiNIL2kNxZTg/o.jpg", "url": "https://www.yelp.com/biz/the-cheesecake-factory-dallas?adjust_creative=gBcvfFpabk3CnzmXKdYe3w&utm_campaign=yelp_api_v3&utm_medium=api_v3_business_search&utm_source=gBcvfFpabk3CnzmXKdYe3w", "phone": "+12143734844", "coordinates": {"longitude": -96.7729952477463, "latitude": 32.8644090414872}, "categories": [{"alias": "tradamerican", "title": "American (Traditional)"}, {"alias": "desserts", "title": "Desserts"}], "review_count": 295, "location": {"city": "Dallas", "address1": "7700 W Northwest Hwy", "address3": "", "address2": "", "zip_code": "75225", "country": "US", "display_address": ["7700 W Northwest Hwy", "Dallas, TX 75225"], "state": "TX"}, "price": "$$", "transactions": ["delivery"], "display_phone": "(214) 373-4844"}, {"rating": 3.5, "is_closed": false, "distance": 7885.018783438, "name": "Woodlands American Grill", "id": "woodlands-american-grill-dallas", "image_url": "https://s3-media1.fl.yelpcdn.com/bphoto/Io0ya6U3HV5Zvhv_EfbJUw/o.jpg", "url": "https://www.yelp.com/biz/woodlands-american-grill-dallas?adjust_creative=gBcvfFpabk3CnzmXKdYe3w&utm_campaign=yelp_api_v3&utm_medium=api_v3_business_search&utm_source=gBcvfFpabk3CnzmXKdYe3w", "phone": "+19722392024", "coordinates": {"longitude": -96.8018018, "latitude": 32.9099455}, "categories": [{"alias": "tradamerican", "title": "American (Traditional)"}, {"alias": "steak", "title": "Steakhouses"}, {"alias": "wine_bars", "title": "Wine Bars"}], "review_count": 125, "location": {"city": "Dallas", "address1": "6073 Forest Ln", "address3": "", "address2": "", "zip_code": "75230", "country": "US", "display_address": ["6073 Forest Ln", "Dallas, TX 75230"], "state": "TX"}, "price": "$$", "transactions": [], "display_phone": "(972) 239-2024"}, {"rating": 3.5, "is_closed": false, "distance": 4692.3272104279995, "name": "Lakewood's 1st & 10", "id": "lakewoods-1st-and-10-dallas", "image_url": "https://s3-media4.fl.yelpcdn.com/bphoto/NEqLwELIUetFsooezL2tBA/o.jpg", "url": "https://www.yelp.com/biz/lakewoods-1st-and-10-dallas?adjust_creative=gBcvfFpabk3CnzmXKdYe3w&utm_campaign=yelp_api_v3&utm_medium=api_v3_business_search&utm_source=gBcvfFpabk3CnzmXKdYe3w", "phone": "+12148260110", "coordinates": {"longitude": -96.7503769, "latitude": 32.8369577}, "categories": [{"alias": "sportsbars", "title": "Sports Bars"}], "review_count": 77, "location": {"city": "Dallas", "address1": "6465 East Mockingbird Ln", "address3": "", "address2": "Ste 316", "zip_code": "75214", "country": "US", "display_address": ["6465 East Mockingbird Ln", "Ste 316", "Dallas, TX 75214"], "state": "TX"}, "price": "$", "transactions": [], "display_phone": "(214) 826-0110"}, {"rating": 3.5, "is_closed": false, "distance": 2881.7270124439997, "name": "Start", "id": "start-dallas-3", "image_url": "https://s3-media2.fl.yelpcdn.com/bphoto/Uu66rgua-43vX9XfbYNgxg/o.jpg", "url": "https://www.yelp.com/biz/start-dallas-3?adjust_creative=gBcvfFpabk3CnzmXKdYe3w&utm_campaign=yelp_api_v3&utm_medium=api_v3_business_search&utm_source=gBcvfFpabk3CnzmXKdYe3w", "phone": "+12145997873", "coordinates": {"longitude": -96.80878, "latitude": 32.81412}, "categories": [{"alias": "breakfast_brunch", "title": "Breakfast & Brunch"}], "review_count": 109, "location": {"city": "Dallas", "address1": "4023 Lemmon Ave", "address3": "Dallas", "address2": "", "zip_code": "75219", "country": "US", "display_address": ["4023 Lemmon Ave", "Dallas", "Dallas, TX 75219"], "state": "TX"}, "price": "$$", "transactions": [], "display_phone": "(214) 599-7873"}, {"rating": 4.5, "is_closed": false, "distance": 4810.5145650839995, "name": "White Rock Coffee", "id": "white-rock-coffee-dallas-2", "image_url": "https://s3-media3.fl.yelpcdn.com/bphoto/WUs8JoemiB-9BwuA8mIMJQ/o.jpg", "url": "https://www.yelp.com/biz/white-rock-coffee-dallas-2?adjust_creative=gBcvfFpabk3CnzmXKdYe3w&utm_campaign=yelp_api_v3&utm_medium=api_v3_business_search&utm_source=gBcvfFpabk3CnzmXKdYe3w", "phone": "+12144566773", "coordinates": {"longitude": -96.837883, "latitude": 32.809267}, "categories": [{"alias": "coffee", "title": "Coffee & Tea"}], "review_count": 11, "location": {"city": "Dallas", "address1": "1935 Medical District Dr", "address3": "Fl 4, Bright Bldg", "address2": "", "zip_code": "75235", "country": "US", "display_address": ["1935 Medical District Dr", "Fl 4, Bright Bldg", "Dallas, TX 75235"], "state": "TX"}, "price": "$", "transactions": [], "display_phone": "(214) 456-6773"}, {"rating": 4.0, "is_closed": false, "distance": 10323.67148032, "name": "Ten Bells Tavern", "id": "ten-bells-tavern-dallas", "image_url": "https://s3-media3.fl.yelpcdn.com/bphoto/siH_XfrTJ3fyleZKKX--Jg/o.jpg", "url": "https://www.yelp.com/biz/ten-bells-tavern-dallas?adjust_creative=gBcvfFpabk3CnzmXKdYe3w&utm_campaign=yelp_api_v3&utm_medium=api_v3_business_search&utm_source=gBcvfFpabk3CnzmXKdYe3w", "phone": "+12149432677", "coordinates": {"longitude": -96.825974, "latitude": 32.748695}, "categories": [{"alias": "pubs", "title": "Pubs"}, {"alias": "british", "title": "British"}], "review_count": 219, "location": {"city": "Dallas", "address1": "232 W 7th St", "address3": "", "address2": "", "zip_code": "75208", "country": "US", "display_address": ["232 W 7th St", "Dallas, TX 75208"], "state": "TX"}, "price": "$$", "transactions": [], "display_phone": "(214) 943-2677"}, {"rating": 3.5, "is_closed": false, "distance": 2000.5039273239997, "name": "Starbucks", "id": "starbucks-dallas-37", "image_url": "https://s3-media3.fl.yelpcdn.com/bphoto/sTVmwjX9O_gTS4eG4YRGKw/o.jpg", "url": "https://www.yelp.com/biz/starbucks-dallas-37?adjust_creative=gBcvfFpabk3CnzmXKdYe3w&utm_campaign=yelp_api_v3&utm_medium=api_v3_business_search&utm_source=gBcvfFpabk3CnzmXKdYe3w", "phone": "+12145202273", "coordinates": {"longitude": -96.7895165427143, "latitude": 32.8236159861271}, "categories": [{"alias": "coffee", "title": "Coffee & Tea"}], "review_count": 50, "location": {"city": "Dallas", "address1": "3216 Knox St", "address3": "", "address2": "", "zip_code": "75205", "country": "US", "display_address": ["3216 Knox St", "Dallas, TX 75205"], "state": "TX"}, "price": "$", "transactions": [], "display_phone": "(214) 520-2273"}, {"rating": 3.5, "is_closed": false, "distance": 5261.377603444, "name": "Matchbox - Preston Hollow", "id": "matchbox-preston-hollow-dallas", "image_url": "https://s3-media3.fl.yelpcdn.com/bphoto/pInlM5d50XksJt9xN_x3Tg/o.jpg", "url": "https://www.yelp.com/biz/matchbox-preston-hollow-dallas?adjust_creative=gBcvfFpabk3CnzmXKdYe3w&utm_campaign=yelp_api_v3&utm_medium=api_v3_business_search&utm_source=gBcvfFpabk3CnzmXKdYe3w", "phone": "+18447122369", "coordinates": {"longitude": -96.772497, "latitude": 32.8802649}, "categories": [{"alias": "pizza", "title": "Pizza"}, {"alias": "french", "title": "French"}], "review_count": 157, "location": {"city": "Dallas", "address1": "7859 Walnut Hill Ln", "address3": "", "address2": "Ste 140", "zip_code": "75230", "country": "US", "display_address": ["7859 Walnut Hill Ln", "Ste 140", "Dallas, TX 75230"], "state": "TX"}, "price": "$$", "transactions": [], "display_phone": "(844) 712-2369"}, {"rating": 3.5, "is_closed": false, "distance": 10351.57984993, "name": "Tillman's Roadhouse", "id": "tillmans-roadhouse-dallas", "image_url": "https://s3-media3.fl.yelpcdn.com/bphoto/c_FwLSZ0UwHe60fdtr9EFA/o.jpg", "url": "https://www.yelp.com/biz/tillmans-roadhouse-dallas?adjust_creative=gBcvfFpabk3CnzmXKdYe3w&utm_campaign=yelp_api_v3&utm_medium=api_v3_business_search&utm_source=gBcvfFpabk3CnzmXKdYe3w", "phone": "+12149420988", "coordinates": {"longitude": -96.82723, "latitude": 32.74869}, "categories": [{"alias": "comfortfood", "title": "Comfort Food"}, {"alias": "steak", "title": "Steakhouses"}, {"alias": "burgers", "title": "Burgers"}], "review_count": 489, "location": {"city": "Dallas", "address1": "324 W 7th St", "address3": "", "address2": "", "zip_code": "75208", "country": "US", "display_address": ["324 W 7th St", "Dallas, TX 75208"], "state": "TX"}, "price": "$$", "transactions": [], "display_phone": "(214) 942-0988"}, {"rating": 5.0, "is_closed": false, "distance": 10765.44979438, "name": "Cheese & Chutney", "id": "cheese-and-chutney-dallas", "image_url": "https://s3-media2.fl.yelpcdn.com/bphoto/6sAqZVPl8KQ6aeWEtc6-xg/o.jpg", "url": "https://www.yelp.com/biz/cheese-and-chutney-dallas?adjust_creative=gBcvfFpabk3CnzmXKdYe3w&utm_campaign=yelp_api_v3&utm_medium=api_v3_business_search&utm_source=gBcvfFpabk3CnzmXKdYe3w", "phone": "+14699177318", "coordinates": {"longitude": -96.8438828807807, "latitude": 32.7493447793343}, "categories": [{"alias": "cheese", "title": "Cheese Shops"}, {"alias": "beer_and_wine", "title": "Beer, Wine & Spirits"}, {"alias": "sandwiches", "title": "Sandwiches"}], "review_count": 10, "location": {"city": "Dallas", "address1": "1318 W Davis St", "address3": null, "address2": "", "zip_code": "75208", "country": "US", "display_address": ["1318 W Davis St", "Dallas, TX 75208"], "state": "TX"}, "price": "$$", "transactions": [], "display_phone": "(469) 917-7318"}, {"rating": 4.0, "is_closed": false, "distance": 8808.927841784, "name": "Urban Vines Wine Bistro", "id": "urban-vines-wine-bistro-dallas-2", "image_url": "https://s3-media3.fl.yelpcdn.com/bphoto/ZJfCrMwMIdef5RHD38NQcg/o.jpg", "url": "https://www.yelp.com/biz/urban-vines-wine-bistro-dallas-2?adjust_creative=gBcvfFpabk3CnzmXKdYe3w&utm_campaign=yelp_api_v3&utm_medium=api_v3_business_search&utm_source=gBcvfFpabk3CnzmXKdYe3w", "phone": "+12143289463", "coordinates": {"longitude": -96.7067595, "latitude": 32.8308669}, "categories": [{"alias": "cafes", "title": "Cafes"}, {"alias": "wine_bars", "title": "Wine Bars"}], "review_count": 80, "location": {"city": "Dallas", "address1": "9219 Garland Rd", "address3": "", "address2": "Ste 1102", "zip_code": "75218", "country": "US", "display_address": ["9219 Garland Rd", "Ste 1102", "Dallas, TX 75218"], "state": "TX"}, "price": "$$", "transactions": [], "display_phone": "(214) 328-9463"}, {"rating": 4.0, "is_closed": false, "distance": 5841.351069842, "name": "Senor Bean Mexican Grill- Cantina", "id": "senor-bean-mexican-grill-cantina-dallas-2", "image_url": "https://s3-media4.fl.yelpcdn.com/bphoto/Y05zxzkXSj2ZrrNpuB_Dfg/o.jpg", "url": "https://www.yelp.com/biz/senor-bean-mexican-grill-cantina-dallas-2?adjust_creative=gBcvfFpabk3CnzmXKdYe3w&utm_campaign=yelp_api_v3&utm_medium=api_v3_business_search&utm_source=gBcvfFpabk3CnzmXKdYe3w", "phone": "+12149897965", "coordinates": {"longitude": -96.796745, "latitude": 32.786605}, "categories": [{"alias": "mexican", "title": "Mexican"}], "review_count": 86, "location": {"city": "Dallas", "address1": "708 Olive St", "address3": "", "address2": null, "zip_code": "75201", "country": "US", "display_address": ["708 Olive St", "Dallas, TX 75201"], "state": "TX"}, "price": "$", "transactions": ["pickup"], "display_phone": "(214) 989-7965"}, {"rating": 3.5, "is_closed": false, "distance": 3387.860580028, "name": "Ph\u00f2 Envy", "id": "ph\u00f2-envy-dallas", "image_url": "https://s3-media1.fl.yelpcdn.com/bphoto/bUgR5msO-qn_VaGEwycZ_w/o.jpg", "url": "https://www.yelp.com/biz/ph%C3%B2-envy-dallas?adjust_creative=gBcvfFpabk3CnzmXKdYe3w&utm_campaign=yelp_api_v3&utm_medium=api_v3_business_search&utm_source=gBcvfFpabk3CnzmXKdYe3w", "phone": "+12149871468", "coordinates": {"longitude": -96.7870259439558, "latitude": 32.8673165391955}, "categories": [{"alias": "vietnamese", "title": "Vietnamese"}], "review_count": 58, "location": {"city": "Dallas", "address1": "8611 Hillcrest Rd", "address3": "", "address2": "Ste 190", "zip_code": "75225", "country": "US", "display_address": ["8611 Hillcrest Rd", "Ste 190", "Dallas, TX 75225"], "state": "TX"}, "price": "$$", "transactions": ["delivery"], "display_phone": "(214) 987-1468"}, {"rating": 4.0, "is_closed": false, "distance": 11467.003265088, "name": "Dairy-Ette", "id": "dairy-ette-dallas", "image_url": "https://s3-media1.fl.yelpcdn.com/bphoto/0C9B7eVk4pFOQubmBdnhLg/o.jpg", "url": "https://www.yelp.com/biz/dairy-ette-dallas?adjust_creative=gBcvfFpabk3CnzmXKdYe3w&utm_campaign=yelp_api_v3&utm_medium=api_v3_business_search&utm_source=gBcvfFpabk3CnzmXKdYe3w", "phone": "+12143279983", "coordinates": {"longitude": -96.679519, "latitude": 32.821128}, "categories": [{"alias": "burgers", "title": "Burgers"}, {"alias": "hotdogs", "title": "Fast Food"}, {"alias": "sandwiches", "title": "Sandwiches"}], "review_count": 147, "location": {"city": "Dallas", "address1": "9785 Ferguson Rd", "address3": "", "address2": "", "zip_code": "75228", "country": "US", "display_address": ["9785 Ferguson Rd", "Dallas, TX 75228"], "state": "TX"}, "price": "$", "transactions": [], "display_phone": "(214) 327-9983"}, {"rating": 3.5, "is_closed": false, "distance": 9387.87889448, "name": "Alligator Cafe", "id": "alligator-cafe-dallas", "image_url": "https://s3-media4.fl.yelpcdn.com/bphoto/oHqavTV2MwcaSMAOBN5aDQ/o.jpg", "url": "https://www.yelp.com/biz/alligator-cafe-dallas?adjust_creative=gBcvfFpabk3CnzmXKdYe3w&utm_campaign=yelp_api_v3&utm_medium=api_v3_business_search&utm_source=gBcvfFpabk3CnzmXKdYe3w", "phone": "+12148216900", "coordinates": {"longitude": -96.7002214863896, "latitude": 32.8342279852709}, "categories": [{"alias": "cajun", "title": "Cajun/Creole"}, {"alias": "seafood", "title": "Seafood"}], "review_count": 336, "location": {"city": "Dallas", "address1": "9540 Garland Rd", "address3": "", "address2": "Ste 362", "zip_code": "75218", "country": "US", "display_address": ["9540 Garland Rd", "Ste 362", "Dallas, TX 75218"], "state": "TX"}, "price": "$$", "transactions": ["pickup"], "display_phone": "(214) 821-6900"}, {"rating": 3.5, "is_closed": false, "distance": 3233.116262602, "name": "Cedar Springs Tap House", "id": "cedar-springs-tap-house-dallas-2", "image_url": "https://s3-media2.fl.yelpcdn.com/bphoto/h4RgsNaW0w-10CGF_AzIQQ/o.jpg", "url": "https://www.yelp.com/biz/cedar-springs-tap-house-dallas-2?adjust_creative=gBcvfFpabk3CnzmXKdYe3w&utm_campaign=yelp_api_v3&utm_medium=api_v3_business_search&utm_source=gBcvfFpabk3CnzmXKdYe3w", "phone": "+12143777446", "coordinates": {"longitude": -96.8125992933793, "latitude": 32.8117906853781}, "categories": [{"alias": "tradamerican", "title": "American (Traditional)"}, {"alias": "sportsbars", "title": "Sports Bars"}, {"alias": "gaybars", "title": "Gay Bars"}], "review_count": 129, "location": {"city": "Dallas", "address1": "4123 Cedar Springs Rd", "address3": "", "address2": "Ste 100", "zip_code": "75219", "country": "US", "display_address": ["4123 Cedar Springs Rd", "Ste 100", "Dallas, TX 75219"], "state": "TX"}, "price": "$$", "transactions": [], "display_phone": "(214) 377-7446"}, {"rating": 4.5, "is_closed": false, "distance": 2784.9770321919996, "name": "Go Fish Poke", "id": "go-fish-poke-dallas", "image_url": "https://s3-media4.fl.yelpcdn.com/bphoto/q4V0451ci-BjJAGrtD5-AA/o.jpg", "url": "https://www.yelp.com/biz/go-fish-poke-dallas?adjust_creative=gBcvfFpabk3CnzmXKdYe3w&utm_campaign=yelp_api_v3&utm_medium=api_v3_business_search&utm_source=gBcvfFpabk3CnzmXKdYe3w", "phone": "+12147929517", "coordinates": {"longitude": -96.8069040030241, "latitude": 32.8635114840047}, "categories": [{"alias": "poke", "title": "Poke"}, {"alias": "hawaiian", "title": "Hawaiian"}, {"alias": "seafood", "title": "Seafood"}], "review_count": 31, "location": {"city": "Dallas", "address1": "6030 Luther Ln", "address3": null, "address2": "Ste 110", "zip_code": "75225", "country": "US", "display_address": ["6030 Luther Ln", "Ste 110", "Dallas, TX 75225"], "state": "TX"}, "price": "$$", "transactions": [], "display_phone": "(214) 792-9517"}, {"rating": 4.0, "is_closed": false, "distance": 6543.6086268, "name": "Dante's Italian Eatery", "id": "dantes-italian-eatery-dallas", "image_url": "https://s3-media1.fl.yelpcdn.com/bphoto/glzzApxAQ1RVCGX6OnpHjg/o.jpg", "url": "https://www.yelp.com/biz/dantes-italian-eatery-dallas?adjust_creative=gBcvfFpabk3CnzmXKdYe3w&utm_campaign=yelp_api_v3&utm_medium=api_v3_business_search&utm_source=gBcvfFpabk3CnzmXKdYe3w", "phone": "+12147601988", "coordinates": {"longitude": -96.80615, "latitude": 32.7805}, "categories": [{"alias": "italian", "title": "Italian"}], "review_count": 67, "location": {"city": "Dallas", "address1": "208 N Market St", "address3": "", "address2": "Ste 150", "zip_code": "75202", "country": "US", "display_address": ["208 N Market St", "Ste 150", "Dallas, TX 75202"], "state": "TX"}, "price": "$", "transactions": ["pickup"], "display_phone": "(214) 760-1988"}, {"rating": 3.5, "is_closed": false, "distance": 5972.255751046, "name": "Luna's Tortilla Factory", "id": "lunas-tortilla-factory-dallas", "image_url": "https://s3-media4.fl.yelpcdn.com/bphoto/q2jB3soAibu-GWQZ9gqS9Q/o.jpg", "url": "https://www.yelp.com/biz/lunas-tortilla-factory-dallas?adjust_creative=gBcvfFpabk3CnzmXKdYe3w&utm_campaign=yelp_api_v3&utm_medium=api_v3_business_search&utm_source=gBcvfFpabk3CnzmXKdYe3w", "phone": "+12147472661", "coordinates": {"longitude": -96.86452, "latitude": 32.8371}, "categories": [{"alias": "mexican", "title": "Mexican"}], "review_count": 79, "location": {"city": "Dallas", "address1": "8524 Harry Hines Blvd", "address3": "", "address2": "", "zip_code": "75235", "country": "US", "display_address": ["8524 Harry Hines Blvd", "Dallas, TX 75235"], "state": "TX"}, "price": "$", "transactions": [], "display_phone": "(214) 747-2661"}, {"rating": 4.5, "is_closed": false, "distance": 10074.335951317998, "name": "Nammi", "id": "nammi-dallas-2", "image_url": "https://s3-media4.fl.yelpcdn.com/bphoto/_sIYehEgvt6pqOYa4RH4gA/o.jpg", "url": "https://www.yelp.com/biz/nammi-dallas-2?adjust_creative=gBcvfFpabk3CnzmXKdYe3w&utm_campaign=yelp_api_v3&utm_medium=api_v3_business_search&utm_source=gBcvfFpabk3CnzmXKdYe3w", "phone": "+19722522052", "coordinates": {"longitude": -96.8078404159626, "latitude": 32.9294348025298}, "categories": [{"alias": "foodtrucks", "title": "Food Trucks"}, {"alias": "vietnamese", "title": "Vietnamese"}], "review_count": 16, "location": {"city": "Dallas", "address1": "", "address3": "", "address2": "", "zip_code": "75240", "country": "US", "display_address": ["Dallas, TX 75240"], "state": "TX"}, "price": "$", "transactions": [], "display_phone": "(972) 252-2052"}, {"rating": 4.5, "is_closed": false, "distance": 10267.68736974, "name": "Wine Poste & Bar Anatomie", "id": "wine-poste-and-bar-anatomie-dallas", "image_url": "https://s3-media2.fl.yelpcdn.com/bphoto/a39MJt1WESKWYbqPynwdZw/o.jpg", "url": "https://www.yelp.com/biz/wine-poste-and-bar-anatomie-dallas?adjust_creative=gBcvfFpabk3CnzmXKdYe3w&utm_campaign=yelp_api_v3&utm_medium=api_v3_business_search&utm_source=gBcvfFpabk3CnzmXKdYe3w", "phone": "+12142723221", "coordinates": {"longitude": -96.8258486, "latitude": 32.7493095}, "categories": [{"alias": "wine_bars", "title": "Wine Bars"}, {"alias": "winetasteclasses", "title": "Wine Tasting Classes"}, {"alias": "winetastingroom", "title": "Wine Tasting Room"}], "review_count": 19, "location": {"city": "Dallas", "address1": "246 W Davis", "address3": "", "address2": "", "zip_code": "75208", "country": "US", "display_address": ["246 W Davis", "Dallas, TX 75208"], "state": "TX"}, "price": "$$", "transactions": [], "display_phone": "(214) 272-3221"}, {"rating": 3.5, "is_closed": false, "distance": 5085.860569033999, "name": "Smashburger", "id": "smashburger-dallas-5", "image_url": "https://s3-media1.fl.yelpcdn.com/bphoto/vTaKYsWc8p2f-8FOlb8dpg/o.jpg", "url": "https://www.yelp.com/biz/smashburger-dallas-5?adjust_creative=gBcvfFpabk3CnzmXKdYe3w&utm_campaign=yelp_api_v3&utm_medium=api_v3_business_search&utm_source=gBcvfFpabk3CnzmXKdYe3w", "phone": "+14693413394", "coordinates": {"longitude": -96.8022079, "latitude": 32.79319}, "categories": [{"alias": "burgers", "title": "Burgers"}], "review_count": 107, "location": {"city": "Dallas", "address1": "2222 McKinney Ave", "address3": "", "address2": "", "zip_code": "75201", "country": "US", "display_address": ["2222 McKinney Ave", "Dallas, TX 75201"], "state": "TX"}, "price": "$", "transactions": [], "display_phone": "(469) 341-3394"}, {"rating": 4.0, "is_closed": false, "distance": 7556.396383457999, "name": "Fair Park", "id": "fair-park-dallas", "image_url": "https://s3-media2.fl.yelpcdn.com/bphoto/HJFBztoTSY8niVDR_0I5mA/o.jpg", "url": "https://www.yelp.com/biz/fair-park-dallas?adjust_creative=gBcvfFpabk3CnzmXKdYe3w&utm_campaign=yelp_api_v3&utm_medium=api_v3_business_search&utm_source=gBcvfFpabk3CnzmXKdYe3w", "phone": "+12144263400", "coordinates": {"longitude": -96.7643460631371, "latitude": 32.7782309800386}, "categories": [{"alias": "landmarks", "title": "Landmarks & Historical Buildings"}, {"alias": "parks", "title": "Parks"}], "review_count": 44, "location": {"city": "Dallas", "address1": "1200 S 2nd Ave", "address3": "", "address2": "", "zip_code": "75210", "country": "US", "display_address": ["1200 S 2nd Ave", "Dallas, TX 75210"], "state": "TX"}, "transactions": [], "display_phone": "(214) 426-3400"}, {"rating": 4.0, "is_closed": false, "distance": 10171.576941203999, "name": "Kabuki Japanese Restaurant", "id": "kabuki-japanese-restaurant-dallas-3", "image_url": "https://s3-media4.fl.yelpcdn.com/bphoto/M2YckeCUDr4Rmhoyp0O5Dw/o.jpg", "url": "https://www.yelp.com/biz/kabuki-japanese-restaurant-dallas-3?adjust_creative=gBcvfFpabk3CnzmXKdYe3w&utm_campaign=yelp_api_v3&utm_medium=api_v3_business_search&utm_source=gBcvfFpabk3CnzmXKdYe3w", "phone": "+14699174290", "coordinates": {"longitude": -96.8200442, "latitude": 32.9290391}, "categories": [{"alias": "japanese", "title": "Japanese"}, {"alias": "sushi", "title": "Sushi Bars"}, {"alias": "seafood", "title": "Seafood"}], "review_count": 96, "location": {"city": "Dallas", "address1": "13270 Dallas Pkwy", "address3": "", "address2": "Ste 1165", "zip_code": "75240", "country": "US", "display_address": ["13270 Dallas Pkwy", "Ste 1165", "Dallas, TX 75240"], "state": "TX"}, "price": "$$", "transactions": [], "display_phone": "(469) 917-4290"}, {"rating": 4.0, "is_closed": false, "distance": 2256.966418516, "name": "Starbucks", "id": "starbucks-dallas-11", "image_url": "https://s3-media3.fl.yelpcdn.com/bphoto/cJxw67VRvPA1DihulUFKJw/o.jpg", "url": "https://www.yelp.com/biz/starbucks-dallas-11?adjust_creative=gBcvfFpabk3CnzmXKdYe3w&utm_campaign=yelp_api_v3&utm_medium=api_v3_business_search&utm_source=gBcvfFpabk3CnzmXKdYe3w", "phone": "+12148278101", "coordinates": {"longitude": -96.776465010245, "latitude": 32.8373217584214}, "categories": [{"alias": "coffee", "title": "Coffee & Tea"}], "review_count": 43, "location": {"city": "Dallas", "address1": "5331 E Mockingbird Ln", "address3": "", "address2": "", "zip_code": "75206", "country": "US", "display_address": ["5331 E Mockingbird Ln", "Dallas, TX 75206"], "state": "TX"}, "price": "$", "transactions": [], "display_phone": "(214) 827-8101"}, {"rating": 4.0, "is_closed": false, "distance": 4427.94692737, "name": "Uptown Urban Market", "id": "uptown-urban-market-dallas", "image_url": "https://s3-media1.fl.yelpcdn.com/bphoto/L7sBHnuM9LwBJTI_BBB-jw/o.jpg", "url": "https://www.yelp.com/biz/uptown-urban-market-dallas?adjust_creative=gBcvfFpabk3CnzmXKdYe3w&utm_campaign=yelp_api_v3&utm_medium=api_v3_business_search&utm_source=gBcvfFpabk3CnzmXKdYe3w", "phone": "+12144404142", "coordinates": {"longitude": -96.8051538, "latitude": 32.7995891}, "categories": [{"alias": "coffee", "title": "Coffee & Tea"}, {"alias": "food_court", "title": "Food Court"}, {"alias": "breakfast_brunch", "title": "Breakfast & Brunch"}], "review_count": 28, "location": {"city": "Dallas", "address1": "2600 Cedar Springs Rd", "address3": null, "address2": "", "zip_code": "75201", "country": "US", "display_address": ["2600 Cedar Springs Rd", "Dallas, TX 75201"], "state": "TX"}, "price": "$$", "transactions": [], "display_phone": "(214) 440-4142"}, {"rating": 3.5, "is_closed": false, "distance": 4370.66810276, "name": "Howard Wang's", "id": "howard-wangs-dallas-2", "image_url": "https://s3-media4.fl.yelpcdn.com/bphoto/pNPbOAUBkrgoYkWW8LPbPQ/o.jpg", "url": "https://www.yelp.com/biz/howard-wangs-dallas-2?adjust_creative=gBcvfFpabk3CnzmXKdYe3w&utm_campaign=yelp_api_v3&utm_medium=api_v3_business_search&utm_source=gBcvfFpabk3CnzmXKdYe3w", "phone": "+12143661606", "coordinates": {"longitude": -96.83591, "latitude": 32.86463}, "categories": [{"alias": "chinese", "title": "Chinese"}], "review_count": 106, "location": {"city": "Dallas", "address1": "4343 W Northwest Hwy", "address3": "", "address2": "Ste 345", "zip_code": "75220", "country": "US", "display_address": ["4343 W Northwest Hwy", "Ste 345", "Dallas, TX 75220"], "state": "TX"}, "price": "$$", "transactions": ["delivery"], "display_phone": "(214) 366-1606"}]}