{"total": 32252, "region": {"center": {"longitude": -96.800537109375, "latitude": 32.839043482398054}}, "businesses": [{"rating": 4.0, "is_closed": false, "distance": 1691.3746580939999, "name": "East Hampton Sandwich Co", "id": "east-hampton-sandwich-co-dallas", "image_url": "https://s3-media2.fl.yelpcdn.com/bphoto/qmHom3gLK8uxsT27vyVxIg/o.jpg", "url": "https://www.yelp.com/biz/east-hampton-sandwich-co-dallas?adjust_creative=gBcvfFpabk3CnzmXKdYe3w&utm_campaign=yelp_api_v3&utm_medium=api_v3_business_search&utm_source=gBcvfFpabk3CnzmXKdYe3w", "phone": "+12143632888", "coordinates": {"longitude": -96.7875519, "latitude": 32.8497086}, "categories": [{"alias": "sandwiches", "title": "Sandwiches"}, {"alias": "salad", "title": "Salad"}, {"alias": "soup", "title": "Soup"}], "review_count": 271, "location": {"city": "Dallas", "address1": "6912 Snider Plz", "address3": "", "address2": "", "zip_code": "75205", "country": "US", "display_address": ["6912 Snider Plz", "Dallas, TX 75205"], "state": "TX"}, "price": "$$", "transactions": ["delivery", "pickup"], "display_phone": "(214) 363-2888"}, {"rating": 4.0, "is_closed": false, "distance": 2679.288455712, "name": "R+D Kitchen", "id": "r-d-kitchen-dallas", "image_url": "https://s3-media3.fl.yelpcdn.com/bphoto/HAm4i8egGN9nOH_AZ6wgSw/o.jpg", "url": "https://www.yelp.com/biz/r-d-kitchen-dallas?adjust_creative=gBcvfFpabk3CnzmXKdYe3w&utm_campaign=yelp_api_v3&utm_medium=api_v3_business_search&utm_source=gBcvfFpabk3CnzmXKdYe3w", "phone": "+12148907900", "coordinates": {"longitude": -96.802789, "latitude": 32.863065}, "categories": [{"alias": "newamerican", "title": "American (New)"}, {"alias": "burgers", "title": "Burgers"}, {"alias": "sushi", "title": "Sushi Bars"}], "review_count": 338, "location": {"city": "Dallas", "address1": "8300 Preston Ctr Plz", "address3": "", "address2": "", "zip_code": "75225", "country": "US", "display_address": ["8300 Preston Ctr Plz", "Dallas, TX 75225"], "state": "TX"}, "price": "$$", "transactions": [], "display_phone": "(214) 890-7900"}, {"rating": 4.5, "is_closed": false, "distance": 6409.824192599999, "name": "The Metropolitan Cafe", "id": "the-metropolitan-cafe-dallas", "image_url": "https://s3-media2.fl.yelpcdn.com/bphoto/obAbPXT8JBmnRGMNxaXnBw/o.jpg", "url": "https://www.yelp.com/biz/the-metropolitan-cafe-dallas?adjust_creative=gBcvfFpabk3CnzmXKdYe3w&utm_campaign=yelp_api_v3&utm_medium=api_v3_business_search&utm_source=gBcvfFpabk3CnzmXKdYe3w", "phone": "+12147412233", "coordinates": {"longitude": -96.79265, "latitude": 32.78178}, "categories": [{"alias": "sandwiches", "title": "Sandwiches"}], "review_count": 78, "location": {"city": "Dallas", "address1": "2030 Main St", "address3": "", "address2": "", "zip_code": "75201", "country": "US", "display_address": ["2030 Main St", "Dallas, TX 75201"], "state": "TX"}, "price": "$", "transactions": [], "display_phone": "(214) 741-2233"}, {"rating": 4.5, "is_closed": false, "distance": 9592.058596158, "name": "Pappas Bros Steakhouse", "id": "pappas-bros-steakhouse-dallas", "image_url": "https://s3-media3.fl.yelpcdn.com/bphoto/Avi0vCdzgM2NYJGaBVTUCQ/o.jpg", "url": "https://www.yelp.com/biz/pappas-bros-steakhouse-dallas?adjust_creative=gBcvfFpabk3CnzmXKdYe3w&utm_campaign=yelp_api_v3&utm_medium=api_v3_business_search&utm_source=gBcvfFpabk3CnzmXKdYe3w", "phone": "+12143662000", "coordinates": {"longitude": -96.8977529669342, "latitude": 32.8668273689937}, "categories": [{"alias": "steak", "title": "Steakhouses"}, {"alias": "tradamerican", "title": "American (Traditional)"}, {"alias": "buffets", "title": "Buffets"}], "review_count": 632, "location": {"city": "Dallas", "address1": "10477 Lombardy Ln", "address3": "", "address2": "", "zip_code": "75220", "country": "US", "display_address": ["10477 Lombardy Ln", "Dallas, TX 75220"], "state": "TX"}, "price": "$$$$", "transactions": [], "display_phone": "(214) 366-2000"}, {"rating": 4.0, "is_closed": false, "distance": 3591.83605646, "name": "Cosmic Caf\u00e9", "id": "cosmic-caf\u00e9-dallas-3", "image_url": "https://s3-media4.fl.yelpcdn.com/bphoto/e8szsXlOCqMWkUrZ2wjIfg/o.jpg", "url": "https://www.yelp.com/biz/cosmic-caf%C3%A9-dallas-3?adjust_creative=gBcvfFpabk3CnzmXKdYe3w&utm_campaign=yelp_api_v3&utm_medium=api_v3_business_search&utm_source=gBcvfFpabk3CnzmXKdYe3w", "phone": "+12145216157", "coordinates": {"longitude": -96.8096923828125, "latitude": 32.8076362609863}, "categories": [{"alias": "vegetarian", "title": "Vegetarian"}], "review_count": 547, "location": {"city": "Dallas", "address1": "2912 Oak Lawn Ave", "address3": "", "address2": "", "zip_code": "75219", "country": "US", "display_address": ["2912 Oak Lawn Ave", "Dallas, TX 75219"], "state": "TX"}, "price": "$$", "transactions": ["pickup"], "display_phone": "(214) 521-6157"}, {"rating": 4.5, "is_closed": false, "distance": 8563.21847767, "name": "Hypnotic Donuts", "id": "hypnotic-donuts-dallas-2", "image_url": "https://s3-media3.fl.yelpcdn.com/bphoto/gztNaMOo-xfvZqRVCscp2w/o.jpg", "url": "https://www.yelp.com/biz/hypnotic-donuts-dallas-2?adjust_creative=gBcvfFpabk3CnzmXKdYe3w&utm_campaign=yelp_api_v3&utm_medium=api_v3_business_search&utm_source=gBcvfFpabk3CnzmXKdYe3w", "phone": "+12146686999", "coordinates": {"longitude": -96.7098322890015, "latitude": 32.8280016874881}, "categories": [{"alias": "donuts", "title": "Donuts"}, {"alias": "breakfast_brunch", "title": "Breakfast & Brunch"}, {"alias": "sandwiches", "title": "Sandwiches"}], "review_count": 471, "location": {"city": "Dallas", "address1": "9007 Garland Rd", "address3": "", "address2": "", "zip_code": "75218", "country": "US", "display_address": ["9007 Garland Rd", "Dallas, TX 75218"], "state": "TX"}, "price": "$", "transactions": [], "display_phone": "(214) 668-6999"}, {"rating": 4.5, "is_closed": false, "distance": 7885.719329139999, "name": "Friendly's Grocery", "id": "friendlys-grocery-dallas", "image_url": "https://s3-media1.fl.yelpcdn.com/bphoto/L08Q4f1sHxrkYagfBiN9lw/o.jpg", "url": "https://www.yelp.com/biz/friendlys-grocery-dallas?adjust_creative=gBcvfFpabk3CnzmXKdYe3w&utm_campaign=yelp_api_v3&utm_medium=api_v3_business_search&utm_source=gBcvfFpabk3CnzmXKdYe3w", "phone": "+12143582025", "coordinates": {"longitude": -96.8814315795898, "latitude": 32.8591651916504}, "categories": [{"alias": "grocery", "title": "Grocery"}, {"alias": "mexican", "title": "Mexican"}], "review_count": 76, "location": {"city": "Dallas", "address1": "10025 Harry Hines Blvd", "address3": "", "address2": "", "zip_code": "75220", "country": "US", "display_address": ["10025 Harry Hines Blvd", "Dallas, TX 75220"], "state": "TX"}, "price": "$", "transactions": [], "display_phone": "(214) 358-2025"}, {"rating": 4.0, "is_closed": false, "distance": 5045.245172652, "name": "Meddlesome Moth", "id": "meddlesome-moth-dallas", "image_url": "https://s3-media2.fl.yelpcdn.com/bphoto/9R1wSs67Th5xTSvg5J1Qsw/o.jpg", "url": "https://www.yelp.com/biz/meddlesome-moth-dallas?adjust_creative=gBcvfFpabk3CnzmXKdYe3w&utm_campaign=yelp_api_v3&utm_medium=api_v3_business_search&utm_source=gBcvfFpabk3CnzmXKdYe3w", "phone": "+12146287900", "coordinates": {"longitude": -96.8202942609787, "latitude": 32.7968167432672}, "categories": [{"alias": "bars", "title": "Bars"}, {"alias": "gastropubs", "title": "Gastropubs"}, {"alias": "tradamerican", "title": "American (Traditional)"}], "review_count": 1421, "location": {"city": "Dallas", "address1": "1621 Oak Lawn Ave", "address3": "", "address2": "", "zip_code": "75207", "country": "US", "display_address": ["1621 Oak Lawn Ave", "Dallas, TX 75207"], "state": "TX"}, "price": "$$", "transactions": [], "display_phone": "(214) 628-7900"}, {"rating": 4.0, "is_closed": false, "distance": 2453.8138062199996, "name": "Mario's", "id": "marios-dallas", "image_url": "https://s3-media4.fl.yelpcdn.com/bphoto/zFJtMHj5tg8qeRDK3LoxLA/o.jpg", "url": "https://www.yelp.com/biz/marios-dallas?adjust_creative=gBcvfFpabk3CnzmXKdYe3w&utm_campaign=yelp_api_v3&utm_medium=api_v3_business_search&utm_source=gBcvfFpabk3CnzmXKdYe3w", "phone": "+12145999744", "coordinates": {"longitude": -96.822878, "latitude": 32.82744}, "categories": [{"alias": "mexican", "title": "Mexican"}, {"alias": "salvadoran", "title": "Salvadoran"}], "review_count": 213, "location": {"city": "Dallas", "address1": "5404 Lemmon Ave", "address3": "", "address2": "", "zip_code": "75209", "country": "US", "display_address": ["5404 Lemmon Ave", "Dallas, TX 75209"], "state": "TX"}, "price": "$$", "transactions": [], "display_phone": "(214) 599-9744"}, {"rating": 4.0, "is_closed": false, "distance": 1689.840152404, "name": "Dive Coastal Cuisine", "id": "dive-coastal-cuisine-dallas", "image_url": "https://s3-media4.fl.yelpcdn.com/bphoto/DqagxZo9XiRAVaz0nYLgUA/o.jpg", "url": "https://www.yelp.com/biz/dive-coastal-cuisine-dallas?adjust_creative=gBcvfFpabk3CnzmXKdYe3w&utm_campaign=yelp_api_v3&utm_medium=api_v3_business_search&utm_source=gBcvfFpabk3CnzmXKdYe3w", "phone": "+12148911700", "coordinates": {"longitude": -96.7874298095703, "latitude": 32.8495063781738}, "categories": [{"alias": "seafood", "title": "Seafood"}], "review_count": 150, "location": {"city": "Dallas", "address1": "3404 Rankin St", "address3": "", "address2": null, "zip_code": "75205", "country": "US", "display_address": ["3404 Rankin St", "Dallas, TX 75205"], "state": "TX"}, "price": "$$", "transactions": ["delivery"], "display_phone": "(214) 891-1700"}, {"rating": 4.0, "is_closed": false, "distance": 5700.172683946, "name": "The Slow Bone", "id": "the-slow-bone-dallas-2", "image_url": "https://s3-media2.fl.yelpcdn.com/bphoto/DmHCVEMjT1JZ3LlapefuZA/o.jpg", "url": "https://www.yelp.com/biz/the-slow-bone-dallas-2?adjust_creative=gBcvfFpabk3CnzmXKdYe3w&utm_campaign=yelp_api_v3&utm_medium=api_v3_business_search&utm_source=gBcvfFpabk3CnzmXKdYe3w", "phone": "+12143777727", "coordinates": {"longitude": -96.83426, "latitude": 32.796327}, "categories": [{"alias": "bbq", "title": "Barbeque"}], "review_count": 399, "location": {"city": "Dallas", "address1": "2234 Irving Blvd", "address3": "", "address2": "", "zip_code": "75207", "country": "US", "display_address": ["2234 Irving Blvd", "Dallas, TX 75207"], "state": "TX"}, "price": "$$", "transactions": [], "display_phone": "(214) 377-7727"}, {"rating": 4.5, "is_closed": false, "distance": 5261.377603444, "name": "Blatt Beer & Table", "id": "blatt-beer-and-table-dallas-2", "image_url": "https://s3-media1.fl.yelpcdn.com/bphoto/M4myjgKXW6HvZ1mWRI3WvA/o.jpg", "url": "https://www.yelp.com/biz/blatt-beer-and-table-dallas-2?adjust_creative=gBcvfFpabk3CnzmXKdYe3w&utm_campaign=yelp_api_v3&utm_medium=api_v3_business_search&utm_source=gBcvfFpabk3CnzmXKdYe3w", "phone": "+14693722080", "coordinates": {"longitude": -96.772497, "latitude": 32.8802649}, "categories": [{"alias": "newamerican", "title": "American (New)"}, {"alias": "gastropubs", "title": "Gastropubs"}, {"alias": "vegan", "title": "Vegan"}], "review_count": 137, "location": {"city": "Dallas", "address1": "7859 Walnut Hill Ln", "address3": "", "address2": "Ste 170", "zip_code": "75230", "country": "US", "display_address": ["7859 Walnut Hill Ln", "Ste 170", "Dallas, TX 75230"], "state": "TX"}, "price": "$$", "transactions": [], "display_phone": "(469) 372-2080"}, {"rating": 4.0, "is_closed": false, "distance": 4602.188077028, "name": "Benny's Bagels Lakewood", "id": "bennys-bagels-lakewood-dallas", "image_url": "https://s3-media2.fl.yelpcdn.com/bphoto/MJ5LGinUU84GqdOLetWaew/o.jpg", "url": "https://www.yelp.com/biz/bennys-bagels-lakewood-dallas?adjust_creative=gBcvfFpabk3CnzmXKdYe3w&utm_campaign=yelp_api_v3&utm_medium=api_v3_business_search&utm_source=gBcvfFpabk3CnzmXKdYe3w", "phone": "+12148878385", "coordinates": {"longitude": -96.762519903732, "latitude": 32.8127294497305}, "categories": [{"alias": "bagels", "title": "Bagels"}, {"alias": "breakfast_brunch", "title": "Breakfast & Brunch"}, {"alias": "coffee", "title": "Coffee & Tea"}], "review_count": 119, "location": {"city": "Dallas", "address1": "1901 Skillman St", "address3": "", "address2": "", "zip_code": "75206", "country": "US", "display_address": ["1901 Skillman St", "Dallas, TX 75206"], "state": "TX"}, "price": "$", "transactions": ["delivery"], "display_phone": "(214) 887-8385"}, {"rating": 4.0, "is_closed": false, "distance": 5217.92767652, "name": "Tei-An", "id": "tei-an-dallas", "image_url": "https://s3-media4.fl.yelpcdn.com/bphoto/8SGlxTydF2nbLaXn8SwY8w/o.jpg", "url": "https://www.yelp.com/biz/tei-an-dallas?adjust_creative=gBcvfFpabk3CnzmXKdYe3w&utm_campaign=yelp_api_v3&utm_medium=api_v3_business_search&utm_source=gBcvfFpabk3CnzmXKdYe3w", "phone": "+12142202828", "coordinates": {"longitude": -96.7953392055572, "latitude": 32.7923205607221}, "categories": [{"alias": "japanese", "title": "Japanese"}], "review_count": 437, "location": {"city": "Dallas", "address1": "1722 Routh St", "address3": "One Arts Plz", "address2": "Ste 110", "zip_code": "75201", "country": "US", "display_address": ["1722 Routh St", "Ste 110", "One Arts Plz", "Dallas, TX 75201"], "state": "TX"}, "price": "$$$", "transactions": [], "display_phone": "(214) 220-2828"}, {"rating": 4.0, "is_closed": false, "distance": 3835.059312142, "name": "Libertine Bar", "id": "libertine-bar-dallas", "image_url": "https://s3-media2.fl.yelpcdn.com/bphoto/kLV8wMvX2FRqmT5UQgJ0IA/o.jpg", "url": "https://www.yelp.com/biz/libertine-bar-dallas?adjust_creative=gBcvfFpabk3CnzmXKdYe3w&utm_campaign=yelp_api_v3&utm_medium=api_v3_business_search&utm_source=gBcvfFpabk3CnzmXKdYe3w", "phone": "+12148247900", "coordinates": {"longitude": -96.77039, "latitude": 32.81562}, "categories": [{"alias": "bars", "title": "Bars"}, {"alias": "breakfast_brunch", "title": "Breakfast & Brunch"}, {"alias": "newamerican", "title": "American (New)"}], "review_count": 399, "location": {"city": "Dallas", "address1": "2101 Greenville Ave", "address3": "", "address2": null, "zip_code": "75206", "country": "US", "display_address": ["2101 Greenville Ave", "Dallas, TX 75206"], "state": "TX"}, "price": "$$", "transactions": [], "display_phone": "(214) 824-7900"}, {"rating": 4.0, "is_closed": false, "distance": 6230.2063989359995, "name": "Pepe's & Mito's Mexican Caf\u00e9", "id": "pepes-and-mitos-mexican-caf\u00e9-dallas-2", "image_url": "https://s3-media2.fl.yelpcdn.com/bphoto/v3gRq7aXpX4eqafAQUwSRg/o.jpg", "url": "https://www.yelp.com/biz/pepes-and-mitos-mexican-caf%C3%A9-dallas-2?adjust_creative=gBcvfFpabk3CnzmXKdYe3w&utm_campaign=yelp_api_v3&utm_medium=api_v3_business_search&utm_source=gBcvfFpabk3CnzmXKdYe3w", "phone": "+12147411901", "coordinates": {"longitude": -96.78204, "latitude": 32.7852}, "categories": [{"alias": "mexican", "title": "Mexican"}, {"alias": "tex-mex", "title": "Tex-Mex"}], "review_count": 369, "location": {"city": "Dallas", "address1": "2911 Elm St", "address3": "", "address2": "", "zip_code": "75226", "country": "US", "display_address": ["2911 Elm St", "Dallas, TX 75226"], "state": "TX"}, "price": "$$", "transactions": [], "display_phone": "(214) 741-1901"}, {"rating": 4.0, "is_closed": false, "distance": 2320.097929904, "name": "Mesero", "id": "mesero-dallas-3", "image_url": "https://s3-media4.fl.yelpcdn.com/bphoto/BEPgbhHQvjhh0xesw74sMA/o.jpg", "url": "https://www.yelp.com/biz/mesero-dallas-3?adjust_creative=gBcvfFpabk3CnzmXKdYe3w&utm_campaign=yelp_api_v3&utm_medium=api_v3_business_search&utm_source=gBcvfFpabk3CnzmXKdYe3w", "phone": "+12147801991", "coordinates": {"longitude": -96.788246, "latitude": 32.820766}, "categories": [{"alias": "mexican", "title": "Mexican"}, {"alias": "tex-mex", "title": "Tex-Mex"}, {"alias": "tradamerican", "title": "American (Traditional)"}], "review_count": 319, "location": {"city": "Dallas", "address1": "4444 McKinney Ave", "address3": "", "address2": "", "zip_code": "75205", "country": "US", "display_address": ["4444 McKinney Ave", "Dallas, TX 75205"], "state": "TX"}, "price": "$$", "transactions": [], "display_phone": "(214) 780-1991"}, {"rating": 4.5, "is_closed": false, "distance": 5161.968349776, "name": "Little Greek Fresh Grill", "id": "little-greek-fresh-grill-dallas-2", "image_url": "https://s3-media4.fl.yelpcdn.com/bphoto/nspM77GUPwblwhuZlFxk2Q/o.jpg", "url": "https://www.yelp.com/biz/little-greek-fresh-grill-dallas-2?adjust_creative=gBcvfFpabk3CnzmXKdYe3w&utm_campaign=yelp_api_v3&utm_medium=api_v3_business_search&utm_source=gBcvfFpabk3CnzmXKdYe3w", "phone": "+12146961234", "coordinates": {"longitude": -96.7708349, "latitude": 32.87936}, "categories": [{"alias": "greek", "title": "Greek"}], "review_count": 80, "location": {"city": "Dallas", "address1": "9665 N Central Expy", "address3": "", "address2": "Ste 140", "zip_code": "75231", "country": "US", "display_address": ["9665 N Central Expy", "Ste 140", "Dallas, TX 75231"], "state": "TX"}, "price": "$$", "transactions": [], "display_phone": "(214) 696-1234"}, {"rating": 4.5, "is_closed": false, "distance": 6242.82619948, "name": "Brick & Bones", "id": "brick-and-bones-dallas", "image_url": "https://s3-media1.fl.yelpcdn.com/bphoto/EXbbZVVhd1Tw9XbAJ1wcVw/o.jpg", "url": "https://www.yelp.com/biz/brick-and-bones-dallas?adjust_creative=gBcvfFpabk3CnzmXKdYe3w&utm_campaign=yelp_api_v3&utm_medium=api_v3_business_search&utm_source=gBcvfFpabk3CnzmXKdYe3w", "phone": "+14699146776", "coordinates": {"longitude": -96.7840256416528, "latitude": 32.7846399934516}, "categories": [{"alias": "divebars", "title": "Dive Bars"}], "review_count": 74, "location": {"city": "Dallas", "address1": "2713 Elm St", "address3": "", "address2": "", "zip_code": "75226", "country": "US", "display_address": ["2713 Elm St", "Dallas, TX 75226"], "state": "TX"}, "price": "$$", "transactions": [], "display_phone": "(469) 914-6776"}, {"rating": 4.5, "is_closed": false, "distance": 5139.9120232079995, "name": "Magnolias Sous Le Pont", "id": "magnolias-sous-le-pont-dallas", "image_url": "https://s3-media4.fl.yelpcdn.com/bphoto/6aZZWKBJJThxmWK3oFTZBA/o.jpg", "url": "https://www.yelp.com/biz/magnolias-sous-le-pont-dallas?adjust_creative=gBcvfFpabk3CnzmXKdYe3w&utm_campaign=yelp_api_v3&utm_medium=api_v3_business_search&utm_source=gBcvfFpabk3CnzmXKdYe3w", "phone": "+14692499222", "coordinates": {"longitude": -96.8078735, "latitude": 32.7934541}, "categories": [{"alias": "coffee", "title": "Coffee & Tea"}], "review_count": 74, "location": {"city": "Dallas", "address1": "2727 N Harwood St", "address3": "", "address2": "", "zip_code": "75201", "country": "US", "display_address": ["2727 N Harwood St", "Dallas, TX 75201"], "state": "TX"}, "price": "$$", "transactions": [], "display_phone": "(469) 249-9222"}, {"rating": 4.0, "is_closed": false, "distance": 4861.88614629, "name": "Medieval Times Dinner & Tournament", "id": "medieval-times-dinner-and-tournament-dallas", "image_url": "https://s3-media3.fl.yelpcdn.com/bphoto/Qg_RSPn1OB7gvFlhdzJ2Hw/o.jpg", "url": "https://www.yelp.com/biz/medieval-times-dinner-and-tournament-dallas?adjust_creative=gBcvfFpabk3CnzmXKdYe3w&utm_campaign=yelp_api_v3&utm_medium=api_v3_business_search&utm_source=gBcvfFpabk3CnzmXKdYe3w", "phone": "+18889356878", "coordinates": {"longitude": -96.823323, "latitude": 32.799736}, "categories": [{"alias": "dinnertheater", "title": "Dinner Theater"}, {"alias": "tradamerican", "title": "American (Traditional)"}], "review_count": 345, "location": {"city": "Dallas", "address1": "2021 N Stemmons Fwy", "address3": "", "address2": "", "zip_code": "75207", "country": "US", "display_address": ["2021 N Stemmons Fwy", "Dallas, TX 75207"], "state": "TX"}, "price": "$$$", "transactions": [], "display_phone": "(888) 935-6878"}, {"rating": 4.5, "is_closed": false, "distance": 9397.072410163999, "name": "Spiral Diner & Bakery", "id": "spiral-diner-and-bakery-dallas", "image_url": "https://s3-media4.fl.yelpcdn.com/bphoto/c9AwDmC_kPW-jp17J5JGJg/o.jpg", "url": "https://www.yelp.com/biz/spiral-diner-and-bakery-dallas?adjust_creative=gBcvfFpabk3CnzmXKdYe3w&utm_campaign=yelp_api_v3&utm_medium=api_v3_business_search&utm_source=gBcvfFpabk3CnzmXKdYe3w", "phone": "+12149484747", "coordinates": {"longitude": -96.82319, "latitude": 32.75674}, "categories": [{"alias": "vegan", "title": "Vegan"}, {"alias": "bakeries", "title": "Bakeries"}, {"alias": "customcakes", "title": "Custom Cakes"}], "review_count": 668, "location": {"city": "Dallas", "address1": "1101 N Beckley Ave", "address3": "", "address2": "", "zip_code": "75203", "country": "US", "display_address": ["1101 N Beckley Ave", "Dallas, TX 75203"], "state": "TX"}, "price": "$$", "transactions": [], "display_phone": "(214) 948-4747"}, {"rating": 5.0, "is_closed": false, "distance": 10404.739407875999, "name": "Potpourri of Silk", "id": "potpourri-of-silk-dallas", "image_url": "https://s3-media4.fl.yelpcdn.com/bphoto/bGHiJhiljMLchjpFp9blnQ/o.jpg", "url": "https://www.yelp.com/biz/potpourri-of-silk-dallas?adjust_creative=gBcvfFpabk3CnzmXKdYe3w&utm_campaign=yelp_api_v3&utm_medium=api_v3_business_search&utm_source=gBcvfFpabk3CnzmXKdYe3w", "phone": "+12149419941", "coordinates": {"longitude": -96.82491, "latitude": 32.74774}, "categories": [{"alias": "coffee", "title": "Coffee & Tea"}, {"alias": "bakeries", "title": "Bakeries"}, {"alias": "sandwiches", "title": "Sandwiches"}], "review_count": 40, "location": {"city": "Dallas", "address1": "317 N Zang Blvd", "address3": "", "address2": null, "zip_code": "75208", "country": "US", "display_address": ["317 N Zang Blvd", "Dallas, TX 75208"], "state": "TX"}, "price": "$$", "transactions": [], "display_phone": "(214) 941-9941"}, {"rating": 4.0, "is_closed": false, "distance": 3486.032894972, "name": "Bisous Bisous P\u00e2tisserie", "id": "bisous-bisous-p\u00e2tisserie-dallas", "image_url": "https://s3-media1.fl.yelpcdn.com/bphoto/LJ2SE23VZqU5M0SjlxfWEQ/o.jpg", "url": "https://www.yelp.com/biz/bisous-bisous-p%C3%A2tisserie-dallas?adjust_creative=gBcvfFpabk3CnzmXKdYe3w&utm_campaign=yelp_api_v3&utm_medium=api_v3_business_search&utm_source=gBcvfFpabk3CnzmXKdYe3w", "phone": "+12146133570", "coordinates": {"longitude": -96.7963701042297, "latitude": 32.8078864600195}, "categories": [{"alias": "bakeries", "title": "Bakeries"}, {"alias": "coffee", "title": "Coffee & Tea"}, {"alias": "desserts", "title": "Desserts"}], "review_count": 112, "location": {"city": "Dallas", "address1": "3700 McKinney Ave", "address3": "", "address2": "Ste 150", "zip_code": "75204", "country": "US", "display_address": ["3700 McKinney Ave", "Ste 150", "Dallas, TX 75204"], "state": "TX"}, "price": "$$", "transactions": [], "display_phone": "(214) 613-3570"}, {"rating": 4.5, "is_closed": false, "distance": 6271.321495388, "name": "Twilite Lounge", "id": "twilite-lounge-dallas", "image_url": "https://s3-media4.fl.yelpcdn.com/bphoto/WMcFAwERK6Z4TAwU1eK4uw/o.jpg", "url": "https://www.yelp.com/biz/twilite-lounge-dallas?adjust_creative=gBcvfFpabk3CnzmXKdYe3w&utm_campaign=yelp_api_v3&utm_medium=api_v3_business_search&utm_source=gBcvfFpabk3CnzmXKdYe3w", "phone": "+12147412121", "coordinates": {"longitude": -96.784908, "latitude": 32.7841949}, "categories": [{"alias": "lounges", "title": "Lounges"}], "review_count": 96, "location": {"city": "Dallas", "address1": "2640 Elm St", "address3": "", "address2": "", "zip_code": "75226", "country": "US", "display_address": ["2640 Elm St", "Dallas, TX 75226"], "state": "TX"}, "price": "$", "transactions": [], "display_phone": "(214) 741-2121"}, {"rating": 4.0, "is_closed": false, "distance": 703.034063508, "name": "The Honor Bar", "id": "the-honor-bar-dallas", "image_url": "https://s3-media1.fl.yelpcdn.com/bphoto/TOi6-FKhrct2keDn-Y_1Eg/o.jpg", "url": "https://www.yelp.com/biz/the-honor-bar-dallas?adjust_creative=gBcvfFpabk3CnzmXKdYe3w&utm_campaign=yelp_api_v3&utm_medium=api_v3_business_search&utm_source=gBcvfFpabk3CnzmXKdYe3w", "phone": "+12147800956", "coordinates": {"longitude": -96.806765, "latitude": 32.835492}, "categories": [{"alias": "tradamerican", "title": "American (Traditional)"}, {"alias": "bars", "title": "Bars"}], "review_count": 40, "location": {"city": "Dallas", "address1": "26A Highland Park Village", "address3": null, "address2": "", "zip_code": "75205", "country": "US", "display_address": ["26A Highland Park Village", "Dallas, TX 75205"], "state": "TX"}, "price": "$$", "transactions": [], "display_phone": "(214) 780-0956"}, {"rating": 4.0, "is_closed": false, "distance": 6420.503450972, "name": "The Woolworth", "id": "the-woolworth-dallas", "image_url": "https://s3-media1.fl.yelpcdn.com/bphoto/3YIuBECGbkFNxJlgHYIiIg/o.jpg", "url": "https://www.yelp.com/biz/the-woolworth-dallas?adjust_creative=gBcvfFpabk3CnzmXKdYe3w&utm_campaign=yelp_api_v3&utm_medium=api_v3_business_search&utm_source=gBcvfFpabk3CnzmXKdYe3w", "phone": "+12148140588", "coordinates": {"longitude": -96.798692, "latitude": 32.781324}, "categories": [{"alias": "cocktailbars", "title": "Cocktail Bars"}, {"alias": "tapasmallplates", "title": "Tapas/Small Plates"}, {"alias": "newamerican", "title": "American (New)"}], "review_count": 409, "location": {"city": "Dallas", "address1": "1520 Elm St", "address3": "", "address2": "Ste 201", "zip_code": "75204", "country": "US", "display_address": ["1520 Elm St", "Ste 201", "Dallas, TX 75204"], "state": "TX"}, "price": "$$", "transactions": [], "display_phone": "(214) 814-0588"}, {"rating": 4.0, "is_closed": false, "distance": 4552.78825919, "name": "Avanti Ristorante", "id": "avanti-ristorante-dallas", "image_url": "https://s3-media3.fl.yelpcdn.com/bphoto/oHLemOq1p9PFIHNof1WX7A/o.jpg", "url": "https://www.yelp.com/biz/avanti-ristorante-dallas?adjust_creative=gBcvfFpabk3CnzmXKdYe3w&utm_campaign=yelp_api_v3&utm_medium=api_v3_business_search&utm_source=gBcvfFpabk3CnzmXKdYe3w", "phone": "+12148714955", "coordinates": {"longitude": -96.800941, "latitude": 32.798118}, "categories": [{"alias": "italian", "title": "Italian"}, {"alias": "mediterranean", "title": "Mediterranean"}], "review_count": 245, "location": {"city": "Dallas", "address1": "2720 Mckinney Ave", "address3": "", "address2": "", "zip_code": "75204", "country": "US", "display_address": ["2720 Mckinney Ave", "Dallas, TX 75204"], "state": "TX"}, "price": "$$", "transactions": [], "display_phone": "(214) 871-4955"}, {"rating": 4.5, "is_closed": false, "distance": 1759.06333756, "name": "Lakeside Park", "id": "lakeside-park-dallas", "image_url": "https://s3-media2.fl.yelpcdn.com/bphoto/mn0ZFohnwalCouDPKaL6fQ/o.jpg", "url": "https://www.yelp.com/biz/lakeside-park-dallas?adjust_creative=gBcvfFpabk3CnzmXKdYe3w&utm_campaign=yelp_api_v3&utm_medium=api_v3_business_search&utm_source=gBcvfFpabk3CnzmXKdYe3w", "phone": "", "coordinates": {"longitude": -96.8004799, "latitude": 32.82321}, "categories": [{"alias": "parks", "title": "Parks"}], "review_count": 19, "location": {"city": "Dallas", "address1": "Lakeside Dr And Armstrong Ave", "address3": "", "address2": null, "zip_code": "75205", "country": "US", "display_address": ["Lakeside Dr And Armstrong Ave", "Dallas, TX 75205"], "state": "TX"}, "transactions": [], "display_phone": ""}, {"rating": 4.0, "is_closed": false, "distance": 4313.433535, "name": "Shell Shack", "id": "shell-shack-uptown-dallas-2", "image_url": "https://s3-media2.fl.yelpcdn.com/bphoto/Qd1L318Ni11T9HNvjahlAg/o.jpg", "url": "https://www.yelp.com/biz/shell-shack-uptown-dallas-2?adjust_creative=gBcvfFpabk3CnzmXKdYe3w&utm_campaign=yelp_api_v3&utm_medium=api_v3_business_search&utm_source=gBcvfFpabk3CnzmXKdYe3w", "phone": "+18445882722", "coordinates": {"longitude": -96.800483, "latitude": 32.800252}, "categories": [{"alias": "seafood", "title": "Seafood"}, {"alias": "bars", "title": "Bars"}, {"alias": "cajun", "title": "Cajun/Creole"}], "review_count": 438, "location": {"city": "Dallas", "address1": "2916 McKinney Ave", "address3": "", "address2": "", "zip_code": "75204", "country": "US", "display_address": ["2916 McKinney Ave", "Dallas, TX 75204"], "state": "TX"}, "price": "$$", "transactions": [], "display_phone": "(844) 588-2722"}, {"rating": 4.0, "is_closed": false, "distance": 4781.578470949999, "name": "Nickel and Rye", "id": "nickel-and-rye-dallas", "image_url": "https://s3-media2.fl.yelpcdn.com/bphoto/lt3gOyyNlgRDPNuqXI6dNQ/o.jpg", "url": "https://www.yelp.com/biz/nickel-and-rye-dallas?adjust_creative=gBcvfFpabk3CnzmXKdYe3w&utm_campaign=yelp_api_v3&utm_medium=api_v3_business_search&utm_source=gBcvfFpabk3CnzmXKdYe3w", "phone": "+12143892120", "coordinates": {"longitude": -96.8020132058269, "latitude": 32.7960593779107}, "categories": [{"alias": "pubs", "title": "Pubs"}, {"alias": "cocktailbars", "title": "Cocktail Bars"}], "review_count": 181, "location": {"city": "Dallas", "address1": "2523 McKinney Ave", "address3": "", "address2": null, "zip_code": "75201", "country": "US", "display_address": ["2523 McKinney Ave", "Dallas, TX 75201"], "state": "TX"}, "price": "$$", "transactions": [], "display_phone": "(214) 389-2120"}, {"rating": 4.0, "is_closed": false, "distance": 4615.300657479999, "name": "Yutaka Sushi Bistro", "id": "yutaka-sushi-bistro-dallas", "image_url": "https://s3-media1.fl.yelpcdn.com/bphoto/CQD0viZpsKEQeTbb0rx32g/o.jpg", "url": "https://www.yelp.com/biz/yutaka-sushi-bistro-dallas?adjust_creative=gBcvfFpabk3CnzmXKdYe3w&utm_campaign=yelp_api_v3&utm_medium=api_v3_business_search&utm_source=gBcvfFpabk3CnzmXKdYe3w", "phone": "+12149695533", "coordinates": {"longitude": -96.801817, "latitude": 32.797551}, "categories": [{"alias": "sushi", "title": "Sushi Bars"}, {"alias": "japanese", "title": "Japanese"}], "review_count": 251, "location": {"city": "Dallas", "address1": "2633 Mckinney Ave", "address3": "", "address2": "Ste 140", "zip_code": "75204", "country": "US", "display_address": ["2633 Mckinney Ave", "Ste 140", "Dallas, TX 75204"], "state": "TX"}, "price": "$$$", "transactions": [], "display_phone": "(214) 969-5533"}, {"rating": 4.0, "is_closed": false, "distance": 3827.300684002, "name": "Bread Winners Cafe & Bakery", "id": "bread-winners-cafe-and-bakery-dallas-4", "image_url": "https://s3-media1.fl.yelpcdn.com/bphoto/FUfcmKEAbI08f9_tGgy7XA/o.jpg", "url": "https://www.yelp.com/biz/bread-winners-cafe-and-bakery-dallas-4?adjust_creative=gBcvfFpabk3CnzmXKdYe3w&utm_campaign=yelp_api_v3&utm_medium=api_v3_business_search&utm_source=gBcvfFpabk3CnzmXKdYe3w", "phone": "+12147544940", "coordinates": {"longitude": -96.79952, "latitude": 32.80466}, "categories": [{"alias": "newamerican", "title": "American (New)"}, {"alias": "breakfast_brunch", "title": "Breakfast & Brunch"}, {"alias": "bakeries", "title": "Bakeries"}], "review_count": 1126, "location": {"city": "Dallas", "address1": "3301 McKinney Ave", "address3": "", "address2": "", "zip_code": "75204", "country": "US", "display_address": ["3301 McKinney Ave", "Dallas, TX 75204"], "state": "TX"}, "price": "$$", "transactions": ["delivery"], "display_phone": "(214) 754-4940"}, {"rating": 4.5, "is_closed": false, "distance": 5472.107640789999, "name": "Bugatti Ristorante", "id": "bugatti-ristorante-dallas", "image_url": "https://s3-media3.fl.yelpcdn.com/bphoto/rq9q-epLkFSHBuISi-2Qpw/o.jpg", "url": "https://www.yelp.com/biz/bugatti-ristorante-dallas?adjust_creative=gBcvfFpabk3CnzmXKdYe3w&utm_campaign=yelp_api_v3&utm_medium=api_v3_business_search&utm_source=gBcvfFpabk3CnzmXKdYe3w", "phone": "+12143502470", "coordinates": {"longitude": -96.8525659292936, "latitude": 32.861637622118}, "categories": [{"alias": "italian", "title": "Italian"}], "review_count": 187, "location": {"city": "Dallas", "address1": "3802 W Northwest Hwy", "address3": "", "address2": "", "zip_code": "75220", "country": "US", "display_address": ["3802 W Northwest Hwy", "Dallas, TX 75220"], "state": "TX"}, "price": "$$", "transactions": [], "display_phone": "(214) 350-2470"}, {"rating": 4.0, "is_closed": false, "distance": 3577.41154204, "name": "Grimaldi's Pizzeria", "id": "grimaldis-pizzeria-dallas-2", "image_url": "https://s3-media4.fl.yelpcdn.com/bphoto/lqWJSdxLN3ZXBiJsxF-2ag/o.jpg", "url": "https://www.yelp.com/biz/grimaldis-pizzeria-dallas-2?adjust_creative=gBcvfFpabk3CnzmXKdYe3w&utm_campaign=yelp_api_v3&utm_medium=api_v3_business_search&utm_source=gBcvfFpabk3CnzmXKdYe3w", "phone": "+12145594611", "coordinates": {"longitude": -96.796220735449, "latitude": 32.807073941044}, "categories": [{"alias": "pizza", "title": "Pizza"}], "review_count": 439, "location": {"city": "Dallas", "address1": "3636 McKinney Ave", "address3": "", "address2": "Ste 190", "zip_code": "75201", "country": "US", "display_address": ["3636 McKinney Ave", "Ste 190", "Dallas, TX 75201"], "state": "TX"}, "price": "$$", "transactions": [], "display_phone": "(214) 559-4611"}, {"rating": 4.0, "is_closed": false, "distance": 3892.0585943939996, "name": "Single Wide", "id": "single-wide-dallas", "image_url": "https://s3-media3.fl.yelpcdn.com/bphoto/9GWsBSLAzPFi8z-CYw8g4w/o.jpg", "url": "https://www.yelp.com/biz/single-wide-dallas?adjust_creative=gBcvfFpabk3CnzmXKdYe3w&utm_campaign=yelp_api_v3&utm_medium=api_v3_business_search&utm_source=gBcvfFpabk3CnzmXKdYe3w", "phone": "+12148245588", "coordinates": {"longitude": -96.7700424, "latitude": 32.815136}, "categories": [{"alias": "divebars", "title": "Dive Bars"}], "review_count": 106, "location": {"city": "Dallas", "address1": "2110 Greenville Ave", "address3": "", "address2": "", "zip_code": "75206", "country": "US", "display_address": ["2110 Greenville Ave", "Dallas, TX 75206"], "state": "TX"}, "price": "$", "transactions": [], "display_phone": "(214) 824-5588"}, {"rating": 4.0, "is_closed": false, "distance": 3286.0992759499995, "name": "Round-Up Saloon", "id": "round-up-saloon-dallas", "image_url": "https://s3-media1.fl.yelpcdn.com/bphoto/LluCHKOIXbqpjXZeI3nkTg/o.jpg", "url": "https://www.yelp.com/biz/round-up-saloon-dallas?adjust_creative=gBcvfFpabk3CnzmXKdYe3w&utm_campaign=yelp_api_v3&utm_medium=api_v3_business_search&utm_source=gBcvfFpabk3CnzmXKdYe3w", "phone": "+12145229611", "coordinates": {"longitude": -96.8103866458725, "latitude": 32.8106716859058}, "categories": [{"alias": "gaybars", "title": "Gay Bars"}], "review_count": 111, "location": {"city": "Dallas", "address1": "3912 Cedar Springs Rd", "address3": "", "address2": "", "zip_code": "75219", "country": "US", "display_address": ["3912 Cedar Springs Rd", "Dallas, TX 75219"], "state": "TX"}, "price": "$$", "transactions": [], "display_phone": "(214) 522-9611"}, {"rating": 4.5, "is_closed": false, "distance": 8395.499339296, "name": "Tacodeli", "id": "tacodeli-dallas", "image_url": "https://s3-media1.fl.yelpcdn.com/bphoto/K6wxpEf8ChxaCAJq6D91qw/o.jpg", "url": "https://www.yelp.com/biz/tacodeli-dallas?adjust_creative=gBcvfFpabk3CnzmXKdYe3w&utm_campaign=yelp_api_v3&utm_medium=api_v3_business_search&utm_source=gBcvfFpabk3CnzmXKdYe3w", "phone": "+12147601930", "coordinates": {"longitude": -96.8356794118881, "latitude": 32.7693273872137}, "categories": [{"alias": "mexican", "title": "Mexican"}], "review_count": 162, "location": {"city": "Dallas", "address1": "1878 Sylvan Ave", "address3": "", "address2": "Ste 100", "zip_code": "75208", "country": "US", "display_address": ["1878 Sylvan Ave", "Ste 100", "Dallas, TX 75208"], "state": "TX"}, "price": "$", "transactions": [], "display_phone": "(214) 760-1930"}, {"rating": 4.0, "is_closed": false, "distance": 3545.209292376, "name": "Baboush", "id": "baboush-dallas", "image_url": "https://s3-media3.fl.yelpcdn.com/bphoto/JXn5jyJa70dFc6LqD5EUXg/o.jpg", "url": "https://www.yelp.com/biz/baboush-dallas?adjust_creative=gBcvfFpabk3CnzmXKdYe3w&utm_campaign=yelp_api_v3&utm_medium=api_v3_business_search&utm_source=gBcvfFpabk3CnzmXKdYe3w", "phone": "+12145990707", "coordinates": {"longitude": -96.7963584722582, "latitude": 32.8073529182653}, "categories": [{"alias": "moroccan", "title": "Moroccan"}, {"alias": "mediterranean", "title": "Mediterranean"}, {"alias": "wine_bars", "title": "Wine Bars"}], "review_count": 346, "location": {"city": "Dallas", "address1": "3699 McKinney Ave", "address3": "", "address2": "Ste 160", "zip_code": "75204", "country": "US", "display_address": ["3699 McKinney Ave", "Ste 160", "Dallas, TX 75204"], "state": "TX"}, "price": "$$", "transactions": ["delivery"], "display_phone": "(214) 599-0707"}, {"rating": 4.0, "is_closed": false, "distance": 1456.930030244, "name": "Half Shells Oyster Bar & Grill", "id": "half-shells-oyster-bar-and-grill-dallas", "image_url": "https://s3-media2.fl.yelpcdn.com/bphoto/usSY6KAPnt3ot5GXiGD4pw/o.jpg", "url": "https://www.yelp.com/biz/half-shells-oyster-bar-and-grill-dallas?adjust_creative=gBcvfFpabk3CnzmXKdYe3w&utm_campaign=yelp_api_v3&utm_medium=api_v3_business_search&utm_source=gBcvfFpabk3CnzmXKdYe3w", "phone": "+12146918164", "coordinates": {"longitude": -96.7880749, "latitude": 32.8472477}, "categories": [{"alias": "seafood", "title": "Seafood"}, {"alias": "salad", "title": "Salad"}, {"alias": "soup", "title": "Soup"}], "review_count": 121, "location": {"city": "Dallas", "address1": "6617 Snider Plz", "address3": "", "address2": "", "zip_code": "75205", "country": "US", "display_address": ["6617 Snider Plz", "Dallas, TX 75205"], "state": "TX"}, "price": "$$", "transactions": [], "display_phone": "(214) 691-8164"}, {"rating": 4.5, "is_closed": false, "distance": 7968.51504412, "name": "Opening Bell Coffee", "id": "opening-bell-coffee-dallas", "image_url": "https://s3-media2.fl.yelpcdn.com/bphoto/GEeR2iTO4m9NlhdMlptY9g/o.jpg", "url": "https://www.yelp.com/biz/opening-bell-coffee-dallas?adjust_creative=gBcvfFpabk3CnzmXKdYe3w&utm_campaign=yelp_api_v3&utm_medium=api_v3_business_search&utm_source=gBcvfFpabk3CnzmXKdYe3w", "phone": "+12145650383", "coordinates": {"longitude": -96.7958073068847, "latitude": 32.7674922108835}, "categories": [{"alias": "coffee", "title": "Coffee & Tea"}, {"alias": "musicvenues", "title": "Music Venues"}, {"alias": "sandwiches", "title": "Sandwiches"}], "review_count": 162, "location": {"city": "Dallas", "address1": "1409 S Lamar St", "address3": "", "address2": "Basement Ste 012", "zip_code": "75215", "country": "US", "display_address": ["1409 S Lamar St", "Basement Ste 012", "Dallas, TX 75215"], "state": "TX"}, "price": "$", "transactions": [], "display_phone": "(214) 565-0383"}, {"rating": 4.5, "is_closed": false, "distance": 4525.832940728, "name": "Starbucks", "id": "starbucks-dallas-124", "image_url": "https://s3-media1.fl.yelpcdn.com/bphoto/pYxN8vyBIFCihp_WjTzenA/o.jpg", "url": "https://www.yelp.com/biz/starbucks-dallas-124?adjust_creative=gBcvfFpabk3CnzmXKdYe3w&utm_campaign=yelp_api_v3&utm_medium=api_v3_business_search&utm_source=gBcvfFpabk3CnzmXKdYe3w", "phone": "+12147709521", "coordinates": {"longitude": -96.7690056022693, "latitude": 32.8699462078495}, "categories": [{"alias": "coffee", "title": "Coffee & Tea"}], "review_count": 48, "location": {"city": "Dallas", "address1": "8026 Park Ln", "address3": "", "address2": "", "zip_code": "75231", "country": "US", "display_address": ["8026 Park Ln", "Dallas, TX 75231"], "state": "TX"}, "price": "$$", "transactions": [], "display_phone": "(214) 770-9521"}, {"rating": 4.0, "is_closed": false, "distance": 6446.461300501999, "name": "Y O Ranch Steakhouse", "id": "y-o-ranch-steakhouse-dallas", "image_url": "https://s3-media3.fl.yelpcdn.com/bphoto/-wjptyxLWEC4j7FxtTVC9Q/o.jpg", "url": "https://www.yelp.com/biz/y-o-ranch-steakhouse-dallas?adjust_creative=gBcvfFpabk3CnzmXKdYe3w&utm_campaign=yelp_api_v3&utm_medium=api_v3_business_search&utm_source=gBcvfFpabk3CnzmXKdYe3w", "phone": "+12147443287", "coordinates": {"longitude": -96.80638, "latitude": 32.7813}, "categories": [{"alias": "steak", "title": "Steakhouses"}, {"alias": "southern", "title": "Southern"}, {"alias": "seafood", "title": "Seafood"}], "review_count": 500, "location": {"city": "Dallas", "address1": "702 Ross Ave", "address3": "", "address2": "", "zip_code": "75202", "country": "US", "display_address": ["702 Ross Ave", "Dallas, TX 75202"], "state": "TX"}, "price": "$$$", "transactions": [], "display_phone": "(214) 744-3287"}, {"rating": 4.0, "is_closed": false, "distance": 4817.846235322, "name": "Crooked Tree Coffeehouse", "id": "crooked-tree-coffeehouse-dallas", "image_url": "https://s3-media1.fl.yelpcdn.com/bphoto/g356OnzYMOdr3baU-IJ-9Q/o.jpg", "url": "https://www.yelp.com/biz/crooked-tree-coffeehouse-dallas?adjust_creative=gBcvfFpabk3CnzmXKdYe3w&utm_campaign=yelp_api_v3&utm_medium=api_v3_business_search&utm_source=gBcvfFpabk3CnzmXKdYe3w", "phone": "+12149531142", "coordinates": {"longitude": -96.800804, "latitude": 32.795722}, "categories": [{"alias": "coffee", "title": "Coffee & Tea"}], "review_count": 438, "location": {"city": "Dallas", "address1": "2414 Routh St", "address3": "", "address2": "", "zip_code": "75201", "country": "US", "display_address": ["2414 Routh St", "Dallas, TX 75201"], "state": "TX"}, "price": "$", "transactions": [], "display_phone": "(214) 953-1142"}, {"rating": 4.0, "is_closed": false, "distance": 4712.84195021, "name": "La Victoria", "id": "la-victoria-dallas", "image_url": "https://s3-media3.fl.yelpcdn.com/bphoto/QR68yHj_00FaKemQAYo7kw/o.jpg", "url": "https://www.yelp.com/biz/la-victoria-dallas?adjust_creative=gBcvfFpabk3CnzmXKdYe3w&utm_campaign=yelp_api_v3&utm_medium=api_v3_business_search&utm_source=gBcvfFpabk3CnzmXKdYe3w", "phone": "+12148270101", "coordinates": {"longitude": -96.783355, "latitude": 32.799194}, "categories": [{"alias": "mexican", "title": "Mexican"}], "review_count": 104, "location": {"city": "Dallas", "address1": "1605 N Haskell Ave", "address3": "", "address2": "", "zip_code": "75204", "country": "US", "display_address": ["1605 N Haskell Ave", "Dallas, TX 75204"], "state": "TX"}, "price": "$", "transactions": [], "display_phone": "(214) 827-0101"}, {"rating": 4.0, "is_closed": false, "distance": 6080.363809282, "name": "Topgolf", "id": "topgolf-dallas-3", "image_url": "https://s3-media1.fl.yelpcdn.com/bphoto/umy4hXP9Cbimdkh9WfqogQ/o.jpg", "url": "https://www.yelp.com/biz/topgolf-dallas-3?adjust_creative=gBcvfFpabk3CnzmXKdYe3w&utm_campaign=yelp_api_v3&utm_medium=api_v3_business_search&utm_source=gBcvfFpabk3CnzmXKdYe3w", "phone": "+12143419600", "coordinates": {"longitude": -96.7462693154812, "latitude": 32.8692383318929}, "categories": [{"alias": "golf", "title": "Golf"}, {"alias": "bars", "title": "Bars"}, {"alias": "newamerican", "title": "American (New)"}], "review_count": 373, "location": {"city": "Dallas", "address1": "8787 Park Ln", "address3": "", "address2": "", "zip_code": "75231", "country": "US", "display_address": ["8787 Park Ln", "Dallas, TX 75231"], "state": "TX"}, "price": "$$", "transactions": [], "display_phone": "(214) 341-9600"}, {"rating": 4.5, "is_closed": false, "distance": 3038.9481041299996, "name": "Unrefined Bakery", "id": "unrefined-bakery-dallas", "image_url": "https://s3-media4.fl.yelpcdn.com/bphoto/XCq6FZiq46SnDRD51P_cSw/o.jpg", "url": "https://www.yelp.com/biz/unrefined-bakery-dallas?adjust_creative=gBcvfFpabk3CnzmXKdYe3w&utm_campaign=yelp_api_v3&utm_medium=api_v3_business_search&utm_source=gBcvfFpabk3CnzmXKdYe3w", "phone": "+12148262414", "coordinates": {"longitude": -96.7700151, "latitude": 32.8293378}, "categories": [{"alias": "gluten_free", "title": "Gluten-Free"}, {"alias": "bakeries", "title": "Bakeries"}, {"alias": "customcakes", "title": "Custom Cakes"}], "review_count": 39, "location": {"city": "Dallas", "address1": "3426 Greenville Ave", "address3": "", "address2": "Ste 150", "zip_code": "75206", "country": "US", "display_address": ["3426 Greenville Ave", "Ste 150", "Dallas, TX 75206"], "state": "TX"}, "price": "$", "transactions": [], "display_phone": "(214) 826-2414"}, {"rating": 4.0, "is_closed": false, "distance": 5246.981413408, "name": "Yolk at One Arts Plaza", "id": "yolk-at-one-arts-plaza-dallas", "image_url": "https://s3-media2.fl.yelpcdn.com/bphoto/hQdJzTXKU8BVNGGwFssQXg/o.jpg", "url": "https://www.yelp.com/biz/yolk-at-one-arts-plaza-dallas?adjust_creative=gBcvfFpabk3CnzmXKdYe3w&utm_campaign=yelp_api_v3&utm_medium=api_v3_business_search&utm_source=gBcvfFpabk3CnzmXKdYe3w", "phone": "+12148559655", "coordinates": {"longitude": -96.79524, "latitude": 32.79196}, "categories": [{"alias": "breakfast_brunch", "title": "Breakfast & Brunch"}, {"alias": "salad", "title": "Salad"}, {"alias": "sandwiches", "title": "Sandwiches"}], "review_count": 302, "location": {"city": "Dallas", "address1": "1722 Routh St", "address3": "", "address2": "", "zip_code": "75201", "country": "US", "display_address": ["1722 Routh St", "Dallas, TX 75201"], "state": "TX"}, "price": "$$", "transactions": ["delivery"], "display_phone": "(214) 855-9655"}, {"rating": 4.0, "is_closed": false, "distance": 2030.8180992999999, "name": "Asian Mint", "id": "asian-mint-dallas-3", "image_url": "https://s3-media2.fl.yelpcdn.com/bphoto/6Ob1tUz7mbss0crILaCUzQ/o.jpg", "url": "https://www.yelp.com/biz/asian-mint-dallas-3?adjust_creative=gBcvfFpabk3CnzmXKdYe3w&utm_campaign=yelp_api_v3&utm_medium=api_v3_business_search&utm_source=gBcvfFpabk3CnzmXKdYe3w", "phone": "+12142196468", "coordinates": {"longitude": -96.8022451, "latitude": 32.8204793}, "categories": [{"alias": "thai", "title": "Thai"}, {"alias": "asianfusion", "title": "Asian Fusion"}, {"alias": "sushi", "title": "Sushi Bars"}], "review_count": 236, "location": {"city": "Dallas", "address1": "4246 Oak Lawn Ave", "address3": "", "address2": "", "zip_code": "75219", "country": "US", "display_address": ["4246 Oak Lawn Ave", "Dallas, TX 75219"], "state": "TX"}, "price": "$$", "transactions": ["delivery", "pickup"], "display_phone": "(214) 219-6468"}, {"rating": 4.0, "is_closed": false, "distance": 6279.690224321999, "name": "Bucky Moonshine's", "id": "bucky-moonshines-dallas-2", "image_url": "https://s3-media2.fl.yelpcdn.com/bphoto/xZgE3U-1nT7N1JFbZAm6iQ/o.jpg", "url": "https://www.yelp.com/biz/bucky-moonshines-dallas-2?adjust_creative=gBcvfFpabk3CnzmXKdYe3w&utm_campaign=yelp_api_v3&utm_medium=api_v3_business_search&utm_source=gBcvfFpabk3CnzmXKdYe3w", "phone": "+12147486901", "coordinates": {"longitude": -96.7819353729862, "latitude": 32.7847732395168}, "categories": [{"alias": "cajun", "title": "Cajun/Creole"}, {"alias": "southern", "title": "Southern"}], "review_count": 203, "location": {"city": "Dallas", "address1": "2912 Elm St", "address3": "", "address2": "", "zip_code": "75226", "country": "US", "display_address": ["2912 Elm St", "Dallas, TX 75226"], "state": "TX"}, "price": "$$", "transactions": [], "display_phone": "(214) 748-6901"}]}