{"total": 34880, "region": {"center": {"longitude": -104.97024536132812, "latitude": 39.73552421220229}}, "businesses": [{"rating": 4.5, "is_closed": false, "distance": 5665.467588714, "name": "Queen of Sheba", "id": "queen-of-sheba-denver", "image_url": "https://s3-media3.fl.yelpcdn.com/bphoto/w9BKv-VbYepKtrKLUGYsIw/o.jpg", "url": "https://www.yelp.com/biz/queen-of-sheba-denver?adjust_creative=gBcvfFpabk3CnzmXKdYe3w&utm_campaign=yelp_api_v3&utm_medium=api_v3_business_search&utm_source=gBcvfFpabk3CnzmXKdYe3w", "phone": "+13033999442", "coordinates": {"longitude": -104.904312, "latitude": 39.740562}, "categories": [{"alias": "ethiopian", "title": "Ethiopian"}], "review_count": 286, "location": {"city": "Denver", "address1": "7225 E Colfax Ave", "address3": "", "address2": "", "zip_code": "80220", "country": "US", "display_address": ["7225 E Colfax Ave", "Denver, CO 80220"], "state": "CO"}, "price": "$$", "transactions": [], "display_phone": "(303) 399-9442"}, {"rating": 4.5, "is_closed": false, "distance": 3219.533272068, "name": "Cooper Lounge", "id": "cooper-lounge-denver-3", "image_url": "https://s3-media2.fl.yelpcdn.com/bphoto/s4lEeYW13a2KaM2OLJ3UEw/o.jpg", "url": "https://www.yelp.com/biz/cooper-lounge-denver-3?adjust_creative=gBcvfFpabk3CnzmXKdYe3w&utm_campaign=yelp_api_v3&utm_medium=api_v3_business_search&utm_source=gBcvfFpabk3CnzmXKdYe3w", "phone": "+17204603738", "coordinates": {"longitude": -105.0001446, "latitude": 39.7531224}, "categories": [{"alias": "cocktailbars", "title": "Cocktail Bars"}], "review_count": 111, "location": {"city": "Denver", "address1": "1701 Wynkoop St", "address3": "", "address2": "", "zip_code": "80202", "country": "US", "display_address": ["1701 Wynkoop St", "Denver, CO 80202"], "state": "CO"}, "price": "$$$", "transactions": [], "display_phone": "(720) 460-3738"}, {"rating": 4.5, "is_closed": false, "distance": 2944.5385870399996, "name": "Ian's Pizza", "id": "ians-pizza-denver-2", "image_url": "https://s3-media4.fl.yelpcdn.com/bphoto/VuS6FZjbPMU3y4dOk9EG6g/o.jpg", "url": "https://www.yelp.com/biz/ians-pizza-denver-2?adjust_creative=gBcvfFpabk3CnzmXKdYe3w&utm_campaign=yelp_api_v3&utm_medium=api_v3_business_search&utm_source=gBcvfFpabk3CnzmXKdYe3w", "phone": "+13032969000", "coordinates": {"longitude": -104.99171739106, "latitude": 39.7562312792762}, "categories": [{"alias": "pizza", "title": "Pizza"}], "review_count": 262, "location": {"city": "Denver", "address1": "2210 Blake St", "address3": "", "address2": "", "zip_code": "80205", "country": "US", "display_address": ["2210 Blake St", "Denver, CO 80205"], "state": "CO"}, "price": "$", "transactions": ["pickup", "delivery"], "display_phone": "(303) 296-9000"}, {"rating": 4.0, "is_closed": false, "distance": 2848.43684894, "name": "Tag", "id": "tag-denver-2", "image_url": "https://s3-media4.fl.yelpcdn.com/bphoto/VZQ4Zcj9CCpu0hAUE0iUig/o.jpg", "url": "https://www.yelp.com/biz/tag-denver-2?adjust_creative=gBcvfFpabk3CnzmXKdYe3w&utm_campaign=yelp_api_v3&utm_medium=api_v3_business_search&utm_source=gBcvfFpabk3CnzmXKdYe3w", "phone": "+13039969985", "coordinates": {"longitude": -104.99935, "latitude": 39.74814}, "categories": [{"alias": "newamerican", "title": "American (New)"}], "review_count": 760, "location": {"city": "Denver", "address1": "1441 Larimer St", "address3": "", "address2": "", "zip_code": "80202", "country": "US", "display_address": ["1441 Larimer St", "Denver, CO 80202"], "state": "CO"}, "price": "$$$", "transactions": [], "display_phone": "(303) 996-9985"}, {"rating": 4.5, "is_closed": false, "distance": 4214.969285779999, "name": "Uber Eats", "id": "uber-eats-denver-4", "image_url": "https://s3-media3.fl.yelpcdn.com/bphoto/Adlf-3TEdZADnpEkG0ABlQ/o.jpg", "url": "https://www.yelp.com/biz/uber-eats-denver-4?adjust_creative=gBcvfFpabk3CnzmXKdYe3w&utm_campaign=yelp_api_v3&utm_medium=api_v3_business_search&utm_source=gBcvfFpabk3CnzmXKdYe3w", "phone": "+13034334575", "coordinates": {"longitude": -105.009717444579, "latitude": 39.7582322513829}, "categories": [{"alias": "sandwiches", "title": "Sandwiches"}, {"alias": "breakfast_brunch", "title": "Breakfast & Brunch"}, {"alias": "burgers", "title": "Burgers"}], "review_count": 262, "location": {"city": "Denver", "address1": "1535 Central St", "address3": "", "address2": null, "zip_code": "80211", "country": "US", "display_address": ["1535 Central St", "Denver, CO 80211"], "state": "CO"}, "price": "$$", "transactions": ["pickup"], "display_phone": "(303) 433-4575"}, {"rating": 4.5, "is_closed": false, "distance": 3008.523692364, "name": "Crema Coffee House", "id": "crema-coffee-house-denver-2", "image_url": "https://s3-media2.fl.yelpcdn.com/bphoto/GD3ISEEDb-zqhI2OCgKrRA/o.jpg", "url": "https://www.yelp.com/biz/crema-coffee-house-denver-2?adjust_creative=gBcvfFpabk3CnzmXKdYe3w&utm_campaign=yelp_api_v3&utm_medium=api_v3_business_search&utm_source=gBcvfFpabk3CnzmXKdYe3w", "phone": "+17202849648", "coordinates": {"longitude": -104.98162, "latitude": 39.76103}, "categories": [{"alias": "coffee", "title": "Coffee & Tea"}], "review_count": 408, "location": {"city": "Denver", "address1": "2862 Larimer St", "address3": "", "address2": "Unit B", "zip_code": "80205", "country": "US", "display_address": ["2862 Larimer St", "Unit B", "Denver, CO 80205"], "state": "CO"}, "price": "$", "transactions": [], "display_phone": "(720) 284-9648"}, {"rating": 4.0, "is_closed": false, "distance": 2886.44865507, "name": "Euclid Hall Bar & Kitchen", "id": "euclid-hall-bar-and-kitchen-denver", "image_url": "https://s3-media1.fl.yelpcdn.com/bphoto/DUY7a7OZ2IuWNg_MFAK2lw/o.jpg", "url": "https://www.yelp.com/biz/euclid-hall-bar-and-kitchen-denver?adjust_creative=gBcvfFpabk3CnzmXKdYe3w&utm_campaign=yelp_api_v3&utm_medium=api_v3_business_search&utm_source=gBcvfFpabk3CnzmXKdYe3w", "phone": "+13035954255", "coordinates": {"longitude": -104.999992, "latitude": 39.747723}, "categories": [{"alias": "newamerican", "title": "American (New)"}], "review_count": 1581, "location": {"city": "Denver", "address1": "1317 14th St", "address3": "", "address2": "", "zip_code": "80202", "country": "US", "display_address": ["1317 14th St", "Denver, CO 80202"], "state": "CO"}, "price": "$$", "transactions": ["pickup"], "display_phone": "(303) 595-4255"}, {"rating": 4.5, "is_closed": false, "distance": 2374.891611686, "name": "Platform T", "id": "platform-t-denver", "image_url": "https://s3-media3.fl.yelpcdn.com/bphoto/4RjMh2-egCElJv15ynwejw/o.jpg", "url": "https://www.yelp.com/biz/platform-t-denver?adjust_creative=gBcvfFpabk3CnzmXKdYe3w&utm_campaign=yelp_api_v3&utm_medium=api_v3_business_search&utm_source=gBcvfFpabk3CnzmXKdYe3w", "phone": "+13037775687", "coordinates": {"longitude": -104.986572265625, "latitude": 39.7181854248047}, "categories": [{"alias": "cafes", "title": "Cafes"}, {"alias": "coffee", "title": "Coffee & Tea"}, {"alias": "tea", "title": "Tea Rooms"}], "review_count": 74, "location": {"city": "Denver", "address1": "95 Lincoln St", "address3": "", "address2": null, "zip_code": "80203", "country": "US", "display_address": ["95 Lincoln St", "Denver, CO 80203"], "state": "CO"}, "price": "$", "transactions": [], "display_phone": "(303) 777-5687"}, {"rating": 4.5, "is_closed": false, "distance": 5186.80786894, "name": "Izakaya Den", "id": "izakaya-den-denver-2", "image_url": "https://s3-media3.fl.yelpcdn.com/bphoto/uzJE3bxi3KEPqkFPcIblBg/o.jpg", "url": "https://www.yelp.com/biz/izakaya-den-denver-2?adjust_creative=gBcvfFpabk3CnzmXKdYe3w&utm_campaign=yelp_api_v3&utm_medium=api_v3_business_search&utm_source=gBcvfFpabk3CnzmXKdYe3w", "phone": "+13037770691", "coordinates": {"longitude": -104.9807808, "latitude": 39.6895855}, "categories": [{"alias": "japanese", "title": "Japanese"}, {"alias": "sushi", "title": "Sushi Bars"}], "review_count": 256, "location": {"city": "Denver", "address1": "1487 S Pearl St", "address3": "", "address2": "", "zip_code": "80210", "country": "US", "display_address": ["1487 S Pearl St", "Denver, CO 80210"], "state": "CO"}, "price": "$$$", "transactions": [], "display_phone": "(303) 777-0691"}, {"rating": 4.5, "is_closed": false, "distance": 4914.637575612, "name": "Wooden Spoon Cafe & Bakery", "id": "wooden-spoon-cafe-and-bakery-denver", "image_url": "https://s3-media3.fl.yelpcdn.com/bphoto/Ay9x-3d7r1BhUw9R6GZJjg/o.jpg", "url": "https://www.yelp.com/biz/wooden-spoon-cafe-and-bakery-denver?adjust_creative=gBcvfFpabk3CnzmXKdYe3w&utm_campaign=yelp_api_v3&utm_medium=api_v3_business_search&utm_source=gBcvfFpabk3CnzmXKdYe3w", "phone": "+13039990327", "coordinates": {"longitude": -105.01636, "latitude": 39.76192}, "categories": [{"alias": "bakeries", "title": "Bakeries"}, {"alias": "sandwiches", "title": "Sandwiches"}], "review_count": 227, "location": {"city": "Denver", "address1": "2418 W 32nd Ave", "address3": "", "address2": "", "zip_code": "80211", "country": "US", "display_address": ["2418 W 32nd Ave", "Denver, CO 80211"], "state": "CO"}, "price": "$", "transactions": [], "display_phone": "(303) 999-0327"}, {"rating": 4.5, "is_closed": false, "distance": 3039.6359360459996, "name": "Avelina", "id": "avelina-denver", "image_url": "https://s3-media3.fl.yelpcdn.com/bphoto/ts5QwKBUqfOjv6LUk3_Z0g/o.jpg", "url": "https://www.yelp.com/biz/avelina-denver?adjust_creative=gBcvfFpabk3CnzmXKdYe3w&utm_campaign=yelp_api_v3&utm_medium=api_v3_business_search&utm_source=gBcvfFpabk3CnzmXKdYe3w", "phone": "+17209046711", "coordinates": {"longitude": -104.9989499, "latitude": 39.75168}, "categories": [{"alias": "cocktailbars", "title": "Cocktail Bars"}, {"alias": "newamerican", "title": "American (New)"}, {"alias": "venues", "title": "Venues & Event Spaces"}], "review_count": 102, "location": {"city": "Denver", "address1": "1550 17th St", "address3": "", "address2": "Ste 120", "zip_code": "80202", "country": "US", "display_address": ["1550 17th St", "Ste 120", "Denver, CO 80202"], "state": "CO"}, "price": "$$$", "transactions": [], "display_phone": "(720) 904-6711"}, {"rating": 4.0, "is_closed": false, "distance": 2871.3829795939996, "name": "Lucile's Creole Cafe", "id": "luciles-creole-cafe-denver", "image_url": "https://s3-media4.fl.yelpcdn.com/bphoto/-CyjqHxCBXXZIwAvoTZikg/o.jpg", "url": "https://www.yelp.com/biz/luciles-creole-cafe-denver?adjust_creative=gBcvfFpabk3CnzmXKdYe3w&utm_campaign=yelp_api_v3&utm_medium=api_v3_business_search&utm_source=gBcvfFpabk3CnzmXKdYe3w", "phone": "+13032826258", "coordinates": {"longitude": -104.982845708728, "latitude": 39.7116588056087}, "categories": [{"alias": "cajun", "title": "Cajun/Creole"}, {"alias": "breakfast_brunch", "title": "Breakfast & Brunch"}], "review_count": 743, "location": {"city": "Denver", "address1": "275 S Logan St", "address3": "", "address2": null, "zip_code": "80209", "country": "US", "display_address": ["275 S Logan St", "Denver, CO 80209"], "state": "CO"}, "price": "$$", "transactions": [], "display_phone": "(303) 282-6258"}, {"rating": 4.0, "is_closed": false, "distance": 2755.665318102, "name": "Racca's Pizzeria Napoletana", "id": "raccas-pizzeria-napoletana-denver-2", "image_url": "https://s3-media3.fl.yelpcdn.com/bphoto/T-ubt0vUUGIYXB52e7M0Vw/o.jpg", "url": "https://www.yelp.com/biz/raccas-pizzeria-napoletana-denver-2?adjust_creative=gBcvfFpabk3CnzmXKdYe3w&utm_campaign=yelp_api_v3&utm_medium=api_v3_business_search&utm_source=gBcvfFpabk3CnzmXKdYe3w", "phone": "+13032967000", "coordinates": {"longitude": -104.99106, "latitude": 39.75452}, "categories": [{"alias": "pizza", "title": "Pizza"}, {"alias": "italian", "title": "Italian"}, {"alias": "gluten_free", "title": "Gluten-Free"}], "review_count": 890, "location": {"city": "Denver", "address1": "2129 Larimer St", "address3": "", "address2": "", "zip_code": "80205", "country": "US", "display_address": ["2129 Larimer St", "Denver, CO 80205"], "state": "CO"}, "price": "$$", "transactions": ["delivery", "pickup"], "display_phone": "(303) 296-7000"}, {"rating": 4.0, "is_closed": false, "distance": 826.8743858479999, "name": "Denver Ted's", "id": "denver-teds-denver", "image_url": "https://s3-media3.fl.yelpcdn.com/bphoto/l0iF9qfrMICyU4t-nQ9GNA/o.jpg", "url": "https://www.yelp.com/biz/denver-teds-denver?adjust_creative=gBcvfFpabk3CnzmXKdYe3w&utm_campaign=yelp_api_v3&utm_medium=api_v3_business_search&utm_source=gBcvfFpabk3CnzmXKdYe3w", "phone": "+13038309089", "coordinates": {"longitude": -104.97975, "latitude": 39.73711}, "categories": [{"alias": "sandwiches", "title": "Sandwiches"}, {"alias": "cheesesteaks", "title": "Cheesesteaks"}], "review_count": 238, "location": {"city": "Denver", "address1": "1308 Pearl St", "address3": "", "address2": "", "zip_code": "80203", "country": "US", "display_address": ["1308 Pearl St", "Denver, CO 80203"], "state": "CO"}, "price": "$", "transactions": ["pickup"], "display_phone": "(303) 830-9089"}, {"rating": 4.5, "is_closed": false, "distance": 561.9614434368, "name": "Caffe Sanora", "id": "caffe-sanora-denver-2", "image_url": "https://s3-media4.fl.yelpcdn.com/bphoto/Miu2EDy4C5B0Y7v2Mugu2Q/o.jpg", "url": "https://www.yelp.com/biz/caffe-sanora-denver-2?adjust_creative=gBcvfFpabk3CnzmXKdYe3w&utm_campaign=yelp_api_v3&utm_medium=api_v3_business_search&utm_source=gBcvfFpabk3CnzmXKdYe3w", "phone": "+13038607511", "coordinates": {"longitude": -104.971765, "latitude": 39.74044}, "categories": [{"alias": "coffee", "title": "Coffee & Tea"}, {"alias": "bakeries", "title": "Bakeries"}, {"alias": "breakfast_brunch", "title": "Breakfast & Brunch"}], "review_count": 101, "location": {"city": "Denver", "address1": "1201 E Colfax Ave", "address3": "", "address2": "", "zip_code": "80218", "country": "US", "display_address": ["1201 E Colfax Ave", "Denver, CO 80218"], "state": "CO"}, "price": "$", "transactions": [], "display_phone": "(303) 860-7511"}, {"rating": 4.5, "is_closed": false, "distance": 2931.08772332, "name": "Sliceworks", "id": "sliceworks-denver-2", "image_url": "https://s3-media2.fl.yelpcdn.com/bphoto/vsGs2ovjO_TgZgG5rg31Zg/o.jpg", "url": "https://www.yelp.com/biz/sliceworks-denver-2?adjust_creative=gBcvfFpabk3CnzmXKdYe3w&utm_campaign=yelp_api_v3&utm_medium=api_v3_business_search&utm_source=gBcvfFpabk3CnzmXKdYe3w", "phone": "+13032973464", "coordinates": {"longitude": -104.9975789, "latitude": 39.7514296}, "categories": [{"alias": "pizza", "title": "Pizza"}, {"alias": "italian", "title": "Italian"}], "review_count": 210, "location": {"city": "Denver", "address1": "1433 17th St", "address3": "", "address2": "Ste 100", "zip_code": "80202", "country": "US", "display_address": ["1433 17th St", "Ste 100", "Denver, CO 80202"], "state": "CO"}, "price": "$", "transactions": [], "display_phone": "(303) 297-3464"}, {"rating": 4.0, "is_closed": false, "distance": 1966.8943098299999, "name": "Cuba Cuba Cafe & Bar", "id": "cuba-cuba-cafe-and-bar-denver-3", "image_url": "https://s3-media2.fl.yelpcdn.com/bphoto/SYn0VHPsCzLJrLnlH_a2Xg/o.jpg", "url": "https://www.yelp.com/biz/cuba-cuba-cafe-and-bar-denver-3?adjust_creative=gBcvfFpabk3CnzmXKdYe3w&utm_campaign=yelp_api_v3&utm_medium=api_v3_business_search&utm_source=gBcvfFpabk3CnzmXKdYe3w", "phone": "+13036052822", "coordinates": {"longitude": -104.993179321289, "latitude": 39.7350845336914}, "categories": [{"alias": "cuban", "title": "Cuban"}], "review_count": 482, "location": {"city": "Denver", "address1": "1173 Delaware St", "address3": "", "address2": "", "zip_code": "80204", "country": "US", "display_address": ["1173 Delaware St", "Denver, CO 80204"], "state": "CO"}, "price": "$$", "transactions": ["delivery", "pickup"], "display_phone": "(303) 605-2822"}, {"rating": 4.0, "is_closed": false, "distance": 1449.1573364724, "name": "DazzleJazz Restaurant & Lounge", "id": "dazzlejazz-restaurant-and-lounge-denver", "image_url": "https://s3-media4.fl.yelpcdn.com/bphoto/5vqJKoP3W11P6FInlGZH4A/o.jpg", "url": "https://www.yelp.com/biz/dazzlejazz-restaurant-and-lounge-denver?adjust_creative=gBcvfFpabk3CnzmXKdYe3w&utm_campaign=yelp_api_v3&utm_medium=api_v3_business_search&utm_source=gBcvfFpabk3CnzmXKdYe3w", "phone": "+13038395100", "coordinates": {"longitude": -104.98596, "latitude": 39.73095}, "categories": [{"alias": "jazzandblues", "title": "Jazz & Blues"}, {"alias": "lounges", "title": "Lounges"}, {"alias": "breakfast_brunch", "title": "Breakfast & Brunch"}], "review_count": 360, "location": {"city": "Denver", "address1": "930 Lincoln St", "address3": "", "address2": "", "zip_code": "80203", "country": "US", "display_address": ["930 Lincoln St", "Denver, CO 80203"], "state": "CO"}, "price": "$$", "transactions": [], "display_phone": "(303) 839-5100"}, {"rating": 4.0, "is_closed": false, "distance": 2813.710027618, "name": "Bistro Vendome", "id": "bistro-vendome-denver-4", "image_url": "https://s3-media1.fl.yelpcdn.com/bphoto/raqQM6JPcPUOdqJ8nHgHMA/o.jpg", "url": "https://www.yelp.com/biz/bistro-vendome-denver-4?adjust_creative=gBcvfFpabk3CnzmXKdYe3w&utm_campaign=yelp_api_v3&utm_medium=api_v3_business_search&utm_source=gBcvfFpabk3CnzmXKdYe3w", "phone": "+13038253232", "coordinates": {"longitude": -104.9991479, "latitude": 39.7476916}, "categories": [{"alias": "french", "title": "French"}], "review_count": 556, "location": {"city": "Denver", "address1": "1420 Larimer St", "address3": "", "address2": "", "zip_code": "80202", "country": "US", "display_address": ["1420 Larimer St", "Denver, CO 80202"], "state": "CO"}, "price": "$$", "transactions": [], "display_phone": "(303) 825-3232"}, {"rating": 4.5, "is_closed": false, "distance": 1792.9180575359997, "name": "Zaika Indian Express", "id": "zaika-indian-express-denver", "image_url": "https://s3-media4.fl.yelpcdn.com/bphoto/85f3SPfcuJyHdg0nRBOghw/o.jpg", "url": "https://www.yelp.com/biz/zaika-indian-express-denver?adjust_creative=gBcvfFpabk3CnzmXKdYe3w&utm_campaign=yelp_api_v3&utm_medium=api_v3_business_search&utm_source=gBcvfFpabk3CnzmXKdYe3w", "phone": "+13038301000", "coordinates": {"longitude": -104.9864449, "latitude": 39.7254118}, "categories": [{"alias": "indpak", "title": "Indian"}], "review_count": 68, "location": {"city": "Denver", "address1": "575 Lincoln St", "address3": "", "address2": null, "zip_code": "80203", "country": "US", "display_address": ["575 Lincoln St", "Denver, CO 80203"], "state": "CO"}, "price": "$$", "transactions": ["delivery", "pickup"], "display_phone": "(303) 830-1000"}, {"rating": 4.0, "is_closed": false, "distance": 2261.789449562, "name": "True Food Kitchen", "id": "true-food-kitchen-denver", "image_url": "https://s3-media1.fl.yelpcdn.com/bphoto/4SH50wkUMjsNtdjz-b06Og/o.jpg", "url": "https://www.yelp.com/biz/true-food-kitchen-denver?adjust_creative=gBcvfFpabk3CnzmXKdYe3w&utm_campaign=yelp_api_v3&utm_medium=api_v3_business_search&utm_source=gBcvfFpabk3CnzmXKdYe3w", "phone": "+17205097661", "coordinates": {"longitude": -104.954394898811, "latitude": 39.7192409475407}, "categories": [{"alias": "newamerican", "title": "American (New)"}, {"alias": "vegetarian", "title": "Vegetarian"}, {"alias": "vegan", "title": "Vegan"}], "review_count": 753, "location": {"city": "Denver", "address1": "2800 E 2nd Ave", "address3": "", "address2": "Suite 101", "zip_code": "80206", "country": "US", "display_address": ["2800 E 2nd Ave", "Suite 101", "Denver, CO 80206"], "state": "CO"}, "price": "$$", "transactions": [], "display_phone": "(720) 509-7661"}, {"rating": 4.5, "is_closed": false, "distance": 4932.00911344, "name": "Maria Empanada", "id": "maria-empanada-denver-2", "image_url": "https://s3-media3.fl.yelpcdn.com/bphoto/tYmb9KPZyA07q1z1Ms71gQ/o.jpg", "url": "https://www.yelp.com/biz/maria-empanada-denver-2?adjust_creative=gBcvfFpabk3CnzmXKdYe3w&utm_campaign=yelp_api_v3&utm_medium=api_v3_business_search&utm_source=gBcvfFpabk3CnzmXKdYe3w", "phone": "+13039342221", "coordinates": {"longitude": -104.98719, "latitude": 39.69319}, "categories": [{"alias": "latin", "title": "Latin American"}, {"alias": "empanadas", "title": "Empanadas"}, {"alias": "desserts", "title": "Desserts"}], "review_count": 314, "location": {"city": "Denver", "address1": "1298 S Broadway Ave", "address3": "", "address2": "", "zip_code": "80210", "country": "US", "display_address": ["1298 S Broadway Ave", "Denver, CO 80210"], "state": "CO"}, "price": "$", "transactions": [], "display_phone": "(303) 934-2221"}, {"rating": 4.0, "is_closed": false, "distance": 4553.40141773, "name": "Williams & Graham", "id": "williams-and-graham-denver", "image_url": "https://s3-media2.fl.yelpcdn.com/bphoto/iVmde7fP7pHR9dVj5lYkEA/o.jpg", "url": "https://www.yelp.com/biz/williams-and-graham-denver?adjust_creative=gBcvfFpabk3CnzmXKdYe3w&utm_campaign=yelp_api_v3&utm_medium=api_v3_business_search&utm_source=gBcvfFpabk3CnzmXKdYe3w", "phone": "+13039978886", "coordinates": {"longitude": -105.011, "latitude": 39.76195}, "categories": [{"alias": "bars", "title": "Bars"}, {"alias": "tradamerican", "title": "American (Traditional)"}], "review_count": 562, "location": {"city": "Denver", "address1": "3160 Tejon St", "address3": "", "address2": null, "zip_code": "80211", "country": "US", "display_address": ["3160 Tejon St", "Denver, CO 80211"], "state": "CO"}, "price": "$$", "transactions": [], "display_phone": "(303) 997-8886"}, {"rating": 4.5, "is_closed": false, "distance": 2263.6702852199996, "name": "A Taste of the Philippines", "id": "a-taste-of-the-philippines-denver-2", "image_url": "https://s3-media1.fl.yelpcdn.com/bphoto/WUDpt6tehS5FQbgQG7VSuQ/o.jpg", "url": "https://www.yelp.com/biz/a-taste-of-the-philippines-denver-2?adjust_creative=gBcvfFpabk3CnzmXKdYe3w&utm_campaign=yelp_api_v3&utm_medium=api_v3_business_search&utm_source=gBcvfFpabk3CnzmXKdYe3w", "phone": "+17207468880", "coordinates": {"longitude": -104.96321105957, "latitude": 39.7585830688477}, "categories": [{"alias": "filipino", "title": "Filipino"}, {"alias": "foodtrucks", "title": "Food Trucks"}], "review_count": 42, "location": {"city": "Denver", "address1": "", "address3": "", "address2": null, "zip_code": "80205", "country": "US", "display_address": ["Denver, CO 80205"], "state": "CO"}, "price": "$", "transactions": [], "display_phone": "(720) 746-8880"}, {"rating": 4.5, "is_closed": false, "distance": 3124.6736225799996, "name": "Stem Ciders", "id": "stem-ciders-denver", "image_url": "https://s3-media2.fl.yelpcdn.com/bphoto/ou5zrFdssNzE2GgsolSkjQ/o.jpg", "url": "https://www.yelp.com/biz/stem-ciders-denver?adjust_creative=gBcvfFpabk3CnzmXKdYe3w&utm_campaign=yelp_api_v3&utm_medium=api_v3_business_search&utm_source=gBcvfFpabk3CnzmXKdYe3w", "phone": "+17204433007", "coordinates": {"longitude": -104.983766574869, "latitude": 39.7616291570563}, "categories": [{"alias": "breweries", "title": "Breweries"}, {"alias": "bars", "title": "Bars"}], "review_count": 179, "location": {"city": "Denver", "address1": "2811 Walnut St", "address3": "", "address2": "Ste 150", "zip_code": "80205", "country": "US", "display_address": ["2811 Walnut St", "Ste 150", "Denver, CO 80205"], "state": "CO"}, "price": "$$", "transactions": [], "display_phone": "(720) 443-3007"}, {"rating": 4.0, "is_closed": false, "distance": 859.7041654582, "name": "Sliceworks", "id": "sliceworks-denver", "image_url": "https://s3-media1.fl.yelpcdn.com/bphoto/DRm7B-Brk3jhMrQ20tvNdw/o.jpg", "url": "https://www.yelp.com/biz/sliceworks-denver?adjust_creative=gBcvfFpabk3CnzmXKdYe3w&utm_campaign=yelp_api_v3&utm_medium=api_v3_business_search&utm_source=gBcvfFpabk3CnzmXKdYe3w", "phone": "+13039938127", "coordinates": {"longitude": -104.97843, "latitude": 39.73973}, "categories": [{"alias": "pizza", "title": "Pizza"}], "review_count": 360, "location": {"city": "Denver", "address1": "700 E Colfax Ave", "address3": "", "address2": null, "zip_code": "80203", "country": "US", "display_address": ["700 E Colfax Ave", "Denver, CO 80203"], "state": "CO"}, "price": "$", "transactions": ["delivery", "pickup"], "display_phone": "(303) 993-8127"}, {"rating": 4.0, "is_closed": false, "distance": 1058.1878817939998, "name": "Marczyk Fine Foods", "id": "marczyk-fine-foods-denver", "image_url": "https://s3-media2.fl.yelpcdn.com/bphoto/x3pGOVuKdThNvMxXHoaL7Q/o.jpg", "url": "https://www.yelp.com/biz/marczyk-fine-foods-denver?adjust_creative=gBcvfFpabk3CnzmXKdYe3w&utm_campaign=yelp_api_v3&utm_medium=api_v3_business_search&utm_source=gBcvfFpabk3CnzmXKdYe3w", "phone": "+13038949499", "coordinates": {"longitude": -104.977921, "latitude": 39.742989}, "categories": [{"alias": "meats", "title": "Meat Shops"}, {"alias": "delis", "title": "Delis"}, {"alias": "grocery", "title": "Grocery"}], "review_count": 265, "location": {"city": "Denver", "address1": "770 E 17th Ave", "address3": "", "address2": "", "zip_code": "80203", "country": "US", "display_address": ["770 E 17th Ave", "Denver, CO 80203"], "state": "CO"}, "price": "$$", "transactions": [], "display_phone": "(303) 894-9499"}, {"rating": 4.5, "is_closed": false, "distance": 4268.038720686, "name": "Brava! Pizzeria Della Strada", "id": "brava-pizzeria-della-strada-denver", "image_url": "https://s3-media2.fl.yelpcdn.com/bphoto/a36kAsmogoElBgWSivDOJg/o.jpg", "url": "https://www.yelp.com/biz/brava-pizzeria-della-strada-denver?adjust_creative=gBcvfFpabk3CnzmXKdYe3w&utm_campaign=yelp_api_v3&utm_medium=api_v3_business_search&utm_source=gBcvfFpabk3CnzmXKdYe3w", "phone": "+13038351611", "coordinates": {"longitude": -105.0061274, "latitude": 39.7622109}, "categories": [{"alias": "pizza", "title": "Pizza"}, {"alias": "italian", "title": "Italian"}], "review_count": 73, "location": {"city": "Denver", "address1": "3200 Pecos St", "address3": "", "address2": "", "zip_code": "80211", "country": "US", "display_address": ["3200 Pecos St", "Denver, CO 80211"], "state": "CO"}, "price": "$", "transactions": [], "display_phone": "(303) 835-1611"}, {"rating": 4.0, "is_closed": false, "distance": 1506.82343266, "name": "D Bar Denver", "id": "d-bar-denver-denver-3", "image_url": "https://s3-media2.fl.yelpcdn.com/bphoto/BpoVMTx5fcX2i721hPSz9Q/o.jpg", "url": "https://www.yelp.com/biz/d-bar-denver-denver-3?adjust_creative=gBcvfFpabk3CnzmXKdYe3w&utm_campaign=yelp_api_v3&utm_medium=api_v3_business_search&utm_source=gBcvfFpabk3CnzmXKdYe3w", "phone": "+13038614710", "coordinates": {"longitude": -104.9811474, "latitude": 39.7461693}, "categories": [{"alias": "desserts", "title": "Desserts"}, {"alias": "diners", "title": "Diners"}, {"alias": "breakfast_brunch", "title": "Breakfast & Brunch"}], "review_count": 433, "location": {"city": "Denver", "address1": "494 E 19th Ave", "address3": "", "address2": "", "zip_code": "80203", "country": "US", "display_address": ["494 E 19th Ave", "Denver, CO 80203"], "state": "CO"}, "price": "$$", "transactions": [], "display_phone": "(303) 861-4710"}, {"rating": 4.5, "is_closed": false, "distance": 2261.418335758, "name": "Asada Rico Food Cart", "id": "asada-rico-food-cart-denver", "image_url": "https://s3-media1.fl.yelpcdn.com/bphoto/ItkYAwztMurL_fsRAYwwhg/o.jpg", "url": "https://www.yelp.com/biz/asada-rico-food-cart-denver?adjust_creative=gBcvfFpabk3CnzmXKdYe3w&utm_campaign=yelp_api_v3&utm_medium=api_v3_business_search&utm_source=gBcvfFpabk3CnzmXKdYe3w", "phone": "", "coordinates": {"longitude": -104.9930193, "latitude": 39.7458661}, "categories": [{"alias": "foodstands", "title": "Food Stands"}], "review_count": 59, "location": {"city": "Denver", "address1": "16th St & Stout St", "address3": "", "address2": "", "zip_code": "80202", "country": "US", "display_address": ["16th St & Stout St", "Denver, CO 80202"], "state": "CO"}, "price": "$", "transactions": [], "display_phone": ""}, {"rating": 4.0, "is_closed": false, "distance": 3041.153060864, "name": "Jax Fish House LoDo", "id": "jax-fish-house-lodo-denver", "image_url": "https://s3-media3.fl.yelpcdn.com/bphoto/0IquVgNjzCbYStEp_5qS1Q/o.jpg", "url": "https://www.yelp.com/biz/jax-fish-house-lodo-denver?adjust_creative=gBcvfFpabk3CnzmXKdYe3w&utm_campaign=yelp_api_v3&utm_medium=api_v3_business_search&utm_source=gBcvfFpabk3CnzmXKdYe3w", "phone": "+13032925767", "coordinates": {"longitude": -104.998515626984, "latitude": 39.7521259302617}, "categories": [{"alias": "seafood", "title": "Seafood"}], "review_count": 506, "location": {"city": "Denver", "address1": "1539 17th St", "address3": "", "address2": "", "zip_code": "80202", "country": "US", "display_address": ["1539 17th St", "Denver, CO 80202"], "state": "CO"}, "price": "$$$", "transactions": [], "display_phone": "(303) 292-5767"}, {"rating": 4.5, "is_closed": false, "distance": 241.35043453719996, "name": "Marion Street Tavern", "id": "marion-street-tavern-denver", "image_url": "https://s3-media2.fl.yelpcdn.com/bphoto/h1SSiHppZxTUZMhgC6U2BQ/o.jpg", "url": "https://www.yelp.com/biz/marion-street-tavern-denver?adjust_creative=gBcvfFpabk3CnzmXKdYe3w&utm_campaign=yelp_api_v3&utm_medium=api_v3_business_search&utm_source=gBcvfFpabk3CnzmXKdYe3w", "phone": "+17206382461", "coordinates": {"longitude": -104.9723266, "latitude": 39.7369878}, "categories": [{"alias": "tradamerican", "title": "American (Traditional)"}, {"alias": "whiskeybars", "title": "Whiskey Bars"}], "review_count": 67, "location": {"city": "Denver", "address1": "1223 E 13th Ave", "address3": "", "address2": "", "zip_code": "80218", "country": "US", "display_address": ["1223 E 13th Ave", "Denver, CO 80218"], "state": "CO"}, "price": "$$", "transactions": [], "display_phone": "(720) 638-2461"}, {"rating": 4.5, "is_closed": false, "distance": 5989.073514979999, "name": "Euro Crepes", "id": "euro-crepes-denver", "image_url": "https://s3-media2.fl.yelpcdn.com/bphoto/nssGgB160dSipyKAniLzFw/o.jpg", "url": "https://www.yelp.com/biz/euro-crepes-denver?adjust_creative=gBcvfFpabk3CnzmXKdYe3w&utm_campaign=yelp_api_v3&utm_medium=api_v3_business_search&utm_source=gBcvfFpabk3CnzmXKdYe3w", "phone": "+13039998417", "coordinates": {"longitude": -104.987025260925, "latitude": 39.6832317397856}, "categories": [{"alias": "creperies", "title": "Creperies"}, {"alias": "french", "title": "French"}], "review_count": 157, "location": {"city": "Denver", "address1": "1842 South Broadway", "address3": "", "address2": "Unit 103", "zip_code": "80210", "country": "US", "display_address": ["1842 South Broadway", "Unit 103", "Denver, CO 80210"], "state": "CO"}, "price": "$$", "transactions": ["pickup"], "display_phone": "(303) 999-8417"}, {"rating": 4.0, "is_closed": false, "distance": 2061.2024385, "name": "P S Lounge", "id": "p-s-lounge-denver", "image_url": "https://s3-media2.fl.yelpcdn.com/bphoto/66VRkvONPGBhlpX6O5qy5g/o.jpg", "url": "https://www.yelp.com/biz/p-s-lounge-denver?adjust_creative=gBcvfFpabk3CnzmXKdYe3w&utm_campaign=yelp_api_v3&utm_medium=api_v3_business_search&utm_source=gBcvfFpabk3CnzmXKdYe3w", "phone": "+13033201200", "coordinates": {"longitude": -104.94671, "latitude": 39.73992}, "categories": [{"alias": "divebars", "title": "Dive Bars"}], "review_count": 158, "location": {"city": "Denver", "address1": "3416 E Colfax Ave", "address3": "", "address2": "", "zip_code": "80206", "country": "US", "display_address": ["3416 E Colfax Ave", "Denver, CO 80206"], "state": "CO"}, "price": "$", "transactions": [], "display_phone": "(303) 320-1200"}, {"rating": 4.5, "is_closed": false, "distance": 5182.82153376, "name": "Sushi Den", "id": "sushi-den-denver", "image_url": "https://s3-media2.fl.yelpcdn.com/bphoto/sS7tqvYk-yQT-QyztkC_jg/o.jpg", "url": "https://www.yelp.com/biz/sushi-den-denver?adjust_creative=gBcvfFpabk3CnzmXKdYe3w&utm_campaign=yelp_api_v3&utm_medium=api_v3_business_search&utm_source=gBcvfFpabk3CnzmXKdYe3w", "phone": "+13037770826", "coordinates": {"longitude": -104.980763, "latitude": 39.68962}, "categories": [{"alias": "japanese", "title": "Japanese"}, {"alias": "sushi", "title": "Sushi Bars"}], "review_count": 1099, "location": {"city": "Denver", "address1": "1487 S Pearl St", "address3": "", "address2": "", "zip_code": "80210", "country": "US", "display_address": ["1487 S Pearl St", "Denver, CO 80210"], "state": "CO"}, "price": "$$$", "transactions": [], "display_phone": "(303) 777-0826"}, {"rating": 4.5, "is_closed": false, "distance": 557.0062051098, "name": "The Corner Coffee Bakery", "id": "the-corner-coffee-bakery-denver", "image_url": "https://s3-media3.fl.yelpcdn.com/bphoto/P6wbNxswe1ma0AcBpNosnw/o.jpg", "url": "https://www.yelp.com/biz/the-corner-coffee-bakery-denver?adjust_creative=gBcvfFpabk3CnzmXKdYe3w&utm_campaign=yelp_api_v3&utm_medium=api_v3_business_search&utm_source=gBcvfFpabk3CnzmXKdYe3w", "phone": "+13039974954", "coordinates": {"longitude": -104.970969062427, "latitude": 39.7405020967948}, "categories": [{"alias": "cafes", "title": "Cafes"}, {"alias": "bakeries", "title": "Bakeries"}, {"alias": "breakfast_brunch", "title": "Breakfast & Brunch"}], "review_count": 43, "location": {"city": "Denver", "address1": "1245 E Colfax Ave", "address3": "", "address2": "Unit 105", "zip_code": "80218", "country": "US", "display_address": ["1245 E Colfax Ave", "Unit 105", "Denver, CO 80218"], "state": "CO"}, "price": "$", "transactions": ["pickup"], "display_phone": "(303) 997-4954"}, {"rating": 4.0, "is_closed": false, "distance": 2656.0177211799996, "name": "Ophelia's Electric Soapbox", "id": "ophelias-electric-soapbox-denver", "image_url": "https://s3-media4.fl.yelpcdn.com/bphoto/SFI7sxwAr0lSSLXPpOM4iw/o.jpg", "url": "https://www.yelp.com/biz/ophelias-electric-soapbox-denver?adjust_creative=gBcvfFpabk3CnzmXKdYe3w&utm_campaign=yelp_api_v3&utm_medium=api_v3_business_search&utm_source=gBcvfFpabk3CnzmXKdYe3w", "phone": "+13039938023", "coordinates": {"longitude": -104.991821289062, "latitude": 39.7526969909668}, "categories": [{"alias": "newamerican", "title": "American (New)"}, {"alias": "musicvenues", "title": "Music Venues"}, {"alias": "cocktailbars", "title": "Cocktail Bars"}], "review_count": 467, "location": {"city": "Denver", "address1": "1215 20th St", "address3": "", "address2": "", "zip_code": "80202", "country": "US", "display_address": ["1215 20th St", "Denver, CO 80202"], "state": "CO"}, "price": "$$", "transactions": [], "display_phone": "(303) 993-8023"}, {"rating": 4.5, "is_closed": false, "distance": 2329.907340006, "name": "I See What You Mean by Lawrence Argent", "id": "i-see-what-you-mean-by-lawrence-argent-denver", "image_url": "https://s3-media2.fl.yelpcdn.com/bphoto/8ZEdj1D7_Sbi1ybdFNRN2w/o.jpg", "url": "https://www.yelp.com/biz/i-see-what-you-mean-by-lawrence-argent-denver?adjust_creative=gBcvfFpabk3CnzmXKdYe3w&utm_campaign=yelp_api_v3&utm_medium=api_v3_business_search&utm_source=gBcvfFpabk3CnzmXKdYe3w", "phone": "", "coordinates": {"longitude": -104.99533043336, "latitude": 39.743705626523}, "categories": [{"alias": "landmarks", "title": "Landmarks & Historical Buildings"}], "review_count": 62, "location": {"city": "Denver", "address1": "700 14th St", "address3": "Colorado Convention Center", "address2": "", "zip_code": "80202", "country": "US", "display_address": ["700 14th St", "Colorado Convention Center", "Denver, CO 80202"], "state": "CO"}, "transactions": [], "display_phone": ""}, {"rating": 4.0, "is_closed": false, "distance": 1495.158614472, "name": "Lowdown Brewery", "id": "lowdown-brewery-denver", "image_url": "https://s3-media3.fl.yelpcdn.com/bphoto/yPdycCibuOEK38qaxXyvLA/o.jpg", "url": "https://www.yelp.com/biz/lowdown-brewery-denver?adjust_creative=gBcvfFpabk3CnzmXKdYe3w&utm_campaign=yelp_api_v3&utm_medium=api_v3_business_search&utm_source=gBcvfFpabk3CnzmXKdYe3w", "phone": "+17205248065", "coordinates": {"longitude": -104.985748291016, "latitude": 39.7293891906738}, "categories": [{"alias": "breweries", "title": "Breweries"}, {"alias": "pizza", "title": "Pizza"}], "review_count": 265, "location": {"city": "Denver", "address1": "800 Lincoln St", "address3": "", "address2": "", "zip_code": "80203", "country": "US", "display_address": ["800 Lincoln St", "Denver, CO 80203"], "state": "CO"}, "price": "$$", "transactions": [], "display_phone": "(720) 524-8065"}, {"rating": 4.5, "is_closed": false, "distance": 4779.419863208, "name": "Sassafras American Eatery", "id": "sassafras-american-eatery-denver-2", "image_url": "https://s3-media3.fl.yelpcdn.com/bphoto/-SHCTX3Xsyg-DQN4unNdUQ/o.jpg", "url": "https://www.yelp.com/biz/sassafras-american-eatery-denver-2?adjust_creative=gBcvfFpabk3CnzmXKdYe3w&utm_campaign=yelp_api_v3&utm_medium=api_v3_business_search&utm_source=gBcvfFpabk3CnzmXKdYe3w", "phone": "+13034330080", "coordinates": {"longitude": -105.02002, "latitude": 39.75509}, "categories": [{"alias": "southern", "title": "Southern"}, {"alias": "cajun", "title": "Cajun/Creole"}, {"alias": "breakfast_brunch", "title": "Breakfast & Brunch"}], "review_count": 644, "location": {"city": "Denver", "address1": "2637 W 26th Ave", "address3": "", "address2": null, "zip_code": "80211", "country": "US", "display_address": ["2637 W 26th Ave", "Denver, CO 80211"], "state": "CO"}, "price": "$$", "transactions": [], "display_phone": "(303) 433-0080"}, {"rating": 4.5, "is_closed": false, "distance": 1024.360681532, "name": "La Abeja", "id": "la-abeja-denver", "image_url": "https://s3-media1.fl.yelpcdn.com/bphoto/0RBTo-ylAXZBOkigheqyDA/o.jpg", "url": "https://www.yelp.com/biz/la-abeja-denver?adjust_creative=gBcvfFpabk3CnzmXKdYe3w&utm_campaign=yelp_api_v3&utm_medium=api_v3_business_search&utm_source=gBcvfFpabk3CnzmXKdYe3w", "phone": "+13038321911", "coordinates": {"longitude": -104.98079, "latitude": 39.7399}, "categories": [{"alias": "bakeries", "title": "Bakeries"}, {"alias": "mexican", "title": "Mexican"}], "review_count": 117, "location": {"city": "Denver", "address1": "508 E Colfax Ave", "address3": "", "address2": "", "zip_code": "80203", "country": "US", "display_address": ["508 E Colfax Ave", "Denver, CO 80203"], "state": "CO"}, "price": "$", "transactions": [], "display_phone": "(303) 832-1911"}, {"rating": 4.5, "is_closed": false, "distance": 550.5013493902, "name": "The Corner Beet", "id": "the-corner-beet-denver", "image_url": "https://s3-media4.fl.yelpcdn.com/bphoto/CPIblFxpLkpPeS39Qr5Y_g/o.jpg", "url": "https://www.yelp.com/biz/the-corner-beet-denver?adjust_creative=gBcvfFpabk3CnzmXKdYe3w&utm_campaign=yelp_api_v3&utm_medium=api_v3_business_search&utm_source=gBcvfFpabk3CnzmXKdYe3w", "phone": "+17202954447", "coordinates": {"longitude": -104.975359462606, "latitude": 39.7385320737529}, "categories": [{"alias": "juicebars", "title": "Juice Bars & Smoothies"}, {"alias": "vegetarian", "title": "Vegetarian"}, {"alias": "vegan", "title": "Vegan"}], "review_count": 99, "location": {"city": "Denver", "address1": "1401 Ogden St", "address3": "", "address2": "", "zip_code": "80218", "country": "US", "display_address": ["1401 Ogden St", "Denver, CO 80218"], "state": "CO"}, "price": "$$", "transactions": [], "display_phone": "(720) 295-4447"}, {"rating": 4.5, "is_closed": false, "distance": 2962.537928402, "name": "10 Barrel Brewing", "id": "10-barrel-brewing-denver", "image_url": "https://s3-media2.fl.yelpcdn.com/bphoto/omvrG89jK6BPiBckiTZlgg/o.jpg", "url": "https://www.yelp.com/biz/10-barrel-brewing-denver?adjust_creative=gBcvfFpabk3CnzmXKdYe3w&utm_campaign=yelp_api_v3&utm_medium=api_v3_business_search&utm_source=gBcvfFpabk3CnzmXKdYe3w", "phone": "+17205738992", "coordinates": {"longitude": -104.9856446, "latitude": 39.75939}, "categories": [{"alias": "breweries", "title": "Breweries"}, {"alias": "pubs", "title": "Pubs"}], "review_count": 71, "location": {"city": "Denver", "address1": "2620 Walnut St", "address3": null, "address2": "", "zip_code": "80205", "country": "US", "display_address": ["2620 Walnut St", "Denver, CO 80205"], "state": "CO"}, "price": "$$", "transactions": [], "display_phone": "(720) 573-8992"}, {"rating": 4.5, "is_closed": false, "distance": 5565.580361066, "name": "Tarasco's New Latino Cuisine", "id": "tarascos-new-latino-cuisine-denver", "image_url": "https://s3-media3.fl.yelpcdn.com/bphoto/brbtU7wu6NZVRQ7DeOJ--A/o.jpg", "url": "https://www.yelp.com/biz/tarascos-new-latino-cuisine-denver?adjust_creative=gBcvfFpabk3CnzmXKdYe3w&utm_campaign=yelp_api_v3&utm_medium=api_v3_business_search&utm_source=gBcvfFpabk3CnzmXKdYe3w", "phone": "+13039222387", "coordinates": {"longitude": -105.02469, "latitude": 39.70801}, "categories": [{"alias": "mexican", "title": "Mexican"}], "review_count": 220, "location": {"city": "Denver", "address1": "470 S Federal Blvd", "address3": "", "address2": "", "zip_code": "80219", "country": "US", "display_address": ["470 S Federal Blvd", "Denver, CO 80219"], "state": "CO"}, "price": "$", "transactions": [], "display_phone": "(303) 922-2387"}, {"rating": 4.5, "is_closed": false, "distance": 1733.6282016619998, "name": "Palace Arms", "id": "palace-arms-denver-3", "image_url": "https://s3-media3.fl.yelpcdn.com/bphoto/Br9P1Ve41Zyjy8qGSFNsxQ/o.jpg", "url": "https://www.yelp.com/biz/palace-arms-denver-3?adjust_creative=gBcvfFpabk3CnzmXKdYe3w&utm_campaign=yelp_api_v3&utm_medium=api_v3_business_search&utm_source=gBcvfFpabk3CnzmXKdYe3w", "phone": "+13032973111", "coordinates": {"longitude": -104.987200994152, "latitude": 39.7440761168377}, "categories": [{"alias": "newamerican", "title": "American (New)"}], "review_count": 91, "location": {"city": "Denver", "address1": "321 W 17th St", "address3": "The Brown Palace", "address2": "", "zip_code": "80202", "country": "US", "display_address": ["321 W 17th St", "The Brown Palace", "Denver, CO 80202"], "state": "CO"}, "price": "$$$$", "transactions": [], "display_phone": "(303) 297-3111"}, {"rating": 4.5, "is_closed": false, "distance": 4015.160390608, "name": "Brider", "id": "brider-denver", "image_url": "https://s3-media2.fl.yelpcdn.com/bphoto/mUFJp8_-wqhTILpDv0Vomw/o.jpg", "url": "https://www.yelp.com/biz/brider-denver?adjust_creative=gBcvfFpabk3CnzmXKdYe3w&utm_campaign=yelp_api_v3&utm_medium=api_v3_business_search&utm_source=gBcvfFpabk3CnzmXKdYe3w", "phone": "+13034553084", "coordinates": {"longitude": -105.00706276083, "latitude": 39.757937099326}, "categories": [{"alias": "newamerican", "title": "American (New)"}, {"alias": "breakfast_brunch", "title": "Breakfast & Brunch"}, {"alias": "sandwiches", "title": "Sandwiches"}], "review_count": 149, "location": {"city": "Denver", "address1": "1644 Platte St", "address3": "", "address2": "", "zip_code": "80202", "country": "US", "display_address": ["1644 Platte St", "Denver, CO 80202"], "state": "CO"}, "price": "$$", "transactions": ["delivery", "pickup"], "display_phone": "(303) 455-3084"}, {"rating": 4.5, "is_closed": false, "distance": 6461.7769064799995, "name": "Detour Bakery", "id": "detour-bakery-denver", "image_url": "https://s3-media2.fl.yelpcdn.com/bphoto/3esXcKMP4Poi0OFfONczuw/o.jpg", "url": "https://www.yelp.com/biz/detour-bakery-denver?adjust_creative=gBcvfFpabk3CnzmXKdYe3w&utm_campaign=yelp_api_v3&utm_medium=api_v3_business_search&utm_source=gBcvfFpabk3CnzmXKdYe3w", "phone": "+13037562020", "coordinates": {"longitude": -104.923500456011, "latitude": 39.689874643624}, "categories": [{"alias": "bakeries", "title": "Bakeries"}, {"alias": "french", "title": "French"}, {"alias": "newamerican", "title": "American (New)"}], "review_count": 103, "location": {"city": "Denver", "address1": "1479 S Holly St", "address3": "", "address2": "", "zip_code": "80222", "country": "US", "display_address": ["1479 S Holly St", "Denver, CO 80222"], "state": "CO"}, "price": "$", "transactions": [], "display_phone": "(303) 756-2020"}, {"rating": 4.5, "is_closed": false, "distance": 4368.538463137999, "name": "Maci Cafe", "id": "maci-cafe-denver-2", "image_url": "https://s3-media2.fl.yelpcdn.com/bphoto/OpT_J_FAw88um2s1a2cYOA/o.jpg", "url": "https://www.yelp.com/biz/maci-cafe-denver-2?adjust_creative=gBcvfFpabk3CnzmXKdYe3w&utm_campaign=yelp_api_v3&utm_medium=api_v3_business_search&utm_source=gBcvfFpabk3CnzmXKdYe3w", "phone": "+17208557585", "coordinates": {"longitude": -105.010975, "latitude": 39.759242}, "categories": [{"alias": "coffee", "title": "Coffee & Tea"}, {"alias": "cafes", "title": "Cafes"}], "review_count": 118, "location": {"city": "Denver", "address1": "1575 Boulder St", "address3": "", "address2": "Ste B", "zip_code": "80211", "country": "US", "display_address": ["1575 Boulder St", "Ste B", "Denver, CO 80211"], "state": "CO"}, "price": "$", "transactions": ["pickup"], "display_phone": "(720) 855-7585"}, {"rating": 5.0, "is_closed": false, "distance": 6104.518232408, "name": "Bear Creek Distillery", "id": "bear-creek-distillery-denver-2", "image_url": "https://s3-media1.fl.yelpcdn.com/bphoto/TRyOjq6ikssWwCjU8N9fcA/o.jpg", "url": "https://www.yelp.com/biz/bear-creek-distillery-denver-2?adjust_creative=gBcvfFpabk3CnzmXKdYe3w&utm_campaign=yelp_api_v3&utm_medium=api_v3_business_search&utm_source=gBcvfFpabk3CnzmXKdYe3w", "phone": "+13039554638", "coordinates": {"longitude": -104.989112854004, "latitude": 39.6825714111328}, "categories": [{"alias": "bars", "title": "Bars"}, {"alias": "distilleries", "title": "Distilleries"}], "review_count": 43, "location": {"city": "Denver", "address1": "1879 S Acoma St", "address3": "", "address2": "", "zip_code": "80223", "country": "US", "display_address": ["1879 S Acoma St", "Denver, CO 80223"], "state": "CO"}, "price": "$$", "transactions": [], "display_phone": "(303) 955-4638"}, {"rating": 4.5, "is_closed": false, "distance": 5433.5454403799995, "name": "Cherry Bean", "id": "cherry-bean-denver", "image_url": "https://s3-media1.fl.yelpcdn.com/bphoto/YuHbwVRHeyW1JA5rfxIJrw/o.jpg", "url": "https://www.yelp.com/biz/cherry-bean-denver?adjust_creative=gBcvfFpabk3CnzmXKdYe3w&utm_campaign=yelp_api_v3&utm_medium=api_v3_business_search&utm_source=gBcvfFpabk3CnzmXKdYe3w", "phone": "+13032842512", "coordinates": {"longitude": -105.011330366271, "latitude": 39.7728098611676}, "categories": [{"alias": "coffee", "title": "Coffee & Tea"}, {"alias": "sandwiches", "title": "Sandwiches"}], "review_count": 54, "location": {"city": "Denver", "address1": "4059 Tejon St", "address3": "", "address2": "", "zip_code": "80211", "country": "US", "display_address": ["4059 Tejon St", "Denver, CO 80211"], "state": "CO"}, "price": "$", "transactions": ["pickup"], "display_phone": "(303) 284-2512"}]}