{"total": 34880, "region": {"center": {"longitude": -104.97024536132812, "latitude": 39.73552421220229}}, "businesses": [{"rating": 4.5, "is_closed": false, "distance": 6061.324351478, "name": "El Jefe", "id": "el-jefe-denver", "image_url": "https://s3-media2.fl.yelpcdn.com/bphoto/N8mAmmTndtld9RSEUpUgNg/o.jpg", "url": "https://www.yelp.com/biz/el-jefe-denver?adjust_creative=gBcvfFpabk3CnzmXKdYe3w&utm_campaign=yelp_api_v3&utm_medium=api_v3_business_search&utm_source=gBcvfFpabk3CnzmXKdYe3w", "phone": "+17203897615", "coordinates": {"longitude": -105.017218217254, "latitude": 39.7765253484249}, "categories": [{"alias": "mexican", "title": "Mexican"}], "review_count": 44, "location": {"city": "Denver", "address1": "2450 W 44th Ave", "address3": null, "address2": "", "zip_code": "80211", "country": "US", "display_address": ["2450 W 44th Ave", "Denver, CO 80211"], "state": "CO"}, "price": "$$", "transactions": [], "display_phone": "(720) 389-7615"}, {"rating": 3.5, "is_closed": false, "distance": 2931.8811279399997, "name": "1515 Restaurant", "id": "1515-restaurant-denver", "image_url": "https://s3-media1.fl.yelpcdn.com/bphoto/RVovfuhaJGqS-lJoR_oOVg/o.jpg", "url": "https://www.yelp.com/biz/1515-restaurant-denver?adjust_creative=gBcvfFpabk3CnzmXKdYe3w&utm_campaign=yelp_api_v3&utm_medium=api_v3_business_search&utm_source=gBcvfFpabk3CnzmXKdYe3w", "phone": "+13035710011", "coordinates": {"longitude": -104.99939, "latitude": 39.74941}, "categories": [{"alias": "newamerican", "title": "American (New)"}, {"alias": "salad", "title": "Salad"}, {"alias": "wine_bars", "title": "Wine Bars"}], "review_count": 252, "location": {"city": "Denver", "address1": "1515 Market St", "address3": "", "address2": "", "zip_code": "80202", "country": "US", "display_address": ["1515 Market St", "Denver, CO 80202"], "state": "CO"}, "price": "$$$", "transactions": ["delivery"], "display_phone": "(303) 571-0011"}, {"rating": 4.0, "is_closed": false, "distance": 7149.87597292, "name": "Revelry Kitchen", "id": "revelry-kitchen-denver", "image_url": "https://s3-media4.fl.yelpcdn.com/bphoto/f97yR6YDzY212F7ESBvMvA/o.jpg", "url": "https://www.yelp.com/biz/revelry-kitchen-denver?adjust_creative=gBcvfFpabk3CnzmXKdYe3w&utm_campaign=yelp_api_v3&utm_medium=api_v3_business_search&utm_source=gBcvfFpabk3CnzmXKdYe3w", "phone": "+13034553132", "coordinates": {"longitude": -105.04153, "latitude": 39.76932}, "categories": [{"alias": "breakfast_brunch", "title": "Breakfast & Brunch"}, {"alias": "gluten_free", "title": "Gluten-Free"}, {"alias": "salad", "title": "Salad"}], "review_count": 136, "location": {"city": "Denver", "address1": "4140 W 38th Ave", "address3": null, "address2": null, "zip_code": "80212", "country": "US", "display_address": ["4140 W 38th Ave", "Denver, CO 80212"], "state": "CO"}, "price": "$$", "transactions": [], "display_phone": "(303) 455-3132"}, {"rating": 4.0, "is_closed": false, "distance": 2921.39869185, "name": "Etai's Bakery cafe", "id": "etais-bakery-cafe-denver-10", "image_url": "https://s3-media2.fl.yelpcdn.com/bphoto/RtCiLMgOkFU7RMcyKuSrjw/o.jpg", "url": "https://www.yelp.com/biz/etais-bakery-cafe-denver-10?adjust_creative=gBcvfFpabk3CnzmXKdYe3w&utm_campaign=yelp_api_v3&utm_medium=api_v3_business_search&utm_source=gBcvfFpabk3CnzmXKdYe3w", "phone": "+13034370735", "coordinates": {"longitude": -104.984649, "latitude": 39.759483}, "categories": [{"alias": "bakeries", "title": "Bakeries"}, {"alias": "salad", "title": "Salad"}, {"alias": "seafood", "title": "Seafood"}], "review_count": 21, "location": {"city": "Denver", "address1": "2669 Larimer St", "address3": "The Denver Central Market", "address2": "", "zip_code": "80205", "country": "US", "display_address": ["2669 Larimer St", "The Denver Central Market", "Denver, CO 80205"], "state": "CO"}, "price": "$$", "transactions": [], "display_phone": "(303) 437-0735"}, {"rating": 4.5, "is_closed": false, "distance": 3786.2515704899997, "name": "RiNo Yacht Club", "id": "rino-yacht-club-denver", "image_url": "https://s3-media2.fl.yelpcdn.com/bphoto/jjXSH6oe7mcAbaxABLTYFg/o.jpg", "url": "https://www.yelp.com/biz/rino-yacht-club-denver?adjust_creative=gBcvfFpabk3CnzmXKdYe3w&utm_campaign=yelp_api_v3&utm_medium=api_v3_business_search&utm_source=gBcvfFpabk3CnzmXKdYe3w", "phone": "+17204855581", "coordinates": {"longitude": -104.979888341361, "latitude": 39.76875864541}, "categories": [{"alias": "cocktailbars", "title": "Cocktail Bars"}], "review_count": 20, "location": {"city": "Denver", "address1": "3350 Brighton Blvd", "address3": "The Source", "address2": "", "zip_code": "80216", "country": "US", "display_address": ["3350 Brighton Blvd", "The Source", "Denver, CO 80216"], "state": "CO"}, "price": "$$", "transactions": [], "display_phone": "(720) 485-5581"}, {"rating": 3.5, "is_closed": false, "distance": 2641.30352556, "name": "Zaidy's Deli", "id": "zaidys-deli-denver", "image_url": "https://s3-media4.fl.yelpcdn.com/bphoto/HaEraof9Bq4gFFygj36Hgg/o.jpg", "url": "https://www.yelp.com/biz/zaidys-deli-denver?adjust_creative=gBcvfFpabk3CnzmXKdYe3w&utm_campaign=yelp_api_v3&utm_medium=api_v3_business_search&utm_source=gBcvfFpabk3CnzmXKdYe3w", "phone": "+13033335336", "coordinates": {"longitude": -104.9487149, "latitude": 39.7183274}, "categories": [{"alias": "delis", "title": "Delis"}, {"alias": "sandwiches", "title": "Sandwiches"}, {"alias": "breakfast_brunch", "title": "Breakfast & Brunch"}], "review_count": 252, "location": {"city": "Denver", "address1": "121 Adams St", "address3": "", "address2": "", "zip_code": "80206", "country": "US", "display_address": ["121 Adams St", "Denver, CO 80206"], "state": "CO"}, "price": "$$", "transactions": [], "display_phone": "(303) 333-5336"}, {"rating": 3.5, "is_closed": false, "distance": 848.6328235819999, "name": "The 1up - Colfax", "id": "the-1up-colfax-denver-2", "image_url": "https://s3-media4.fl.yelpcdn.com/bphoto/pEEUSC3G0ApszHUgE_-Oew/o.jpg", "url": "https://www.yelp.com/biz/the-1up-colfax-denver-2?adjust_creative=gBcvfFpabk3CnzmXKdYe3w&utm_campaign=yelp_api_v3&utm_medium=api_v3_business_search&utm_source=gBcvfFpabk3CnzmXKdYe3w", "phone": "+13037362230", "coordinates": {"longitude": -104.9781352, "latitude": 39.7401558}, "categories": [{"alias": "bars", "title": "Bars"}, {"alias": "arcades", "title": "Arcades"}], "review_count": 130, "location": {"city": "Denver", "address1": "717 E Colfax Ave", "address3": "", "address2": "", "zip_code": "80203", "country": "US", "display_address": ["717 E Colfax Ave", "Denver, CO 80203"], "state": "CO"}, "price": "$", "transactions": [], "display_phone": "(303) 736-2230"}, {"rating": 3.5, "is_closed": false, "distance": 1764.6477473599998, "name": "Pints Pub", "id": "pints-pub-denver", "image_url": "https://s3-media2.fl.yelpcdn.com/bphoto/jegSsv9_1apU13lsAoXjKA/o.jpg", "url": "https://www.yelp.com/biz/pints-pub-denver?adjust_creative=gBcvfFpabk3CnzmXKdYe3w&utm_campaign=yelp_api_v3&utm_medium=api_v3_business_search&utm_source=gBcvfFpabk3CnzmXKdYe3w", "phone": "+13035347543", "coordinates": {"longitude": -104.99087, "latitude": 39.73698}, "categories": [{"alias": "pubs", "title": "Pubs"}, {"alias": "british", "title": "British"}, {"alias": "burgers", "title": "Burgers"}], "review_count": 255, "location": {"city": "Denver", "address1": "221 W 13th Ave", "address3": "", "address2": "", "zip_code": "80204", "country": "US", "display_address": ["221 W 13th Ave", "Denver, CO 80204"], "state": "CO"}, "price": "$$", "transactions": [], "display_phone": "(303) 534-7543"}, {"rating": 3.5, "is_closed": false, "distance": 6371.44465228, "name": "Jerusalem Restaurant", "id": "jerusalem-restaurant-denver", "image_url": "https://s3-media2.fl.yelpcdn.com/bphoto/j35pYEeGBeK_qkUj5wQj4w/o.jpg", "url": "https://www.yelp.com/biz/jerusalem-restaurant-denver?adjust_creative=gBcvfFpabk3CnzmXKdYe3w&utm_campaign=yelp_api_v3&utm_medium=api_v3_business_search&utm_source=gBcvfFpabk3CnzmXKdYe3w", "phone": "+13037778828", "coordinates": {"longitude": -104.965404, "latitude": 39.678344}, "categories": [{"alias": "mideastern", "title": "Middle Eastern"}], "review_count": 660, "location": {"city": "Denver", "address1": "1890 E Evans Ave", "address3": "", "address2": "", "zip_code": "80210", "country": "US", "display_address": ["1890 E Evans Ave", "Denver, CO 80210"], "state": "CO"}, "price": "$", "transactions": [], "display_phone": "(303) 777-8828"}, {"rating": 4.0, "is_closed": false, "distance": 5919.79786534, "name": "Makan Malaysian Cafe", "id": "makan-malaysian-cafe-denver", "image_url": "https://s3-media3.fl.yelpcdn.com/bphoto/Bss6fHp7akxAJdSAw_69Vg/o.jpg", "url": "https://www.yelp.com/biz/makan-malaysian-cafe-denver?adjust_creative=gBcvfFpabk3CnzmXKdYe3w&utm_campaign=yelp_api_v3&utm_medium=api_v3_business_search&utm_source=gBcvfFpabk3CnzmXKdYe3w", "phone": "+17205248093", "coordinates": {"longitude": -104.98078918457, "latitude": 39.6829109191895}, "categories": [{"alias": "malaysian", "title": "Malaysian"}, {"alias": "indonesian", "title": "Indonesian"}, {"alias": "singaporean", "title": "Singaporean"}], "review_count": 96, "location": {"city": "Denver", "address1": "1859 S Pearl St", "address3": "", "address2": "", "zip_code": "80210", "country": "US", "display_address": ["1859 S Pearl St", "Denver, CO 80210"], "state": "CO"}, "price": "$$", "transactions": ["pickup"], "display_phone": "(720) 524-8093"}, {"rating": 4.0, "is_closed": false, "distance": 6347.702059259999, "name": "Etai's Bakery Cafe - Stapleton", "id": "etais-bakery-cafe-stapleton-denver", "image_url": "https://s3-media3.fl.yelpcdn.com/bphoto/NjwOnJtlVDOcEXImGMr6ew/o.jpg", "url": "https://www.yelp.com/biz/etais-bakery-cafe-stapleton-denver?adjust_creative=gBcvfFpabk3CnzmXKdYe3w&utm_campaign=yelp_api_v3&utm_medium=api_v3_business_search&utm_source=gBcvfFpabk3CnzmXKdYe3w", "phone": "+13033298888", "coordinates": {"longitude": -104.902038127184, "latitude": 39.758075773716}, "categories": [{"alias": "breakfast_brunch", "title": "Breakfast & Brunch"}, {"alias": "delis", "title": "Delis"}, {"alias": "gluten_free", "title": "Gluten-Free"}], "review_count": 220, "location": {"city": "Denver", "address1": "7357 East 29th Ave", "address3": "", "address2": "", "zip_code": "80238", "country": "US", "display_address": ["7357 East 29th Ave", "Denver, CO 80238"], "state": "CO"}, "price": "$$", "transactions": ["delivery", "pickup"], "display_phone": "(303) 329-8888"}, {"rating": 3.5, "is_closed": false, "distance": 2855.820983662, "name": "Gary Lee's Motor Club & Grub", "id": "gary-lees-motor-club-and-grub-denver", "image_url": "https://s3-media3.fl.yelpcdn.com/bphoto/yAZvOF-eOEIvFWSmn9A9BA/o.jpg", "url": "https://www.yelp.com/biz/gary-lees-motor-club-and-grub-denver?adjust_creative=gBcvfFpabk3CnzmXKdYe3w&utm_campaign=yelp_api_v3&utm_medium=api_v3_business_search&utm_source=gBcvfFpabk3CnzmXKdYe3w", "phone": "+13032824782", "coordinates": {"longitude": -104.987007, "latitude": 39.713311}, "categories": [{"alias": "bbq", "title": "Barbeque"}, {"alias": "tradamerican", "title": "American (Traditional)"}], "review_count": 151, "location": {"city": "Denver", "address1": "176 S Broadway", "address3": "", "address2": "", "zip_code": "80209", "country": "US", "display_address": ["176 S Broadway", "Denver, CO 80209"], "state": "CO"}, "price": "$$", "transactions": [], "display_phone": "(303) 282-4782"}, {"rating": 3.5, "is_closed": false, "distance": 1213.5356051596, "name": "Peter's Chinese Cafe", "id": "peters-chinese-cafe-denver", "image_url": "https://s3-media2.fl.yelpcdn.com/bphoto/pGQH4JtfVUYHV9vEx7GfQw/o.jpg", "url": "https://www.yelp.com/biz/peters-chinese-cafe-denver?adjust_creative=gBcvfFpabk3CnzmXKdYe3w&utm_campaign=yelp_api_v3&utm_medium=api_v3_business_search&utm_source=gBcvfFpabk3CnzmXKdYe3w", "phone": "+13033773218", "coordinates": {"longitude": -104.95608, "latitude": 39.73536}, "categories": [{"alias": "chinese", "title": "Chinese"}], "review_count": 179, "location": {"city": "Denver", "address1": "2609 E 12th Ave", "address3": "", "address2": "", "zip_code": "80206", "country": "US", "display_address": ["2609 E 12th Ave", "Denver, CO 80206"], "state": "CO"}, "price": "$", "transactions": [], "display_phone": "(303) 377-3218"}, {"rating": 3.5, "is_closed": false, "distance": 2553.81899849, "name": "El Noa Noa", "id": "el-noa-noa-denver-2", "image_url": "https://s3-media4.fl.yelpcdn.com/bphoto/3wUYwA5SvJyQfOIxVRELKA/o.jpg", "url": "https://www.yelp.com/biz/el-noa-noa-denver-2?adjust_creative=gBcvfFpabk3CnzmXKdYe3w&utm_campaign=yelp_api_v3&utm_medium=api_v3_business_search&utm_source=gBcvfFpabk3CnzmXKdYe3w", "phone": "+13036239968", "coordinates": {"longitude": -104.99829, "latitude": 39.72783}, "categories": [{"alias": "mexican", "title": "Mexican"}, {"alias": "desserts", "title": "Desserts"}, {"alias": "seafood", "title": "Seafood"}], "review_count": 193, "location": {"city": "Denver", "address1": "722 Santa Fe Dr", "address3": "", "address2": null, "zip_code": "80204", "country": "US", "display_address": ["722 Santa Fe Dr", "Denver, CO 80204"], "state": "CO"}, "price": "$$", "transactions": ["pickup"], "display_phone": "(303) 623-9968"}, {"rating": 3.5, "is_closed": false, "distance": 1077.73637384, "name": "St. Marks Coffee House", "id": "st-marks-coffee-house-denver", "image_url": "https://s3-media1.fl.yelpcdn.com/bphoto/JT-5smB5s2JKBrXJskm_5w/o.jpg", "url": "https://www.yelp.com/biz/st-marks-coffee-house-denver?adjust_creative=gBcvfFpabk3CnzmXKdYe3w&utm_campaign=yelp_api_v3&utm_medium=api_v3_business_search&utm_source=gBcvfFpabk3CnzmXKdYe3w", "phone": "+13033228384", "coordinates": {"longitude": -104.9629099, "latitude": 39.74336}, "categories": [{"alias": "coffee", "title": "Coffee & Tea"}], "review_count": 258, "location": {"city": "Denver", "address1": "2019 E 17th Ave", "address3": "", "address2": "", "zip_code": "80206", "country": "US", "display_address": ["2019 E 17th Ave", "Denver, CO 80206"], "state": "CO"}, "price": "$", "transactions": [], "display_phone": "(303) 322-8384"}, {"rating": 5.0, "is_closed": false, "distance": 4811.058682938, "name": "Roll It Up Sushi Truck", "id": "roll-it-up-sushi-truck-denver", "image_url": "https://s3-media2.fl.yelpcdn.com/bphoto/Ih6x-pqP93KuGu37zdx32g/o.jpg", "url": "https://www.yelp.com/biz/roll-it-up-sushi-truck-denver?adjust_creative=gBcvfFpabk3CnzmXKdYe3w&utm_campaign=yelp_api_v3&utm_medium=api_v3_business_search&utm_source=gBcvfFpabk3CnzmXKdYe3w", "phone": "+15855007154", "coordinates": {"longitude": -105.0238376, "latitude": 39.7474651}, "categories": [{"alias": "foodtrucks", "title": "Food Trucks"}, {"alias": "sushi", "title": "Sushi Bars"}], "review_count": 8, "location": {"city": "Denver", "address1": "2926 W 20th Ave", "address3": "", "address2": "", "zip_code": "80211", "country": "US", "display_address": ["2926 W 20th Ave", "Denver, CO 80211"], "state": "CO"}, "price": "$", "transactions": [], "display_phone": "(585) 500-7154"}, {"rating": 3.5, "is_closed": false, "distance": 3009.06185566, "name": "Blake Street Tavern", "id": "blake-street-tavern-denver", "image_url": "https://s3-media2.fl.yelpcdn.com/bphoto/QuPFlMhSDWDNwCECaB6D7w/o.jpg", "url": "https://www.yelp.com/biz/blake-street-tavern-denver?adjust_creative=gBcvfFpabk3CnzmXKdYe3w&utm_campaign=yelp_api_v3&utm_medium=api_v3_business_search&utm_source=gBcvfFpabk3CnzmXKdYe3w", "phone": "+13036750505", "coordinates": {"longitude": -104.990435, "latitude": 39.757689}, "categories": [{"alias": "tradamerican", "title": "American (Traditional)"}, {"alias": "sportsbars", "title": "Sports Bars"}, {"alias": "arcades", "title": "Arcades"}], "review_count": 303, "location": {"city": "Denver", "address1": "2301 Blake St", "address3": "", "address2": "", "zip_code": "80205", "country": "US", "display_address": ["2301 Blake St", "Denver, CO 80205"], "state": "CO"}, "price": "$$", "transactions": [], "display_phone": "(303) 675-0505"}, {"rating": 3.5, "is_closed": false, "distance": 1397.658440379, "name": "Stoney's Bar & Grill", "id": "stoneys-bar-and-grill-denver", "image_url": "https://s3-media3.fl.yelpcdn.com/bphoto/tqRBua6jvcnFcejM5_cMLA/o.jpg", "url": "https://www.yelp.com/biz/stoneys-bar-and-grill-denver?adjust_creative=gBcvfFpabk3CnzmXKdYe3w&utm_campaign=yelp_api_v3&utm_medium=api_v3_business_search&utm_source=gBcvfFpabk3CnzmXKdYe3w", "phone": "+13038306839", "coordinates": {"longitude": -104.986504, "latitude": 39.7342314}, "categories": [{"alias": "sportsbars", "title": "Sports Bars"}], "review_count": 316, "location": {"city": "Denver", "address1": "1111 Lincoln St", "address3": "", "address2": "", "zip_code": "80203", "country": "US", "display_address": ["1111 Lincoln St", "Denver, CO 80203"], "state": "CO"}, "price": "$$", "transactions": [], "display_phone": "(303) 830-6839"}, {"rating": 4.5, "is_closed": false, "distance": 10910.445373822, "name": "Miyabi Jr. Express", "id": "miyabi-jr-express-denver", "image_url": "https://s3-media3.fl.yelpcdn.com/bphoto/t332vU_pFuw9YQu_c8ERkA/o.jpg", "url": "https://www.yelp.com/biz/miyabi-jr-express-denver?adjust_creative=gBcvfFpabk3CnzmXKdYe3w&utm_campaign=yelp_api_v3&utm_medium=api_v3_business_search&utm_source=gBcvfFpabk3CnzmXKdYe3w", "phone": "+13039932529", "coordinates": {"longitude": -104.903219304979, "latitude": 39.6520517963124}, "categories": [{"alias": "japanese", "title": "Japanese"}, {"alias": "sushi", "title": "Sushi Bars"}], "review_count": 118, "location": {"city": "Denver", "address1": "7400 E Hampden Ave", "address3": "", "address2": "Ste C6", "zip_code": "80231", "country": "US", "display_address": ["7400 E Hampden Ave", "Ste C6", "Denver, CO 80231"], "state": "CO"}, "price": "$$", "transactions": ["pickup"], "display_phone": "(303) 993-2529"}, {"rating": 4.5, "is_closed": false, "distance": 5139.054405922, "name": "Puerto Vallarta Mexican Restaurant", "id": "puerto-vallarta-mexican-restaurant-denver-2", "image_url": "https://s3-media2.fl.yelpcdn.com/bphoto/UiAlJpqFJJkWZBBioS0KDA/o.jpg", "url": "https://www.yelp.com/biz/puerto-vallarta-mexican-restaurant-denver-2?adjust_creative=gBcvfFpabk3CnzmXKdYe3w&utm_campaign=yelp_api_v3&utm_medium=api_v3_business_search&utm_source=gBcvfFpabk3CnzmXKdYe3w", "phone": "+13039363694", "coordinates": {"longitude": -105.0253858, "latitude": 39.7171476}, "categories": [{"alias": "mexican", "title": "Mexican"}, {"alias": "seafood", "title": "Seafood"}, {"alias": "bars", "title": "Bars"}], "review_count": 21, "location": {"city": "Denver", "address1": "35 N Federal", "address3": "", "address2": null, "zip_code": "80219", "country": "US", "display_address": ["35 N Federal", "Denver, CO 80219"], "state": "CO"}, "price": "$$", "transactions": ["delivery", "pickup"], "display_phone": "(303) 936-3694"}, {"rating": 3.5, "is_closed": false, "distance": 2546.5954758999997, "name": "The Lobby", "id": "the-lobby-denver-2", "image_url": "https://s3-media4.fl.yelpcdn.com/bphoto/Uk2qwmuU0hYQ2a9-fZOudA/o.jpg", "url": "https://www.yelp.com/biz/the-lobby-denver-2?adjust_creative=gBcvfFpabk3CnzmXKdYe3w&utm_campaign=yelp_api_v3&utm_medium=api_v3_business_search&utm_source=gBcvfFpabk3CnzmXKdYe3w", "phone": "+13039979911", "coordinates": {"longitude": -104.98874506693, "latitude": 39.753473207779}, "categories": [{"alias": "newamerican", "title": "American (New)"}], "review_count": 449, "location": {"city": "Denver", "address1": "2191 Arapahoe St", "address3": "", "address2": "", "zip_code": "80205", "country": "US", "display_address": ["2191 Arapahoe St", "Denver, CO 80205"], "state": "CO"}, "price": "$$", "transactions": ["pickup"], "display_phone": "(303) 997-9911"}, {"rating": 3.5, "is_closed": false, "distance": 1918.9746019899997, "name": "Syrup Cherry Creek", "id": "syrup-cherry-creek-denver", "image_url": "https://s3-media2.fl.yelpcdn.com/bphoto/1f2eDNOP9mkR_mdgFe6zcg/o.jpg", "url": "https://www.yelp.com/biz/syrup-cherry-creek-denver?adjust_creative=gBcvfFpabk3CnzmXKdYe3w&utm_campaign=yelp_api_v3&utm_medium=api_v3_business_search&utm_source=gBcvfFpabk3CnzmXKdYe3w", "phone": "+17209451111", "coordinates": {"longitude": -104.957936033135, "latitude": 39.7210911426472}, "categories": [{"alias": "tradamerican", "title": "American (Traditional)"}, {"alias": "breakfast_brunch", "title": "Breakfast & Brunch"}], "review_count": 399, "location": {"city": "Denver", "address1": "300 Josephine St", "address3": "", "address2": "Ste 20", "zip_code": "80206", "country": "US", "display_address": ["300 Josephine St", "Ste 20", "Denver, CO 80206"], "state": "CO"}, "price": "$$", "transactions": [], "display_phone": "(720) 945-1111"}, {"rating": 4.0, "is_closed": false, "distance": 2619.66112124, "name": "Cheba Hut", "id": "cheba-hut-denver-3", "image_url": "https://s3-media3.fl.yelpcdn.com/bphoto/lbI960TCW8pDjs_bKBFuzQ/o.jpg", "url": "https://www.yelp.com/biz/cheba-hut-denver-3?adjust_creative=gBcvfFpabk3CnzmXKdYe3w&utm_campaign=yelp_api_v3&utm_medium=api_v3_business_search&utm_source=gBcvfFpabk3CnzmXKdYe3w", "phone": "+17205985726", "coordinates": {"longitude": -104.941070556641, "latitude": 39.7284049987793}, "categories": [{"alias": "bars", "title": "Bars"}, {"alias": "sandwiches", "title": "Sandwiches"}, {"alias": "tradamerican", "title": "American (Traditional)"}], "review_count": 30, "location": {"city": "Denver", "address1": "745 Colorado Blvd", "address3": "", "address2": "", "zip_code": "80206", "country": "US", "display_address": ["745 Colorado Blvd", "Denver, CO 80206"], "state": "CO"}, "price": "$$", "transactions": [], "display_phone": "(720) 598-5726"}, {"rating": 3.5, "is_closed": false, "distance": 4786.228980747999, "name": "The Duffeyroll Cafe", "id": "the-duffeyroll-cafe-denver", "image_url": "https://s3-media2.fl.yelpcdn.com/bphoto/4QyMefK6-VU4C_f_pYbdGA/o.jpg", "url": "https://www.yelp.com/biz/the-duffeyroll-cafe-denver?adjust_creative=gBcvfFpabk3CnzmXKdYe3w&utm_campaign=yelp_api_v3&utm_medium=api_v3_business_search&utm_source=gBcvfFpabk3CnzmXKdYe3w", "phone": "+13039536890", "coordinates": {"longitude": -104.9800829, "latitude": 39.693148}, "categories": [{"alias": "breakfast_brunch", "title": "Breakfast & Brunch"}, {"alias": "bakeries", "title": "Bakeries"}, {"alias": "tradamerican", "title": "American (Traditional)"}], "review_count": 157, "location": {"city": "Denver", "address1": "1290 S Pearl St", "address3": "", "address2": "", "zip_code": "80210", "country": "US", "display_address": ["1290 S Pearl St", "Denver, CO 80210"], "state": "CO"}, "price": "$", "transactions": ["pickup"], "display_phone": "(303) 953-6890"}, {"rating": 4.5, "is_closed": false, "distance": 7053.231887239999, "name": "La Belle Rosette", "id": "la-belle-rosette-denver-7", "image_url": "https://s3-media4.fl.yelpcdn.com/bphoto/scyoW_l89t8_nvD3A9tI5w/o.jpg", "url": "https://www.yelp.com/biz/la-belle-rosette-denver-7?adjust_creative=gBcvfFpabk3CnzmXKdYe3w&utm_campaign=yelp_api_v3&utm_medium=api_v3_business_search&utm_source=gBcvfFpabk3CnzmXKdYe3w", "phone": "+17205084469", "coordinates": {"longitude": -104.959718, "latitude": 39.67261}, "categories": [{"alias": "coffee", "title": "Coffee & Tea"}, {"alias": "breakfast_brunch", "title": "Breakfast & Brunch"}], "review_count": 43, "location": {"city": "Denver", "address1": "2423 S University Blvd", "address3": "", "address2": null, "zip_code": "80210", "country": "US", "display_address": ["2423 S University Blvd", "Denver, CO 80210"], "state": "CO"}, "price": "$", "transactions": [], "display_phone": "(720) 508-4469"}, {"rating": 4.5, "is_closed": false, "distance": 4258.652245136, "name": "Bistro Barbes", "id": "bistro-barbes-denver-3", "image_url": "https://s3-media2.fl.yelpcdn.com/bphoto/nCxFIVB72O6sCixbtVpCWQ/o.jpg", "url": "https://www.yelp.com/biz/bistro-barbes-denver-3?adjust_creative=gBcvfFpabk3CnzmXKdYe3w&utm_campaign=yelp_api_v3&utm_medium=api_v3_business_search&utm_source=gBcvfFpabk3CnzmXKdYe3w", "phone": "+17203988085", "coordinates": {"longitude": -104.92872, "latitude": 39.75665}, "categories": [{"alias": "french", "title": "French"}, {"alias": "wine_bars", "title": "Wine Bars"}, {"alias": "desserts", "title": "Desserts"}], "review_count": 69, "location": {"city": "Denver", "address1": "5021 E 28th Ave", "address3": "", "address2": null, "zip_code": "80207", "country": "US", "display_address": ["5021 E 28th Ave", "Denver, CO 80207"], "state": "CO"}, "price": "$$$", "transactions": [], "display_phone": "(720) 398-8085"}, {"rating": 3.5, "is_closed": false, "distance": 1505.1864120120001, "name": "BurgerFi", "id": "burgerfi-denver", "image_url": "https://s3-media1.fl.yelpcdn.com/bphoto/mxGwTWS5AULBJ9_RZJpYcA/o.jpg", "url": "https://www.yelp.com/biz/burgerfi-denver?adjust_creative=gBcvfFpabk3CnzmXKdYe3w&utm_campaign=yelp_api_v3&utm_medium=api_v3_business_search&utm_source=gBcvfFpabk3CnzmXKdYe3w", "phone": "+17203905046", "coordinates": {"longitude": -104.98783, "latitude": 39.734932}, "categories": [{"alias": "hotdog", "title": "Hot Dogs"}, {"alias": "burgers", "title": "Burgers"}, {"alias": "tradamerican", "title": "American (Traditional)"}], "review_count": 164, "location": {"city": "Denver", "address1": "1147 Broadway", "address3": "", "address2": "Unit 101", "zip_code": "80203", "country": "US", "display_address": ["1147 Broadway", "Unit 101", "Denver, CO 80203"], "state": "CO"}, "price": "$$", "transactions": [], "display_phone": "(720) 390-5046"}, {"rating": 4.5, "is_closed": false, "distance": 2279.681930748, "name": "Dazbog Coffee Company Cherry Creek North", "id": "dazbog-coffee-company-cherry-creek-north-denver", "image_url": "https://s3-media3.fl.yelpcdn.com/bphoto/0BIgUmEKhkLX99lgmOT20g/o.jpg", "url": "https://www.yelp.com/biz/dazbog-coffee-company-cherry-creek-north-denver?adjust_creative=gBcvfFpabk3CnzmXKdYe3w&utm_campaign=yelp_api_v3&utm_medium=api_v3_business_search&utm_source=gBcvfFpabk3CnzmXKdYe3w", "phone": "+13039555775", "coordinates": {"longitude": -104.952560424805, "latitude": 39.720531463623}, "categories": [{"alias": "coffee", "title": "Coffee & Tea"}], "review_count": 15, "location": {"city": "Denver", "address1": "299 Milwaukee St", "address3": "", "address2": "", "zip_code": "80206", "country": "US", "display_address": ["299 Milwaukee St", "Denver, CO 80206"], "state": "CO"}, "price": "$", "transactions": [], "display_phone": "(303) 955-5775"}, {"rating": 3.5, "is_closed": false, "distance": 674.0811356776, "name": "Wyman's No 5", "id": "wymans-no-5-denver", "image_url": "https://s3-media2.fl.yelpcdn.com/bphoto/fXrjVKRwBFoYrEhpx9eQBQ/o.jpg", "url": "https://www.yelp.com/biz/wymans-no-5-denver?adjust_creative=gBcvfFpabk3CnzmXKdYe3w&utm_campaign=yelp_api_v3&utm_medium=api_v3_business_search&utm_source=gBcvfFpabk3CnzmXKdYe3w", "phone": "+13039960842", "coordinates": {"longitude": -104.9626, "latitude": 39.737}, "categories": [{"alias": "sportsbars", "title": "Sports Bars"}, {"alias": "pizza", "title": "Pizza"}], "review_count": 232, "location": {"city": "Denver", "address1": "2033 E 13th Ave", "address3": "", "address2": "", "zip_code": "80206", "country": "US", "display_address": ["2033 E 13th Ave", "Denver, CO 80206"], "state": "CO"}, "price": "$$", "transactions": [], "display_phone": "(303) 996-0842"}, {"rating": 3.5, "is_closed": false, "distance": 6372.023692812, "name": "Jelly Cafe", "id": "jelly-cafe-denver-6", "image_url": "https://s3-media4.fl.yelpcdn.com/bphoto/5uCIy41OqD-gVGkucqjF7A/o.jpg", "url": "https://www.yelp.com/biz/jelly-cafe-denver-6?adjust_creative=gBcvfFpabk3CnzmXKdYe3w&utm_campaign=yelp_api_v3&utm_medium=api_v3_business_search&utm_source=gBcvfFpabk3CnzmXKdYe3w", "phone": "+17205964108", "coordinates": {"longitude": -104.967231750488, "latitude": 39.6782608032227}, "categories": [{"alias": "newamerican", "title": "American (New)"}, {"alias": "breakfast_brunch", "title": "Breakfast & Brunch"}, {"alias": "sandwiches", "title": "Sandwiches"}], "review_count": 316, "location": {"city": "Denver", "address1": "1700 E Evans Ave", "address3": "", "address2": "", "zip_code": "80210", "country": "US", "display_address": ["1700 E Evans Ave", "Denver, CO 80210"], "state": "CO"}, "price": "$$", "transactions": [], "display_phone": "(720) 596-4108"}, {"rating": 4.0, "is_closed": false, "distance": 2108.325040238, "name": "ink! Coffee Company", "id": "ink-coffee-company-denver-5", "image_url": "https://s3-media1.fl.yelpcdn.com/bphoto/jEiZuExF1-NOca2srsjmQA/o.jpg", "url": "https://www.yelp.com/biz/ink-coffee-company-denver-5?adjust_creative=gBcvfFpabk3CnzmXKdYe3w&utm_campaign=yelp_api_v3&utm_medium=api_v3_business_search&utm_source=gBcvfFpabk3CnzmXKdYe3w", "phone": "+13038254422", "coordinates": {"longitude": -104.9918, "latitude": 39.7447299}, "categories": [{"alias": "coffee", "title": "Coffee & Tea"}], "review_count": 107, "location": {"city": "Denver", "address1": "618 16th St", "address3": "", "address2": "", "zip_code": "80202", "country": "US", "display_address": ["618 16th St", "Denver, CO 80202"], "state": "CO"}, "price": "$", "transactions": [], "display_phone": "(303) 825-4422"}, {"rating": 4.0, "is_closed": false, "distance": 3123.79733695, "name": "El Nopalito Mexican Food", "id": "el-nopalito-mexican-food-denver", "image_url": "https://s3-media3.fl.yelpcdn.com/bphoto/KMzaubj0dgKpCbl3Ca2nVA/o.jpg", "url": "https://www.yelp.com/biz/el-nopalito-mexican-food-denver?adjust_creative=gBcvfFpabk3CnzmXKdYe3w&utm_campaign=yelp_api_v3&utm_medium=api_v3_business_search&utm_source=gBcvfFpabk3CnzmXKdYe3w", "phone": "+13037220168", "coordinates": {"longitude": -104.98961, "latitude": 39.71148}, "categories": [{"alias": "mexican", "title": "Mexican"}], "review_count": 53, "location": {"city": "Denver", "address1": "77 W Alameda Ave", "address3": "", "address2": "", "zip_code": "80223", "country": "US", "display_address": ["77 W Alameda Ave", "Denver, CO 80223"], "state": "CO"}, "price": "$", "transactions": [], "display_phone": "(303) 722-0168"}, {"rating": 3.5, "is_closed": false, "distance": 6038.306766128, "name": "Jaya Asian Grill", "id": "jaya-asian-grill-denver", "image_url": "https://s3-media3.fl.yelpcdn.com/bphoto/Pen0WS6NyXG19JYUwqs6ug/o.jpg", "url": "https://www.yelp.com/biz/jaya-asian-grill-denver?adjust_creative=gBcvfFpabk3CnzmXKdYe3w&utm_campaign=yelp_api_v3&utm_medium=api_v3_business_search&utm_source=gBcvfFpabk3CnzmXKdYe3w", "phone": "+13037577887", "coordinates": {"longitude": -104.9410051, "latitude": 39.6858256}, "categories": [{"alias": "asianfusion", "title": "Asian Fusion"}, {"alias": "malaysian", "title": "Malaysian"}, {"alias": "singaporean", "title": "Singaporean"}], "review_count": 232, "location": {"city": "Denver", "address1": "1699 S Colorado Blvd", "address3": "", "address2": "Ste B", "zip_code": "80222", "country": "US", "display_address": ["1699 S Colorado Blvd", "Ste B", "Denver, CO 80222"], "state": "CO"}, "price": "$$", "transactions": ["delivery", "pickup"], "display_phone": "(303) 757-7887"}, {"rating": 4.0, "is_closed": false, "distance": 6275.564681232, "name": "Tortas A Toda Madre", "id": "tortas-a-toda-madre-denver", "image_url": "https://s3-media3.fl.yelpcdn.com/bphoto/AIszKKt3_sdBPuCbAuNfpA/o.jpg", "url": "https://www.yelp.com/biz/tortas-a-toda-madre-denver?adjust_creative=gBcvfFpabk3CnzmXKdYe3w&utm_campaign=yelp_api_v3&utm_medium=api_v3_business_search&utm_source=gBcvfFpabk3CnzmXKdYe3w", "phone": "+13034331764", "coordinates": {"longitude": -105.028732, "latitude": 39.769634}, "categories": [{"alias": "mexican", "title": "Mexican"}], "review_count": 24, "location": {"city": "Denver", "address1": "3143 West 38th Ave", "address3": "", "address2": "", "zip_code": "80211", "country": "US", "display_address": ["3143 West 38th Ave", "Denver, CO 80211"], "state": "CO"}, "price": "$", "transactions": ["delivery", "pickup"], "display_phone": "(303) 433-1764"}, {"rating": 4.0, "is_closed": false, "distance": 5946.597560624, "name": "Juarez Mexican Restaurant", "id": "juarez-mexican-restaurant-denver", "image_url": "https://s3-media3.fl.yelpcdn.com/bphoto/hQZZSFOhuh4bdY0DACQ6zQ/o.jpg", "url": "https://www.yelp.com/biz/juarez-mexican-restaurant-denver?adjust_creative=gBcvfFpabk3CnzmXKdYe3w&utm_campaign=yelp_api_v3&utm_medium=api_v3_business_search&utm_source=gBcvfFpabk3CnzmXKdYe3w", "phone": "+13034333902", "coordinates": {"longitude": -105.02437, "latitude": 39.76901}, "categories": [{"alias": "mexican", "title": "Mexican"}], "review_count": 62, "location": {"city": "Denver", "address1": "2932 W 38th Ave", "address3": "", "address2": "", "zip_code": "80211", "country": "US", "display_address": ["2932 W 38th Ave", "Denver, CO 80211"], "state": "CO"}, "price": "$", "transactions": [], "display_phone": "(303) 433-3902"}, {"rating": 4.0, "is_closed": false, "distance": 7197.057637436, "name": "Marrakech Grill", "id": "marrakech-grill-denver-2", "image_url": "https://s3-media2.fl.yelpcdn.com/bphoto/HxxmqE2xFNn2fNZyg5cOjg/o.jpg", "url": "https://www.yelp.com/biz/marrakech-grill-denver-2?adjust_creative=gBcvfFpabk3CnzmXKdYe3w&utm_campaign=yelp_api_v3&utm_medium=api_v3_business_search&utm_source=gBcvfFpabk3CnzmXKdYe3w", "phone": "+13037593611", "coordinates": {"longitude": -104.94033, "latitude": 39.67503}, "categories": [{"alias": "mideastern", "title": "Middle Eastern"}, {"alias": "persian", "title": "Persian/Iranian"}], "review_count": 167, "location": {"city": "Denver", "address1": "2290 S Colorado Blvd", "address3": "", "address2": null, "zip_code": "80222", "country": "US", "display_address": ["2290 S Colorado Blvd", "Denver, CO 80222"], "state": "CO"}, "price": "$$", "transactions": ["pickup"], "display_phone": "(303) 759-3611"}, {"rating": 4.0, "is_closed": false, "distance": 1925.3570834959999, "name": "Protein Bar", "id": "protein-bar-denver-3", "image_url": "https://s3-media1.fl.yelpcdn.com/bphoto/6DVVUAOO5J95Hyn6hzIlFg/o.jpg", "url": "https://www.yelp.com/biz/protein-bar-denver-3?adjust_creative=gBcvfFpabk3CnzmXKdYe3w&utm_campaign=yelp_api_v3&utm_medium=api_v3_business_search&utm_source=gBcvfFpabk3CnzmXKdYe3w", "phone": "+13035730204", "coordinates": {"longitude": -104.990072659627, "latitude": 39.7437292054609}, "categories": [{"alias": "vegan", "title": "Vegan"}, {"alias": "newamerican", "title": "American (New)"}, {"alias": "gluten_free", "title": "Gluten-Free"}], "review_count": 50, "location": {"city": "Denver", "address1": "1600 Glenarm", "address3": "", "address2": null, "zip_code": "80202", "country": "US", "display_address": ["1600 Glenarm", "Denver, CO 80202"], "state": "CO"}, "price": "$", "transactions": [], "display_phone": "(303) 573-0204"}, {"rating": 3.5, "is_closed": false, "distance": 6355.868172288, "name": "Mustard's Last Stand", "id": "mustards-last-stand-denver", "image_url": "https://s3-media1.fl.yelpcdn.com/bphoto/728d4ta-oHvZ5SLiW2BbPw/o.jpg", "url": "https://www.yelp.com/biz/mustards-last-stand-denver?adjust_creative=gBcvfFpabk3CnzmXKdYe3w&utm_campaign=yelp_api_v3&utm_medium=api_v3_business_search&utm_source=gBcvfFpabk3CnzmXKdYe3w", "phone": "+13037227936", "coordinates": {"longitude": -104.959754943848, "latitude": 39.678897857666}, "categories": [{"alias": "hotdog", "title": "Hot Dogs"}, {"alias": "tradamerican", "title": "American (Traditional)"}], "review_count": 152, "location": {"city": "Denver", "address1": "2081 S University Blvd", "address3": "", "address2": "", "zip_code": "80210", "country": "US", "display_address": ["2081 S University Blvd", "Denver, CO 80210"], "state": "CO"}, "price": "$", "transactions": [], "display_phone": "(303) 722-7936"}, {"rating": 3.5, "is_closed": false, "distance": 2825.857486872, "name": "Skylark Lounge", "id": "skylark-lounge-denver", "image_url": "https://s3-media4.fl.yelpcdn.com/bphoto/7iBTGgZ6DIrpv9BWZMv5_w/o.jpg", "url": "https://www.yelp.com/biz/skylark-lounge-denver?adjust_creative=gBcvfFpabk3CnzmXKdYe3w&utm_campaign=yelp_api_v3&utm_medium=api_v3_business_search&utm_source=gBcvfFpabk3CnzmXKdYe3w", "phone": "+13037227844", "coordinates": {"longitude": -104.98714, "latitude": 39.71371}, "categories": [{"alias": "musicvenues", "title": "Music Venues"}, {"alias": "lounges", "title": "Lounges"}], "review_count": 116, "location": {"city": "Denver", "address1": "140 S Broadway", "address3": "", "address2": "", "zip_code": "80209", "country": "US", "display_address": ["140 S Broadway", "Denver, CO 80209"], "state": "CO"}, "price": "$", "transactions": [], "display_phone": "(303) 722-7844"}, {"rating": 4.0, "is_closed": false, "distance": 7303.938734856, "name": "Tacos Jalisco Mexican Food", "id": "tacos-jalisco-mexican-food-denver", "image_url": "https://s3-media2.fl.yelpcdn.com/bphoto/gC72bPdHwZep82I6CO0JHA/o.jpg", "url": "https://www.yelp.com/biz/tacos-jalisco-mexican-food-denver?adjust_creative=gBcvfFpabk3CnzmXKdYe3w&utm_campaign=yelp_api_v3&utm_medium=api_v3_business_search&utm_source=gBcvfFpabk3CnzmXKdYe3w", "phone": "+13034581437", "coordinates": {"longitude": -105.0432393, "latitude": 39.7696648}, "categories": [{"alias": "mexican", "title": "Mexican"}], "review_count": 236, "location": {"city": "Denver", "address1": "4309 W 38th Ave", "address3": "", "address2": "", "zip_code": "80212", "country": "US", "display_address": ["4309 W 38th Ave", "Denver, CO 80212"], "state": "CO"}, "price": "$$", "transactions": ["delivery", "pickup"], "display_phone": "(303) 458-1437"}, {"rating": 4.0, "is_closed": false, "distance": 5050.735436062, "name": "Araujos Restaurant", "id": "araujos-restaurant-denver", "image_url": "https://s3-media3.fl.yelpcdn.com/bphoto/kgF864TC6mFG482S-t2fMw/o.jpg", "url": "https://www.yelp.com/biz/araujos-restaurant-denver?adjust_creative=gBcvfFpabk3CnzmXKdYe3w&utm_campaign=yelp_api_v3&utm_medium=api_v3_business_search&utm_source=gBcvfFpabk3CnzmXKdYe3w", "phone": "+13034553866", "coordinates": {"longitude": -105.02382, "latitude": 39.75462}, "categories": [{"alias": "mexican", "title": "Mexican"}, {"alias": "breakfast_brunch", "title": "Breakfast & Brunch"}, {"alias": "salad", "title": "Salad"}], "review_count": 71, "location": {"city": "Denver", "address1": "2900 W 26th Ave", "address3": "", "address2": "", "zip_code": "80211", "country": "US", "display_address": ["2900 W 26th Ave", "Denver, CO 80211"], "state": "CO"}, "price": "$", "transactions": [], "display_phone": "(303) 455-3866"}, {"rating": 4.5, "is_closed": false, "distance": 3917.3875138519998, "name": "Highland Bridge", "id": "highland-bridge-denver", "image_url": "https://s3-media1.fl.yelpcdn.com/bphoto/xKH8EStwlPh2vMwdXCifDQ/o.jpg", "url": "https://www.yelp.com/biz/highland-bridge-denver?adjust_creative=gBcvfFpabk3CnzmXKdYe3w&utm_campaign=yelp_api_v3&utm_medium=api_v3_business_search&utm_source=gBcvfFpabk3CnzmXKdYe3w", "phone": "", "coordinates": {"longitude": -105.006937980652, "latitude": 39.7566263097878}, "categories": [{"alias": "landmarks", "title": "Landmarks & Historical Buildings"}], "review_count": 11, "location": {"city": "Denver", "address1": "Over I-25 To Downtown", "address3": "", "address2": "", "zip_code": "80238", "country": "US", "display_address": ["Over I-25 To Downtown", "Denver, CO 80238"], "state": "CO"}, "transactions": [], "display_phone": ""}, {"rating": 3.5, "is_closed": false, "distance": 864.2070504980001, "name": "Next Door Lounge", "id": "next-door-lounge-denver", "image_url": "https://s3-media4.fl.yelpcdn.com/bphoto/JQ1wBfOeDKjn_n2ZMaH9FQ/o.jpg", "url": "https://www.yelp.com/biz/next-door-lounge-denver?adjust_creative=gBcvfFpabk3CnzmXKdYe3w&utm_campaign=yelp_api_v3&utm_medium=api_v3_business_search&utm_source=gBcvfFpabk3CnzmXKdYe3w", "phone": "+13033220898", "coordinates": {"longitude": -104.96805676162, "latitude": 39.743111651292}, "categories": [{"alias": "lounges", "title": "Lounges"}], "review_count": 54, "location": {"city": "Denver", "address1": "1612 17th Ave", "address3": "", "address2": "", "zip_code": "80218", "country": "US", "display_address": ["1612 17th Ave", "Denver, CO 80218"], "state": "CO"}, "price": "$", "transactions": [], "display_phone": "(303) 322-0898"}, {"rating": 3.5, "is_closed": false, "distance": 2739.21335715, "name": "Mexico City Lounge", "id": "mexico-city-lounge-denver", "image_url": "https://s3-media2.fl.yelpcdn.com/bphoto/h7gPLjdsNADiLGFNAzIDug/o.jpg", "url": "https://www.yelp.com/biz/mexico-city-lounge-denver?adjust_creative=gBcvfFpabk3CnzmXKdYe3w&utm_campaign=yelp_api_v3&utm_medium=api_v3_business_search&utm_source=gBcvfFpabk3CnzmXKdYe3w", "phone": "+13032960563", "coordinates": {"longitude": -104.991169944406, "latitude": 39.7541228681803}, "categories": [{"alias": "breakfast_brunch", "title": "Breakfast & Brunch"}, {"alias": "mexican", "title": "Mexican"}], "review_count": 156, "location": {"city": "Denver", "address1": "2115 Larimer St", "address3": "", "address2": "", "zip_code": "80205", "country": "US", "display_address": ["2115 Larimer St", "Denver, CO 80205"], "state": "CO"}, "price": "$", "transactions": [], "display_phone": "(303) 296-0563"}, {"rating": 4.5, "is_closed": false, "distance": 3498.5501805579997, "name": "Millennium Bridge", "id": "millennium-bridge-denver", "image_url": "https://s3-media4.fl.yelpcdn.com/bphoto/zsDckmxkLmEHyOC2IkNcSw/o.jpg", "url": "https://www.yelp.com/biz/millennium-bridge-denver?adjust_creative=gBcvfFpabk3CnzmXKdYe3w&utm_campaign=yelp_api_v3&utm_medium=api_v3_business_search&utm_source=gBcvfFpabk3CnzmXKdYe3w", "phone": "", "coordinates": {"longitude": -105.00346, "latitude": 39.75394}, "categories": [{"alias": "landmarks", "title": "Landmarks & Historical Buildings"}], "review_count": 20, "location": {"city": "Denver", "address1": "16TH St Mall And Chestnut St", "address3": "", "address2": "", "zip_code": "80238", "country": "US", "display_address": ["16TH St Mall And Chestnut St", "Denver, CO 80238"], "state": "CO"}, "transactions": [], "display_phone": ""}, {"rating": 3.5, "is_closed": false, "distance": 3185.726832292, "name": "Howl at the Moon", "id": "howl-at-the-moon-denver-2", "image_url": "https://s3-media3.fl.yelpcdn.com/bphoto/FxOqIbpJzUCmQCM26V2qfQ/o.jpg", "url": "https://www.yelp.com/biz/howl-at-the-moon-denver-2?adjust_creative=gBcvfFpabk3CnzmXKdYe3w&utm_campaign=yelp_api_v3&utm_medium=api_v3_business_search&utm_source=gBcvfFpabk3CnzmXKdYe3w", "phone": "+13032910880", "coordinates": {"longitude": -104.9969069, "latitude": 39.755534}, "categories": [{"alias": "musicvenues", "title": "Music Venues"}, {"alias": "bars", "title": "Bars"}, {"alias": "venues", "title": "Venues & Event Spaces"}], "review_count": 100, "location": {"city": "Denver", "address1": "1735 19th St", "address3": "", "address2": "", "zip_code": "80202", "country": "US", "display_address": ["1735 19th St", "Denver, CO 80202"], "state": "CO"}, "price": "$$", "transactions": [], "display_phone": "(303) 291-0880"}, {"rating": 4.0, "is_closed": false, "distance": 2753.0274489079998, "name": "Illegal Burger", "id": "illegal-burger-denver", "image_url": "https://s3-media3.fl.yelpcdn.com/bphoto/FaPkh3qH70uDrthZZ1iHeg/o.jpg", "url": "https://www.yelp.com/biz/illegal-burger-denver?adjust_creative=gBcvfFpabk3CnzmXKdYe3w&utm_campaign=yelp_api_v3&utm_medium=api_v3_business_search&utm_source=gBcvfFpabk3CnzmXKdYe3w", "phone": "+13036341300", "coordinates": {"longitude": -104.997596740723, "latitude": 39.7484016418457}, "categories": [{"alias": "burgers", "title": "Burgers"}], "review_count": 53, "location": {"city": "Denver", "address1": "1512 Larimer St", "address3": "", "address2": "", "zip_code": "80202", "country": "US", "display_address": ["1512 Larimer St", "Denver, CO 80202"], "state": "CO"}, "price": "$$", "transactions": ["delivery", "pickup"], "display_phone": "(303) 634-1300"}, {"rating": 3.5, "is_closed": false, "distance": 2651.9948539819998, "name": "The Irish Rover Pub", "id": "the-irish-rover-pub-denver", "image_url": "https://s3-media4.fl.yelpcdn.com/bphoto/AoSdpsFxSqvd-LBRrefkjA/o.jpg", "url": "https://www.yelp.com/biz/the-irish-rover-pub-denver?adjust_creative=gBcvfFpabk3CnzmXKdYe3w&utm_campaign=yelp_api_v3&utm_medium=api_v3_business_search&utm_source=gBcvfFpabk3CnzmXKdYe3w", "phone": "+13032824643", "coordinates": {"longitude": -104.9873221, "latitude": 39.7156155}, "categories": [{"alias": "pubs", "title": "Pubs"}], "review_count": 159, "location": {"city": "Denver", "address1": "54 S Broadway", "address3": "", "address2": "", "zip_code": "80209", "country": "US", "display_address": ["54 S Broadway", "Denver, CO 80209"], "state": "CO"}, "price": "$$", "transactions": [], "display_phone": "(303) 282-4643"}, {"rating": 4.0, "is_closed": false, "distance": 1257.0455604656, "name": "The Goods", "id": "the-goods-denver", "image_url": "https://s3-media2.fl.yelpcdn.com/bphoto/o33YDJMYdI6UkU4oiay71g/o.jpg", "url": "https://www.yelp.com/biz/the-goods-denver?adjust_creative=gBcvfFpabk3CnzmXKdYe3w&utm_campaign=yelp_api_v3&utm_medium=api_v3_business_search&utm_source=gBcvfFpabk3CnzmXKdYe3w", "phone": "+13033555445", "coordinates": {"longitude": -104.9565718, "latitude": 39.7400451}, "categories": [{"alias": "breakfast_brunch", "title": "Breakfast & Brunch"}, {"alias": "bars", "title": "Bars"}, {"alias": "vegan", "title": "Vegan"}], "review_count": 67, "location": {"city": "Denver", "address1": "2550 E Colfax Ave", "address3": null, "address2": "", "zip_code": "80206", "country": "US", "display_address": ["2550 E Colfax Ave", "Denver, CO 80206"], "state": "CO"}, "price": "$$", "transactions": ["delivery", "pickup"], "display_phone": "(303) 355-5445"}, {"rating": 4.5, "is_closed": false, "distance": 7656.46562746, "name": "Biju's Little Curry Shop", "id": "bijus-little-curry-shop-denver-3", "image_url": "https://s3-media1.fl.yelpcdn.com/bphoto/ZmVU_k6s5LO769QtbV8OUg/o.jpg", "url": "https://www.yelp.com/biz/bijus-little-curry-shop-denver-3?adjust_creative=gBcvfFpabk3CnzmXKdYe3w&utm_campaign=yelp_api_v3&utm_medium=api_v3_business_search&utm_source=gBcvfFpabk3CnzmXKdYe3w", "phone": "+13039756886", "coordinates": {"longitude": -105.044034272432, "latitude": 39.7744895517826}, "categories": [{"alias": "indpak", "title": "Indian"}], "review_count": 49, "location": {"city": "Denver", "address1": "4279 Tennyson St", "address3": "", "address2": "", "zip_code": "80212", "country": "US", "display_address": ["4279 Tennyson St", "Denver, CO 80212"], "state": "CO"}, "price": "$$", "transactions": ["delivery", "pickup"], "display_phone": "(303) 975-6886"}]}