{"total": 34880, "region": {"center": {"longitude": -104.97024536132812, "latitude": 39.73552421220229}}, "businesses": [{"rating": 4.5, "is_closed": false, "distance": 1512.3133098284, "name": "Pressed Juice Daily", "id": "pressed-juice-daily-denver-5", "image_url": "https://s3-media2.fl.yelpcdn.com/bphoto/BUUsWiCbvnHjXIm9Sora5w/o.jpg", "url": "https://www.yelp.com/biz/pressed-juice-daily-denver-5?adjust_creative=gBcvfFpabk3CnzmXKdYe3w&utm_campaign=yelp_api_v3&utm_medium=api_v3_business_search&utm_source=gBcvfFpabk3CnzmXKdYe3w", "phone": "+13032961234", "coordinates": {"longitude": -104.9878405, "latitude": 39.7341343}, "categories": [{"alias": "raw_food", "title": "Live/Raw Food"}, {"alias": "juicebars", "title": "Juice Bars & Smoothies"}, {"alias": "vegan", "title": "Vegan"}], "review_count": 44, "location": {"city": "Denver", "address1": "1111 N Broadway", "address3": "", "address2": "Ste 101A", "zip_code": "80203", "country": "US", "display_address": ["1111 N Broadway", "Ste 101A", "Denver, CO 80203"], "state": "CO"}, "price": "$", "transactions": ["delivery", "pickup"], "display_phone": "(303) 296-1234"}, {"rating": 4.0, "is_closed": false, "distance": 1490.4506512359999, "name": "Pepper Asian Bistro", "id": "pepper-asian-bistro-denver", "image_url": "https://s3-media4.fl.yelpcdn.com/bphoto/kF2s53JivpUYcqdDga9P8g/o.jpg", "url": "https://www.yelp.com/biz/pepper-asian-bistro-denver?adjust_creative=gBcvfFpabk3CnzmXKdYe3w&utm_campaign=yelp_api_v3&utm_medium=api_v3_business_search&utm_source=gBcvfFpabk3CnzmXKdYe3w", "phone": "+13033888377", "coordinates": {"longitude": -104.9539956, "latitude": 39.7403705}, "categories": [{"alias": "asianfusion", "title": "Asian Fusion"}, {"alias": "chinese", "title": "Chinese"}, {"alias": "thai", "title": "Thai"}], "review_count": 271, "location": {"city": "Denver", "address1": "2831 E Colfax Ave", "address3": "", "address2": "", "zip_code": "80206", "country": "US", "display_address": ["2831 E Colfax Ave", "Denver, CO 80206"], "state": "CO"}, "price": "$$", "transactions": ["delivery", "pickup"], "display_phone": "(303) 388-8377"}, {"rating": 4.5, "is_closed": false, "distance": 2059.363928484, "name": "Waffle Brothers", "id": "waffle-brothers-denver-5", "image_url": "https://s3-media4.fl.yelpcdn.com/bphoto/EhYK-EnoFn5FQp-_KT9hJA/o.jpg", "url": "https://www.yelp.com/biz/waffle-brothers-denver-5?adjust_creative=gBcvfFpabk3CnzmXKdYe3w&utm_campaign=yelp_api_v3&utm_medium=api_v3_business_search&utm_source=gBcvfFpabk3CnzmXKdYe3w", "phone": "+13037331212", "coordinates": {"longitude": -104.978931695223, "latitude": 39.7182650864124}, "categories": [{"alias": "breakfast_brunch", "title": "Breakfast & Brunch"}], "review_count": 86, "location": {"city": "Denver", "address1": "700 E 1st Ave", "address3": "", "address2": "", "zip_code": "80203", "country": "US", "display_address": ["700 E 1st Ave", "Denver, CO 80203"], "state": "CO"}, "price": "$", "transactions": ["delivery", "pickup"], "display_phone": "(303) 733-1212"}, {"rating": 4.0, "is_closed": false, "distance": 2404.6195011, "name": "Boney's BBQ", "id": "boneys-bbq-denver", "image_url": "https://s3-media3.fl.yelpcdn.com/bphoto/a3dem4EyXTiFZN7K4j9Xzg/o.jpg", "url": "https://www.yelp.com/biz/boneys-bbq-denver?adjust_creative=gBcvfFpabk3CnzmXKdYe3w&utm_campaign=yelp_api_v3&utm_medium=api_v3_business_search&utm_source=gBcvfFpabk3CnzmXKdYe3w", "phone": "+13038259900", "coordinates": {"longitude": -104.99463741359, "latitude": 39.7462900370291}, "categories": [{"alias": "bbq", "title": "Barbeque"}, {"alias": "soulfood", "title": "Soul Food"}, {"alias": "desserts", "title": "Desserts"}], "review_count": 351, "location": {"city": "Denver", "address1": "1543 Champa St", "address3": "", "address2": "", "zip_code": "80202", "country": "US", "display_address": ["1543 Champa St", "Denver, CO 80202"], "state": "CO"}, "price": "$$", "transactions": ["delivery", "pickup"], "display_phone": "(303) 825-9900"}, {"rating": 4.5, "is_closed": false, "distance": 3003.8163728639997, "name": "Finley's Pub", "id": "finleys-pub-denver", "image_url": "https://s3-media2.fl.yelpcdn.com/bphoto/3SldwbzDV3P6Y7NmEn4N4Q/o.jpg", "url": "https://www.yelp.com/biz/finleys-pub-denver?adjust_creative=gBcvfFpabk3CnzmXKdYe3w&utm_campaign=yelp_api_v3&utm_medium=api_v3_business_search&utm_source=gBcvfFpabk3CnzmXKdYe3w", "phone": "+13032824790", "coordinates": {"longitude": -104.98069, "latitude": 39.70973}, "categories": [{"alias": "burgers", "title": "Burgers"}, {"alias": "irish_pubs", "title": "Irish Pub"}, {"alias": "salad", "title": "Salad"}], "review_count": 141, "location": {"city": "Denver", "address1": "375 S Pearl St", "address3": "", "address2": "", "zip_code": "80209", "country": "US", "display_address": ["375 S Pearl St", "Denver, CO 80209"], "state": "CO"}, "price": "$$", "transactions": [], "display_phone": "(303) 282-4790"}, {"rating": 4.5, "is_closed": false, "distance": 5029.318339342, "name": "Chili Verde", "id": "chili-verde-denver-2", "image_url": "https://s3-media1.fl.yelpcdn.com/bphoto/bI1sB94bOnHXJYp4H3I9IQ/o.jpg", "url": "https://www.yelp.com/biz/chili-verde-denver-2?adjust_creative=gBcvfFpabk3CnzmXKdYe3w&utm_campaign=yelp_api_v3&utm_medium=api_v3_business_search&utm_source=gBcvfFpabk3CnzmXKdYe3w", "phone": "+17202872296", "coordinates": {"longitude": -105.025296, "latitude": 39.7514521}, "categories": [{"alias": "mexican", "title": "Mexican"}], "review_count": 261, "location": {"city": "Denver", "address1": "2311 Federal Blvd", "address3": "", "address2": "", "zip_code": "80211", "country": "US", "display_address": ["2311 Federal Blvd", "Denver, CO 80211"], "state": "CO"}, "price": "$$", "transactions": [], "display_phone": "(720) 287-2296"}, {"rating": 4.0, "is_closed": false, "distance": 817.1958633682, "name": "Jelly Cafe", "id": "jelly-cafe-denver-2", "image_url": "https://s3-media3.fl.yelpcdn.com/bphoto/EXCQDBar4eDIfPYqgOhivQ/o.jpg", "url": "https://www.yelp.com/biz/jelly-cafe-denver-2?adjust_creative=gBcvfFpabk3CnzmXKdYe3w&utm_campaign=yelp_api_v3&utm_medium=api_v3_business_search&utm_source=gBcvfFpabk3CnzmXKdYe3w", "phone": "+13038316301", "coordinates": {"longitude": -104.97972, "latitude": 39.73679}, "categories": [{"alias": "newamerican", "title": "American (New)"}, {"alias": "breakfast_brunch", "title": "Breakfast & Brunch"}, {"alias": "sandwiches", "title": "Sandwiches"}], "review_count": 1095, "location": {"city": "Denver", "address1": "600 E 13th Ave", "address3": "", "address2": "", "zip_code": "80203", "country": "US", "display_address": ["600 E 13th Ave", "Denver, CO 80203"], "state": "CO"}, "price": "$$", "transactions": ["delivery", "pickup"], "display_phone": "(303) 831-6301"}, {"rating": 4.0, "is_closed": false, "distance": 1510.9015967803998, "name": "Cafe Byblos Mediterranean Grill", "id": "cafe-byblos-mediterranean-grill-denver-4", "image_url": "https://s3-media4.fl.yelpcdn.com/bphoto/D1PBslwdncYUVyIT71LTrw/o.jpg", "url": "https://www.yelp.com/biz/cafe-byblos-mediterranean-grill-denver-4?adjust_creative=gBcvfFpabk3CnzmXKdYe3w&utm_campaign=yelp_api_v3&utm_medium=api_v3_business_search&utm_source=gBcvfFpabk3CnzmXKdYe3w", "phone": "+13037777553", "coordinates": {"longitude": -104.973754, "latitude": 39.722206}, "categories": [{"alias": "lebanese", "title": "Lebanese"}, {"alias": "mediterranean", "title": "Mediterranean"}, {"alias": "greek", "title": "Greek"}], "review_count": 273, "location": {"city": "Denver", "address1": "400 Corona St", "address3": "", "address2": "", "zip_code": "80218", "country": "US", "display_address": ["400 Corona St", "Denver, CO 80218"], "state": "CO"}, "price": "$$", "transactions": ["delivery"], "display_phone": "(303) 777-7553"}, {"rating": 4.0, "is_closed": false, "distance": 3116.00571734, "name": "Blue Sushi Sake Grill", "id": "blue-sushi-sake-grill-denver", "image_url": "https://s3-media3.fl.yelpcdn.com/bphoto/PukFcjkm4pA2RmJPIhbCHg/o.jpg", "url": "https://www.yelp.com/biz/blue-sushi-sake-grill-denver?adjust_creative=gBcvfFpabk3CnzmXKdYe3w&utm_campaign=yelp_api_v3&utm_medium=api_v3_business_search&utm_source=gBcvfFpabk3CnzmXKdYe3w", "phone": "+13036403655", "coordinates": {"longitude": -105.000414848328, "latitude": 39.751248413952}, "categories": [{"alias": "sushi", "title": "Sushi Bars"}, {"alias": "japanese", "title": "Japanese"}], "review_count": 566, "location": {"city": "Denver", "address1": "1616 16th St", "address3": "", "address2": "", "zip_code": "80202", "country": "US", "display_address": ["1616 16th St", "Denver, CO 80202"], "state": "CO"}, "price": "$$", "transactions": [], "display_phone": "(303) 640-3655"}, {"rating": 4.0, "is_closed": false, "distance": 4280.836836101999, "name": "Phoenician Kabob", "id": "phoenician-kabob-denver", "image_url": "https://s3-media4.fl.yelpcdn.com/bphoto/MyU0Ie21Gq1n9KKEpQ3DIg/o.jpg", "url": "https://www.yelp.com/biz/phoenician-kabob-denver?adjust_creative=gBcvfFpabk3CnzmXKdYe3w&utm_campaign=yelp_api_v3&utm_medium=api_v3_business_search&utm_source=gBcvfFpabk3CnzmXKdYe3w", "phone": "+13033557213", "coordinates": {"longitude": -104.9204663, "latitude": 39.7403176}, "categories": [{"alias": "mideastern", "title": "Middle Eastern"}, {"alias": "mediterranean", "title": "Mediterranean"}], "review_count": 281, "location": {"city": "Denver", "address1": "5709 E Colfax Ave", "address3": "", "address2": "", "zip_code": "80220", "country": "US", "display_address": ["5709 E Colfax Ave", "Denver, CO 80220"], "state": "CO"}, "price": "$$", "transactions": [], "display_phone": "(303) 355-7213"}, {"rating": 4.5, "is_closed": false, "distance": 5189.909549921999, "name": "Park Burger - Highlands", "id": "park-burger-highlands-denver-3", "image_url": "https://s3-media3.fl.yelpcdn.com/bphoto/wcFiUnHz5uYCYq5oegokbQ/o.jpg", "url": "https://www.yelp.com/biz/park-burger-highlands-denver-3?adjust_creative=gBcvfFpabk3CnzmXKdYe3w&utm_campaign=yelp_api_v3&utm_medium=api_v3_business_search&utm_source=gBcvfFpabk3CnzmXKdYe3w", "phone": "+13038628461", "coordinates": {"longitude": -105.019912719727, "latitude": 39.7622566223145}, "categories": [{"alias": "burgers", "title": "Burgers"}], "review_count": 309, "location": {"city": "Denver", "address1": "2643 W 32nd Ave", "address3": "", "address2": "", "zip_code": "80211", "country": "US", "display_address": ["2643 W 32nd Ave", "Denver, CO 80211"], "state": "CO"}, "price": "$$", "transactions": [], "display_phone": "(303) 862-8461"}, {"rating": 4.0, "is_closed": false, "distance": 3511.6716123799997, "name": "Hop Alley", "id": "hop-alley-denver", "image_url": "https://s3-media2.fl.yelpcdn.com/bphoto/AOKiHjg25n3v85LxbL-DeQ/o.jpg", "url": "https://www.yelp.com/biz/hop-alley-denver?adjust_creative=gBcvfFpabk3CnzmXKdYe3w&utm_campaign=yelp_api_v3&utm_medium=api_v3_business_search&utm_source=gBcvfFpabk3CnzmXKdYe3w", "phone": "+17203798340", "coordinates": {"longitude": -104.974416780489, "latitude": 39.7669401103471}, "categories": [{"alias": "chinese", "title": "Chinese"}, {"alias": "asianfusion", "title": "Asian Fusion"}, {"alias": "beer_and_wine", "title": "Beer, Wine & Spirits"}], "review_count": 138, "location": {"city": "Denver", "address1": "3500 Larimer St", "address3": "", "address2": "", "zip_code": "80205", "country": "US", "display_address": ["3500 Larimer St", "Denver, CO 80205"], "state": "CO"}, "price": "$$", "transactions": [], "display_phone": "(720) 379-8340"}, {"rating": 4.0, "is_closed": false, "distance": 1053.606412682, "name": "Tacos Tequila Whiskey", "id": "tacos-tequila-whiskey-denver-2", "image_url": "https://s3-media2.fl.yelpcdn.com/bphoto/2tCtqQ01nknaOfFEH4W9DA/o.jpg", "url": "https://www.yelp.com/biz/tacos-tequila-whiskey-denver-2?adjust_creative=gBcvfFpabk3CnzmXKdYe3w&utm_campaign=yelp_api_v3&utm_medium=api_v3_business_search&utm_source=gBcvfFpabk3CnzmXKdYe3w", "phone": "+17204751337", "coordinates": {"longitude": -104.95954, "latitude": 39.74039}, "categories": [{"alias": "mexican", "title": "Mexican"}], "review_count": 777, "location": {"city": "Denver", "address1": "1514 York St", "address3": "", "address2": "", "zip_code": "80206", "country": "US", "display_address": ["1514 York St", "Denver, CO 80206"], "state": "CO"}, "price": "$$", "transactions": [], "display_phone": "(720) 475-1337"}, {"rating": 4.0, "is_closed": false, "distance": 2368.872680086, "name": "Jamaican Grill", "id": "jamaican-grill-denver", "image_url": "https://s3-media4.fl.yelpcdn.com/bphoto/QLbQIlsexWz9i83qkP22pQ/o.jpg", "url": "https://www.yelp.com/biz/jamaican-grill-denver?adjust_creative=gBcvfFpabk3CnzmXKdYe3w&utm_campaign=yelp_api_v3&utm_medium=api_v3_business_search&utm_source=gBcvfFpabk3CnzmXKdYe3w", "phone": "+13036230013", "coordinates": {"longitude": -104.996678, "latitude": 39.729156}, "categories": [{"alias": "caribbean", "title": "Caribbean"}], "review_count": 114, "location": {"city": "Denver", "address1": "709 W 8th Ave", "address3": "", "address2": "", "zip_code": "80204", "country": "US", "display_address": ["709 W 8th Ave", "Denver, CO 80204"], "state": "CO"}, "price": "$$", "transactions": [], "display_phone": "(303) 623-0013"}, {"rating": 4.0, "is_closed": false, "distance": 4207.5566657399995, "name": "Masterpiece Delicatessen", "id": "masterpiece-delicatessen-denver-2", "image_url": "https://s3-media2.fl.yelpcdn.com/bphoto/aJtFLF6g-QW1GsDt7O4KHg/o.jpg", "url": "https://www.yelp.com/biz/masterpiece-delicatessen-denver-2?adjust_creative=gBcvfFpabk3CnzmXKdYe3w&utm_campaign=yelp_api_v3&utm_medium=api_v3_business_search&utm_source=gBcvfFpabk3CnzmXKdYe3w", "phone": "+13035613354", "coordinates": {"longitude": -105.009546303816, "latitude": 39.7583022923417}, "categories": [{"alias": "delis", "title": "Delis"}, {"alias": "sandwiches", "title": "Sandwiches"}], "review_count": 465, "location": {"city": "Denver", "address1": "1575 Central St", "address3": "", "address2": "", "zip_code": "80211", "country": "US", "display_address": ["1575 Central St", "Denver, CO 80211"], "state": "CO"}, "price": "$$", "transactions": [], "display_phone": "(303) 561-3354"}, {"rating": 4.0, "is_closed": false, "distance": 2104.6036024219998, "name": "Blue Island Oyster Bar and Seafood", "id": "blue-island-oyster-bar-and-seafood-denver", "image_url": "https://s3-media2.fl.yelpcdn.com/bphoto/oyWXv5KnxsLsjuEi3rtIwQ/o.jpg", "url": "https://www.yelp.com/biz/blue-island-oyster-bar-and-seafood-denver?adjust_creative=gBcvfFpabk3CnzmXKdYe3w&utm_campaign=yelp_api_v3&utm_medium=api_v3_business_search&utm_source=gBcvfFpabk3CnzmXKdYe3w", "phone": "+13033332462", "coordinates": {"longitude": -104.9568074, "latitude": 39.7196643}, "categories": [{"alias": "seafood", "title": "Seafood"}, {"alias": "raw_food", "title": "Live/Raw Food"}], "review_count": 206, "location": {"city": "Denver", "address1": "2625 E 2nd Ave", "address3": "", "address2": null, "zip_code": "80206", "country": "US", "display_address": ["2625 E 2nd Ave", "Denver, CO 80206"], "state": "CO"}, "price": "$$", "transactions": [], "display_phone": "(303) 333-2462"}, {"rating": 4.5, "is_closed": false, "distance": 3630.369127816, "name": "Bellwether", "id": "bellwether-denver", "image_url": "https://s3-media2.fl.yelpcdn.com/bphoto/0wuGKkIM2KlZwQUxw0_Oxw/o.jpg", "url": "https://www.yelp.com/biz/bellwether-denver?adjust_creative=gBcvfFpabk3CnzmXKdYe3w&utm_campaign=yelp_api_v3&utm_medium=api_v3_business_search&utm_source=gBcvfFpabk3CnzmXKdYe3w", "phone": "+17203989251", "coordinates": {"longitude": -104.92820173502, "latitude": 39.7400587563287}, "categories": [{"alias": "coffee", "title": "Coffee & Tea"}], "review_count": 57, "location": {"city": "Denver", "address1": "5126 E Colfax Ave", "address3": "", "address2": "", "zip_code": "80220", "country": "US", "display_address": ["5126 E Colfax Ave", "Denver, CO 80220"], "state": "CO"}, "price": "$", "transactions": [], "display_phone": "(720) 398-9251"}, {"rating": 4.0, "is_closed": false, "distance": 1131.732466718, "name": "Table 6", "id": "table-6-denver", "image_url": "https://s3-media2.fl.yelpcdn.com/bphoto/BZtutInsn5TtAgm1dp8bIQ/o.jpg", "url": "https://www.yelp.com/biz/table-6-denver?adjust_creative=gBcvfFpabk3CnzmXKdYe3w&utm_campaign=yelp_api_v3&utm_medium=api_v3_business_search&utm_source=gBcvfFpabk3CnzmXKdYe3w", "phone": "+13038318800", "coordinates": {"longitude": -104.9742799, "latitude": 39.7258}, "categories": [{"alias": "newamerican", "title": "American (New)"}, {"alias": "breakfast_brunch", "title": "Breakfast & Brunch"}], "review_count": 379, "location": {"city": "Denver", "address1": "609 Corona St", "address3": "", "address2": null, "zip_code": "80218", "country": "US", "display_address": ["609 Corona St", "Denver, CO 80218"], "state": "CO"}, "price": "$$", "transactions": [], "display_phone": "(303) 831-8800"}, {"rating": 4.0, "is_closed": false, "distance": 2124.145657108, "name": "Cherry Cricket", "id": "cherry-cricket-denver", "image_url": "https://s3-media2.fl.yelpcdn.com/bphoto/qZxb-b6CtYBenw8a0I9vbQ/o.jpg", "url": "https://www.yelp.com/biz/cherry-cricket-denver?adjust_creative=gBcvfFpabk3CnzmXKdYe3w&utm_campaign=yelp_api_v3&utm_medium=api_v3_business_search&utm_source=gBcvfFpabk3CnzmXKdYe3w", "phone": "+13033227666", "coordinates": {"longitude": -104.956333474869, "latitude": 39.7196942925966}, "categories": [{"alias": "burgers", "title": "Burgers"}, {"alias": "sportsbars", "title": "Sports Bars"}], "review_count": 1910, "location": {"city": "Denver", "address1": "2641 E 2nd Ave", "address3": "", "address2": "", "zip_code": "80206", "country": "US", "display_address": ["2641 E 2nd Ave", "Denver, CO 80206"], "state": "CO"}, "price": "$$", "transactions": [], "display_phone": "(303) 322-7666"}, {"rating": 4.5, "is_closed": false, "distance": 1484.5571837823998, "name": "Retrograde", "id": "retrograde-denver", "image_url": "https://s3-media1.fl.yelpcdn.com/bphoto/Ua2DtLFp_AEgkR_osPoRXw/o.jpg", "url": "https://www.yelp.com/biz/retrograde-denver?adjust_creative=gBcvfFpabk3CnzmXKdYe3w&utm_campaign=yelp_api_v3&utm_medium=api_v3_business_search&utm_source=gBcvfFpabk3CnzmXKdYe3w", "phone": "+17207727843", "coordinates": {"longitude": -104.980648979545, "latitude": 39.746148660779}, "categories": [{"alias": "cocktailbars", "title": "Cocktail Bars"}, {"alias": "lounges", "title": "Lounges"}], "review_count": 40, "location": {"city": "Denver", "address1": "530 E 19th Ave", "address3": "", "address2": null, "zip_code": "80203", "country": "US", "display_address": ["530 E 19th Ave", "Denver, CO 80203"], "state": "CO"}, "price": "$$", "transactions": [], "display_phone": "(720) 772-7843"}, {"rating": 4.0, "is_closed": false, "distance": 1240.742479557, "name": "Steuben's Food Service", "id": "steubens-food-service-denver", "image_url": "https://s3-media2.fl.yelpcdn.com/bphoto/hyqJngxxpgs7VsfbAAZzSw/o.jpg", "url": "https://www.yelp.com/biz/steubens-food-service-denver?adjust_creative=gBcvfFpabk3CnzmXKdYe3w&utm_campaign=yelp_api_v3&utm_medium=api_v3_business_search&utm_source=gBcvfFpabk3CnzmXKdYe3w", "phone": "+13038301001", "coordinates": {"longitude": -104.980163574219, "latitude": 39.7434921264648}, "categories": [{"alias": "tradamerican", "title": "American (Traditional)"}, {"alias": "bars", "title": "Bars"}, {"alias": "diners", "title": "Diners"}], "review_count": 1983, "location": {"city": "Denver", "address1": "523 E 17th Ave", "address3": "", "address2": null, "zip_code": "80203", "country": "US", "display_address": ["523 E 17th Ave", "Denver, CO 80203"], "state": "CO"}, "price": "$$", "transactions": ["delivery", "pickup"], "display_phone": "(303) 830-1001"}, {"rating": 4.0, "is_closed": false, "distance": 3062.0485704899997, "name": "Illegal Pete's", "id": "illegal-petes-denver", "image_url": "https://s3-media1.fl.yelpcdn.com/bphoto/SYZlkr6PdE9tVbl74Owp_A/o.jpg", "url": "https://www.yelp.com/biz/illegal-petes-denver?adjust_creative=gBcvfFpabk3CnzmXKdYe3w&utm_campaign=yelp_api_v3&utm_medium=api_v3_business_search&utm_source=gBcvfFpabk3CnzmXKdYe3w", "phone": "+13036232169", "coordinates": {"longitude": -104.999905067144, "latitude": 39.7509520752108}, "categories": [{"alias": "bars", "title": "Bars"}, {"alias": "hotdogs", "title": "Fast Food"}, {"alias": "mexican", "title": "Mexican"}], "review_count": 529, "location": {"city": "Denver", "address1": "1530 16th St", "address3": "", "address2": "Ste 101", "zip_code": "80202", "country": "US", "display_address": ["1530 16th St", "Ste 101", "Denver, CO 80202"], "state": "CO"}, "price": "$", "transactions": [], "display_phone": "(303) 623-2169"}, {"rating": 4.0, "is_closed": false, "distance": 2812.094572126, "name": "El Chapultepec", "id": "el-chapultepec-denver", "image_url": "https://s3-media3.fl.yelpcdn.com/bphoto/TFFiyBxwhgNyJ11FIiuzZw/o.jpg", "url": "https://www.yelp.com/biz/el-chapultepec-denver?adjust_creative=gBcvfFpabk3CnzmXKdYe3w&utm_campaign=yelp_api_v3&utm_medium=api_v3_business_search&utm_source=gBcvfFpabk3CnzmXKdYe3w", "phone": "+13032959126", "coordinates": {"longitude": -104.993477186508, "latitude": 39.7534260527383}, "categories": [{"alias": "jazzandblues", "title": "Jazz & Blues"}, {"alias": "divebars", "title": "Dive Bars"}], "review_count": 125, "location": {"city": "Denver", "address1": "1962 Market St", "address3": "", "address2": "", "zip_code": "80202", "country": "US", "display_address": ["1962 Market St", "Denver, CO 80202"], "state": "CO"}, "price": "$", "transactions": [], "display_phone": "(303) 295-9126"}, {"rating": 5.0, "is_closed": false, "distance": 2960.7156727199995, "name": "Burrito Cart", "id": "burrito-cart-denver", "image_url": "https://s3-media2.fl.yelpcdn.com/bphoto/_pksxglJ_1_7_k1FfZBqWA/o.jpg", "url": "https://www.yelp.com/biz/burrito-cart-denver?adjust_creative=gBcvfFpabk3CnzmXKdYe3w&utm_campaign=yelp_api_v3&utm_medium=api_v3_business_search&utm_source=gBcvfFpabk3CnzmXKdYe3w", "phone": "", "coordinates": {"longitude": -104.99796, "latitude": 39.75146}, "categories": [{"alias": "mexican", "title": "Mexican"}, {"alias": "breakfast_brunch", "title": "Breakfast & Brunch"}, {"alias": "vegetarian", "title": "Vegetarian"}], "review_count": 21, "location": {"city": "Denver", "address1": "17TH And Blake", "address3": "", "address2": "", "zip_code": "80202", "country": "US", "display_address": ["17TH And Blake", "Denver, CO 80202"], "state": "CO"}, "price": "$", "transactions": [], "display_phone": ""}, {"rating": 4.5, "is_closed": false, "distance": 7138.884180720001, "name": "Ragin' Hog BBQ", "id": "ragin-hog-bbq-denver", "image_url": "https://s3-media2.fl.yelpcdn.com/bphoto/Lou4v_S9WNN4lPyVg-B32Q/o.jpg", "url": "https://www.yelp.com/biz/ragin-hog-bbq-denver?adjust_creative=gBcvfFpabk3CnzmXKdYe3w&utm_campaign=yelp_api_v3&utm_medium=api_v3_business_search&utm_source=gBcvfFpabk3CnzmXKdYe3w", "phone": "+13038596003", "coordinates": {"longitude": -105.03487, "latitude": 39.77606}, "categories": [{"alias": "bbq", "title": "Barbeque"}, {"alias": "southern", "title": "Southern"}], "review_count": 142, "location": {"city": "Denver", "address1": "4361 Lowell Blvd", "address3": "", "address2": "", "zip_code": "80211", "country": "US", "display_address": ["4361 Lowell Blvd", "Denver, CO 80211"], "state": "CO"}, "price": "$$", "transactions": ["delivery", "pickup"], "display_phone": "(303) 859-6003"}, {"rating": 5.0, "is_closed": false, "distance": 4732.175273498, "name": "Crafty Ladies Beer Club", "id": "crafty-ladies-beer-club-denver", "image_url": "https://s3-media1.fl.yelpcdn.com/bphoto/crVzocbNxOOo_fSye59nMA/o.jpg", "url": "https://www.yelp.com/biz/crafty-ladies-beer-club-denver?adjust_creative=gBcvfFpabk3CnzmXKdYe3w&utm_campaign=yelp_api_v3&utm_medium=api_v3_business_search&utm_source=gBcvfFpabk3CnzmXKdYe3w", "phone": "+17202874493", "coordinates": {"longitude": -105.013328552246, "latitude": 39.7622680664062}, "categories": [{"alias": "bars", "title": "Bars"}], "review_count": 14, "location": {"city": "Denver", "address1": "2219 W 32nd Ave", "address3": "Highland Tap and Burger", "address2": "", "zip_code": "80211", "country": "US", "display_address": ["2219 W 32nd Ave", "Highland Tap and Burger", "Denver, CO 80211"], "state": "CO"}, "price": "$", "transactions": [], "display_phone": "(720) 287-4493"}, {"rating": 4.0, "is_closed": false, "distance": 1499.2887280875998, "name": "Ethiopian Restaurant", "id": "ethiopian-restaurant-denver", "image_url": "https://s3-media2.fl.yelpcdn.com/bphoto/A3e6qV45Cuy2KfrA3QPiAw/o.jpg", "url": "https://www.yelp.com/biz/ethiopian-restaurant-denver?adjust_creative=gBcvfFpabk3CnzmXKdYe3w&utm_campaign=yelp_api_v3&utm_medium=api_v3_business_search&utm_source=gBcvfFpabk3CnzmXKdYe3w", "phone": "+13033225939", "coordinates": {"longitude": -104.95368, "latitude": 39.73997}, "categories": [{"alias": "ethiopian", "title": "Ethiopian"}], "review_count": 148, "location": {"city": "Denver", "address1": "2816 E Colfax Ave", "address3": "", "address2": "", "zip_code": "80206", "country": "US", "display_address": ["2816 E Colfax Ave", "Denver, CO 80206"], "state": "CO"}, "price": "$$", "transactions": [], "display_phone": "(303) 322-5939"}, {"rating": 4.0, "is_closed": false, "distance": 2202.5724967899996, "name": "Coffee at The Point", "id": "coffee-at-the-point-denver", "image_url": "https://s3-media2.fl.yelpcdn.com/bphoto/2_zu4u-BO0v7mipgcQkGDA/o.jpg", "url": "https://www.yelp.com/biz/coffee-at-the-point-denver?adjust_creative=gBcvfFpabk3CnzmXKdYe3w&utm_campaign=yelp_api_v3&utm_medium=api_v3_business_search&utm_source=gBcvfFpabk3CnzmXKdYe3w", "phone": "+13039552237", "coordinates": {"longitude": -104.9775155, "latitude": 39.7544751}, "categories": [{"alias": "coffee", "title": "Coffee & Tea"}], "review_count": 104, "location": {"city": "Denver", "address1": "710 E 26th Ave", "address3": "", "address2": "", "zip_code": "80205", "country": "US", "display_address": ["710 E 26th Ave", "Denver, CO 80205"], "state": "CO"}, "price": "$$", "transactions": [], "display_phone": "(303) 955-2237"}, {"rating": 4.0, "is_closed": false, "distance": 2714.204374484, "name": "Abyssinia Ethiopian", "id": "abyssinia-ethiopian-denver", "image_url": "https://s3-media1.fl.yelpcdn.com/bphoto/4UEoMPTmBnip0pMiaLitIA/o.jpg", "url": "https://www.yelp.com/biz/abyssinia-ethiopian-denver?adjust_creative=gBcvfFpabk3CnzmXKdYe3w&utm_campaign=yelp_api_v3&utm_medium=api_v3_business_search&utm_source=gBcvfFpabk3CnzmXKdYe3w", "phone": "+13033168830", "coordinates": {"longitude": -104.93904, "latitude": 39.73996}, "categories": [{"alias": "ethiopian", "title": "Ethiopian"}], "review_count": 174, "location": {"city": "Denver", "address1": "4116 E Colfax Ave", "address3": "", "address2": "", "zip_code": "80220", "country": "US", "display_address": ["4116 E Colfax Ave", "Denver, CO 80220"], "state": "CO"}, "price": "$$", "transactions": ["pickup", "delivery"], "display_phone": "(303) 316-8830"}, {"rating": 4.0, "is_closed": false, "distance": 2967.4234018399998, "name": "D'Corazon", "id": "d-corazon-denver-2", "image_url": "https://s3-media1.fl.yelpcdn.com/bphoto/OQvmoIMffxIo3lAr87o7vg/o.jpg", "url": "https://www.yelp.com/biz/d-corazon-denver-2?adjust_creative=gBcvfFpabk3CnzmXKdYe3w&utm_campaign=yelp_api_v3&utm_medium=api_v3_business_search&utm_source=gBcvfFpabk3CnzmXKdYe3w", "phone": "+17209048226", "coordinates": {"longitude": -104.999519348145, "latitude": 39.7499084472656}, "categories": [{"alias": "mexican", "title": "Mexican"}, {"alias": "bars", "title": "Bars"}], "review_count": 402, "location": {"city": "Denver", "address1": "1530 Blake St", "address3": "", "address2": "Unit C", "zip_code": "80202", "country": "US", "display_address": ["1530 Blake St", "Unit C", "Denver, CO 80202"], "state": "CO"}, "price": "$$", "transactions": [], "display_phone": "(720) 904-8226"}, {"rating": 4.0, "is_closed": false, "distance": 4920.813900663999, "name": "Duo Restaurant", "id": "duo-restaurant-denver-2", "image_url": "https://s3-media4.fl.yelpcdn.com/bphoto/1FgCLfvdJXrbX7Y_tEtaoQ/o.jpg", "url": "https://www.yelp.com/biz/duo-restaurant-denver-2?adjust_creative=gBcvfFpabk3CnzmXKdYe3w&utm_campaign=yelp_api_v3&utm_medium=api_v3_business_search&utm_source=gBcvfFpabk3CnzmXKdYe3w", "phone": "+13034774141", "coordinates": {"longitude": -105.01612, "latitude": 39.76226}, "categories": [{"alias": "newamerican", "title": "American (New)"}, {"alias": "breakfast_brunch", "title": "Breakfast & Brunch"}, {"alias": "bars", "title": "Bars"}], "review_count": 547, "location": {"city": "Denver", "address1": "2413 W 32nd Ave", "address3": "", "address2": "", "zip_code": "80211", "country": "US", "display_address": ["2413 W 32nd Ave", "Denver, CO 80211"], "state": "CO"}, "price": "$$", "transactions": [], "display_phone": "(303) 477-4141"}, {"rating": 4.5, "is_closed": false, "distance": 4739.061800291999, "name": "Washington Park", "id": "washington-park-denver", "image_url": "https://s3-media3.fl.yelpcdn.com/bphoto/YS3nucxvtVxcUn1Ayuai5w/o.jpg", "url": "https://www.yelp.com/biz/washington-park-denver?adjust_creative=gBcvfFpabk3CnzmXKdYe3w&utm_campaign=yelp_api_v3&utm_medium=api_v3_business_search&utm_source=gBcvfFpabk3CnzmXKdYe3w", "phone": "", "coordinates": {"longitude": -104.973420908574, "latitude": 39.692992787005}, "categories": [{"alias": "parks", "title": "Parks"}], "review_count": 180, "location": {"city": "Denver", "address1": "S Downing St & E Louisiana Ave", "address3": "", "address2": null, "zip_code": "80209", "country": "US", "display_address": ["S Downing St & E Louisiana Ave", "Denver, CO 80209"], "state": "CO"}, "transactions": [], "display_phone": ""}, {"rating": 4.5, "is_closed": false, "distance": 4070.642548042, "name": "Ste. Ellie", "id": "ste-ellie-denver", "image_url": "https://s3-media3.fl.yelpcdn.com/bphoto/Pyn29f-AiClqy-VWR-e0uA/o.jpg", "url": "https://www.yelp.com/biz/ste-ellie-denver?adjust_creative=gBcvfFpabk3CnzmXKdYe3w&utm_campaign=yelp_api_v3&utm_medium=api_v3_business_search&utm_source=gBcvfFpabk3CnzmXKdYe3w", "phone": "+13034771447", "coordinates": {"longitude": -105.0085578, "latitude": 39.7572545}, "categories": [{"alias": "lounges", "title": "Lounges"}, {"alias": "cocktailbars", "title": "Cocktail Bars"}], "review_count": 76, "location": {"city": "Denver", "address1": "1553 Platte St", "address3": "", "address2": "", "zip_code": "80202", "country": "US", "display_address": ["1553 Platte St", "Denver, CO 80202"], "state": "CO"}, "price": "$$", "transactions": [], "display_phone": "(303) 477-1447"}, {"rating": 4.0, "is_closed": false, "distance": 913.0796485519999, "name": "SubCulture", "id": "subculture-denver-2", "image_url": "https://s3-media2.fl.yelpcdn.com/bphoto/qlTKH8BdNXxDrWSkAFTCIQ/o.jpg", "url": "https://www.yelp.com/biz/subculture-denver-2?adjust_creative=gBcvfFpabk3CnzmXKdYe3w&utm_campaign=yelp_api_v3&utm_medium=api_v3_business_search&utm_source=gBcvfFpabk3CnzmXKdYe3w", "phone": "+13034203232", "coordinates": {"longitude": -104.980726, "latitude": 39.737086}, "categories": [{"alias": "sandwiches", "title": "Sandwiches"}, {"alias": "delis", "title": "Delis"}, {"alias": "salad", "title": "Salad"}], "review_count": 202, "location": {"city": "Denver", "address1": "1300 Pennsylvania St", "address3": "", "address2": "Ste 102", "zip_code": "80203", "country": "US", "display_address": ["1300 Pennsylvania St", "Ste 102", "Denver, CO 80203"], "state": "CO"}, "price": "$", "transactions": ["pickup", "delivery"], "display_phone": "(303) 420-3232"}, {"rating": 4.0, "is_closed": false, "distance": 1074.3424849942, "name": "The Thin Man", "id": "the-thin-man-denver", "image_url": "https://s3-media4.fl.yelpcdn.com/bphoto/yknA7cyyMl3cdD-uo0usdg/o.jpg", "url": "https://www.yelp.com/biz/the-thin-man-denver?adjust_creative=gBcvfFpabk3CnzmXKdYe3w&utm_campaign=yelp_api_v3&utm_medium=api_v3_business_search&utm_source=gBcvfFpabk3CnzmXKdYe3w", "phone": "+13033207814", "coordinates": {"longitude": -104.96302, "latitude": 39.74336}, "categories": [{"alias": "bars", "title": "Bars"}], "review_count": 266, "location": {"city": "Denver", "address1": "2015 E 17th Ave", "address3": "", "address2": "", "zip_code": "80206", "country": "US", "display_address": ["2015 E 17th Ave", "Denver, CO 80206"], "state": "CO"}, "price": "$$", "transactions": [], "display_phone": "(303) 320-7814"}, {"rating": 4.0, "is_closed": false, "distance": 3110.819297322, "name": "Lucky Pie Pizza and Tap House", "id": "lucky-pie-pizza-and-tap-house-denver", "image_url": "https://s3-media2.fl.yelpcdn.com/bphoto/NGiWYWlm0CJ6gL1i-XbTcQ/o.jpg", "url": "https://www.yelp.com/biz/lucky-pie-pizza-and-tap-house-denver?adjust_creative=gBcvfFpabk3CnzmXKdYe3w&utm_campaign=yelp_api_v3&utm_medium=api_v3_business_search&utm_source=gBcvfFpabk3CnzmXKdYe3w", "phone": "+13038251021", "coordinates": {"longitude": -105.000390504309, "latitude": 39.7511890740745}, "categories": [{"alias": "pizza", "title": "Pizza"}, {"alias": "italian", "title": "Italian"}, {"alias": "gluten_free", "title": "Gluten-Free"}], "review_count": 286, "location": {"city": "Denver", "address1": "1610 16th St", "address3": "", "address2": "", "zip_code": "80202", "country": "US", "display_address": ["1610 16th St", "Denver, CO 80202"], "state": "CO"}, "price": "$$", "transactions": ["delivery", "pickup"], "display_phone": "(303) 825-1021"}, {"rating": 4.5, "is_closed": false, "distance": 3512.07716606, "name": "Fish N Beer", "id": "fish-n-beer-denver", "image_url": "https://s3-media2.fl.yelpcdn.com/bphoto/5LF3yrhfs3vr8CulaSt1TA/o.jpg", "url": "https://www.yelp.com/biz/fish-n-beer-denver?adjust_creative=gBcvfFpabk3CnzmXKdYe3w&utm_campaign=yelp_api_v3&utm_medium=api_v3_business_search&utm_source=gBcvfFpabk3CnzmXKdYe3w", "phone": "+13032483497", "coordinates": {"longitude": -104.97395, "latitude": 39.76697}, "categories": [{"alias": "seafood", "title": "Seafood"}], "review_count": 52, "location": {"city": "Denver", "address1": "3510 Larimer St", "address3": null, "address2": "", "zip_code": "80205", "country": "US", "display_address": ["3510 Larimer St", "Denver, CO 80205"], "state": "CO"}, "price": "$$", "transactions": [], "display_phone": "(303) 248-3497"}, {"rating": 4.0, "is_closed": false, "distance": 3139.607010308, "name": "Hutch & Spoon", "id": "hutch-and-spoon-denver", "image_url": "https://s3-media3.fl.yelpcdn.com/bphoto/WqThUQicReVcmoTRFQ6cIQ/o.jpg", "url": "https://www.yelp.com/biz/hutch-and-spoon-denver?adjust_creative=gBcvfFpabk3CnzmXKdYe3w&utm_campaign=yelp_api_v3&utm_medium=api_v3_business_search&utm_source=gBcvfFpabk3CnzmXKdYe3w", "phone": "+13032962317", "coordinates": {"longitude": -104.97922, "latitude": 39.7629}, "categories": [{"alias": "newamerican", "title": "American (New)"}, {"alias": "sandwiches", "title": "Sandwiches"}], "review_count": 162, "location": {"city": "Denver", "address1": "3090 Larimer St", "address3": "", "address2": "", "zip_code": "80205", "country": "US", "display_address": ["3090 Larimer St", "Denver, CO 80205"], "state": "CO"}, "price": "$", "transactions": [], "display_phone": "(303) 296-2317"}, {"rating": 4.0, "is_closed": false, "distance": 842.2883707801999, "name": "Patxi's Pizza", "id": "patxis-pizza-denver-5", "image_url": "https://s3-media2.fl.yelpcdn.com/bphoto/XavkvwB6uoBSuF67SnBKTQ/o.jpg", "url": "https://www.yelp.com/biz/patxis-pizza-denver-5?adjust_creative=gBcvfFpabk3CnzmXKdYe3w&utm_campaign=yelp_api_v3&utm_medium=api_v3_business_search&utm_source=gBcvfFpabk3CnzmXKdYe3w", "phone": "+13038328000", "coordinates": {"longitude": -104.968599, "latitude": 39.7430751}, "categories": [{"alias": "pizza", "title": "Pizza"}, {"alias": "salad", "title": "Salad"}, {"alias": "italian", "title": "Italian"}], "review_count": 264, "location": {"city": "Denver", "address1": "1598 E 17th Ave", "address3": "", "address2": null, "zip_code": "80218", "country": "US", "display_address": ["1598 E 17th Ave", "Denver, CO 80218"], "state": "CO"}, "price": "$$", "transactions": ["delivery", "pickup"], "display_phone": "(303) 832-8000"}, {"rating": 4.0, "is_closed": false, "distance": 1302.218543354, "name": "Pho-natic", "id": "pho-natic-denver-2", "image_url": "https://s3-media2.fl.yelpcdn.com/bphoto/fQiKFG1x0QaofeOh6izw9A/o.jpg", "url": "https://www.yelp.com/biz/pho-natic-denver-2?adjust_creative=gBcvfFpabk3CnzmXKdYe3w&utm_campaign=yelp_api_v3&utm_medium=api_v3_business_search&utm_source=gBcvfFpabk3CnzmXKdYe3w", "phone": "+13038323154", "coordinates": {"longitude": -104.98407, "latitude": 39.74026}, "categories": [{"alias": "vietnamese", "title": "Vietnamese"}], "review_count": 380, "location": {"city": "Denver", "address1": "229 E Colfax Ave", "address3": "", "address2": "", "zip_code": "80203", "country": "US", "display_address": ["229 E Colfax Ave", "Denver, CO 80203"], "state": "CO"}, "price": "$", "transactions": [], "display_phone": "(303) 832-3154"}, {"rating": 4.5, "is_closed": false, "distance": 6366.777888148, "name": "Pho 96", "id": "pho-96-denver", "image_url": "https://s3-media1.fl.yelpcdn.com/bphoto/UfYqqqsq3aWzN5aucutH3A/o.jpg", "url": "https://www.yelp.com/biz/pho-96-denver?adjust_creative=gBcvfFpabk3CnzmXKdYe3w&utm_campaign=yelp_api_v3&utm_medium=api_v3_business_search&utm_source=gBcvfFpabk3CnzmXKdYe3w", "phone": "+13035689262", "coordinates": {"longitude": -105.02466, "latitude": 39.69648}, "categories": [{"alias": "vietnamese", "title": "Vietnamese"}, {"alias": "noodles", "title": "Noodles"}, {"alias": "soup", "title": "Soup"}], "review_count": 214, "location": {"city": "Denver", "address1": "2990 W Mississippi Ave", "address3": "", "address2": "", "zip_code": "80219", "country": "US", "display_address": ["2990 W Mississippi Ave", "Denver, CO 80219"], "state": "CO"}, "price": "$", "transactions": [], "display_phone": "(303) 568-9262"}, {"rating": 4.5, "is_closed": false, "distance": 2457.925187118, "name": "First Friday Art Walk on Santa Fe", "id": "first-friday-art-walk-on-santa-fe-denver", "image_url": "https://s3-media2.fl.yelpcdn.com/bphoto/TGuj9pkhihDQVbJwhFiLHQ/o.jpg", "url": "https://www.yelp.com/biz/first-friday-art-walk-on-santa-fe-denver?adjust_creative=gBcvfFpabk3CnzmXKdYe3w&utm_campaign=yelp_api_v3&utm_medium=api_v3_business_search&utm_source=gBcvfFpabk3CnzmXKdYe3w", "phone": "", "coordinates": {"longitude": -104.9986799, "latitude": 39.73209}, "categories": [{"alias": "localflavor", "title": "Local Flavor"}, {"alias": "galleries", "title": "Art Galleries"}], "review_count": 69, "location": {"city": "Denver", "address1": "10th Ave & Santa Fe Dr", "address3": "", "address2": "", "zip_code": "80204", "country": "US", "display_address": ["10th Ave & Santa Fe Dr", "Denver, CO 80204"], "state": "CO"}, "price": "$", "transactions": [], "display_phone": ""}, {"rating": 4.5, "is_closed": false, "distance": 1500.1343075103998, "name": "ZEPS EPIQ Sandwiches", "id": "zeps-epiq-sandwiches-denver", "image_url": "https://s3-media3.fl.yelpcdn.com/bphoto/C8aqtqyjzi-Orzm900LLVA/o.jpg", "url": "https://www.yelp.com/biz/zeps-epiq-sandwiches-denver?adjust_creative=gBcvfFpabk3CnzmXKdYe3w&utm_campaign=yelp_api_v3&utm_medium=api_v3_business_search&utm_source=gBcvfFpabk3CnzmXKdYe3w", "phone": "+13035340796", "coordinates": {"longitude": -104.987821, "latitude": 39.734927}, "categories": [{"alias": "sandwiches", "title": "Sandwiches"}, {"alias": "salad", "title": "Salad"}, {"alias": "beerbar", "title": "Beer Bar"}], "review_count": 57, "location": {"city": "Denver", "address1": "1147 Broadway", "address3": "", "address2": null, "zip_code": "80203", "country": "US", "display_address": ["1147 Broadway", "Denver, CO 80203"], "state": "CO"}, "price": "$", "transactions": [], "display_phone": "(303) 534-0796"}, {"rating": 4.5, "is_closed": false, "distance": 4109.006477764, "name": "Rebel Restaurant", "id": "rebel-restaurant-denver", "image_url": "https://s3-media4.fl.yelpcdn.com/bphoto/bmvmOnN3Qe8sY4CNfZbZyA/o.jpg", "url": "https://www.yelp.com/biz/rebel-restaurant-denver?adjust_creative=gBcvfFpabk3CnzmXKdYe3w&utm_campaign=yelp_api_v3&utm_medium=api_v3_business_search&utm_source=gBcvfFpabk3CnzmXKdYe3w", "phone": "+13032973902", "coordinates": {"longitude": -104.97502, "latitude": 39.7723299}, "categories": [{"alias": "newamerican", "title": "American (New)"}, {"alias": "tradamerican", "title": "American (Traditional)"}], "review_count": 92, "location": {"city": "Denver", "address1": "3763 Wynkoop St", "address3": "", "address2": "", "zip_code": "80216", "country": "US", "display_address": ["3763 Wynkoop St", "Denver, CO 80216"], "state": "CO"}, "price": "$$", "transactions": [], "display_phone": "(303) 297-3902"}, {"rating": 4.0, "is_closed": false, "distance": 2845.66958881, "name": "The Market At Larimer Square", "id": "the-market-at-larimer-square-denver", "image_url": "https://s3-media1.fl.yelpcdn.com/bphoto/GvFPoygid3_ro--wRdYjcw/o.jpg", "url": "https://www.yelp.com/biz/the-market-at-larimer-square-denver?adjust_creative=gBcvfFpabk3CnzmXKdYe3w&utm_campaign=yelp_api_v3&utm_medium=api_v3_business_search&utm_source=gBcvfFpabk3CnzmXKdYe3w", "phone": "+13035345140", "coordinates": {"longitude": -104.999227970839, "latitude": 39.7478880733252}, "categories": [{"alias": "coffee", "title": "Coffee & Tea"}, {"alias": "sandwiches", "title": "Sandwiches"}, {"alias": "bakeries", "title": "Bakeries"}], "review_count": 537, "location": {"city": "Denver", "address1": "1445 Larimer St", "address3": "", "address2": "", "zip_code": "80202", "country": "US", "display_address": ["1445 Larimer St", "Denver, CO 80202"], "state": "CO"}, "price": "$$", "transactions": [], "display_phone": "(303) 534-5140"}, {"rating": 4.0, "is_closed": false, "distance": 2509.3027228819997, "name": "Patxi's Pizza", "id": "patxis-pizza-denver", "image_url": "https://s3-media3.fl.yelpcdn.com/bphoto/yy97jtm3R6-Y7MPA7yiu6A/o.jpg", "url": "https://www.yelp.com/biz/patxis-pizza-denver?adjust_creative=gBcvfFpabk3CnzmXKdYe3w&utm_campaign=yelp_api_v3&utm_medium=api_v3_business_search&utm_source=gBcvfFpabk3CnzmXKdYe3w", "phone": "+13033311000", "coordinates": {"longitude": -104.95007045567, "latitude": 39.719136498099}, "categories": [{"alias": "pizza", "title": "Pizza"}, {"alias": "italian", "title": "Italian"}, {"alias": "salad", "title": "Salad"}], "review_count": 234, "location": {"city": "Denver", "address1": "185 Steele St", "address3": "", "address2": null, "zip_code": "80206", "country": "US", "display_address": ["185 Steele St", "Denver, CO 80206"], "state": "CO"}, "price": "$$", "transactions": ["delivery", "pickup"], "display_phone": "(303) 331-1000"}, {"rating": 4.0, "is_closed": false, "distance": 2805.1662024919997, "name": "Cr\u00fa", "id": "cr\u00fa-denver-2", "image_url": "https://s3-media4.fl.yelpcdn.com/bphoto/neZ3NPI861elJqFpyJDo-Q/o.jpg", "url": "https://www.yelp.com/biz/cr%C3%BA-denver-2?adjust_creative=gBcvfFpabk3CnzmXKdYe3w&utm_campaign=yelp_api_v3&utm_medium=api_v3_business_search&utm_source=gBcvfFpabk3CnzmXKdYe3w", "phone": "+13038939463", "coordinates": {"longitude": -104.998741149902, "latitude": 39.7477912902832}, "categories": [{"alias": "wine_bars", "title": "Wine Bars"}, {"alias": "tradamerican", "title": "American (Traditional)"}], "review_count": 282, "location": {"city": "Denver", "address1": "1442 Larimer St", "address3": "", "address2": null, "zip_code": "80202", "country": "US", "display_address": ["1442 Larimer St", "Denver, CO 80202"], "state": "CO"}, "price": "$$", "transactions": [], "display_phone": "(303) 893-9463"}, {"rating": 4.0, "is_closed": false, "distance": 2193.579987672, "name": "North Italia", "id": "north-italia-denver", "image_url": "https://s3-media4.fl.yelpcdn.com/bphoto/hrU8tatVZqdfcpWvM528dA/o.jpg", "url": "https://www.yelp.com/biz/north-italia-denver?adjust_creative=gBcvfFpabk3CnzmXKdYe3w&utm_campaign=yelp_api_v3&utm_medium=api_v3_business_search&utm_source=gBcvfFpabk3CnzmXKdYe3w", "phone": "+17209417700", "coordinates": {"longitude": -104.9557051, "latitude": 39.719186}, "categories": [{"alias": "italian", "title": "Italian"}, {"alias": "pizza", "title": "Pizza"}], "review_count": 385, "location": {"city": "Denver", "address1": "190 Clayton Ln", "address3": "", "address2": null, "zip_code": "80206", "country": "US", "display_address": ["190 Clayton Ln", "Denver, CO 80206"], "state": "CO"}, "price": "$$", "transactions": [], "display_phone": "(720) 941-7700"}, {"rating": 4.0, "is_closed": false, "distance": 1512.3133098284, "name": "Amethyst Coffee Company", "id": "amethyst-coffee-company-denver", "image_url": "https://s3-media3.fl.yelpcdn.com/bphoto/S6mDXTTPYXmr4OmgmPIkvA/o.jpg", "url": "https://www.yelp.com/biz/amethyst-coffee-company-denver?adjust_creative=gBcvfFpabk3CnzmXKdYe3w&utm_campaign=yelp_api_v3&utm_medium=api_v3_business_search&utm_source=gBcvfFpabk3CnzmXKdYe3w", "phone": "", "coordinates": {"longitude": -104.98787, "latitude": 39.73406}, "categories": [{"alias": "cafes", "title": "Cafes"}, {"alias": "coffee", "title": "Coffee & Tea"}], "review_count": 97, "location": {"city": "Denver", "address1": "1111 Broadway St", "address3": "", "address2": "Ste 101", "zip_code": "80203", "country": "US", "display_address": ["1111 Broadway St", "Ste 101", "Denver, CO 80203"], "state": "CO"}, "price": "$", "transactions": [], "display_phone": ""}, {"rating": 4.0, "is_closed": false, "distance": 1922.01544992, "name": "The Greedy Hamster", "id": "the-greedy-hamster-denver-2", "image_url": "https://s3-media3.fl.yelpcdn.com/bphoto/SDjkyydqflDwOI5nxFeyiw/o.jpg", "url": "https://www.yelp.com/biz/the-greedy-hamster-denver-2?adjust_creative=gBcvfFpabk3CnzmXKdYe3w&utm_campaign=yelp_api_v3&utm_medium=api_v3_business_search&utm_source=gBcvfFpabk3CnzmXKdYe3w", "phone": "+13036232818", "coordinates": {"longitude": -104.9914846, "latitude": 39.7411796}, "categories": [{"alias": "wine_bars", "title": "Wine Bars"}, {"alias": "gastropubs", "title": "Gastropubs"}, {"alias": "cocktailbars", "title": "Cocktail Bars"}], "review_count": 152, "location": {"city": "Denver", "address1": "323 14th St", "address3": "", "address2": "", "zip_code": "80202", "country": "US", "display_address": ["323 14th St", "Denver, CO 80202"], "state": "CO"}, "price": "$$", "transactions": ["pickup"], "display_phone": "(303) 623-2818"}]}