{"total": 34880, "region": {"center": {"longitude": -104.97024536132812, "latitude": 39.73552421220229}}, "businesses": [{"rating": 4.0, "is_closed": false, "distance": 5863.786556913999, "name": "Common Grounds Coffeehouse", "id": "common-grounds-coffeehouse-denver", "image_url": "https://s3-media4.fl.yelpcdn.com/bphoto/imJVUXRnpg4duwB-CoqA7Q/o.jpg", "url": "https://www.yelp.com/biz/common-grounds-coffeehouse-denver?adjust_creative=gBcvfFpabk3CnzmXKdYe3w&utm_campaign=yelp_api_v3&utm_medium=api_v3_business_search&utm_source=gBcvfFpabk3CnzmXKdYe3w", "phone": "+17205022105", "coordinates": {"longitude": -105.0131111, "latitude": 39.7766935}, "categories": [{"alias": "coffee", "title": "Coffee & Tea"}, {"alias": "sandwiches", "title": "Sandwiches"}, {"alias": "bars", "title": "Bars"}], "review_count": 76, "location": {"city": "Denver", "address1": "2139 W 44th Ave", "address3": "", "address2": "", "zip_code": "80211", "country": "US", "display_address": ["2139 W 44th Ave", "Denver, CO 80211"], "state": "CO"}, "price": "$", "transactions": [], "display_phone": "(720) 502-2105"}, {"rating": 3.5, "is_closed": false, "distance": 1468.078089358, "name": "Fire At the Art Hotel", "id": "fire-at-the-art-hotel-denver", "image_url": "https://s3-media3.fl.yelpcdn.com/bphoto/LLelpiu_wQxU-VM6YkSjDg/o.jpg", "url": "https://www.yelp.com/biz/fire-at-the-art-hotel-denver?adjust_creative=gBcvfFpabk3CnzmXKdYe3w&utm_campaign=yelp_api_v3&utm_medium=api_v3_business_search&utm_source=gBcvfFpabk3CnzmXKdYe3w", "phone": "+13035728000", "coordinates": {"longitude": -104.9875049, "latitude": 39.7353804}, "categories": [{"alias": "newamerican", "title": "American (New)"}, {"alias": "breakfast_brunch", "title": "Breakfast & Brunch"}, {"alias": "lounges", "title": "Lounges"}], "review_count": 81, "location": {"city": "Denver", "address1": "1201 Broadway St", "address3": "", "address2": "", "zip_code": "80203", "country": "US", "display_address": ["1201 Broadway St", "Denver, CO 80203"], "state": "CO"}, "price": "$$", "transactions": [], "display_phone": "(303) 572-8000"}, {"rating": 4.0, "is_closed": false, "distance": 1638.1664980799999, "name": "Rocky Mountain Slices", "id": "rocky-mountain-slices-denver", "image_url": "https://s3-media2.fl.yelpcdn.com/bphoto/SixGf64IoXSbJ1vDBdhFHg/o.jpg", "url": "https://www.yelp.com/biz/rocky-mountain-slices-denver?adjust_creative=gBcvfFpabk3CnzmXKdYe3w&utm_campaign=yelp_api_v3&utm_medium=api_v3_business_search&utm_source=gBcvfFpabk3CnzmXKdYe3w", "phone": "+16156492005", "coordinates": {"longitude": -104.988750755762, "latitude": 39.7393274851664}, "categories": [{"alias": "foodtrucks", "title": "Food Trucks"}, {"alias": "pizza", "title": "Pizza"}], "review_count": 11, "location": {"city": "Denver", "address1": "", "address3": "", "address2": null, "zip_code": "80211", "country": "US", "display_address": ["Denver, CO 80211"], "state": "CO"}, "transactions": [], "display_phone": "(615) 649-2005"}, {"rating": 4.0, "is_closed": false, "distance": 854.828541181, "name": "Bread N Butter", "id": "bread-n-butter-denver-2", "image_url": "https://s3-media4.fl.yelpcdn.com/bphoto/ji5qz2AgWHHHfTKsTLmB6g/o.jpg", "url": "https://www.yelp.com/biz/bread-n-butter-denver-2?adjust_creative=gBcvfFpabk3CnzmXKdYe3w&utm_campaign=yelp_api_v3&utm_medium=api_v3_business_search&utm_source=gBcvfFpabk3CnzmXKdYe3w", "phone": "+13033220898", "coordinates": {"longitude": -104.96809, "latitude": 39.74297}, "categories": [{"alias": "southern", "title": "Southern"}, {"alias": "cocktailbars", "title": "Cocktail Bars"}, {"alias": "cajun", "title": "Cajun/Creole"}], "review_count": 41, "location": {"city": "Denver", "address1": "1612 E 17th Ave", "address3": "", "address2": "", "zip_code": "80218", "country": "US", "display_address": ["1612 E 17th Ave", "Denver, CO 80218"], "state": "CO"}, "price": "$$", "transactions": [], "display_phone": "(303) 322-0898"}, {"rating": 4.0, "is_closed": false, "distance": 1521.098117526, "name": "CLYDE", "id": "clyde-denver", "image_url": "https://s3-media4.fl.yelpcdn.com/bphoto/_3wkVhwRBadX2Q7n_W4Qdw/o.jpg", "url": "https://www.yelp.com/biz/clyde-denver?adjust_creative=gBcvfFpabk3CnzmXKdYe3w&utm_campaign=yelp_api_v3&utm_medium=api_v3_business_search&utm_source=gBcvfFpabk3CnzmXKdYe3w", "phone": "+13038614112", "coordinates": {"longitude": -104.98576, "latitude": 39.72889}, "categories": [{"alias": "wine_bars", "title": "Wine Bars"}, {"alias": "newamerican", "title": "American (New)"}], "review_count": 36, "location": {"city": "Denver", "address1": "112 E 8th Ave", "address3": null, "address2": "", "zip_code": "80203", "country": "US", "display_address": ["112 E 8th Ave", "Denver, CO 80203"], "state": "CO"}, "price": "$$", "transactions": [], "display_phone": "(303) 861-4112"}, {"rating": 3.5, "is_closed": false, "distance": 794.4713388322, "name": "Illegal Pete's", "id": "illegal-petes-denver-4", "image_url": "https://s3-media4.fl.yelpcdn.com/bphoto/dIh5Z-6dCQWJ0YdtZkVWpA/o.jpg", "url": "https://www.yelp.com/biz/illegal-petes-denver-4?adjust_creative=gBcvfFpabk3CnzmXKdYe3w&utm_campaign=yelp_api_v3&utm_medium=api_v3_business_search&utm_source=gBcvfFpabk3CnzmXKdYe3w", "phone": "+17207232703", "coordinates": {"longitude": -104.96317, "latitude": 39.74046}, "categories": [{"alias": "bars", "title": "Bars"}, {"alias": "mexican", "title": "Mexican"}], "review_count": 68, "location": {"city": "Denver", "address1": "2001 E Colfax Ave", "address3": "", "address2": "", "zip_code": "80206", "country": "US", "display_address": ["2001 E Colfax Ave", "Denver, CO 80206"], "state": "CO"}, "price": "$", "transactions": [], "display_phone": "(720) 723-2703"}, {"rating": 3.5, "is_closed": false, "distance": 3768.1126993499997, "name": "Comida at The Source", "id": "comida-at-the-source-denver", "image_url": "https://s3-media3.fl.yelpcdn.com/bphoto/CVXXBXV2J5SOYOuk77MEMA/o.jpg", "url": "https://www.yelp.com/biz/comida-at-the-source-denver?adjust_creative=gBcvfFpabk3CnzmXKdYe3w&utm_campaign=yelp_api_v3&utm_medium=api_v3_business_search&utm_source=gBcvfFpabk3CnzmXKdYe3w", "phone": "+13032962747", "coordinates": {"longitude": -104.979721069336, "latitude": 39.7687492370605}, "categories": [{"alias": "mexican", "title": "Mexican"}], "review_count": 329, "location": {"city": "Denver", "address1": "3350 Brighton Blvd", "address3": "", "address2": "Unit 105", "zip_code": "80216", "country": "US", "display_address": ["3350 Brighton Blvd", "Unit 105", "Denver, CO 80216"], "state": "CO"}, "price": "$$", "transactions": [], "display_phone": "(303) 296-2747"}, {"rating": 4.0, "is_closed": false, "distance": 6244.246602964, "name": "Himchuli - Highlands Indian & Nepali Cuisine", "id": "himchuli-highlands-indian-and-nepali-cuisine-denver-2", "image_url": "https://s3-media2.fl.yelpcdn.com/bphoto/6EmdEWlmek4eYtUq0110XQ/o.jpg", "url": "https://www.yelp.com/biz/himchuli-highlands-indian-and-nepali-cuisine-denver-2?adjust_creative=gBcvfFpabk3CnzmXKdYe3w&utm_campaign=yelp_api_v3&utm_medium=api_v3_business_search&utm_source=gBcvfFpabk3CnzmXKdYe3w", "phone": "+13037289957", "coordinates": {"longitude": -105.03384, "latitude": 39.76236}, "categories": [{"alias": "indpak", "title": "Indian"}, {"alias": "himalayan", "title": "Himalayan/Nepalese"}, {"alias": "buffets", "title": "Buffets"}], "review_count": 65, "location": {"city": "Denver", "address1": "3489 W 32nd Ave", "address3": null, "address2": "", "zip_code": "80211", "country": "US", "display_address": ["3489 W 32nd Ave", "Denver, CO 80211"], "state": "CO"}, "price": "$$", "transactions": [], "display_phone": "(303) 728-9957"}, {"rating": 3.5, "is_closed": false, "distance": 2324.2083451979997, "name": "Milwaukee Street Tavern", "id": "milwaukee-street-tavern-denver", "image_url": "https://s3-media2.fl.yelpcdn.com/bphoto/JR9OdyxbxJ1d8Hcto-OGRA/o.jpg", "url": "https://www.yelp.com/biz/milwaukee-street-tavern-denver?adjust_creative=gBcvfFpabk3CnzmXKdYe3w&utm_campaign=yelp_api_v3&utm_medium=api_v3_business_search&utm_source=gBcvfFpabk3CnzmXKdYe3w", "phone": "+13033204710", "coordinates": {"longitude": -104.95252, "latitude": 39.71967}, "categories": [{"alias": "tradamerican", "title": "American (Traditional)"}, {"alias": "sportsbars", "title": "Sports Bars"}], "review_count": 79, "location": {"city": "Denver", "address1": "201 Milwaukee St", "address3": "", "address2": "", "zip_code": "80206", "country": "US", "display_address": ["201 Milwaukee St", "Denver, CO 80206"], "state": "CO"}, "price": "$$", "transactions": [], "display_phone": "(303) 320-4710"}, {"rating": 4.0, "is_closed": false, "distance": 8068.148639784, "name": "Larkburger University Hills", "id": "larkburger-university-hills-denver", "image_url": "https://s3-media3.fl.yelpcdn.com/bphoto/kfqLBmZ7zirYTNH0GPnVfg/o.jpg", "url": "https://www.yelp.com/biz/larkburger-university-hills-denver?adjust_creative=gBcvfFpabk3CnzmXKdYe3w&utm_campaign=yelp_api_v3&utm_medium=api_v3_business_search&utm_source=gBcvfFpabk3CnzmXKdYe3w", "phone": "+17203245000", "coordinates": {"longitude": -104.93750515264, "latitude": 39.6674764547677}, "categories": [{"alias": "burgers", "title": "Burgers"}], "review_count": 88, "location": {"city": "Denver", "address1": "2730 S Colorado Blvd", "address3": "", "address2": "Unit 20", "zip_code": "80222", "country": "US", "display_address": ["2730 S Colorado Blvd", "Unit 20", "Denver, CO 80222"], "state": "CO"}, "price": "$", "transactions": [], "display_phone": "(720) 324-5000"}, {"rating": 4.5, "is_closed": false, "distance": 8813.049522457999, "name": "Yareth's", "id": "yareths-denver", "image_url": "https://s3-media3.fl.yelpcdn.com/bphoto/a0lbJdIk9uPk3AzsEOZjNA/o.jpg", "url": "https://www.yelp.com/biz/yareths-denver?adjust_creative=gBcvfFpabk3CnzmXKdYe3w&utm_campaign=yelp_api_v3&utm_medium=api_v3_business_search&utm_source=gBcvfFpabk3CnzmXKdYe3w", "phone": "+13034774102", "coordinates": {"longitude": -105.044101327658, "latitude": 39.7911339998245}, "categories": [{"alias": "mexican", "title": "Mexican"}], "review_count": 37, "location": {"city": "Denver", "address1": "4403 W 52nd Ave", "address3": "", "address2": "", "zip_code": "80212", "country": "US", "display_address": ["4403 W 52nd Ave", "Denver, CO 80212"], "state": "CO"}, "price": "$", "transactions": [], "display_phone": "(303) 477-4102"}, {"rating": 4.5, "is_closed": false, "distance": 3087.533917796, "name": "Owlbear Barbecue", "id": "owlbear-barbecue-denver", "image_url": "https://s3-media1.fl.yelpcdn.com/bphoto/uabD68cBzOqP4jYrWlKPEg/o.jpg", "url": "https://www.yelp.com/biz/owlbear-barbecue-denver?adjust_creative=gBcvfFpabk3CnzmXKdYe3w&utm_campaign=yelp_api_v3&utm_medium=api_v3_business_search&utm_source=gBcvfFpabk3CnzmXKdYe3w", "phone": "+19707083954", "coordinates": {"longitude": -104.981534, "latitude": 39.761898}, "categories": [{"alias": "bbq", "title": "Barbeque"}], "review_count": 46, "location": {"city": "Denver", "address1": "2927 Larimer St", "address3": "", "address2": "", "zip_code": "80205", "country": "US", "display_address": ["2927 Larimer St", "Denver, CO 80205"], "state": "CO"}, "price": "$$", "transactions": [], "display_phone": "(970) 708-3954"}, {"rating": 3.5, "is_closed": false, "distance": 2410.6352140199997, "name": "Los Cabos", "id": "los-cabos-denver", "image_url": "https://s3-media3.fl.yelpcdn.com/bphoto/vdwYKQGy0T6YwW-0TVm7-Q/o.jpg", "url": "https://www.yelp.com/biz/los-cabos-denver?adjust_creative=gBcvfFpabk3CnzmXKdYe3w&utm_campaign=yelp_api_v3&utm_medium=api_v3_business_search&utm_source=gBcvfFpabk3CnzmXKdYe3w", "phone": "+13035953232", "coordinates": {"longitude": -104.9946593, "latitude": 39.7461281}, "categories": [{"alias": "peruvian", "title": "Peruvian"}], "review_count": 168, "location": {"city": "Denver", "address1": "1525 Champa St", "address3": "", "address2": "", "zip_code": "80202", "country": "US", "display_address": ["1525 Champa St", "Denver, CO 80202"], "state": "CO"}, "price": "$$", "transactions": ["delivery"], "display_phone": "(303) 595-3232"}, {"rating": 3.5, "is_closed": false, "distance": 3219.533272068, "name": "Next Door", "id": "next-door-denver", "image_url": "https://s3-media3.fl.yelpcdn.com/bphoto/-MX5McTyWBfGAHhU4YhPCA/o.jpg", "url": "https://www.yelp.com/biz/next-door-denver?adjust_creative=gBcvfFpabk3CnzmXKdYe3w&utm_campaign=yelp_api_v3&utm_medium=api_v3_business_search&utm_source=gBcvfFpabk3CnzmXKdYe3w", "phone": "+17204603730", "coordinates": {"longitude": -104.9997278, "latitude": 39.753002}, "categories": [{"alias": "bars", "title": "Bars"}, {"alias": "burgers", "title": "Burgers"}, {"alias": "sandwiches", "title": "Sandwiches"}], "review_count": 184, "location": {"city": "Denver", "address1": "1701 Wynkoop St", "address3": "", "address2": "Ste 100", "zip_code": "80202", "country": "US", "display_address": ["1701 Wynkoop St", "Ste 100", "Denver, CO 80202"], "state": "CO"}, "price": "$$", "transactions": [], "display_phone": "(720) 460-3730"}, {"rating": 4.5, "is_closed": false, "distance": 12703.60290115, "name": "FelFel Mediterranean", "id": "felfel-mediterranean-denver-9", "image_url": "https://s3-media2.fl.yelpcdn.com/bphoto/eiuD9FPIxlwvxP_19DerLg/o.jpg", "url": "https://www.yelp.com/biz/felfel-mediterranean-denver-9?adjust_creative=gBcvfFpabk3CnzmXKdYe3w&utm_campaign=yelp_api_v3&utm_medium=api_v3_business_search&utm_source=gBcvfFpabk3CnzmXKdYe3w", "phone": "+13035865540", "coordinates": {"longitude": -104.89464562302, "latitude": 39.6372008394623}, "categories": [{"alias": "mediterranean", "title": "Mediterranean"}, {"alias": "gluten_free", "title": "Gluten-Free"}, {"alias": "vegetarian", "title": "Vegetarian"}], "review_count": 463, "location": {"city": "Denver", "address1": "4401 S Tamarac Pkwy", "address3": "", "address2": null, "zip_code": "80237", "country": "US", "display_address": ["4401 S Tamarac Pkwy", "Denver, CO 80237"], "state": "CO"}, "price": "$", "transactions": ["delivery", "pickup"], "display_phone": "(303) 586-5540"}, {"rating": 3.5, "is_closed": false, "distance": 1016.8644562789999, "name": "Three Lions", "id": "three-lions-denver", "image_url": "https://s3-media2.fl.yelpcdn.com/bphoto/Q4KTsqGPB_8VNN6vp_QmKA/o.jpg", "url": "https://www.yelp.com/biz/three-lions-denver?adjust_creative=gBcvfFpabk3CnzmXKdYe3w&utm_campaign=yelp_api_v3&utm_medium=api_v3_business_search&utm_source=gBcvfFpabk3CnzmXKdYe3w", "phone": "+13039976886", "coordinates": {"longitude": -104.9599915, "latitude": 39.7402}, "categories": [{"alias": "british", "title": "British"}, {"alias": "pubs", "title": "Pubs"}, {"alias": "sportsbars", "title": "Sports Bars"}], "review_count": 181, "location": {"city": "Denver", "address1": "2239 E Colfax Ave", "address3": "", "address2": "", "zip_code": "80206", "country": "US", "display_address": ["2239 E Colfax Ave", "Denver, CO 80206"], "state": "CO"}, "price": "$$", "transactions": [], "display_phone": "(303) 997-6886"}, {"rating": 4.0, "is_closed": false, "distance": 7458.01308404, "name": "Garbanzo Mediterranean Grill", "id": "garbanzo-mediterranean-grill-denver-4", "image_url": "https://s3-media3.fl.yelpcdn.com/bphoto/fiU8Q16htdGMwwzzR5j3kg/o.jpg", "url": "https://www.yelp.com/biz/garbanzo-mediterranean-grill-denver-4?adjust_creative=gBcvfFpabk3CnzmXKdYe3w&utm_campaign=yelp_api_v3&utm_medium=api_v3_business_search&utm_source=gBcvfFpabk3CnzmXKdYe3w", "phone": "+13033003535", "coordinates": {"longitude": -104.9406051, "latitude": 39.6724471}, "categories": [{"alias": "mediterranean", "title": "Mediterranean"}, {"alias": "vegan", "title": "Vegan"}, {"alias": "vegetarian", "title": "Vegetarian"}], "review_count": 67, "location": {"city": "Denver", "address1": "2466 S Colorado Blvd", "address3": "", "address2": "", "zip_code": "80222", "country": "US", "display_address": ["2466 S Colorado Blvd", "Denver, CO 80222"], "state": "CO"}, "price": "$", "transactions": [], "display_phone": "(303) 300-3535"}, {"rating": 3.5, "is_closed": false, "distance": 3047.7748512279995, "name": "BD's Mongolian Grill", "id": "bds-mongolian-grill-denver", "image_url": "https://s3-media1.fl.yelpcdn.com/bphoto/jh9MSd7TT-0JXCxYZDgkuA/o.jpg", "url": "https://www.yelp.com/biz/bds-mongolian-grill-denver?adjust_creative=gBcvfFpabk3CnzmXKdYe3w&utm_campaign=yelp_api_v3&utm_medium=api_v3_business_search&utm_source=gBcvfFpabk3CnzmXKdYe3w", "phone": "+13035711824", "coordinates": {"longitude": -104.99935, "latitude": 39.75133}, "categories": [{"alias": "bbq", "title": "Barbeque"}, {"alias": "mongolian", "title": "Mongolian"}, {"alias": "buffets", "title": "Buffets"}], "review_count": 309, "location": {"city": "Denver", "address1": "1620 Wazee St", "address3": "", "address2": "", "zip_code": "80202", "country": "US", "display_address": ["1620 Wazee St", "Denver, CO 80202"], "state": "CO"}, "price": "$$", "transactions": [], "display_phone": "(303) 571-1824"}, {"rating": 4.0, "is_closed": false, "distance": 8329.93901198, "name": "Yaffa's Savory", "id": "yaffas-savory-denver", "image_url": "https://s3-media2.fl.yelpcdn.com/bphoto/0jZ8Q4ykhCSULZJ3coLtrQ/o.jpg", "url": "https://www.yelp.com/biz/yaffas-savory-denver?adjust_creative=gBcvfFpabk3CnzmXKdYe3w&utm_campaign=yelp_api_v3&utm_medium=api_v3_business_search&utm_source=gBcvfFpabk3CnzmXKdYe3w", "phone": "+13037580083", "coordinates": {"longitude": -104.910050952362, "latitude": 39.6766411546878}, "categories": [{"alias": "mediterranean", "title": "Mediterranean"}, {"alias": "moroccan", "title": "Moroccan"}, {"alias": "sandwiches", "title": "Sandwiches"}], "review_count": 110, "location": {"city": "Denver", "address1": "2200 S Monaco Pkwy", "address3": "", "address2": "Unit B", "zip_code": "80222", "country": "US", "display_address": ["2200 S Monaco Pkwy", "Unit B", "Denver, CO 80222"], "state": "CO"}, "price": "$$", "transactions": ["delivery", "pickup"], "display_phone": "(303) 758-0083"}, {"rating": 3.5, "is_closed": false, "distance": 2505.012866178, "name": "Kona Grill", "id": "kona-grill-denver", "image_url": "https://s3-media1.fl.yelpcdn.com/bphoto/v4ifFUMz5pEZn1p1r5HzAQ/o.jpg", "url": "https://www.yelp.com/biz/kona-grill-denver?adjust_creative=gBcvfFpabk3CnzmXKdYe3w&utm_campaign=yelp_api_v3&utm_medium=api_v3_business_search&utm_source=gBcvfFpabk3CnzmXKdYe3w", "phone": "+17209741300", "coordinates": {"longitude": -104.95213, "latitude": 39.71794}, "categories": [{"alias": "newamerican", "title": "American (New)"}, {"alias": "sushi", "title": "Sushi Bars"}], "review_count": 376, "location": {"city": "Denver", "address1": "3000 E 1st Ave", "address3": "", "address2": "", "zip_code": "80206", "country": "US", "display_address": ["3000 E 1st Ave", "Denver, CO 80206"], "state": "CO"}, "price": "$$", "transactions": [], "display_phone": "(720) 974-1300"}, {"rating": 3.5, "is_closed": false, "distance": 902.0569570239999, "name": "Bocaza Mexican Grille", "id": "bocaza-mexican-grille-denver", "image_url": "https://s3-media2.fl.yelpcdn.com/bphoto/NSRA2zfxEOSWOTFoWxL29A/o.jpg", "url": "https://www.yelp.com/biz/bocaza-mexican-grille-denver?adjust_creative=gBcvfFpabk3CnzmXKdYe3w&utm_campaign=yelp_api_v3&utm_medium=api_v3_business_search&utm_source=gBcvfFpabk3CnzmXKdYe3w", "phone": "+13033937545", "coordinates": {"longitude": -104.96615, "latitude": 39.74299}, "categories": [{"alias": "mexican", "title": "Mexican"}], "review_count": 113, "location": {"city": "Denver", "address1": "1740 E 17th Ave", "address3": "", "address2": "", "zip_code": "80218", "country": "US", "display_address": ["1740 E 17th Ave", "Denver, CO 80218"], "state": "CO"}, "price": "$", "transactions": ["delivery", "pickup"], "display_phone": "(303) 393-7545"}, {"rating": 3.5, "is_closed": false, "distance": 3311.771628564, "name": "The Walnut Room", "id": "the-walnut-room-denver", "image_url": "https://s3-media1.fl.yelpcdn.com/bphoto/TKi23q9kRgZBxeW8RCUczw/o.jpg", "url": "https://www.yelp.com/biz/the-walnut-room-denver?adjust_creative=gBcvfFpabk3CnzmXKdYe3w&utm_campaign=yelp_api_v3&utm_medium=api_v3_business_search&utm_source=gBcvfFpabk3CnzmXKdYe3w", "phone": "+13032951868", "coordinates": {"longitude": -104.9797261, "latitude": 39.7644023}, "categories": [{"alias": "pizza", "title": "Pizza"}, {"alias": "musicvenues", "title": "Music Venues"}, {"alias": "bars", "title": "Bars"}], "review_count": 199, "location": {"city": "Denver", "address1": "3131 Walnut St", "address3": "", "address2": "", "zip_code": "80205", "country": "US", "display_address": ["3131 Walnut St", "Denver, CO 80205"], "state": "CO"}, "price": "$$", "transactions": [], "display_phone": "(303) 295-1868"}, {"rating": 4.0, "is_closed": false, "distance": 5020.86479819, "name": "Thai Pan", "id": "thai-pan-denver", "image_url": "https://s3-media4.fl.yelpcdn.com/bphoto/w-jlHKefcrLzCV_F5XYu6g/o.jpg", "url": "https://www.yelp.com/biz/thai-pan-denver?adjust_creative=gBcvfFpabk3CnzmXKdYe3w&utm_campaign=yelp_api_v3&utm_medium=api_v3_business_search&utm_source=gBcvfFpabk3CnzmXKdYe3w", "phone": "+13037572750", "coordinates": {"longitude": -104.939993, "latitude": 39.696826}, "categories": [{"alias": "thai", "title": "Thai"}], "review_count": 133, "location": {"city": "Denver", "address1": "4085 E Mississippi Ave", "address3": "", "address2": "", "zip_code": "80246", "country": "US", "display_address": ["4085 E Mississippi Ave", "Denver, CO 80246"], "state": "CO"}, "price": "$", "transactions": ["delivery", "pickup"], "display_phone": "(303) 757-2750"}, {"rating": 4.5, "is_closed": false, "distance": 1759.5905573439998, "name": "Maine Street Barbeque Co", "id": "maine-street-barbeque-co-denver", "image_url": "https://s3-media1.fl.yelpcdn.com/bphoto/K2p1avEWHfVY4UJVIHY6dQ/o.jpg", "url": "https://www.yelp.com/biz/maine-street-barbeque-co-denver?adjust_creative=gBcvfFpabk3CnzmXKdYe3w&utm_campaign=yelp_api_v3&utm_medium=api_v3_business_search&utm_source=gBcvfFpabk3CnzmXKdYe3w", "phone": "+13039568162", "coordinates": {"longitude": -104.99202, "latitude": 39.74001}, "categories": [{"alias": "foodtrucks", "title": "Food Trucks"}, {"alias": "bbq", "title": "Barbeque"}], "review_count": 16, "location": {"city": "Denver", "address1": null, "address3": "", "address2": null, "zip_code": "", "country": "US", "display_address": ["Denver, CO"], "state": "CO"}, "price": "$$", "transactions": [], "display_phone": "(303) 956-8162"}, {"rating": 3.5, "is_closed": false, "distance": 2643.934635526, "name": "Whiskey Bar", "id": "whiskey-bar-denver-2", "image_url": "https://s3-media1.fl.yelpcdn.com/bphoto/WNeIHJn-1UxCiFMwPmLmGw/o.jpg", "url": "https://www.yelp.com/biz/whiskey-bar-denver-2?adjust_creative=gBcvfFpabk3CnzmXKdYe3w&utm_campaign=yelp_api_v3&utm_medium=api_v3_business_search&utm_source=gBcvfFpabk3CnzmXKdYe3w", "phone": "+13032970303", "coordinates": {"longitude": -104.990381682433, "latitude": 39.7535718646857}, "categories": [{"alias": "whiskeybars", "title": "Whiskey Bars"}], "review_count": 102, "location": {"city": "Denver", "address1": "2203 Larimer St", "address3": "", "address2": null, "zip_code": "80238", "country": "US", "display_address": ["2203 Larimer St", "Denver, CO 80238"], "state": "CO"}, "price": "$$", "transactions": [], "display_phone": "(303) 297-0303"}, {"rating": 3.5, "is_closed": false, "distance": 1036.232460844, "name": "Illegal Grounds Coffee House", "id": "illegal-grounds-coffee-house-denver", "image_url": "https://s3-media3.fl.yelpcdn.com/bphoto/sTgkg9z0sEBDiysNrL_bcA/o.jpg", "url": "https://www.yelp.com/biz/illegal-grounds-coffee-house-denver?adjust_creative=gBcvfFpabk3CnzmXKdYe3w&utm_campaign=yelp_api_v3&utm_medium=api_v3_business_search&utm_source=gBcvfFpabk3CnzmXKdYe3w", "phone": "+13038607166", "coordinates": {"longitude": -104.975356, "latitude": 39.743973}, "categories": [{"alias": "coffee", "title": "Coffee & Tea"}], "review_count": 59, "location": {"city": "Denver", "address1": "925 E 17th Ave", "address3": "", "address2": "", "zip_code": "80218", "country": "US", "display_address": ["925 E 17th Ave", "Denver, CO 80218"], "state": "CO"}, "price": "$", "transactions": [], "display_phone": "(303) 860-7166"}, {"rating": 3.5, "is_closed": false, "distance": 7812.03247856, "name": "Parisi", "id": "parisi-denver", "image_url": "https://s3-media3.fl.yelpcdn.com/bphoto/Jt8HP9GKp4_XOBZHjOP-Cw/o.jpg", "url": "https://www.yelp.com/biz/parisi-denver?adjust_creative=gBcvfFpabk3CnzmXKdYe3w&utm_campaign=yelp_api_v3&utm_medium=api_v3_business_search&utm_source=gBcvfFpabk3CnzmXKdYe3w", "phone": "+13035610234", "coordinates": {"longitude": -105.04427, "latitude": 39.77678}, "categories": [{"alias": "italian", "title": "Italian"}, {"alias": "pizza", "title": "Pizza"}], "review_count": 386, "location": {"city": "Denver", "address1": "4401 Tennyson St", "address3": "", "address2": "", "zip_code": "80212", "country": "US", "display_address": ["4401 Tennyson St", "Denver, CO 80212"], "state": "CO"}, "price": "$$", "transactions": [], "display_phone": "(303) 561-0234"}, {"rating": 4.0, "is_closed": false, "distance": 1982.070546964, "name": "The Hound", "id": "the-hound-denver-3", "image_url": "https://s3-media2.fl.yelpcdn.com/bphoto/D-4UmTjnZtY3If4QWKdPTw/o.jpg", "url": "https://www.yelp.com/biz/the-hound-denver-3?adjust_creative=gBcvfFpabk3CnzmXKdYe3w&utm_campaign=yelp_api_v3&utm_medium=api_v3_business_search&utm_source=gBcvfFpabk3CnzmXKdYe3w", "phone": "+13039960709", "coordinates": {"longitude": -104.95133, "latitude": 39.72526}, "categories": [{"alias": "bars", "title": "Bars"}, {"alias": "newamerican", "title": "American (New)"}], "review_count": 18, "location": {"city": "Denver", "address1": "575 Saint Paul St", "address3": null, "address2": "", "zip_code": "80206", "country": "US", "display_address": ["575 Saint Paul St", "Denver, CO 80206"], "state": "CO"}, "price": "$$", "transactions": [], "display_phone": "(303) 996-0709"}, {"rating": 3.5, "is_closed": false, "distance": 2800.3702083579997, "name": "Tom's Urban - Denver", "id": "toms-urban-denver-denver-2", "image_url": "https://s3-media3.fl.yelpcdn.com/bphoto/LerDD_eNspxEdvCbLj6H_w/o.jpg", "url": "https://www.yelp.com/biz/toms-urban-denver-denver-2?adjust_creative=gBcvfFpabk3CnzmXKdYe3w&utm_campaign=yelp_api_v3&utm_medium=api_v3_business_search&utm_source=gBcvfFpabk3CnzmXKdYe3w", "phone": "+17202140516", "coordinates": {"longitude": -104.998519897461, "latitude": 39.7479591369629}, "categories": [{"alias": "newamerican", "title": "American (New)"}, {"alias": "sportsbars", "title": "Sports Bars"}, {"alias": "gastropubs", "title": "Gastropubs"}], "review_count": 541, "location": {"city": "Denver", "address1": "1460 Larimer St", "address3": "", "address2": null, "zip_code": "80202", "country": "US", "display_address": ["1460 Larimer St", "Denver, CO 80202"], "state": "CO"}, "price": "$$", "transactions": [], "display_phone": "(720) 214-0516"}, {"rating": 4.0, "is_closed": false, "distance": 7727.511551099999, "name": "Thai Bao Vietnamese Restaurant", "id": "thai-bao-vietnamese-restaurant-denver", "image_url": "https://s3-media1.fl.yelpcdn.com/bphoto/saHsinZXcDQ9A9hX_OqVNQ/o.jpg", "url": "https://www.yelp.com/biz/thai-bao-vietnamese-restaurant-denver?adjust_creative=gBcvfFpabk3CnzmXKdYe3w&utm_campaign=yelp_api_v3&utm_medium=api_v3_business_search&utm_source=gBcvfFpabk3CnzmXKdYe3w", "phone": "+13034779446", "coordinates": {"longitude": -105.02662, "latitude": 39.78989}, "categories": [{"alias": "vietnamese", "title": "Vietnamese"}], "review_count": 123, "location": {"city": "Denver", "address1": "5115 Federal Blvd", "address3": "", "address2": "", "zip_code": "80221", "country": "US", "display_address": ["5115 Federal Blvd", "Denver, CO 80221"], "state": "CO"}, "price": "$", "transactions": [], "display_phone": "(303) 477-9446"}, {"rating": 3.5, "is_closed": false, "distance": 1665.7690930899998, "name": "Coperta", "id": "coperta-denver", "image_url": "https://s3-media3.fl.yelpcdn.com/bphoto/RbVWDBPmjlNt2UhV09BEXw/o.jpg", "url": "https://www.yelp.com/biz/coperta-denver?adjust_creative=gBcvfFpabk3CnzmXKdYe3w&utm_campaign=yelp_api_v3&utm_medium=api_v3_business_search&utm_source=gBcvfFpabk3CnzmXKdYe3w", "phone": "+17207494666", "coordinates": {"longitude": -104.9819799, "latitude": 39.74735}, "categories": [{"alias": "italian", "title": "Italian"}, {"alias": "wine_bars", "title": "Wine Bars"}], "review_count": 65, "location": {"city": "Denver", "address1": "400 East 20th Ave", "address3": null, "address2": "", "zip_code": "80205", "country": "US", "display_address": ["400 East 20th Ave", "Denver, CO 80205"], "state": "CO"}, "price": "$$", "transactions": [], "display_phone": "(720) 749-4666"}, {"rating": 3.5, "is_closed": false, "distance": 2859.194643104, "name": "Ted's Montana Grill", "id": "teds-montana-grill-denver-2", "image_url": "https://s3-media2.fl.yelpcdn.com/bphoto/OnJYG-w8D7clQFRk_3QtrA/o.jpg", "url": "https://www.yelp.com/biz/teds-montana-grill-denver-2?adjust_creative=gBcvfFpabk3CnzmXKdYe3w&utm_campaign=yelp_api_v3&utm_medium=api_v3_business_search&utm_source=gBcvfFpabk3CnzmXKdYe3w", "phone": "+13038930654", "coordinates": {"longitude": -104.999803292333, "latitude": 39.7475497787168}, "categories": [{"alias": "bars", "title": "Bars"}, {"alias": "tradamerican", "title": "American (Traditional)"}], "review_count": 229, "location": {"city": "Denver", "address1": "1401 Larimer St", "address3": "", "address2": "", "zip_code": "80202", "country": "US", "display_address": ["1401 Larimer St", "Denver, CO 80202"], "state": "CO"}, "price": "$$", "transactions": [], "display_phone": "(303) 893-0654"}, {"rating": 4.0, "is_closed": false, "distance": 8653.5096937, "name": "Texas de Brazil", "id": "texas-de-brazil-denver", "image_url": "https://s3-media2.fl.yelpcdn.com/bphoto/Vz4bE25oGyMf0Go7cqcM6Q/o.jpg", "url": "https://www.yelp.com/biz/texas-de-brazil-denver?adjust_creative=gBcvfFpabk3CnzmXKdYe3w&utm_campaign=yelp_api_v3&utm_medium=api_v3_business_search&utm_source=gBcvfFpabk3CnzmXKdYe3w", "phone": "+17203742100", "coordinates": {"longitude": -104.8908793, "latitude": 39.7838329}, "categories": [{"alias": "brazilian", "title": "Brazilian"}, {"alias": "steak", "title": "Steakhouses"}, {"alias": "venues", "title": "Venues & Event Spaces"}], "review_count": 343, "location": {"city": "Denver", "address1": "8390 Northfield Blvd", "address3": "", "address2": "Ste 1800", "zip_code": "80238", "country": "US", "display_address": ["8390 Northfield Blvd", "Ste 1800", "Denver, CO 80238"], "state": "CO"}, "price": "$$$", "transactions": [], "display_phone": "(720) 374-2100"}, {"rating": 4.0, "is_closed": false, "distance": 4789.00477038, "name": "Nixon's Coffee House", "id": "nixons-coffee-house-denver", "image_url": "https://s3-media3.fl.yelpcdn.com/bphoto/7YrwQxGU15iPTf0j1s_xgw/o.jpg", "url": "https://www.yelp.com/biz/nixons-coffee-house-denver?adjust_creative=gBcvfFpabk3CnzmXKdYe3w&utm_campaign=yelp_api_v3&utm_medium=api_v3_business_search&utm_source=gBcvfFpabk3CnzmXKdYe3w", "phone": "+13035045224", "coordinates": {"longitude": -104.979480877519, "latitude": 39.6930469572544}, "categories": [{"alias": "coffee", "title": "Coffee & Tea"}, {"alias": "breakfast_brunch", "title": "Breakfast & Brunch"}, {"alias": "sandwiches", "title": "Sandwiches"}], "review_count": 25, "location": {"city": "Denver", "address1": "695 E Louisiana Ave", "address3": null, "address2": "", "zip_code": "80210", "country": "US", "display_address": ["695 E Louisiana Ave", "Denver, CO 80210"], "state": "CO"}, "price": "$", "transactions": [], "display_phone": "(303) 504-5224"}, {"rating": 3.5, "is_closed": false, "distance": 5391.2558475959995, "name": "Pajama Baking Company", "id": "pajama-baking-company-denver", "image_url": "https://s3-media3.fl.yelpcdn.com/bphoto/LrKEyKkPHluwRLXumrxh_w/o.jpg", "url": "https://www.yelp.com/biz/pajama-baking-company-denver?adjust_creative=gBcvfFpabk3CnzmXKdYe3w&utm_campaign=yelp_api_v3&utm_medium=api_v3_business_search&utm_source=gBcvfFpabk3CnzmXKdYe3w", "phone": "+13037333622", "coordinates": {"longitude": -104.980505481362, "latitude": 39.6877797693014}, "categories": [{"alias": "sandwiches", "title": "Sandwiches"}, {"alias": "salad", "title": "Salad"}, {"alias": "breakfast_brunch", "title": "Breakfast & Brunch"}], "review_count": 159, "location": {"city": "Denver", "address1": "1595 S Pearl St", "address3": "", "address2": "", "zip_code": "80210", "country": "US", "display_address": ["1595 S Pearl St", "Denver, CO 80210"], "state": "CO"}, "price": "$", "transactions": [], "display_phone": "(303) 733-3622"}, {"rating": 4.0, "is_closed": false, "distance": 7168.47672464, "name": "Damascus Grill", "id": "damascus-grill-denver", "image_url": "https://s3-media3.fl.yelpcdn.com/bphoto/EuT5RXSyR-uezMNrZejFOQ/o.jpg", "url": "https://www.yelp.com/biz/damascus-grill-denver?adjust_creative=gBcvfFpabk3CnzmXKdYe3w&utm_campaign=yelp_api_v3&utm_medium=api_v3_business_search&utm_source=gBcvfFpabk3CnzmXKdYe3w", "phone": "+13037573515", "coordinates": {"longitude": -104.94035, "latitude": 39.6752899}, "categories": [{"alias": "mideastern", "title": "Middle Eastern"}], "review_count": 142, "location": {"city": "Denver", "address1": "2276 S Colorado Blvd", "address3": "", "address2": "", "zip_code": "80222", "country": "US", "display_address": ["2276 S Colorado Blvd", "Denver, CO 80222"], "state": "CO"}, "price": "$$", "transactions": [], "display_phone": "(303) 757-3515"}, {"rating": 4.0, "is_closed": false, "distance": 2748.523871852, "name": "Roosevelt", "id": "roosevelt-denver", "image_url": "https://s3-media3.fl.yelpcdn.com/bphoto/CJUVL4nSJ4Kpslf0rApmaQ/o.jpg", "url": "https://www.yelp.com/biz/roosevelt-denver?adjust_creative=gBcvfFpabk3CnzmXKdYe3w&utm_campaign=yelp_api_v3&utm_medium=api_v3_business_search&utm_source=gBcvfFpabk3CnzmXKdYe3w", "phone": "+17208406156", "coordinates": {"longitude": -104.9975967, "latitude": 39.7484016}, "categories": [{"alias": "lounges", "title": "Lounges"}], "review_count": 84, "location": {"city": "Denver", "address1": "1512 Larimer St", "address3": "", "address2": "", "zip_code": "80202", "country": "US", "display_address": ["1512 Larimer St", "Denver, CO 80202"], "state": "CO"}, "price": "$$", "transactions": [], "display_phone": "(720) 840-6156"}, {"rating": 4.5, "is_closed": false, "distance": 2229.2444104779997, "name": "715 Club", "id": "715-club-denver", "image_url": "https://s3-media2.fl.yelpcdn.com/bphoto/2yzcKz_cOyJVMhiqWmktDA/o.jpg", "url": "https://www.yelp.com/biz/715-club-denver?adjust_creative=gBcvfFpabk3CnzmXKdYe3w&utm_campaign=yelp_api_v3&utm_medium=api_v3_business_search&utm_source=gBcvfFpabk3CnzmXKdYe3w", "phone": "+13032958927", "coordinates": {"longitude": -104.977500066161, "latitude": 39.7546546161175}, "categories": [{"alias": "divebars", "title": "Dive Bars"}], "review_count": 17, "location": {"city": "Denver", "address1": "715 E 26th Ave", "address3": null, "address2": "", "zip_code": "80205", "country": "US", "display_address": ["715 E 26th Ave", "Denver, CO 80205"], "state": "CO"}, "price": "$", "transactions": [], "display_phone": "(303) 295-8927"}, {"rating": 4.0, "is_closed": false, "distance": 871.5832994539999, "name": "Dazbog Coffee", "id": "dazbog-coffee-denver-5", "image_url": "https://s3-media4.fl.yelpcdn.com/bphoto/1Lrxw1-tYkKqFuPYxWPPTA/o.jpg", "url": "https://www.yelp.com/biz/dazbog-coffee-denver-5?adjust_creative=gBcvfFpabk3CnzmXKdYe3w&utm_campaign=yelp_api_v3&utm_medium=api_v3_business_search&utm_source=gBcvfFpabk3CnzmXKdYe3w", "phone": "+13038311000", "coordinates": {"longitude": -104.97323, "latitude": 39.74302}, "categories": [{"alias": "coffee", "title": "Coffee & Tea"}], "review_count": 51, "location": {"city": "Denver", "address1": "1100 E 17th Ave", "address3": "", "address2": "", "zip_code": "80218", "country": "US", "display_address": ["1100 E 17th Ave", "Denver, CO 80218"], "state": "CO"}, "price": "$", "transactions": [], "display_phone": "(303) 831-1000"}, {"rating": 3.5, "is_closed": false, "distance": 3707.4970691839994, "name": "The Saucy Noodle Ristorante", "id": "the-saucy-noodle-ristorante-denver", "image_url": "https://s3-media3.fl.yelpcdn.com/bphoto/cShdFaQjxQpZ2ErzQWEGuQ/o.jpg", "url": "https://www.yelp.com/biz/the-saucy-noodle-ristorante-denver?adjust_creative=gBcvfFpabk3CnzmXKdYe3w&utm_campaign=yelp_api_v3&utm_medium=api_v3_business_search&utm_source=gBcvfFpabk3CnzmXKdYe3w", "phone": "+13037336977", "coordinates": {"longitude": -104.9595613, "latitude": 39.7032082}, "categories": [{"alias": "italian", "title": "Italian"}, {"alias": "pizza", "title": "Pizza"}], "review_count": 206, "location": {"city": "Denver", "address1": "727 S University Blvd", "address3": "", "address2": "", "zip_code": "80209", "country": "US", "display_address": ["727 S University Blvd", "Denver, CO 80209"], "state": "CO"}, "price": "$$", "transactions": [], "display_phone": "(303) 733-6977"}, {"rating": 3.5, "is_closed": false, "distance": 2415.1872322100003, "name": "Uncle Joe's Hong Kong Bistro", "id": "uncle-joes-hong-kong-bistro-denver-2", "image_url": "https://s3-media4.fl.yelpcdn.com/bphoto/ayzLcG_VC8JPWdoT3WeJOA/o.jpg", "url": "https://www.yelp.com/biz/uncle-joes-hong-kong-bistro-denver-2?adjust_creative=gBcvfFpabk3CnzmXKdYe3w&utm_campaign=yelp_api_v3&utm_medium=api_v3_business_search&utm_source=gBcvfFpabk3CnzmXKdYe3w", "phone": "+17203308487", "coordinates": {"longitude": -104.995811147885, "latitude": 39.7447573800875}, "categories": [{"alias": "asianfusion", "title": "Asian Fusion"}, {"alias": "wine_bars", "title": "Wine Bars"}, {"alias": "szechuan", "title": "Szechuan"}], "review_count": 150, "location": {"city": "Denver", "address1": "891 14th St", "address3": "", "address2": "Unit 100", "zip_code": "80202", "country": "US", "display_address": ["891 14th St", "Unit 100", "Denver, CO 80202"], "state": "CO"}, "price": "$$", "transactions": ["delivery", "pickup"], "display_phone": "(720) 330-8487"}, {"rating": 5.0, "is_closed": false, "distance": 3544.31063692, "name": "Pressed Juice Daily", "id": "pressed-juice-daily-denver-4", "image_url": "https://s3-media2.fl.yelpcdn.com/bphoto/EjtS2Y8zJgA99aotT0NXpw/o.jpg", "url": "https://www.yelp.com/biz/pressed-juice-daily-denver-4?adjust_creative=gBcvfFpabk3CnzmXKdYe3w&utm_campaign=yelp_api_v3&utm_medium=api_v3_business_search&utm_source=gBcvfFpabk3CnzmXKdYe3w", "phone": "+13032973544", "coordinates": {"longitude": -104.972627812845, "latitude": 39.7673460843522}, "categories": [{"alias": "raw_food", "title": "Live/Raw Food"}, {"alias": "juicebars", "title": "Juice Bars & Smoothies"}], "review_count": 8, "location": {"city": "Denver", "address1": "1219 E 36th Ave", "address3": "", "address2": null, "zip_code": "80205", "country": "US", "display_address": ["1219 E 36th Ave", "Denver, CO 80205"], "state": "CO"}, "price": "$", "transactions": [], "display_phone": "(303) 297-3544"}, {"rating": 4.0, "is_closed": false, "distance": 7489.4048700799995, "name": "Kyle's Kitchen", "id": "kyles-kitchen-denver", "image_url": "https://s3-media1.fl.yelpcdn.com/bphoto/ElpGqGmqXATY-i35DZ7Vig/o.jpg", "url": "https://www.yelp.com/biz/kyles-kitchen-denver?adjust_creative=gBcvfFpabk3CnzmXKdYe3w&utm_campaign=yelp_api_v3&utm_medium=api_v3_business_search&utm_source=gBcvfFpabk3CnzmXKdYe3w", "phone": "+13034775625", "coordinates": {"longitude": -105.043943747878, "latitude": 39.7719676047564}, "categories": [{"alias": "breakfast_brunch", "title": "Breakfast & Brunch"}, {"alias": "newamerican", "title": "American (New)"}], "review_count": 111, "location": {"city": "Denver", "address1": "4018 Tennyson St", "address3": "", "address2": "", "zip_code": "80212", "country": "US", "display_address": ["4018 Tennyson St", "Denver, CO 80212"], "state": "CO"}, "price": "$", "transactions": [], "display_phone": "(303) 477-5625"}, {"rating": 4.0, "is_closed": false, "distance": 5206.615303791999, "name": "Wahoo's Fish Tacos", "id": "wahoos-fish-tacos-denver-5", "image_url": "https://s3-media1.fl.yelpcdn.com/bphoto/mABDvxcc7bz0VYcc9NM9Jg/o.jpg", "url": "https://www.yelp.com/biz/wahoos-fish-tacos-denver-5?adjust_creative=gBcvfFpabk3CnzmXKdYe3w&utm_campaign=yelp_api_v3&utm_medium=api_v3_business_search&utm_source=gBcvfFpabk3CnzmXKdYe3w", "phone": "+17209747470", "coordinates": {"longitude": -104.9410599, "latitude": 39.6944}, "categories": [{"alias": "mexican", "title": "Mexican"}, {"alias": "seafood", "title": "Seafood"}], "review_count": 109, "location": {"city": "Denver", "address1": "1233 South Colorado Blvd", "address3": "", "address2": "", "zip_code": "80246", "country": "US", "display_address": ["1233 South Colorado Blvd", "Denver, CO 80246"], "state": "CO"}, "price": "$", "transactions": [], "display_phone": "(720) 974-7470"}, {"rating": 3.5, "is_closed": false, "distance": 478.261086256, "name": "DP Dough", "id": "dp-dough-denver", "image_url": "https://s3-media1.fl.yelpcdn.com/bphoto/n_Jf6frTGSxaS04rokx3_g/o.jpg", "url": "https://www.yelp.com/biz/dp-dough-denver?adjust_creative=gBcvfFpabk3CnzmXKdYe3w&utm_campaign=yelp_api_v3&utm_medium=api_v3_business_search&utm_source=gBcvfFpabk3CnzmXKdYe3w", "phone": "+13038399663", "coordinates": {"longitude": -104.97111, "latitude": 39.73971}, "categories": [{"alias": "pizza", "title": "Pizza"}, {"alias": "italian", "title": "Italian"}], "review_count": 203, "location": {"city": "Denver", "address1": "1228 E Colfax Ave", "address3": "", "address2": "", "zip_code": "80218", "country": "US", "display_address": ["1228 E Colfax Ave", "Denver, CO 80218"], "state": "CO"}, "price": "$", "transactions": ["delivery", "pickup"], "display_phone": "(303) 839-9663"}, {"rating": 3.5, "is_closed": false, "distance": 5100.778346164, "name": "Gaetano's", "id": "gaetanos-denver", "image_url": "https://s3-media3.fl.yelpcdn.com/bphoto/2sCv06_qCNtkuyphT8SR7Q/o.jpg", "url": "https://www.yelp.com/biz/gaetanos-denver?adjust_creative=gBcvfFpabk3CnzmXKdYe3w&utm_campaign=yelp_api_v3&utm_medium=api_v3_business_search&utm_source=gBcvfFpabk3CnzmXKdYe3w", "phone": "+13034559852", "coordinates": {"longitude": -105.01087, "latitude": 39.76909}, "categories": [{"alias": "italian", "title": "Italian"}, {"alias": "cocktailbars", "title": "Cocktail Bars"}], "review_count": 344, "location": {"city": "Denver", "address1": "3760 Tejon St", "address3": "", "address2": "", "zip_code": "80211", "country": "US", "display_address": ["3760 Tejon St", "Denver, CO 80211"], "state": "CO"}, "price": "$$", "transactions": [], "display_phone": "(303) 455-9852"}, {"rating": 3.5, "is_closed": false, "distance": 1602.060311444, "name": "Cosmo's Pizza", "id": "cosmos-pizza-denver", "image_url": "https://s3-media2.fl.yelpcdn.com/bphoto/j0v0NEWXvXlVqVaacZOTIA/o.jpg", "url": "https://www.yelp.com/biz/cosmos-pizza-denver?adjust_creative=gBcvfFpabk3CnzmXKdYe3w&utm_campaign=yelp_api_v3&utm_medium=api_v3_business_search&utm_source=gBcvfFpabk3CnzmXKdYe3w", "phone": "+13037773278", "coordinates": {"longitude": -104.9832001, "latitude": 39.7248802}, "categories": [{"alias": "pizza", "title": "Pizza"}], "review_count": 164, "location": {"city": "Denver", "address1": "550 Grant St", "address3": "", "address2": "", "zip_code": "80203", "country": "US", "display_address": ["550 Grant St", "Denver, CO 80203"], "state": "CO"}, "price": "$", "transactions": ["pickup", "delivery"], "display_phone": "(303) 777-3278"}, {"rating": 3.5, "is_closed": false, "distance": 1838.7834428659999, "name": "Red Ginger", "id": "red-ginger-denver", "image_url": "https://s3-media3.fl.yelpcdn.com/bphoto/PMdvsJqLhnM-Bfm5tzWR_A/o.jpg", "url": "https://www.yelp.com/biz/red-ginger-denver?adjust_creative=gBcvfFpabk3CnzmXKdYe3w&utm_campaign=yelp_api_v3&utm_medium=api_v3_business_search&utm_source=gBcvfFpabk3CnzmXKdYe3w", "phone": "+17206275762", "coordinates": {"longitude": -104.987084, "latitude": 39.725237}, "categories": [{"alias": "sushi", "title": "Sushi Bars"}, {"alias": "asianfusion", "title": "Asian Fusion"}], "review_count": 212, "location": {"city": "Denver", "address1": "550 Broadway St", "address3": "", "address2": "", "zip_code": "80203", "country": "US", "display_address": ["550 Broadway St", "Denver, CO 80203"], "state": "CO"}, "price": "$$", "transactions": ["delivery", "pickup"], "display_phone": "(720) 627-5762"}, {"rating": 4.0, "is_closed": false, "distance": 4841.7571653059995, "name": "Romes Saloon", "id": "romes-saloon-denver-2", "image_url": "https://s3-media3.fl.yelpcdn.com/bphoto/dYyJsL6WWeBGhyV9JP0mSQ/o.jpg", "url": "https://www.yelp.com/biz/romes-saloon-denver-2?adjust_creative=gBcvfFpabk3CnzmXKdYe3w&utm_campaign=yelp_api_v3&utm_medium=api_v3_business_search&utm_source=gBcvfFpabk3CnzmXKdYe3w", "phone": "+13037446643", "coordinates": {"longitude": -104.996437072754, "latitude": 39.6969985961914}, "categories": [{"alias": "bars", "title": "Bars"}, {"alias": "tradamerican", "title": "American (Traditional)"}], "review_count": 48, "location": {"city": "Denver", "address1": "785 W Mississippi Ave", "address3": "", "address2": "", "zip_code": "80223", "country": "US", "display_address": ["785 W Mississippi Ave", "Denver, CO 80223"], "state": "CO"}, "price": "$$", "transactions": [], "display_phone": "(303) 744-6643"}, {"rating": 4.0, "is_closed": false, "distance": 3253.5872283360004, "name": "The Rackhouse", "id": "the-rackhouse-denver", "image_url": "https://s3-media4.fl.yelpcdn.com/bphoto/-naeeZwe2nRBVNZWX7iBFg/o.jpg", "url": "https://www.yelp.com/biz/the-rackhouse-denver?adjust_creative=gBcvfFpabk3CnzmXKdYe3w&utm_campaign=yelp_api_v3&utm_medium=api_v3_business_search&utm_source=gBcvfFpabk3CnzmXKdYe3w", "phone": "+17205707824", "coordinates": {"longitude": -104.9839835, "latitude": 39.7628095}, "categories": [{"alias": "newamerican", "title": "American (New)"}, {"alias": "gastropubs", "title": "Gastropubs"}], "review_count": 57, "location": {"city": "Denver", "address1": "2875 Blake St", "address3": "", "address2": "", "zip_code": "80205", "country": "US", "display_address": ["2875 Blake St", "Denver, CO 80205"], "state": "CO"}, "price": "$$", "transactions": [], "display_phone": "(720) 570-7824"}]}