{"total": 34880, "region": {"center": {"longitude": -104.97024536132812, "latitude": 39.73552421220229}}, "businesses": [{"rating": 4.0, "is_closed": false, "distance": 1561.672636672, "name": "The Fainting Goat Pub", "id": "the-fainting-goat-pub-denver", "image_url": "https://s3-media1.fl.yelpcdn.com/bphoto/_9Wyne6aMIDMgXmD4bTV3Q/o.jpg", "url": "https://www.yelp.com/biz/the-fainting-goat-pub-denver?adjust_creative=gBcvfFpabk3CnzmXKdYe3w&utm_campaign=yelp_api_v3&utm_medium=api_v3_business_search&utm_source=gBcvfFpabk3CnzmXKdYe3w", "phone": "+13039452323", "coordinates": {"longitude": -104.98702, "latitude": 39.72996}, "categories": [{"alias": "pubs", "title": "Pubs"}, {"alias": "newamerican", "title": "American (New)"}], "review_count": 187, "location": {"city": "Denver", "address1": "846 Broadway", "address3": "", "address2": "", "zip_code": "80203", "country": "US", "display_address": ["846 Broadway", "Denver, CO 80203"], "state": "CO"}, "price": "$$", "transactions": [], "display_phone": "(303) 945-2323"}, {"rating": 4.0, "is_closed": false, "distance": 3763.771987502, "name": "Confluence Park", "id": "confluence-park-denver", "image_url": "https://s3-media4.fl.yelpcdn.com/bphoto/sUEByogZtffxNtvvVQ4MqQ/o.jpg", "url": "https://www.yelp.com/biz/confluence-park-denver?adjust_creative=gBcvfFpabk3CnzmXKdYe3w&utm_campaign=yelp_api_v3&utm_medium=api_v3_business_search&utm_source=gBcvfFpabk3CnzmXKdYe3w", "phone": "", "coordinates": {"longitude": -105.0073154, "latitude": 39.7547332}, "categories": [{"alias": "parks", "title": "Parks"}], "review_count": 32, "location": {"city": "Denver", "address1": "2200 15th St", "address3": "", "address2": "", "zip_code": "80202", "country": "US", "display_address": ["2200 15th St", "Denver, CO 80202"], "state": "CO"}, "transactions": [], "display_phone": ""}, {"rating": 4.0, "is_closed": false, "distance": 6579.887978419999, "name": "Taste of Thailand", "id": "taste-of-thailand-denver", "image_url": "https://s3-media3.fl.yelpcdn.com/bphoto/jGVum2oAfcMifLe1sFEN2Q/o.jpg", "url": "https://www.yelp.com/biz/taste-of-thailand-denver?adjust_creative=gBcvfFpabk3CnzmXKdYe3w&utm_campaign=yelp_api_v3&utm_medium=api_v3_business_search&utm_source=gBcvfFpabk3CnzmXKdYe3w", "phone": "+13037629112", "coordinates": {"longitude": -104.9870578, "latitude": 39.6777799}, "categories": [{"alias": "thai", "title": "Thai"}], "review_count": 142, "location": {"city": "Denver", "address1": "2120 S Broadway", "address3": "", "address2": "Unit J", "zip_code": "80210", "country": "US", "display_address": ["2120 S Broadway", "Unit J", "Denver, CO 80210"], "state": "CO"}, "price": "$$", "transactions": [], "display_phone": "(303) 762-9112"}, {"rating": 3.5, "is_closed": false, "distance": 798.8231390328, "name": "Benny Blancos Slice Of The Bronx", "id": "benny-blancos-slice-of-the-bronx-denver-2", "image_url": "https://s3-media4.fl.yelpcdn.com/bphoto/QLja7CXFFlgROQwmd39nDQ/o.jpg", "url": "https://www.yelp.com/biz/benny-blancos-slice-of-the-bronx-denver-2?adjust_creative=gBcvfFpabk3CnzmXKdYe3w&utm_campaign=yelp_api_v3&utm_medium=api_v3_business_search&utm_source=gBcvfFpabk3CnzmXKdYe3w", "phone": "+13038311346", "coordinates": {"longitude": -104.97942985563, "latitude": 39.736831349796}, "categories": [{"alias": "pizza", "title": "Pizza"}, {"alias": "sandwiches", "title": "Sandwiches"}], "review_count": 295, "location": {"city": "Denver", "address1": "616 E 13th Ave", "address3": "", "address2": null, "zip_code": "80203", "country": "US", "display_address": ["616 E 13th Ave", "Denver, CO 80203"], "state": "CO"}, "price": "$", "transactions": ["delivery", "pickup"], "display_phone": "(303) 831-1346"}, {"rating": 4.5, "is_closed": false, "distance": 4984.915844072, "name": "Jefferson Park Pub", "id": "jefferson-park-pub-denver", "image_url": "https://s3-media1.fl.yelpcdn.com/bphoto/ldSm9xoRs_G_WgjV-sLvDw/o.jpg", "url": "https://www.yelp.com/biz/jefferson-park-pub-denver?adjust_creative=gBcvfFpabk3CnzmXKdYe3w&utm_campaign=yelp_api_v3&utm_medium=api_v3_business_search&utm_source=gBcvfFpabk3CnzmXKdYe3w", "phone": "+17203282982", "coordinates": {"longitude": -105.02378384901, "latitude": 39.7532805724955}, "categories": [{"alias": "pubs", "title": "Pubs"}], "review_count": 45, "location": {"city": "Denver", "address1": "2445 Eliot St", "address3": "", "address2": "", "zip_code": "80211", "country": "US", "display_address": ["2445 Eliot St", "Denver, CO 80211"], "state": "CO"}, "price": "$$", "transactions": [], "display_phone": "(720) 328-2982"}, {"rating": 4.0, "is_closed": false, "distance": 2447.6188128239996, "name": "Caribou Coffee", "id": "caribou-coffee-denver-9", "image_url": "https://s3-media1.fl.yelpcdn.com/bphoto/13o0gbopXcxPVdneXkXT-A/o.jpg", "url": "https://www.yelp.com/biz/caribou-coffee-denver-9?adjust_creative=gBcvfFpabk3CnzmXKdYe3w&utm_campaign=yelp_api_v3&utm_medium=api_v3_business_search&utm_source=gBcvfFpabk3CnzmXKdYe3w", "phone": "+13038934808", "coordinates": {"longitude": -104.994661199375, "latitude": 39.7470163906843}, "categories": [{"alias": "coffee", "title": "Coffee & Tea"}], "review_count": 43, "location": {"city": "Denver", "address1": "951 16th St", "address3": "", "address2": "", "zip_code": "80202", "country": "US", "display_address": ["951 16th St", "Denver, CO 80202"], "state": "CO"}, "price": "$", "transactions": [], "display_phone": "(303) 893-4808"}, {"rating": 4.0, "is_closed": false, "distance": 5125.288111561999, "name": "Federal Bar & Grill", "id": "federal-bar-and-grill-denver", "image_url": "https://s3-media2.fl.yelpcdn.com/bphoto/OpXvt6P_Bn0ML0J2Mbjteg/o.jpg", "url": "https://www.yelp.com/biz/federal-bar-and-grill-denver?adjust_creative=gBcvfFpabk3CnzmXKdYe3w&utm_campaign=yelp_api_v3&utm_medium=api_v3_business_search&utm_source=gBcvfFpabk3CnzmXKdYe3w", "phone": "+13037289479", "coordinates": {"longitude": -105.024877, "latitude": 39.754495}, "categories": [{"alias": "tradamerican", "title": "American (Traditional)"}, {"alias": "bars", "title": "Bars"}, {"alias": "salad", "title": "Salad"}], "review_count": 111, "location": {"city": "Denver", "address1": "2544 Federal Blvd", "address3": "", "address2": "", "zip_code": "80211", "country": "US", "display_address": ["2544 Federal Blvd", "Denver, CO 80211"], "state": "CO"}, "price": "$$", "transactions": [], "display_phone": "(303) 728-9479"}, {"rating": 4.0, "is_closed": false, "distance": 4996.103975752, "name": "Sarto's", "id": "sartos-denver-2", "image_url": "https://s3-media4.fl.yelpcdn.com/bphoto/lwgaW7PGS7e8TGpCsIkw-w/o.jpg", "url": "https://www.yelp.com/biz/sartos-denver-2?adjust_creative=gBcvfFpabk3CnzmXKdYe3w&utm_campaign=yelp_api_v3&utm_medium=api_v3_business_search&utm_source=gBcvfFpabk3CnzmXKdYe3w", "phone": "+13034551400", "coordinates": {"longitude": -105.02376, "latitude": 39.75343}, "categories": [{"alias": "italian", "title": "Italian"}, {"alias": "cocktailbars", "title": "Cocktail Bars"}], "review_count": 170, "location": {"city": "Denver", "address1": "2900 W 25th Ave", "address3": "", "address2": "", "zip_code": "80211", "country": "US", "display_address": ["2900 W 25th Ave", "Denver, CO 80211"], "state": "CO"}, "price": "$$", "transactions": [], "display_phone": "(303) 455-1400"}, {"rating": 4.0, "is_closed": false, "distance": 1958.1562373659997, "name": "Bayou Bob's", "id": "bayou-bobs-denver-2", "image_url": "https://s3-media3.fl.yelpcdn.com/bphoto/GJ83GPR-tn7-93ZSTF-8iw/o.jpg", "url": "https://www.yelp.com/biz/bayou-bobs-denver-2?adjust_creative=gBcvfFpabk3CnzmXKdYe3w&utm_campaign=yelp_api_v3&utm_medium=api_v3_business_search&utm_source=gBcvfFpabk3CnzmXKdYe3w", "phone": "+13035736828", "coordinates": {"longitude": -104.9900399, "latitude": 39.74452}, "categories": [{"alias": "cajun", "title": "Cajun/Creole"}, {"alias": "seafood", "title": "Seafood"}, {"alias": "sportsbars", "title": "Sports Bars"}], "review_count": 210, "location": {"city": "Denver", "address1": "1635 Glenarm Pl", "address3": "", "address2": "", "zip_code": "80202", "country": "US", "display_address": ["1635 Glenarm Pl", "Denver, CO 80202"], "state": "CO"}, "price": "$$", "transactions": ["delivery", "pickup"], "display_phone": "(303) 573-6828"}, {"rating": 3.5, "is_closed": false, "distance": 2633.817519616, "name": "Pie Hole", "id": "pie-hole-denver-2", "image_url": "https://s3-media2.fl.yelpcdn.com/bphoto/ir1um-X6pzI9xT-Fe4EUpw/o.jpg", "url": "https://www.yelp.com/biz/pie-hole-denver-2?adjust_creative=gBcvfFpabk3CnzmXKdYe3w&utm_campaign=yelp_api_v3&utm_medium=api_v3_business_search&utm_source=gBcvfFpabk3CnzmXKdYe3w", "phone": "+13037774743", "coordinates": {"longitude": -104.98713684082, "latitude": 39.7157135009766}, "categories": [{"alias": "fooddeliveryservices", "title": "Food Delivery Services"}, {"alias": "pizza", "title": "Pizza"}], "review_count": 130, "location": {"city": "Denver", "address1": "44 S Broadway", "address3": "", "address2": null, "zip_code": "80209", "country": "US", "display_address": ["44 S Broadway", "Denver, CO 80209"], "state": "CO"}, "price": "$", "transactions": ["delivery", "pickup"], "display_phone": "(303) 777-4743"}, {"rating": 4.5, "is_closed": false, "distance": 5648.6802413059995, "name": "Mesob Ethiopian Restaurant", "id": "mesob-ethiopian-restaurant-denver-2", "image_url": "https://s3-media1.fl.yelpcdn.com/bphoto/2KI5b4-e76ojZqkEyoHjng/o.jpg", "url": "https://www.yelp.com/biz/mesob-ethiopian-restaurant-denver-2?adjust_creative=gBcvfFpabk3CnzmXKdYe3w&utm_campaign=yelp_api_v3&utm_medium=api_v3_business_search&utm_source=gBcvfFpabk3CnzmXKdYe3w", "phone": "+13033701370", "coordinates": {"longitude": -104.9043665, "latitude": 39.7392862}, "categories": [{"alias": "ethiopian", "title": "Ethiopian"}, {"alias": "bars", "title": "Bars"}, {"alias": "salad", "title": "Salad"}], "review_count": 30, "location": {"city": "Denver", "address1": "1422 Poplar St", "address3": "", "address2": "", "zip_code": "80220", "country": "US", "display_address": ["1422 Poplar St", "Denver, CO 80220"], "state": "CO"}, "price": "$$", "transactions": [], "display_phone": "(303) 370-1370"}, {"rating": 5.0, "is_closed": false, "distance": 5334.33526207, "name": "Commonwealth Coffee Roasters", "id": "commonwealth-coffee-roasters-denver", "image_url": "https://s3-media2.fl.yelpcdn.com/bphoto/W7VMHDH5c7xzb-F4ALYDLQ/o.jpg", "url": "https://www.yelp.com/biz/commonwealth-coffee-roasters-denver?adjust_creative=gBcvfFpabk3CnzmXKdYe3w&utm_campaign=yelp_api_v3&utm_medium=api_v3_business_search&utm_source=gBcvfFpabk3CnzmXKdYe3w", "phone": "+17205882270", "coordinates": {"longitude": -104.926301, "latitude": 39.76958}, "categories": [{"alias": "coffee", "title": "Coffee & Tea"}], "review_count": 17, "location": {"city": "Denver", "address1": "5225 E 38th Ave", "address3": "", "address2": null, "zip_code": "80207", "country": "US", "display_address": ["5225 E 38th Ave", "Denver, CO 80207"], "state": "CO"}, "price": "$", "transactions": [], "display_phone": "(720) 588-2270"}, {"rating": 4.5, "is_closed": false, "distance": 2263.6702852199996, "name": "Comfortable Food Truck", "id": "comfortable-food-truck-denver-2", "image_url": "https://s3-media1.fl.yelpcdn.com/bphoto/q8ptC7hEMDaSxoGqJV7a-g/o.jpg", "url": "https://www.yelp.com/biz/comfortable-food-truck-denver-2?adjust_creative=gBcvfFpabk3CnzmXKdYe3w&utm_campaign=yelp_api_v3&utm_medium=api_v3_business_search&utm_source=gBcvfFpabk3CnzmXKdYe3w", "phone": "+17204412296", "coordinates": {"longitude": -104.98226, "latitude": 39.75517}, "categories": [{"alias": "foodtrucks", "title": "Food Trucks"}, {"alias": "tradamerican", "title": "American (Traditional)"}], "review_count": 20, "location": {"city": "Denver", "address1": "", "address3": "", "address2": null, "zip_code": "80205", "country": "US", "display_address": ["Denver, CO 80205"], "state": "CO"}, "price": "$$", "transactions": [], "display_phone": "(720) 441-2296"}, {"rating": 4.0, "is_closed": false, "distance": 1291.2682238457999, "name": "Uoki", "id": "uoki-denver", "image_url": "https://s3-media3.fl.yelpcdn.com/bphoto/FHQwMEx2ZVwpH6dYDmzoRQ/o.jpg", "url": "https://www.yelp.com/biz/uoki-denver?adjust_creative=gBcvfFpabk3CnzmXKdYe3w&utm_campaign=yelp_api_v3&utm_medium=api_v3_business_search&utm_source=gBcvfFpabk3CnzmXKdYe3w", "phone": "+13038374380", "coordinates": {"longitude": -104.978385925293, "latitude": 39.7258033752441}, "categories": [{"alias": "japanese", "title": "Japanese"}, {"alias": "korean", "title": "Korean"}], "review_count": 151, "location": {"city": "Denver", "address1": "701 E 6th Ave", "address3": "", "address2": null, "zip_code": "80203", "country": "US", "display_address": ["701 E 6th Ave", "Denver, CO 80203"], "state": "CO"}, "price": "$$", "transactions": ["pickup"], "display_phone": "(303) 837-4380"}, {"rating": 4.0, "is_closed": false, "distance": 1276.840860894, "name": "Don's Club Tavern", "id": "dons-club-tavern-denver", "image_url": "https://s3-media1.fl.yelpcdn.com/bphoto/LkG9yX_QBzwX7VvrVL9sbg/o.jpg", "url": "https://www.yelp.com/biz/dons-club-tavern-denver?adjust_creative=gBcvfFpabk3CnzmXKdYe3w&utm_campaign=yelp_api_v3&utm_medium=api_v3_business_search&utm_source=gBcvfFpabk3CnzmXKdYe3w", "phone": "+13038310218", "coordinates": {"longitude": -104.97839, "latitude": 39.7258}, "categories": [{"alias": "divebars", "title": "Dive Bars"}], "review_count": 112, "location": {"city": "Denver", "address1": "723 E 6th Ave", "address3": "", "address2": null, "zip_code": "80203", "country": "US", "display_address": ["723 E 6th Ave", "Denver, CO 80203"], "state": "CO"}, "price": "$", "transactions": [], "display_phone": "(303) 831-0218"}, {"rating": 4.0, "is_closed": false, "distance": 6191.02798224, "name": "Sera's Ramen Enclave", "id": "seras-ramen-enclave-denver-2", "image_url": "https://s3-media3.fl.yelpcdn.com/bphoto/cMo0qG49czKgqLA7MZC70w/o.jpg", "url": "https://www.yelp.com/biz/seras-ramen-enclave-denver-2?adjust_creative=gBcvfFpabk3CnzmXKdYe3w&utm_campaign=yelp_api_v3&utm_medium=api_v3_business_search&utm_source=gBcvfFpabk3CnzmXKdYe3w", "phone": "+17206461114", "coordinates": {"longitude": -105.03401184082, "latitude": 39.7618827819824}, "categories": [{"alias": "ramen", "title": "Ramen"}, {"alias": "korean", "title": "Korean"}, {"alias": "vietnamese", "title": "Vietnamese"}], "review_count": 106, "location": {"city": "Denver", "address1": "3472 W 32nd Ave", "address3": "", "address2": "", "zip_code": "80211", "country": "US", "display_address": ["3472 W 32nd Ave", "Denver, CO 80211"], "state": "CO"}, "price": "$$", "transactions": [], "display_phone": "(720) 646-1114"}, {"rating": 3.5, "is_closed": false, "distance": 2474.5055734019998, "name": "Carmine's On Penn", "id": "carmines-on-penn-denver", "image_url": "https://s3-media4.fl.yelpcdn.com/bphoto/6OJwIzJ8ooMoV_IEjt1obA/o.jpg", "url": "https://www.yelp.com/biz/carmines-on-penn-denver?adjust_creative=gBcvfFpabk3CnzmXKdYe3w&utm_campaign=yelp_api_v3&utm_medium=api_v3_business_search&utm_source=gBcvfFpabk3CnzmXKdYe3w", "phone": "+13037776443", "coordinates": {"longitude": -104.981364, "latitude": 39.714978}, "categories": [{"alias": "italian", "title": "Italian"}, {"alias": "desserts", "title": "Desserts"}, {"alias": "salad", "title": "Salad"}], "review_count": 252, "location": {"city": "Denver", "address1": "92 S Pennsylvania St", "address3": "", "address2": "", "zip_code": "80209", "country": "US", "display_address": ["92 S Pennsylvania St", "Denver, CO 80209"], "state": "CO"}, "price": "$$", "transactions": [], "display_phone": "(303) 777-6443"}, {"rating": 4.0, "is_closed": false, "distance": 5046.832303759999, "name": "La Mexicana Taqueria at Highlands", "id": "la-mexicana-taqueria-at-highlands-denver-3", "image_url": "https://s3-media1.fl.yelpcdn.com/bphoto/IdDoS5xnHTNU5d-4TbsC9g/o.jpg", "url": "https://www.yelp.com/biz/la-mexicana-taqueria-at-highlands-denver-3?adjust_creative=gBcvfFpabk3CnzmXKdYe3w&utm_campaign=yelp_api_v3&utm_medium=api_v3_business_search&utm_source=gBcvfFpabk3CnzmXKdYe3w", "phone": "+13034333008", "coordinates": {"longitude": -105.018423, "latitude": 39.761749}, "categories": [{"alias": "mexican", "title": "Mexican"}], "review_count": 100, "location": {"city": "Denver", "address1": "2538 W 32nd Ave", "address3": "", "address2": null, "zip_code": "80211", "country": "US", "display_address": ["2538 W 32nd Ave", "Denver, CO 80211"], "state": "CO"}, "price": "$", "transactions": [], "display_phone": "(303) 433-3008"}, {"rating": 4.0, "is_closed": false, "distance": 2279.959702832, "name": "Cucina Colore", "id": "cucina-colore-denver", "image_url": "https://s3-media4.fl.yelpcdn.com/bphoto/cuO-pk4rc8NNagkAuPM6pg/o.jpg", "url": "https://www.yelp.com/biz/cucina-colore-denver?adjust_creative=gBcvfFpabk3CnzmXKdYe3w&utm_campaign=yelp_api_v3&utm_medium=api_v3_business_search&utm_source=gBcvfFpabk3CnzmXKdYe3w", "phone": "+13033936917", "coordinates": {"longitude": -104.951285, "latitude": 39.7211064}, "categories": [{"alias": "italian", "title": "Italian"}], "review_count": 199, "location": {"city": "Denver", "address1": "3041 E 3rd Ave", "address3": "", "address2": "", "zip_code": "80206", "country": "US", "display_address": ["3041 E 3rd Ave", "Denver, CO 80206"], "state": "CO"}, "price": "$$", "transactions": [], "display_phone": "(303) 393-6917"}, {"rating": 3.5, "is_closed": false, "distance": 2607.7289916779996, "name": "Hi-Dive", "id": "hi-dive-denver", "image_url": "https://s3-media1.fl.yelpcdn.com/bphoto/2Sn_jQPTUfmgZ-70mwdyYQ/o.jpg", "url": "https://www.yelp.com/biz/hi-dive-denver?adjust_creative=gBcvfFpabk3CnzmXKdYe3w&utm_campaign=yelp_api_v3&utm_medium=api_v3_business_search&utm_source=gBcvfFpabk3CnzmXKdYe3w", "phone": "+13037330230", "coordinates": {"longitude": -104.98786, "latitude": 39.7163899}, "categories": [{"alias": "divebars", "title": "Dive Bars"}, {"alias": "musicvenues", "title": "Music Venues"}], "review_count": 104, "location": {"city": "Denver", "address1": "7 S Broadway", "address3": "", "address2": "", "zip_code": "80223", "country": "US", "display_address": ["7 S Broadway", "Denver, CO 80223"], "state": "CO"}, "price": "$", "transactions": [], "display_phone": "(303) 733-0230"}, {"rating": 4.5, "is_closed": false, "distance": 5569.493310342, "name": "Seedstock Brewery", "id": "seedstock-brewery-denver", "image_url": "https://s3-media4.fl.yelpcdn.com/bphoto/b11F_Px_Ai4K8v0WzNb6Zw/o.jpg", "url": "https://www.yelp.com/biz/seedstock-brewery-denver?adjust_creative=gBcvfFpabk3CnzmXKdYe3w&utm_campaign=yelp_api_v3&utm_medium=api_v3_business_search&utm_source=gBcvfFpabk3CnzmXKdYe3w", "phone": "+17204767831", "coordinates": {"longitude": -105.035110473633, "latitude": 39.7400817871094}, "categories": [{"alias": "breweries", "title": "Breweries"}, {"alias": "beerbar", "title": "Beer Bar"}], "review_count": 31, "location": {"city": "Denver", "address1": "3610 W Colfax Ave", "address3": "", "address2": null, "zip_code": "80204", "country": "US", "display_address": ["3610 W Colfax Ave", "Denver, CO 80204"], "state": "CO"}, "price": "$", "transactions": [], "display_phone": "(720) 476-7831"}, {"rating": 4.5, "is_closed": false, "distance": 6178.5816685479995, "name": "Chicken Teriyaki", "id": "chicken-teriyaki-denver", "image_url": "https://s3-media2.fl.yelpcdn.com/bphoto/-gWJEd7jx50FCbYfUewyNQ/o.jpg", "url": "https://www.yelp.com/biz/chicken-teriyaki-denver?adjust_creative=gBcvfFpabk3CnzmXKdYe3w&utm_campaign=yelp_api_v3&utm_medium=api_v3_business_search&utm_source=gBcvfFpabk3CnzmXKdYe3w", "phone": "+13033881611", "coordinates": {"longitude": -104.911861, "latitude": 39.702805}, "categories": [{"alias": "japanese", "title": "Japanese"}], "review_count": 61, "location": {"city": "Denver", "address1": "6603 Leetsdale Dr", "address3": "", "address2": "Unit B", "zip_code": "80224", "country": "US", "display_address": ["6603 Leetsdale Dr", "Unit B", "Denver, CO 80224"], "state": "CO"}, "price": "$", "transactions": [], "display_phone": "(303) 388-1611"}, {"rating": 4.0, "is_closed": false, "distance": 7094.27488526, "name": "Scratch Burrito & Happy Tap", "id": "scratch-burrito-and-happy-tap-denver", "image_url": "https://s3-media4.fl.yelpcdn.com/bphoto/7VkeBA2ijh6swbaMSkuS3Q/o.jpg", "url": "https://www.yelp.com/biz/scratch-burrito-and-happy-tap-denver?adjust_creative=gBcvfFpabk3CnzmXKdYe3w&utm_campaign=yelp_api_v3&utm_medium=api_v3_business_search&utm_source=gBcvfFpabk3CnzmXKdYe3w", "phone": "+13034773000", "coordinates": {"longitude": -105.034269, "latitude": 39.776115}, "categories": [{"alias": "mexican", "title": "Mexican"}], "review_count": 213, "location": {"city": "Denver", "address1": "4262 Lowell Blvd", "address3": "", "address2": "", "zip_code": "80211", "country": "US", "display_address": ["4262 Lowell Blvd", "Denver, CO 80211"], "state": "CO"}, "price": "$$", "transactions": [], "display_phone": "(303) 477-3000"}, {"rating": 3.5, "is_closed": false, "distance": 1078.8099645539999, "name": "Chada Thai", "id": "chada-thai-denver", "image_url": "https://s3-media3.fl.yelpcdn.com/bphoto/FiQCAWxp-fpX16o_TNiZIQ/o.jpg", "url": "https://www.yelp.com/biz/chada-thai-denver?adjust_creative=gBcvfFpabk3CnzmXKdYe3w&utm_campaign=yelp_api_v3&utm_medium=api_v3_business_search&utm_source=gBcvfFpabk3CnzmXKdYe3w", "phone": "+13033208582", "coordinates": {"longitude": -104.9631401, "latitude": 39.7435406}, "categories": [{"alias": "thai", "title": "Thai"}], "review_count": 150, "location": {"city": "Denver", "address1": "2005 E 17th Ave", "address3": "", "address2": "", "zip_code": "80206", "country": "US", "display_address": ["2005 E 17th Ave", "Denver, CO 80206"], "state": "CO"}, "price": "$$", "transactions": ["delivery", "pickup"], "display_phone": "(303) 320-8582"}, {"rating": 4.5, "is_closed": false, "distance": 10545.462672419999, "name": "SONDER Coffee & Tea", "id": "sonder-coffee-and-tea-denver", "image_url": "https://s3-media2.fl.yelpcdn.com/bphoto/UhLNUd4rDBGPLzMyNCQmkg/o.jpg", "url": "https://www.yelp.com/biz/sonder-coffee-and-tea-denver?adjust_creative=gBcvfFpabk3CnzmXKdYe3w&utm_campaign=yelp_api_v3&utm_medium=api_v3_business_search&utm_source=gBcvfFpabk3CnzmXKdYe3w", "phone": "+17202954674", "coordinates": {"longitude": -104.875161506524, "latitude": 39.6751686650476}, "categories": [{"alias": "coffee", "title": "Coffee & Tea"}, {"alias": "desserts", "title": "Desserts"}], "review_count": 65, "location": {"city": "Denver", "address1": "9731 E Iliff Ave", "address3": null, "address2": "", "zip_code": "80231", "country": "US", "display_address": ["9731 E Iliff Ave", "Denver, CO 80231"], "state": "CO"}, "price": "$", "transactions": [], "display_phone": "(720) 295-4674"}, {"rating": 3.5, "is_closed": false, "distance": 525.7913820962, "name": "3 Guys Pies", "id": "3-guys-pies-denver", "image_url": "https://s3-media4.fl.yelpcdn.com/bphoto/wIhVsiPIZy1o5h62CS3JJQ/o.jpg", "url": "https://www.yelp.com/biz/3-guys-pies-denver?adjust_creative=gBcvfFpabk3CnzmXKdYe3w&utm_campaign=yelp_api_v3&utm_medium=api_v3_business_search&utm_source=gBcvfFpabk3CnzmXKdYe3w", "phone": "+13036234897", "coordinates": {"longitude": -104.9695, "latitude": 39.74018}, "categories": [{"alias": "pizza", "title": "Pizza"}, {"alias": "salad", "title": "Salad"}, {"alias": "chicken_wings", "title": "Chicken Wings"}], "review_count": 157, "location": {"city": "Denver", "address1": "1501 E Colfax Ave", "address3": "", "address2": "", "zip_code": "80218", "country": "US", "display_address": ["1501 E Colfax Ave", "Denver, CO 80218"], "state": "CO"}, "price": "$", "transactions": ["delivery", "pickup"], "display_phone": "(303) 623-4897"}, {"rating": 3.5, "is_closed": false, "distance": 2582.948696226, "name": "Sputnik", "id": "sputnik-denver", "image_url": "https://s3-media1.fl.yelpcdn.com/bphoto/9BK0tnb-RSC0AIwYypmlSg/o.jpg", "url": "https://www.yelp.com/biz/sputnik-denver?adjust_creative=gBcvfFpabk3CnzmXKdYe3w&utm_campaign=yelp_api_v3&utm_medium=api_v3_business_search&utm_source=gBcvfFpabk3CnzmXKdYe3w", "phone": "+17205704503", "coordinates": {"longitude": -104.987571761012, "latitude": 39.7164016216993}, "categories": [{"alias": "bars", "title": "Bars"}, {"alias": "newamerican", "title": "American (New)"}, {"alias": "sandwiches", "title": "Sandwiches"}], "review_count": 461, "location": {"city": "Denver", "address1": "3 S Broadway", "address3": "", "address2": null, "zip_code": "80209", "country": "US", "display_address": ["3 S Broadway", "Denver, CO 80209"], "state": "CO"}, "price": "$", "transactions": [], "display_phone": "(720) 570-4503"}, {"rating": 4.5, "is_closed": false, "distance": 4187.272061578, "name": "Rush Bowls", "id": "rush-bowls-denver", "image_url": "https://s3-media1.fl.yelpcdn.com/bphoto/zh7Y4TuwMq1a5Cd0eLj_2Q/o.jpg", "url": "https://www.yelp.com/biz/rush-bowls-denver?adjust_creative=gBcvfFpabk3CnzmXKdYe3w&utm_campaign=yelp_api_v3&utm_medium=api_v3_business_search&utm_source=gBcvfFpabk3CnzmXKdYe3w", "phone": "+17202872844", "coordinates": {"longitude": -105.008563399315, "latitude": 39.7589815845891}, "categories": [{"alias": "breakfast_brunch", "title": "Breakfast & Brunch"}, {"alias": "juicebars", "title": "Juice Bars & Smoothies"}, {"alias": "vegetarian", "title": "Vegetarian"}], "review_count": 24, "location": {"city": "Denver", "address1": "1665 Central St", "address3": null, "address2": "", "zip_code": "80211", "country": "US", "display_address": ["1665 Central St", "Denver, CO 80211"], "state": "CO"}, "price": "$", "transactions": [], "display_phone": "(720) 287-2844"}, {"rating": 4.5, "is_closed": false, "distance": 5046.458132209999, "name": "La Potranca Taqueria", "id": "la-potranca-taqueria-denver", "image_url": "https://s3-media2.fl.yelpcdn.com/bphoto/89alJeqjZHEPFFBuWHGrxg/o.jpg", "url": "https://www.yelp.com/biz/la-potranca-taqueria-denver?adjust_creative=gBcvfFpabk3CnzmXKdYe3w&utm_campaign=yelp_api_v3&utm_medium=api_v3_business_search&utm_source=gBcvfFpabk3CnzmXKdYe3w", "phone": "+13032923617", "coordinates": {"longitude": -104.958541870117, "latitude": 39.7800064086914}, "categories": [{"alias": "mexican", "title": "Mexican"}, {"alias": "breakfast_brunch", "title": "Breakfast & Brunch"}], "review_count": 25, "location": {"city": "Denver", "address1": "2336 E 46th Ave", "address3": "", "address2": "", "zip_code": "80216", "country": "US", "display_address": ["2336 E 46th Ave", "Denver, CO 80216"], "state": "CO"}, "price": "$", "transactions": ["pickup"], "display_phone": "(303) 292-3617"}, {"rating": 4.0, "is_closed": false, "distance": 7456.210623239999, "name": "Burrito Giant", "id": "burrito-giant-denver", "image_url": "https://s3-media1.fl.yelpcdn.com/bphoto/BftdCpgHYRt2bRdKPfcXHg/o.jpg", "url": "https://www.yelp.com/biz/burrito-giant-denver?adjust_creative=gBcvfFpabk3CnzmXKdYe3w&utm_campaign=yelp_api_v3&utm_medium=api_v3_business_search&utm_source=gBcvfFpabk3CnzmXKdYe3w", "phone": "+13034770047", "coordinates": {"longitude": -105.04549, "latitude": 39.76956}, "categories": [{"alias": "mexican", "title": "Mexican"}, {"alias": "breakfast_brunch", "title": "Breakfast & Brunch"}], "review_count": 140, "location": {"city": "Denver", "address1": "4501 W 38th Ave", "address3": "", "address2": "", "zip_code": "80212", "country": "US", "display_address": ["4501 W 38th Ave", "Denver, CO 80212"], "state": "CO"}, "price": "$", "transactions": [], "display_phone": "(303) 477-0047"}, {"rating": 4.0, "is_closed": false, "distance": 4492.076068624, "name": "Recess Beer Garden", "id": "recess-beer-garden-denver-3", "image_url": "https://s3-media2.fl.yelpcdn.com/bphoto/JulDUG4PbSoJOdQ8nTqcMg/o.jpg", "url": "https://www.yelp.com/biz/recess-beer-garden-denver-3?adjust_creative=gBcvfFpabk3CnzmXKdYe3w&utm_campaign=yelp_api_v3&utm_medium=api_v3_business_search&utm_source=gBcvfFpabk3CnzmXKdYe3w", "phone": "+17206380020", "coordinates": {"longitude": -105.010452270508, "latitude": 39.7615089416504}, "categories": [{"alias": "bars", "title": "Bars"}, {"alias": "beergardens", "title": "Beer Gardens"}, {"alias": "burgers", "title": "Burgers"}], "review_count": 121, "location": {"city": "Denver", "address1": "2715 17th St", "address3": "", "address2": "Ste 103", "zip_code": "80211", "country": "US", "display_address": ["2715 17th St", "Ste 103", "Denver, CO 80211"], "state": "CO"}, "price": "$$", "transactions": [], "display_phone": "(720) 638-0020"}, {"rating": 4.0, "is_closed": false, "distance": 6281.766433856, "name": "Novo Coffee", "id": "novo-coffee-denver-7", "image_url": "https://s3-media2.fl.yelpcdn.com/bphoto/i-_6BSEUKn6iNDm8Hzm62w/o.jpg", "url": "https://www.yelp.com/biz/novo-coffee-denver-7?adjust_creative=gBcvfFpabk3CnzmXKdYe3w&utm_campaign=yelp_api_v3&utm_medium=api_v3_business_search&utm_source=gBcvfFpabk3CnzmXKdYe3w", "phone": "+13037490100", "coordinates": {"longitude": -105.034885928035, "latitude": 39.762174859643}, "categories": [{"alias": "coffee", "title": "Coffee & Tea"}], "review_count": 73, "location": {"city": "Denver", "address1": "3617 W 32nd Ave", "address3": "", "address2": "", "zip_code": "80211", "country": "US", "display_address": ["3617 W 32nd Ave", "Denver, CO 80211"], "state": "CO"}, "price": "$$", "transactions": [], "display_phone": "(303) 749-0100"}, {"rating": 4.0, "is_closed": false, "distance": 6179.358979768, "name": "Nonna's Chicago Bistro", "id": "nonnas-chicago-bistro-denver-3", "image_url": "https://s3-media4.fl.yelpcdn.com/bphoto/vMSRMzvNKvhnKAb_Om5teg/o.jpg", "url": "https://www.yelp.com/biz/nonnas-chicago-bistro-denver-3?adjust_creative=gBcvfFpabk3CnzmXKdYe3w&utm_campaign=yelp_api_v3&utm_medium=api_v3_business_search&utm_source=gBcvfFpabk3CnzmXKdYe3w", "phone": "+13033992000", "coordinates": {"longitude": -104.911849, "latitude": 39.7028}, "categories": [{"alias": "italian", "title": "Italian"}, {"alias": "wine_bars", "title": "Wine Bars"}, {"alias": "sandwiches", "title": "Sandwiches"}], "review_count": 169, "location": {"city": "Denver", "address1": "6603 Leetsdale Dr", "address3": "", "address2": "", "zip_code": "80224", "country": "US", "display_address": ["6603 Leetsdale Dr", "Denver, CO 80224"], "state": "CO"}, "price": "$$", "transactions": ["pickup"], "display_phone": "(303) 399-2000"}, {"rating": 4.0, "is_closed": false, "distance": 5852.79218977, "name": "Little Anita's", "id": "little-anitas-denver-3", "image_url": "https://s3-media1.fl.yelpcdn.com/bphoto/wKYLVPS5UK7f5tqTo7EBkQ/o.jpg", "url": "https://www.yelp.com/biz/little-anitas-denver-3?adjust_creative=gBcvfFpabk3CnzmXKdYe3w&utm_campaign=yelp_api_v3&utm_medium=api_v3_business_search&utm_source=gBcvfFpabk3CnzmXKdYe3w", "phone": "+13036913337", "coordinates": {"longitude": -104.93992, "latitude": 39.6883399}, "categories": [{"alias": "newmexican", "title": "New Mexican Cuisine"}], "review_count": 212, "location": {"city": "Denver", "address1": "1550 S Colorado Blvd", "address3": "", "address2": "", "zip_code": "80222", "country": "US", "display_address": ["1550 S Colorado Blvd", "Denver, CO 80222"], "state": "CO"}, "price": "$", "transactions": [], "display_phone": "(303) 691-3337"}, {"rating": 3.5, "is_closed": false, "distance": 2090.243622536, "name": "TAG Burger Bar", "id": "tag-burger-bar-denver", "image_url": "https://s3-media3.fl.yelpcdn.com/bphoto/l8S6b-_NPlXtHWgovL5Stw/o.jpg", "url": "https://www.yelp.com/biz/tag-burger-bar-denver?adjust_creative=gBcvfFpabk3CnzmXKdYe3w&utm_campaign=yelp_api_v3&utm_medium=api_v3_business_search&utm_source=gBcvfFpabk3CnzmXKdYe3w", "phone": "+13037362260", "coordinates": {"longitude": -104.945854187012, "latitude": 39.7355422973633}, "categories": [{"alias": "burgers", "title": "Burgers"}], "review_count": 370, "location": {"city": "Denver", "address1": "1222 Madison St", "address3": "", "address2": "", "zip_code": "80206", "country": "US", "display_address": ["1222 Madison St", "Denver, CO 80206"], "state": "CO"}, "price": "$$", "transactions": [], "display_phone": "(303) 736-2260"}, {"rating": 4.5, "is_closed": false, "distance": 5543.897240443999, "name": "Broken Rice", "id": "broken-rice-denver", "image_url": "https://s3-media3.fl.yelpcdn.com/bphoto/ynE44p0DQHm7fA9vLJO4QA/o.jpg", "url": "https://www.yelp.com/biz/broken-rice-denver?adjust_creative=gBcvfFpabk3CnzmXKdYe3w&utm_campaign=yelp_api_v3&utm_medium=api_v3_business_search&utm_source=gBcvfFpabk3CnzmXKdYe3w", "phone": "+17203996698", "coordinates": {"longitude": -104.9400307, "latitude": 39.6914131}, "categories": [{"alias": "panasian", "title": "Pan Asian"}, {"alias": "chinese", "title": "Chinese"}, {"alias": "vietnamese", "title": "Vietnamese"}], "review_count": 75, "location": {"city": "Denver", "address1": "1390 S Colorado Blvd", "address3": "", "address2": null, "zip_code": "80222", "country": "US", "display_address": ["1390 S Colorado Blvd", "Denver, CO 80222"], "state": "CO"}, "price": "$$", "transactions": ["pickup"], "display_phone": "(720) 399-6698"}, {"rating": 4.5, "is_closed": false, "distance": 1267.347364234, "name": "Blueprint Bar", "id": "blueprint-bar-denver", "image_url": "https://s3-media3.fl.yelpcdn.com/bphoto/YsHhMmsX9UhSdjvIlAHShQ/o.jpg", "url": "https://www.yelp.com/biz/blueprint-bar-denver?adjust_creative=gBcvfFpabk3CnzmXKdYe3w&utm_campaign=yelp_api_v3&utm_medium=api_v3_business_search&utm_source=gBcvfFpabk3CnzmXKdYe3w", "phone": "+13039276804", "coordinates": {"longitude": -104.9814, "latitude": 39.74283}, "categories": [{"alias": "wine_bars", "title": "Wine Bars"}, {"alias": "tapasmallplates", "title": "Tapas/Small Plates"}, {"alias": "cocktailbars", "title": "Cocktail Bars"}], "review_count": 44, "location": {"city": "Denver", "address1": "450 E 17th Ave 110", "address3": "", "address2": null, "zip_code": "80203", "country": "US", "display_address": ["450 E 17th Ave 110", "Denver, CO 80203"], "state": "CO"}, "price": "$$", "transactions": [], "display_phone": "(303) 927-6804"}, {"rating": 3.5, "is_closed": false, "distance": 2225.41707809, "name": "Second Home Kitchen", "id": "second-home-kitchen-denver", "image_url": "https://s3-media2.fl.yelpcdn.com/bphoto/hStO0rL2FGxZLLTnvdkU4A/o.jpg", "url": "https://www.yelp.com/biz/second-home-kitchen-denver?adjust_creative=gBcvfFpabk3CnzmXKdYe3w&utm_campaign=yelp_api_v3&utm_medium=api_v3_business_search&utm_source=gBcvfFpabk3CnzmXKdYe3w", "phone": "+13032533000", "coordinates": {"longitude": -104.95573250039, "latitude": 39.718910302694}, "categories": [{"alias": "bars", "title": "Bars"}, {"alias": "tradamerican", "title": "American (Traditional)"}], "review_count": 290, "location": {"city": "Denver", "address1": "150 Clayton Ln", "address3": "", "address2": "", "zip_code": "80206", "country": "US", "display_address": ["150 Clayton Ln", "Denver, CO 80206"], "state": "CO"}, "price": "$$", "transactions": [], "display_phone": "(303) 253-3000"}, {"rating": 4.0, "is_closed": false, "distance": 4662.10831138, "name": "Papou's Pizzeria & Italian Eatery", "id": "papous-pizzeria-and-italian-eatery-denver", "image_url": "https://s3-media1.fl.yelpcdn.com/bphoto/2ggo1JoV4YH3PzPRFeSKCQ/o.jpg", "url": "https://www.yelp.com/biz/papous-pizzeria-and-italian-eatery-denver?adjust_creative=gBcvfFpabk3CnzmXKdYe3w&utm_campaign=yelp_api_v3&utm_medium=api_v3_business_search&utm_source=gBcvfFpabk3CnzmXKdYe3w", "phone": "+13033883211", "coordinates": {"longitude": -104.92807, "latitude": 39.70878}, "categories": [{"alias": "italian", "title": "Italian"}, {"alias": "pizza", "title": "Pizza"}], "review_count": 166, "location": {"city": "Denver", "address1": "5075 Leetsdale Dr", "address3": "", "address2": "", "zip_code": "80246", "country": "US", "display_address": ["5075 Leetsdale Dr", "Denver, CO 80246"], "state": "CO"}, "price": "$$", "transactions": ["pickup", "delivery"], "display_phone": "(303) 388-3211"}, {"rating": 4.0, "is_closed": false, "distance": 2664.75643738, "name": "Three Kings Tavern", "id": "three-kings-tavern-denver", "image_url": "https://s3-media2.fl.yelpcdn.com/bphoto/Q928CqxACoLJiAvQSrpMzg/o.jpg", "url": "https://www.yelp.com/biz/three-kings-tavern-denver?adjust_creative=gBcvfFpabk3CnzmXKdYe3w&utm_campaign=yelp_api_v3&utm_medium=api_v3_business_search&utm_source=gBcvfFpabk3CnzmXKdYe3w", "phone": "+13037777352", "coordinates": {"longitude": -104.987137772, "latitude": 39.7153849873}, "categories": [{"alias": "bars", "title": "Bars"}, {"alias": "musicvenues", "title": "Music Venues"}], "review_count": 108, "location": {"city": "Denver", "address1": "60 S Broadway", "address3": "", "address2": "", "zip_code": "80209", "country": "US", "display_address": ["60 S Broadway", "Denver, CO 80209"], "state": "CO"}, "price": "$", "transactions": [], "display_phone": "(303) 777-7352"}, {"rating": 3.5, "is_closed": false, "distance": 2139.114450316, "name": "Mercury Cafe", "id": "mercury-cafe-denver", "image_url": "https://s3-media3.fl.yelpcdn.com/bphoto/fYJdsugwfoa8xsDeKa95rA/o.jpg", "url": "https://www.yelp.com/biz/mercury-cafe-denver?adjust_creative=gBcvfFpabk3CnzmXKdYe3w&utm_campaign=yelp_api_v3&utm_medium=api_v3_business_search&utm_source=gBcvfFpabk3CnzmXKdYe3w", "phone": "+13032949281", "coordinates": {"longitude": -104.9851677, "latitude": 39.7507619}, "categories": [{"alias": "vegetarian", "title": "Vegetarian"}, {"alias": "musicvenues", "title": "Music Venues"}], "review_count": 238, "location": {"city": "Denver", "address1": "2199 California St", "address3": "", "address2": "", "zip_code": "80205", "country": "US", "display_address": ["2199 California St", "Denver, CO 80205"], "state": "CO"}, "price": "$$", "transactions": [], "display_phone": "(303) 294-9281"}, {"rating": 4.0, "is_closed": false, "distance": 2694.471130206, "name": "Voodoo Comedy Playhouse", "id": "voodoo-comedy-playhouse-denver-2", "image_url": "https://s3-media2.fl.yelpcdn.com/bphoto/_5eb9YMh0qeChLVUaOgoXA/o.jpg", "url": "https://www.yelp.com/biz/voodoo-comedy-playhouse-denver-2?adjust_creative=gBcvfFpabk3CnzmXKdYe3w&utm_campaign=yelp_api_v3&utm_medium=api_v3_business_search&utm_source=gBcvfFpabk3CnzmXKdYe3w", "phone": "+13035780079", "coordinates": {"longitude": -104.989986419678, "latitude": 39.7544094567976}, "categories": [{"alias": "comedyclubs", "title": "Comedy Clubs"}, {"alias": "karaoke", "title": "Karaoke"}, {"alias": "lounges", "title": "Lounges"}], "review_count": 54, "location": {"city": "Denver", "address1": "1260 22nd St", "address3": "", "address2": "", "zip_code": "80205", "country": "US", "display_address": ["1260 22nd St", "Denver, CO 80205"], "state": "CO"}, "price": "$", "transactions": [], "display_phone": "(303) 578-0079"}, {"rating": 4.0, "is_closed": false, "distance": 6306.889679661999, "name": "Asbury Provisions", "id": "asbury-provisions-denver-2", "image_url": "https://s3-media2.fl.yelpcdn.com/bphoto/6fVTC3zcuKGUtE2HsdGOvA/o.jpg", "url": "https://www.yelp.com/biz/asbury-provisions-denver-2?adjust_creative=gBcvfFpabk3CnzmXKdYe3w&utm_campaign=yelp_api_v3&utm_medium=api_v3_business_search&utm_source=gBcvfFpabk3CnzmXKdYe3w", "phone": "+13032825485", "coordinates": {"longitude": -104.959754943848, "latitude": 39.6793441772461}, "categories": [{"alias": "gastropubs", "title": "Gastropubs"}, {"alias": "newamerican", "title": "American (New)"}, {"alias": "cocktailbars", "title": "Cocktail Bars"}], "review_count": 98, "location": {"city": "Denver", "address1": "2043 S University Blvd", "address3": "", "address2": "", "zip_code": "80210", "country": "US", "display_address": ["2043 S University Blvd", "Denver, CO 80210"], "state": "CO"}, "price": "$$", "transactions": [], "display_phone": "(303) 282-5485"}, {"rating": 4.0, "is_closed": false, "distance": 2663.41988051, "name": "Wash Park Sports Alley", "id": "wash-park-sports-alley-denver", "image_url": "https://s3-media2.fl.yelpcdn.com/bphoto/VOMRSJxjHU7HOa7DCzfmtQ/o.jpg", "url": "https://www.yelp.com/biz/wash-park-sports-alley-denver?adjust_creative=gBcvfFpabk3CnzmXKdYe3w&utm_campaign=yelp_api_v3&utm_medium=api_v3_business_search&utm_source=gBcvfFpabk3CnzmXKdYe3w", "phone": "+13036356691", "coordinates": {"longitude": -104.973333254457, "latitude": 39.7116212546825}, "categories": [{"alias": "sportsbars", "title": "Sports Bars"}, {"alias": "pubs", "title": "Pubs"}, {"alias": "tradamerican", "title": "American (Traditional)"}], "review_count": 119, "location": {"city": "Denver", "address1": "266B S Downing St", "address3": "", "address2": "", "zip_code": "80209", "country": "US", "display_address": ["266B S Downing St", "Denver, CO 80209"], "state": "CO"}, "price": "$", "transactions": [], "display_phone": "(303) 635-6691"}, {"rating": 4.0, "is_closed": false, "distance": 6575.87267512, "name": "Sojourners Coffee & Tea", "id": "sojourners-coffee-and-tea-denver", "image_url": "https://s3-media1.fl.yelpcdn.com/bphoto/2nNptHvuTbc6pwjNtGeaxA/o.jpg", "url": "https://www.yelp.com/biz/sojourners-coffee-and-tea-denver?adjust_creative=gBcvfFpabk3CnzmXKdYe3w&utm_campaign=yelp_api_v3&utm_medium=api_v3_business_search&utm_source=gBcvfFpabk3CnzmXKdYe3w", "phone": "+13037580740", "coordinates": {"longitude": -104.922660827637, "latitude": 39.6890602111816}, "categories": [{"alias": "coffee", "title": "Coffee & Tea"}], "review_count": 136, "location": {"city": "Denver", "address1": "1501 S Holly St", "address3": "", "address2": "", "zip_code": "80222", "country": "US", "display_address": ["1501 S Holly St", "Denver, CO 80222"], "state": "CO"}, "price": "$", "transactions": [], "display_phone": "(303) 758-0740"}, {"rating": 4.0, "is_closed": false, "distance": 2482.0842773299996, "name": "Spot Bar & Grill", "id": "spot-bar-and-grill-denver", "image_url": "https://s3-media1.fl.yelpcdn.com/bphoto/pM9noXCYgZ5xh0k7l0jwjA/o.jpg", "url": "https://www.yelp.com/biz/spot-bar-and-grill-denver?adjust_creative=gBcvfFpabk3CnzmXKdYe3w&utm_campaign=yelp_api_v3&utm_medium=api_v3_business_search&utm_source=gBcvfFpabk3CnzmXKdYe3w", "phone": "+13037331299", "coordinates": {"longitude": -104.98128, "latitude": 39.71486}, "categories": [{"alias": "sportsbars", "title": "Sports Bars"}, {"alias": "tradamerican", "title": "American (Traditional)"}], "review_count": 106, "location": {"city": "Denver", "address1": "98 S Pennsylvania St", "address3": "", "address2": "", "zip_code": "80209", "country": "US", "display_address": ["98 S Pennsylvania St", "Denver, CO 80209"], "state": "CO"}, "price": "$$", "transactions": [], "display_phone": "(303) 733-1299"}, {"rating": 4.5, "is_closed": false, "distance": 8698.34027341, "name": "Cuba Cuba Sandwicheria", "id": "cuba-cuba-sandwicheria-denver-4", "image_url": "https://s3-media3.fl.yelpcdn.com/bphoto/bQylIXZEBIc5qWeQ5VX8-Q/o.jpg", "url": "https://www.yelp.com/biz/cuba-cuba-sandwicheria-denver-4?adjust_creative=gBcvfFpabk3CnzmXKdYe3w&utm_campaign=yelp_api_v3&utm_medium=api_v3_business_search&utm_source=gBcvfFpabk3CnzmXKdYe3w", "phone": "+17203895221", "coordinates": {"longitude": -104.892482858444, "latitude": 39.785982803436}, "categories": [{"alias": "caribbean", "title": "Caribbean"}, {"alias": "cuban", "title": "Cuban"}, {"alias": "latin", "title": "Latin American"}], "review_count": 62, "location": {"city": "Denver", "address1": "8261 E Northfield Blvd", "address3": null, "address2": "", "zip_code": "80238", "country": "US", "display_address": ["8261 E Northfield Blvd", "Denver, CO 80238"], "state": "CO"}, "price": "$$", "transactions": ["pickup"], "display_phone": "(720) 389-5221"}, {"rating": 3.5, "is_closed": false, "distance": 1197.970487108, "name": "CityGrille", "id": "citygrille-denver-2", "image_url": "https://s3-media4.fl.yelpcdn.com/bphoto/nu3BQuoL77sfLhjq0JHbrQ/o.jpg", "url": "https://www.yelp.com/biz/citygrille-denver-2?adjust_creative=gBcvfFpabk3CnzmXKdYe3w&utm_campaign=yelp_api_v3&utm_medium=api_v3_business_search&utm_source=gBcvfFpabk3CnzmXKdYe3w", "phone": "+13038610726", "coordinates": {"longitude": -104.98286, "latitude": 39.74016}, "categories": [{"alias": "tradamerican", "title": "American (Traditional)"}, {"alias": "burgers", "title": "Burgers"}], "review_count": 341, "location": {"city": "Denver", "address1": "321 E Colfax Ave", "address3": "", "address2": "", "zip_code": "80203", "country": "US", "display_address": ["321 E Colfax Ave", "Denver, CO 80203"], "state": "CO"}, "price": "$$", "transactions": ["delivery", "pickup"], "display_phone": "(303) 861-0726"}, {"rating": 4.0, "is_closed": false, "distance": 6972.314272039999, "name": "The Bistro at Stapleton", "id": "the-bistro-at-stapleton-denver-3", "image_url": "https://s3-media1.fl.yelpcdn.com/bphoto/YbRI-2tGgXuGat7up8sRXA/o.jpg", "url": "https://www.yelp.com/biz/the-bistro-at-stapleton-denver-3?adjust_creative=gBcvfFpabk3CnzmXKdYe3w&utm_campaign=yelp_api_v3&utm_medium=api_v3_business_search&utm_source=gBcvfFpabk3CnzmXKdYe3w", "phone": "+13033889463", "coordinates": {"longitude": -104.894943237305, "latitude": 39.7594909667969}, "categories": [{"alias": "gastropubs", "title": "Gastropubs"}, {"alias": "soup", "title": "Soup"}, {"alias": "cocktailbars", "title": "Cocktail Bars"}], "review_count": 159, "location": {"city": "Denver", "address1": "2955 Ulster St", "address3": "", "address2": "", "zip_code": "80238", "country": "US", "display_address": ["2955 Ulster St", "Denver, CO 80238"], "state": "CO"}, "price": "$$", "transactions": [], "display_phone": "(303) 388-9463"}, {"rating": 4.5, "is_closed": false, "distance": 6957.99275538, "name": "7 Leguas Mexican Grille", "id": "7-leguas-mexican-grille-denver-4", "image_url": "https://s3-media2.fl.yelpcdn.com/bphoto/i22BHJEyTQP5964jzNSX-Q/o.jpg", "url": "https://www.yelp.com/biz/7-leguas-mexican-grille-denver-4?adjust_creative=gBcvfFpabk3CnzmXKdYe3w&utm_campaign=yelp_api_v3&utm_medium=api_v3_business_search&utm_source=gBcvfFpabk3CnzmXKdYe3w", "phone": "+13039548148", "coordinates": {"longitude": -104.88892364502, "latitude": 39.7404479980469}, "categories": [{"alias": "mexican", "title": "Mexican"}, {"alias": "seafood", "title": "Seafood"}, {"alias": "bars", "title": "Bars"}], "review_count": 50, "location": {"city": "Denver", "address1": "8501 E Colfax Ave", "address3": "", "address2": "", "zip_code": "80220", "country": "US", "display_address": ["8501 E Colfax Ave", "Denver, CO 80220"], "state": "CO"}, "price": "$$", "transactions": [], "display_phone": "(303) 954-8148"}]}