{"total": 34880, "region": {"center": {"longitude": -104.97024536132812, "latitude": 39.73552421220229}}, "businesses": [{"rating": 4.5, "is_closed": false, "distance": 6957.99275538, "name": "7 Leguas Mexican Grille", "id": "7-leguas-mexican-grille-denver-4", "image_url": "https://s3-media2.fl.yelpcdn.com/bphoto/i22BHJEyTQP5964jzNSX-Q/o.jpg", "url": "https://www.yelp.com/biz/7-leguas-mexican-grille-denver-4?adjust_creative=gBcvfFpabk3CnzmXKdYe3w&utm_campaign=yelp_api_v3&utm_medium=api_v3_business_search&utm_source=gBcvfFpabk3CnzmXKdYe3w", "phone": "+13039548148", "coordinates": {"longitude": -104.88892364502, "latitude": 39.7404479980469}, "categories": [{"alias": "mexican", "title": "Mexican"}, {"alias": "seafood", "title": "Seafood"}, {"alias": "bars", "title": "Bars"}], "review_count": 50, "location": {"city": "Denver", "address1": "8501 E Colfax Ave", "address3": "", "address2": "", "zip_code": "80220", "country": "US", "display_address": ["8501 E Colfax Ave", "Denver, CO 80220"], "state": "CO"}, "price": "$$", "transactions": [], "display_phone": "(303) 954-8148"}, {"rating": 5.0, "is_closed": false, "distance": 4730.438312836, "name": "Takero Mucho", "id": "takero-mucho-denver", "image_url": "https://s3-media3.fl.yelpcdn.com/bphoto/IfYEkSuO6LHZtFaOez2Hkw/o.jpg", "url": "https://www.yelp.com/biz/takero-mucho-denver?adjust_creative=gBcvfFpabk3CnzmXKdYe3w&utm_campaign=yelp_api_v3&utm_medium=api_v3_business_search&utm_source=gBcvfFpabk3CnzmXKdYe3w", "phone": "+13037588888", "coordinates": {"longitude": -104.938735961914, "latitude": 39.7005805969238}, "categories": [{"alias": "mexican", "title": "Mexican"}], "review_count": 22, "location": {"city": "Denver", "address1": "4151 E Kentucky Ave", "address3": "", "address2": null, "zip_code": "80246", "country": "US", "display_address": ["4151 E Kentucky Ave", "Denver, CO 80246"], "state": "CO"}, "price": "$", "transactions": [], "display_phone": "(303) 758-8888"}, {"rating": 4.0, "is_closed": false, "distance": 2010.0048269479998, "name": "Quality Italian", "id": "quality-italian-denver", "image_url": "https://s3-media4.fl.yelpcdn.com/bphoto/gcT05uuaWdcCnbNNGyWt2Q/o.jpg", "url": "https://www.yelp.com/biz/quality-italian-denver?adjust_creative=gBcvfFpabk3CnzmXKdYe3w&utm_campaign=yelp_api_v3&utm_medium=api_v3_business_search&utm_source=gBcvfFpabk3CnzmXKdYe3w", "phone": "+13035328888", "coordinates": {"longitude": -104.9574, "latitude": 39.72038}, "categories": [{"alias": "italian", "title": "Italian"}, {"alias": "tradamerican", "title": "American (Traditional)"}, {"alias": "cocktailbars", "title": "Cocktail Bars"}], "review_count": 34, "location": {"city": "Denver", "address1": "241 Columbine St", "address3": null, "address2": "", "zip_code": "80206", "country": "US", "display_address": ["241 Columbine St", "Denver, CO 80206"], "state": "CO"}, "price": "$$$$", "transactions": [], "display_phone": "(303) 532-8888"}, {"rating": 4.0, "is_closed": false, "distance": 2769.503871828, "name": "Mile High Vienna Stand", "id": "mile-high-vienna-stand-denver-3", "image_url": "https://s3-media3.fl.yelpcdn.com/bphoto/-4tHnJfacolMRRcc1fhSEg/o.jpg", "url": "https://www.yelp.com/biz/mile-high-vienna-stand-denver-3?adjust_creative=gBcvfFpabk3CnzmXKdYe3w&utm_campaign=yelp_api_v3&utm_medium=api_v3_business_search&utm_source=gBcvfFpabk3CnzmXKdYe3w", "phone": "+13032922847", "coordinates": {"longitude": -104.99182, "latitude": 39.75403}, "categories": [{"alias": "hotdog", "title": "Hot Dogs"}, {"alias": "sandwiches", "title": "Sandwiches"}, {"alias": "italian", "title": "Italian"}], "review_count": 64, "location": {"city": "Denver", "address1": "1312 21st St", "address3": "", "address2": "", "zip_code": "80205", "country": "US", "display_address": ["1312 21st St", "Denver, CO 80205"], "state": "CO"}, "price": "$", "transactions": ["delivery", "pickup"], "display_phone": "(303) 292-2847"}, {"rating": 4.0, "is_closed": false, "distance": 1190.523105324, "name": "Capitol Pizza", "id": "capitol-pizza-denver", "image_url": "https://s3-media2.fl.yelpcdn.com/bphoto/Eo_V9hu1CFIvZFLjGUAtFg/o.jpg", "url": "https://www.yelp.com/biz/capitol-pizza-denver?adjust_creative=gBcvfFpabk3CnzmXKdYe3w&utm_campaign=yelp_api_v3&utm_medium=api_v3_business_search&utm_source=gBcvfFpabk3CnzmXKdYe3w", "phone": "+17204200233", "coordinates": {"longitude": -104.98272, "latitude": 39.74015}, "categories": [{"alias": "pizza", "title": "Pizza"}, {"alias": "salad", "title": "Salad"}, {"alias": "sandwiches", "title": "Sandwiches"}], "review_count": 32, "location": {"city": "Denver", "address1": "329 E Colfax Ave", "address3": "", "address2": null, "zip_code": "80203", "country": "US", "display_address": ["329 E Colfax Ave", "Denver, CO 80203"], "state": "CO"}, "price": "$", "transactions": ["delivery", "pickup"], "display_phone": "(720) 420-0233"}, {"rating": 4.0, "is_closed": false, "distance": 2077.110925334, "name": "Vitality Bowls", "id": "vitality-bowls-denver", "image_url": "https://s3-media2.fl.yelpcdn.com/bphoto/gEhr2_bYwevc2egdV76q8Q/o.jpg", "url": "https://www.yelp.com/biz/vitality-bowls-denver?adjust_creative=gBcvfFpabk3CnzmXKdYe3w&utm_campaign=yelp_api_v3&utm_medium=api_v3_business_search&utm_source=gBcvfFpabk3CnzmXKdYe3w", "phone": "+13033932907", "coordinates": {"longitude": -104.95547, "latitude": 39.72069}, "categories": [{"alias": "juicebars", "title": "Juice Bars & Smoothies"}, {"alias": "salad", "title": "Salad"}, {"alias": "acaibowls", "title": "Acai Bowls"}], "review_count": 53, "location": {"city": "Denver", "address1": "2702 E 3rd Ave", "address3": "", "address2": null, "zip_code": "80206", "country": "US", "display_address": ["2702 E 3rd Ave", "Denver, CO 80206"], "state": "CO"}, "price": "$$", "transactions": ["delivery"], "display_phone": "(303) 393-2907"}, {"rating": 4.0, "is_closed": false, "distance": 3330.4731249679994, "name": "Hot Chick A Latte", "id": "hot-chick-a-latte-denver", "image_url": "https://s3-media3.fl.yelpcdn.com/bphoto/Gt0rdX2uU8xUEBmCrUvCWA/o.jpg", "url": "https://www.yelp.com/biz/hot-chick-a-latte-denver?adjust_creative=gBcvfFpabk3CnzmXKdYe3w&utm_campaign=yelp_api_v3&utm_medium=api_v3_business_search&utm_source=gBcvfFpabk3CnzmXKdYe3w", "phone": "+17202134964", "coordinates": {"longitude": -104.931777954102, "latitude": 39.7398567199707}, "categories": [{"alias": "coffee", "title": "Coffee & Tea"}], "review_count": 55, "location": {"city": "Denver", "address1": "4736 E Colfax Ave", "address3": "", "address2": "", "zip_code": "80220", "country": "US", "display_address": ["4736 E Colfax Ave", "Denver, CO 80220"], "state": "CO"}, "price": "$$", "transactions": [], "display_phone": "(720) 213-4964"}, {"rating": 3.5, "is_closed": false, "distance": 559.785261702, "name": "Kinga's Lounge", "id": "kingas-lounge-denver", "image_url": "https://s3-media3.fl.yelpcdn.com/bphoto/uMFHlK0UM1PneaxHV1pV_A/o.jpg", "url": "https://www.yelp.com/biz/kingas-lounge-denver?adjust_creative=gBcvfFpabk3CnzmXKdYe3w&utm_campaign=yelp_api_v3&utm_medium=api_v3_business_search&utm_source=gBcvfFpabk3CnzmXKdYe3w", "phone": "+13038306922", "coordinates": {"longitude": -104.972373962402, "latitude": 39.7403030395508}, "categories": [{"alias": "lounges", "title": "Lounges"}, {"alias": "polish", "title": "Polish"}], "review_count": 190, "location": {"city": "Denver", "address1": "1509 Marion St", "address3": "", "address2": "", "zip_code": "80218", "country": "US", "display_address": ["1509 Marion St", "Denver, CO 80218"], "state": "CO"}, "price": "$$", "transactions": ["pickup"], "display_phone": "(303) 830-6922"}, {"rating": 3.5, "is_closed": false, "distance": 2227.844123744, "name": "Hapa Sushi Grill & Sake Bar", "id": "hapa-sushi-grill-and-sake-bar-denver", "image_url": "https://s3-media1.fl.yelpcdn.com/bphoto/M-j-3owX7hN9lhNiIU5-Vw/o.jpg", "url": "https://www.yelp.com/biz/hapa-sushi-grill-and-sake-bar-denver?adjust_creative=gBcvfFpabk3CnzmXKdYe3w&utm_campaign=yelp_api_v3&utm_medium=api_v3_business_search&utm_source=gBcvfFpabk3CnzmXKdYe3w", "phone": "+13033229554", "coordinates": {"longitude": -104.9549587816, "latitude": 39.719355404377}, "categories": [{"alias": "bars", "title": "Bars"}, {"alias": "sushi", "title": "Sushi Bars"}], "review_count": 380, "location": {"city": "Denver", "address1": "2780 E 2nd Ave", "address3": "", "address2": "", "zip_code": "80206", "country": "US", "display_address": ["2780 E 2nd Ave", "Denver, CO 80206"], "state": "CO"}, "price": "$$", "transactions": ["delivery"], "display_phone": "(303) 322-9554"}, {"rating": 3.5, "is_closed": false, "distance": 2824.12294022, "name": "iFish+Ramen", "id": "ifish-ramen-denver", "image_url": "https://s3-media2.fl.yelpcdn.com/bphoto/l2DBJ-4gbYyCucNFRaU3QQ/o.jpg", "url": "https://www.yelp.com/biz/ifish-ramen-denver?adjust_creative=gBcvfFpabk3CnzmXKdYe3w&utm_campaign=yelp_api_v3&utm_medium=api_v3_business_search&utm_source=gBcvfFpabk3CnzmXKdYe3w", "phone": "+13037081255", "coordinates": {"longitude": -104.99021, "latitude": 39.755757}, "categories": [{"alias": "sushi", "title": "Sushi Bars"}, {"alias": "japanese", "title": "Japanese"}, {"alias": "asianfusion", "title": "Asian Fusion"}], "review_count": 227, "location": {"city": "Denver", "address1": "2200 Market St", "address3": "", "address2": "", "zip_code": "80205", "country": "US", "display_address": ["2200 Market St", "Denver, CO 80205"], "state": "CO"}, "price": "$$", "transactions": ["pickup"], "display_phone": "(303) 708-1255"}, {"rating": 4.0, "is_closed": false, "distance": 1812.4890803419999, "name": "Wahoo's Fish Tacos", "id": "wahoos-fish-tacos-denver-7", "image_url": "https://s3-media2.fl.yelpcdn.com/bphoto/T3t1XLBI23IsNZDUCRj8VQ/o.jpg", "url": "https://www.yelp.com/biz/wahoos-fish-tacos-denver-7?adjust_creative=gBcvfFpabk3CnzmXKdYe3w&utm_campaign=yelp_api_v3&utm_medium=api_v3_business_search&utm_source=gBcvfFpabk3CnzmXKdYe3w", "phone": "+13032920850", "coordinates": {"longitude": -104.984184265137, "latitude": 39.747730255127}, "categories": [{"alias": "seafood", "title": "Seafood"}, {"alias": "tacos", "title": "Tacos"}], "review_count": 91, "location": {"city": "Denver", "address1": "225 E 20th Ave", "address3": "", "address2": "", "zip_code": "80205", "country": "US", "display_address": ["225 E 20th Ave", "Denver, CO 80205"], "state": "CO"}, "price": "$", "transactions": [], "display_phone": "(303) 292-0850"}, {"rating": 3.5, "is_closed": false, "distance": 2181.436712702, "name": "Peaks Lounge", "id": "peaks-lounge-denver", "image_url": "https://s3-media3.fl.yelpcdn.com/bphoto/KZ_OyBD0rctKHtH1E_1OjQ/o.jpg", "url": "https://www.yelp.com/biz/peaks-lounge-denver?adjust_creative=gBcvfFpabk3CnzmXKdYe3w&utm_campaign=yelp_api_v3&utm_medium=api_v3_business_search&utm_source=gBcvfFpabk3CnzmXKdYe3w", "phone": "+13034361234", "coordinates": {"longitude": -104.993545532227, "latitude": 39.7434501647949}, "categories": [{"alias": "lounges", "title": "Lounges"}], "review_count": 161, "location": {"city": "Denver", "address1": "650 15th St", "address3": "Hyatt Regency Hotel", "address2": "", "zip_code": "80202", "country": "US", "display_address": ["650 15th St", "Hyatt Regency Hotel", "Denver, CO 80202"], "state": "CO"}, "price": "$$$", "transactions": [], "display_phone": "(303) 436-1234"}, {"rating": 4.5, "is_closed": false, "distance": 7139.321277464, "name": "The Way Back", "id": "the-way-back-denver", "image_url": "https://s3-media1.fl.yelpcdn.com/bphoto/Jak2xPySoBjF7slFlUI2rg/o.jpg", "url": "https://www.yelp.com/biz/the-way-back-denver?adjust_creative=gBcvfFpabk3CnzmXKdYe3w&utm_campaign=yelp_api_v3&utm_medium=api_v3_business_search&utm_source=gBcvfFpabk3CnzmXKdYe3w", "phone": "+17207288156", "coordinates": {"longitude": -105.0413, "latitude": 39.7692}, "categories": [{"alias": "newamerican", "title": "American (New)"}], "review_count": 63, "location": {"city": "Denver", "address1": "4132 W 38th Ave", "address3": "", "address2": "", "zip_code": "80212", "country": "US", "display_address": ["4132 W 38th Ave", "Denver, CO 80212"], "state": "CO"}, "price": "$$", "transactions": [], "display_phone": "(720) 728-8156"}, {"rating": 4.0, "is_closed": false, "distance": 3463.0022739680003, "name": "Public School 303", "id": "public-school-303-denver", "image_url": "https://s3-media2.fl.yelpcdn.com/bphoto/m5kdr1jhcBwGMNwHAd-oug/o.jpg", "url": "https://www.yelp.com/biz/public-school-303-denver?adjust_creative=gBcvfFpabk3CnzmXKdYe3w&utm_campaign=yelp_api_v3&utm_medium=api_v3_business_search&utm_source=gBcvfFpabk3CnzmXKdYe3w", "phone": "+13034468671", "coordinates": {"longitude": -105.003039389849, "latitude": 39.7536541521549}, "categories": [{"alias": "bars", "title": "Bars"}, {"alias": "gastropubs", "title": "Gastropubs"}, {"alias": "newamerican", "title": "American (New)"}], "review_count": 74, "location": {"city": "Denver", "address1": "1959 16th St", "address3": null, "address2": null, "zip_code": "80202", "country": "US", "display_address": ["1959 16th St", "Denver, CO 80202"], "state": "CO"}, "price": "$$", "transactions": ["delivery", "pickup"], "display_phone": "(303) 446-8671"}, {"rating": 3.5, "is_closed": false, "distance": 2178.8910586899997, "name": "Anthony's Pizza and Pasta", "id": "anthonys-pizza-and-pasta-denver", "image_url": "https://s3-media1.fl.yelpcdn.com/bphoto/FXImxAQA-ad43OSDeY-RkQ/o.jpg", "url": "https://www.yelp.com/biz/anthonys-pizza-and-pasta-denver?adjust_creative=gBcvfFpabk3CnzmXKdYe3w&utm_campaign=yelp_api_v3&utm_medium=api_v3_business_search&utm_source=gBcvfFpabk3CnzmXKdYe3w", "phone": "+13035736236", "coordinates": {"longitude": -104.992684, "latitude": 39.7448137}, "categories": [{"alias": "pizza", "title": "Pizza"}, {"alias": "italian", "title": "Italian"}], "review_count": 106, "location": {"city": "Denver", "address1": "1550 California St", "address3": "", "address2": "", "zip_code": "80202", "country": "US", "display_address": ["1550 California St", "Denver, CO 80202"], "state": "CO"}, "price": "$", "transactions": [], "display_phone": "(303) 573-6236"}, {"rating": 4.0, "is_closed": false, "distance": 6519.4653081199995, "name": "Ernie's Bar & Pizza", "id": "ernies-bar-and-pizza-denver", "image_url": "https://s3-media2.fl.yelpcdn.com/bphoto/v6tf4QFiqtQxYzt1mX5O9g/o.jpg", "url": "https://www.yelp.com/biz/ernies-bar-and-pizza-denver?adjust_creative=gBcvfFpabk3CnzmXKdYe3w&utm_campaign=yelp_api_v3&utm_medium=api_v3_business_search&utm_source=gBcvfFpabk3CnzmXKdYe3w", "phone": "+13039555580", "coordinates": {"longitude": -105.024391308452, "latitude": 39.7768132100739}, "categories": [{"alias": "pizza", "title": "Pizza"}, {"alias": "bars", "title": "Bars"}, {"alias": "gluten_free", "title": "Gluten-Free"}], "review_count": 304, "location": {"city": "Denver", "address1": "2915 W 44th Ave", "address3": "", "address2": "", "zip_code": "80211", "country": "US", "display_address": ["2915 W 44th Ave", "Denver, CO 80211"], "state": "CO"}, "price": "$$", "transactions": ["delivery"], "display_phone": "(303) 955-5580"}, {"rating": 4.0, "is_closed": false, "distance": 2618.415170212, "name": "Backstage Coffee", "id": "backstage-coffee-denver", "image_url": "https://s3-media1.fl.yelpcdn.com/bphoto/RKtO7vXvvl0A6CHRUa0Oog/o.jpg", "url": "https://www.yelp.com/biz/backstage-coffee-denver?adjust_creative=gBcvfFpabk3CnzmXKdYe3w&utm_campaign=yelp_api_v3&utm_medium=api_v3_business_search&utm_source=gBcvfFpabk3CnzmXKdYe3w", "phone": "+13036231300", "coordinates": {"longitude": -104.9980736, "latitude": 39.7453479}, "categories": [{"alias": "coffee", "title": "Coffee & Tea"}, {"alias": "cafes", "title": "Cafes"}, {"alias": "bakeries", "title": "Bakeries"}], "review_count": 103, "location": {"city": "Denver", "address1": "1000 14th St", "address3": "", "address2": "Ste 1B-1", "zip_code": "80202", "country": "US", "display_address": ["1000 14th St", "Ste 1B-1", "Denver, CO 80202"], "state": "CO"}, "price": "$", "transactions": [], "display_phone": "(303) 623-1300"}, {"rating": 3.5, "is_closed": false, "distance": 1799.6994944279998, "name": "Dozens", "id": "dozens-denver", "image_url": "https://s3-media3.fl.yelpcdn.com/bphoto/1VY_IFaAlEmuJUJIVRY0jA/o.jpg", "url": "https://www.yelp.com/biz/dozens-denver?adjust_creative=gBcvfFpabk3CnzmXKdYe3w&utm_campaign=yelp_api_v3&utm_medium=api_v3_business_search&utm_source=gBcvfFpabk3CnzmXKdYe3w", "phone": "+13035720066", "coordinates": {"longitude": -104.99132, "latitude": 39.73664}, "categories": [{"alias": "breakfast_brunch", "title": "Breakfast & Brunch"}], "review_count": 205, "location": {"city": "Denver", "address1": "236 W 13th Ave", "address3": "", "address2": "", "zip_code": "80204", "country": "US", "display_address": ["236 W 13th Ave", "Denver, CO 80204"], "state": "CO"}, "price": "$$", "transactions": [], "display_phone": "(303) 572-0066"}, {"rating": 4.0, "is_closed": false, "distance": 5978.280154401999, "name": "The Crawling Crab", "id": "the-crawling-crab-denver", "image_url": "https://s3-media4.fl.yelpcdn.com/bphoto/kwoNPUFPOjRV2Ifj1bycvg/o.jpg", "url": "https://www.yelp.com/biz/the-crawling-crab-denver?adjust_creative=gBcvfFpabk3CnzmXKdYe3w&utm_campaign=yelp_api_v3&utm_medium=api_v3_business_search&utm_source=gBcvfFpabk3CnzmXKdYe3w", "phone": "+13039360123", "coordinates": {"longitude": -105.025352972162, "latitude": 39.7024491724373}, "categories": [{"alias": "seafood", "title": "Seafood"}], "review_count": 224, "location": {"city": "Denver", "address1": "781 S Federal Blvd", "address3": "", "address2": "Ste A", "zip_code": "80219", "country": "US", "display_address": ["781 S Federal Blvd", "Ste A", "Denver, CO 80219"], "state": "CO"}, "price": "$$", "transactions": [], "display_phone": "(303) 936-0123"}, {"rating": 4.0, "is_closed": false, "distance": 2680.086044616, "name": "Sakura House", "id": "sakura-house-denver", "image_url": "https://s3-media1.fl.yelpcdn.com/bphoto/FBKZLuZ3PAmkpOpgmDZbOA/o.jpg", "url": "https://www.yelp.com/biz/sakura-house-denver?adjust_creative=gBcvfFpabk3CnzmXKdYe3w&utm_campaign=yelp_api_v3&utm_medium=api_v3_business_search&utm_source=gBcvfFpabk3CnzmXKdYe3w", "phone": "+13032922323", "coordinates": {"longitude": -104.9929123, "latitude": 39.7522697}, "categories": [{"alias": "japanese", "title": "Japanese"}], "review_count": 108, "location": {"city": "Denver", "address1": "1255 19th St", "address3": "", "address2": "Ste A", "zip_code": "80202", "country": "US", "display_address": ["1255 19th St", "Ste A", "Denver, CO 80202"], "state": "CO"}, "price": "$$", "transactions": [], "display_phone": "(303) 292-2323"}, {"rating": 4.5, "is_closed": false, "distance": 4233.45899304, "name": "Park Hill Hub", "id": "park-hill-hub-denver", "image_url": "https://s3-media2.fl.yelpcdn.com/bphoto/RhL76iQ644VCS2WrOgPJ7Q/o.jpg", "url": "https://www.yelp.com/biz/park-hill-hub-denver?adjust_creative=gBcvfFpabk3CnzmXKdYe3w&utm_campaign=yelp_api_v3&utm_medium=api_v3_business_search&utm_source=gBcvfFpabk3CnzmXKdYe3w", "phone": "+13033331908", "coordinates": {"longitude": -104.9211163, "latitude": 39.740261}, "categories": [{"alias": "coffee", "title": "Coffee & Tea"}, {"alias": "breakfast_brunch", "title": "Breakfast & Brunch"}, {"alias": "sandwiches", "title": "Sandwiches"}], "review_count": 38, "location": {"city": "Denver", "address1": "1502 Ivanhoe St", "address3": "", "address2": "", "zip_code": "80220", "country": "US", "display_address": ["1502 Ivanhoe St", "Denver, CO 80220"], "state": "CO"}, "price": "$$", "transactions": [], "display_phone": "(303) 333-1908"}, {"rating": 3.5, "is_closed": false, "distance": 3134.52841607, "name": "Wazee Supper Club", "id": "wazee-supper-club-denver", "image_url": "https://s3-media4.fl.yelpcdn.com/bphoto/324Slh3fiMkcR8kc1-WCbA/o.jpg", "url": "https://www.yelp.com/biz/wazee-supper-club-denver?adjust_creative=gBcvfFpabk3CnzmXKdYe3w&utm_campaign=yelp_api_v3&utm_medium=api_v3_business_search&utm_source=gBcvfFpabk3CnzmXKdYe3w", "phone": "+13036239518", "coordinates": {"longitude": -105.0014523, "latitude": 39.7503197}, "categories": [{"alias": "pizza", "title": "Pizza"}, {"alias": "newamerican", "title": "American (New)"}], "review_count": 264, "location": {"city": "Denver", "address1": "1600 15th St", "address3": "", "address2": "", "zip_code": "80202", "country": "US", "display_address": ["1600 15th St", "Denver, CO 80202"], "state": "CO"}, "price": "$$", "transactions": ["delivery"], "display_phone": "(303) 623-9518"}, {"rating": 3.5, "is_closed": false, "distance": 3530.038687932, "name": "Jett Asian Kitchen & Sushi", "id": "jett-asian-kitchen-and-sushi-denver", "image_url": "https://s3-media4.fl.yelpcdn.com/bphoto/G-sk8fhWt3Rr5qyJUpoy0A/o.jpg", "url": "https://www.yelp.com/biz/jett-asian-kitchen-and-sushi-denver?adjust_creative=gBcvfFpabk3CnzmXKdYe3w&utm_campaign=yelp_api_v3&utm_medium=api_v3_business_search&utm_source=gBcvfFpabk3CnzmXKdYe3w", "phone": "+13033335007", "coordinates": {"longitude": -104.9295588, "latitude": 39.7403349}, "categories": [{"alias": "asianfusion", "title": "Asian Fusion"}, {"alias": "sushi", "title": "Sushi Bars"}, {"alias": "thai", "title": "Thai"}], "review_count": 252, "location": {"city": "Denver", "address1": "5007 E Colfax Ave", "address3": "", "address2": "", "zip_code": "80220", "country": "US", "display_address": ["5007 E Colfax Ave", "Denver, CO 80220"], "state": "CO"}, "price": "$$", "transactions": ["delivery", "pickup"], "display_phone": "(303) 333-5007"}, {"rating": 4.0, "is_closed": false, "distance": 6279.258438399999, "name": "TacoMex 1", "id": "tacomex-1-denver", "image_url": "https://s3-media3.fl.yelpcdn.com/bphoto/QPMRyruDR19OQaYYPdqkFw/o.jpg", "url": "https://www.yelp.com/biz/tacomex-1-denver?adjust_creative=gBcvfFpabk3CnzmXKdYe3w&utm_campaign=yelp_api_v3&utm_medium=api_v3_business_search&utm_source=gBcvfFpabk3CnzmXKdYe3w", "phone": "+13033947555", "coordinates": {"longitude": -104.897038904004, "latitude": 39.7400098387207}, "categories": [{"alias": "mexican", "title": "Mexican"}], "review_count": 140, "location": {"city": "Denver", "address1": "7840 E Colfax Ave", "address3": "", "address2": "", "zip_code": "80220", "country": "US", "display_address": ["7840 E Colfax Ave", "Denver, CO 80220"], "state": "CO"}, "price": "$", "transactions": [], "display_phone": "(303) 394-7555"}, {"rating": 4.5, "is_closed": false, "distance": 9656.97824522, "name": "Even Better Cafe", "id": "even-better-cafe-denver", "image_url": "https://s3-media1.fl.yelpcdn.com/bphoto/-1ioWAap8R7JgFzpVjWt7w/o.jpg", "url": "https://www.yelp.com/biz/even-better-cafe-denver?adjust_creative=gBcvfFpabk3CnzmXKdYe3w&utm_campaign=yelp_api_v3&utm_medium=api_v3_business_search&utm_source=gBcvfFpabk3CnzmXKdYe3w", "phone": "+17205357240", "coordinates": {"longitude": -104.889882874846, "latitude": 39.6745298179659}, "categories": [{"alias": "desserts", "title": "Desserts"}, {"alias": "coffee", "title": "Coffee & Tea"}], "review_count": 59, "location": {"city": "Denver", "address1": "8450 E Iliff Ave", "address3": "", "address2": "Unit 4", "zip_code": "80231", "country": "US", "display_address": ["8450 E Iliff Ave", "Unit 4", "Denver, CO 80231"], "state": "CO"}, "price": "$", "transactions": [], "display_phone": "(720) 535-7240"}, {"rating": 3.5, "is_closed": false, "distance": 2549.8434458879997, "name": "Spicy Basil", "id": "spicy-basil-denver", "image_url": "https://s3-media2.fl.yelpcdn.com/bphoto/3NSSjntQ6FSgv2MoDpaySQ/o.jpg", "url": "https://www.yelp.com/biz/spicy-basil-denver?adjust_creative=gBcvfFpabk3CnzmXKdYe3w&utm_campaign=yelp_api_v3&utm_medium=api_v3_business_search&utm_source=gBcvfFpabk3CnzmXKdYe3w", "phone": "+13038718828", "coordinates": {"longitude": -104.987726380069, "latitude": 39.7169456892852}, "categories": [{"alias": "thai", "title": "Thai"}, {"alias": "chinese", "title": "Chinese"}, {"alias": "asianfusion", "title": "Asian Fusion"}], "review_count": 340, "location": {"city": "Denver", "address1": "1 Broadway", "address3": "", "address2": "", "zip_code": "80203", "country": "US", "display_address": ["1 Broadway", "Denver, CO 80203"], "state": "CO"}, "price": "$", "transactions": ["delivery", "pickup"], "display_phone": "(303) 871-8828"}, {"rating": 3.5, "is_closed": false, "distance": 3130.7168552139997, "name": "Venice Ristorante", "id": "venice-ristorante-denver", "image_url": "https://s3-media2.fl.yelpcdn.com/bphoto/ED8m2RIhnMVY2b0nGPlIWQ/o.jpg", "url": "https://www.yelp.com/biz/venice-ristorante-denver?adjust_creative=gBcvfFpabk3CnzmXKdYe3w&utm_campaign=yelp_api_v3&utm_medium=api_v3_business_search&utm_source=gBcvfFpabk3CnzmXKdYe3w", "phone": "+13035342222", "coordinates": {"longitude": -104.999532, "latitude": 39.7527782}, "categories": [{"alias": "italian", "title": "Italian"}, {"alias": "bars", "title": "Bars"}], "review_count": 225, "location": {"city": "Denver", "address1": "1700 Wynkoop St", "address3": "", "address2": "", "zip_code": "80202", "country": "US", "display_address": ["1700 Wynkoop St", "Denver, CO 80202"], "state": "CO"}, "price": "$$$", "transactions": [], "display_phone": "(303) 534-2222"}, {"rating": 4.0, "is_closed": false, "distance": 2255.6107105, "name": "Taqueria Emanuel", "id": "taqueria-emanuel-denver", "image_url": "https://s3-media4.fl.yelpcdn.com/bphoto/h8WauagrEkP7KYF0qZ9mrw/o.jpg", "url": "https://www.yelp.com/biz/taqueria-emanuel-denver?adjust_creative=gBcvfFpabk3CnzmXKdYe3w&utm_campaign=yelp_api_v3&utm_medium=api_v3_business_search&utm_source=gBcvfFpabk3CnzmXKdYe3w", "phone": "+13032933716", "coordinates": {"longitude": -104.984858036041, "latitude": 39.7524880617857}, "categories": [{"alias": "mexican", "title": "Mexican"}], "review_count": 34, "location": {"city": "Denver", "address1": "810 Park Ave W", "address3": "", "address2": "", "zip_code": "80205", "country": "US", "display_address": ["810 Park Ave W", "Denver, CO 80205"], "state": "CO"}, "price": "$", "transactions": ["pickup"], "display_phone": "(303) 293-3716"}, {"rating": 4.0, "is_closed": false, "distance": 4791.45901388, "name": "Berriegood Co", "id": "berriegood-co-denver-2", "image_url": "https://s3-media4.fl.yelpcdn.com/bphoto/_xv58o1SVhfI2mb4eaL4Gw/o.jpg", "url": "https://www.yelp.com/biz/berriegood-co-denver-2?adjust_creative=gBcvfFpabk3CnzmXKdYe3w&utm_campaign=yelp_api_v3&utm_medium=api_v3_business_search&utm_source=gBcvfFpabk3CnzmXKdYe3w", "phone": "+13032825014", "coordinates": {"longitude": -104.979597553611, "latitude": 39.6930476278067}, "categories": [{"alias": "juicebars", "title": "Juice Bars & Smoothies"}, {"alias": "vegan", "title": "Vegan"}, {"alias": "vegetarian", "title": "Vegetarian"}], "review_count": 62, "location": {"city": "Denver", "address1": "681 E Louisiana Ave", "address3": "", "address2": "Ste 102", "zip_code": "80210", "country": "US", "display_address": ["681 E Louisiana Ave", "Ste 102", "Denver, CO 80210"], "state": "CO"}, "price": "$$", "transactions": ["pickup"], "display_phone": "(303) 282-5014"}, {"rating": 3.5, "is_closed": false, "distance": 1520.4657112795999, "name": "Torchys Tacos", "id": "torchys-tacos-denver", "image_url": "https://s3-media3.fl.yelpcdn.com/bphoto/b8OmT5spPdj7IBqNR30tQw/o.jpg", "url": "https://www.yelp.com/biz/torchys-tacos-denver?adjust_creative=gBcvfFpabk3CnzmXKdYe3w&utm_campaign=yelp_api_v3&utm_medium=api_v3_business_search&utm_source=gBcvfFpabk3CnzmXKdYe3w", "phone": "+13034361704", "coordinates": {"longitude": -104.987821487568, "latitude": 39.7334636406237}, "categories": [{"alias": "mexican", "title": "Mexican"}, {"alias": "breakfast_brunch", "title": "Breakfast & Brunch"}, {"alias": "vegetarian", "title": "Vegetarian"}], "review_count": 529, "location": {"city": "Denver", "address1": "1085 N Broadway St", "address3": "", "address2": "", "zip_code": "80203", "country": "US", "display_address": ["1085 N Broadway St", "Denver, CO 80203"], "state": "CO"}, "price": "$", "transactions": [], "display_phone": "(303) 436-1704"}, {"rating": 4.0, "is_closed": false, "distance": 3078.114933578, "name": "Mangiamo Pronto", "id": "mangiamo-pronto-denver", "image_url": "https://s3-media4.fl.yelpcdn.com/bphoto/GwIGpuN9ddTAIC8HnL3MHg/o.jpg", "url": "https://www.yelp.com/biz/mangiamo-pronto-denver?adjust_creative=gBcvfFpabk3CnzmXKdYe3w&utm_campaign=yelp_api_v3&utm_medium=api_v3_business_search&utm_source=gBcvfFpabk3CnzmXKdYe3w", "phone": "+13032971229", "coordinates": {"longitude": -104.998833696898, "latitude": 39.7523487817565}, "categories": [{"alias": "italian", "title": "Italian"}, {"alias": "breakfast_brunch", "title": "Breakfast & Brunch"}, {"alias": "pizza", "title": "Pizza"}], "review_count": 119, "location": {"city": "Denver", "address1": "1601 17th St", "address3": "", "address2": "", "zip_code": "80202", "country": "US", "display_address": ["1601 17th St", "Denver, CO 80202"], "state": "CO"}, "price": "$$", "transactions": [], "display_phone": "(303) 297-1229"}, {"rating": 4.5, "is_closed": false, "distance": 4938.457095084, "name": "Tortisimas", "id": "tortisimas-denver", "image_url": "https://s3-media3.fl.yelpcdn.com/bphoto/zWnZ4Tcywz8yDSUXCWl1zg/o.jpg", "url": "https://www.yelp.com/biz/tortisimas-denver?adjust_creative=gBcvfFpabk3CnzmXKdYe3w&utm_campaign=yelp_api_v3&utm_medium=api_v3_business_search&utm_source=gBcvfFpabk3CnzmXKdYe3w", "phone": "+13037502224", "coordinates": {"longitude": -105.025479, "latitude": 39.722567}, "categories": [{"alias": "mexican", "title": "Mexican"}, {"alias": "sandwiches", "title": "Sandwiches"}], "review_count": 17, "location": {"city": "Denver", "address1": "15021 E Mississippi Ave", "address3": "", "address2": "", "zip_code": "80012", "country": "US", "display_address": ["15021 E Mississippi Ave", "Denver, CO 80012"], "state": "CO"}, "price": "$", "transactions": [], "display_phone": "(303) 750-2224"}, {"rating": 3.5, "is_closed": false, "distance": 2854.1385796259997, "name": "Corridor 44", "id": "corridor-44-denver", "image_url": "https://s3-media4.fl.yelpcdn.com/bphoto/HWtRjaXodaZuNIvR9qEy3w/o.jpg", "url": "https://www.yelp.com/biz/corridor-44-denver?adjust_creative=gBcvfFpabk3CnzmXKdYe3w&utm_campaign=yelp_api_v3&utm_medium=api_v3_business_search&utm_source=gBcvfFpabk3CnzmXKdYe3w", "phone": "+13038930044", "coordinates": {"longitude": -104.99947, "latitude": 39.74795}, "categories": [{"alias": "french", "title": "French"}], "review_count": 225, "location": {"city": "Denver", "address1": "1433 Larimer St", "address3": "", "address2": "", "zip_code": "80202", "country": "US", "display_address": ["1433 Larimer St", "Denver, CO 80202"], "state": "CO"}, "price": "$$", "transactions": [], "display_phone": "(303) 893-0044"}, {"rating": 4.5, "is_closed": false, "distance": 5801.872511236, "name": "Pochitos Tortilla Factory", "id": "pochitos-tortilla-factory-denver", "image_url": "https://s3-media3.fl.yelpcdn.com/bphoto/xl_RUTyB8xL9pUJCy5X_QQ/o.jpg", "url": "https://www.yelp.com/biz/pochitos-tortilla-factory-denver?adjust_creative=gBcvfFpabk3CnzmXKdYe3w&utm_campaign=yelp_api_v3&utm_medium=api_v3_business_search&utm_source=gBcvfFpabk3CnzmXKdYe3w", "phone": "+13034332358", "coordinates": {"longitude": -105.0113373, "latitude": 39.7769814}, "categories": [{"alias": "mexican", "title": "Mexican"}, {"alias": "grocery", "title": "Grocery"}], "review_count": 24, "location": {"city": "Denver", "address1": "4421 Tejon St", "address3": "", "address2": "", "zip_code": "80211", "country": "US", "display_address": ["4421 Tejon St", "Denver, CO 80211"], "state": "CO"}, "price": "$", "transactions": [], "display_phone": "(303) 433-2358"}, {"rating": 4.0, "is_closed": false, "distance": 4303.023680144, "name": "Max Gill and Grill", "id": "max-gill-and-grill-denver", "image_url": "https://s3-media4.fl.yelpcdn.com/bphoto/tixekwin0JKIl8yvAHg2WQ/o.jpg", "url": "https://www.yelp.com/biz/max-gill-and-grill-denver?adjust_creative=gBcvfFpabk3CnzmXKdYe3w&utm_campaign=yelp_api_v3&utm_medium=api_v3_business_search&utm_source=gBcvfFpabk3CnzmXKdYe3w", "phone": "+13037227456", "coordinates": {"longitude": -104.96142, "latitude": 39.69742}, "categories": [{"alias": "seafood", "title": "Seafood"}, {"alias": "tradamerican", "title": "American (Traditional)"}], "review_count": 368, "location": {"city": "Denver", "address1": "1052 S Gaylord St", "address3": "", "address2": "", "zip_code": "80209", "country": "US", "display_address": ["1052 S Gaylord St", "Denver, CO 80209"], "state": "CO"}, "price": "$$", "transactions": ["delivery"], "display_phone": "(303) 722-7456"}, {"rating": 3.5, "is_closed": false, "distance": 4663.232274436, "name": "Super Star Asian Cuisine", "id": "super-star-asian-cuisine-denver-2", "image_url": "https://s3-media1.fl.yelpcdn.com/bphoto/LrSOrTVQSTAwZcsjmQ-WpQ/o.jpg", "url": "https://www.yelp.com/biz/super-star-asian-cuisine-denver-2?adjust_creative=gBcvfFpabk3CnzmXKdYe3w&utm_campaign=yelp_api_v3&utm_medium=api_v3_business_search&utm_source=gBcvfFpabk3CnzmXKdYe3w", "phone": "+13037279889", "coordinates": {"longitude": -105.013625072878, "latitude": 39.7101165532071}, "categories": [{"alias": "dimsum", "title": "Dim Sum"}, {"alias": "seafood", "title": "Seafood"}, {"alias": "cantonese", "title": "Cantonese"}], "review_count": 363, "location": {"city": "Denver", "address1": "2200 W Alameda Ave", "address3": "", "address2": "Ste 34", "zip_code": "80223", "country": "US", "display_address": ["2200 W Alameda Ave", "Ste 34", "Denver, CO 80223"], "state": "CO"}, "price": "$$", "transactions": [], "display_phone": "(303) 727-9889"}, {"rating": 4.5, "is_closed": false, "distance": 4898.808912041999, "name": "Fort Greene", "id": "fort-greene-denver", "image_url": "https://s3-media3.fl.yelpcdn.com/bphoto/1a2H5KSq8pbuD3L4BYtgsQ/o.jpg", "url": "https://www.yelp.com/biz/fort-greene-denver?adjust_creative=gBcvfFpabk3CnzmXKdYe3w&utm_campaign=yelp_api_v3&utm_medium=api_v3_business_search&utm_source=gBcvfFpabk3CnzmXKdYe3w", "phone": "+13033620197", "coordinates": {"longitude": -104.983154296875, "latitude": 39.7784652709961}, "categories": [{"alias": "bars", "title": "Bars"}], "review_count": 32, "location": {"city": "Denver", "address1": "321 E 45th Ave", "address3": "", "address2": null, "zip_code": "80216", "country": "US", "display_address": ["321 E 45th Ave", "Denver, CO 80216"], "state": "CO"}, "price": "$$", "transactions": [], "display_phone": "(303) 362-0197"}, {"rating": 3.5, "is_closed": false, "distance": 924.0279241983999, "name": "X BAR", "id": "x-bar-denver", "image_url": "https://s3-media1.fl.yelpcdn.com/bphoto/yT8UgGUd1ALERe62SUwfZQ/o.jpg", "url": "https://www.yelp.com/biz/x-bar-denver?adjust_creative=gBcvfFpabk3CnzmXKdYe3w&utm_campaign=yelp_api_v3&utm_medium=api_v3_business_search&utm_source=gBcvfFpabk3CnzmXKdYe3w", "phone": "+13038322687", "coordinates": {"longitude": -104.979057, "latitude": 39.740334}, "categories": [{"alias": "gaybars", "title": "Gay Bars"}, {"alias": "danceclubs", "title": "Dance Clubs"}, {"alias": "karaoke", "title": "Karaoke"}], "review_count": 72, "location": {"city": "Denver", "address1": "629 E Colfax Ave", "address3": "", "address2": "", "zip_code": "80203", "country": "US", "display_address": ["629 E Colfax Ave", "Denver, CO 80203"], "state": "CO"}, "price": "$$", "transactions": [], "display_phone": "(303) 832-2687"}, {"rating": 4.0, "is_closed": false, "distance": 4789.9780992119995, "name": "Park Burger", "id": "park-burger-denver-3", "image_url": "https://s3-media2.fl.yelpcdn.com/bphoto/bSLt-KGHbbWmrhp3U9QN9Q/o.jpg", "url": "https://www.yelp.com/biz/park-burger-denver-3?adjust_creative=gBcvfFpabk3CnzmXKdYe3w&utm_campaign=yelp_api_v3&utm_medium=api_v3_business_search&utm_source=gBcvfFpabk3CnzmXKdYe3w", "phone": "+13039420145", "coordinates": {"longitude": -104.922615, "latitude": 39.71286}, "categories": [{"alias": "burgers", "title": "Burgers"}], "review_count": 154, "location": {"city": "Denver", "address1": "211 S Holly St", "address3": "", "address2": "", "zip_code": "80246", "country": "US", "display_address": ["211 S Holly St", "Denver, CO 80246"], "state": "CO"}, "price": "$$", "transactions": [], "display_phone": "(303) 942-0145"}, {"rating": 3.5, "is_closed": false, "distance": 2515.4944975979997, "name": "Historians Ale House", "id": "historians-ale-house-denver", "image_url": "https://s3-media4.fl.yelpcdn.com/bphoto/RawRpSc3o0mfHHHxR97-QA/o.jpg", "url": "https://www.yelp.com/biz/historians-ale-house-denver?adjust_creative=gBcvfFpabk3CnzmXKdYe3w&utm_campaign=yelp_api_v3&utm_medium=api_v3_business_search&utm_source=gBcvfFpabk3CnzmXKdYe3w", "phone": "+17204798505", "coordinates": {"longitude": -104.9874569, "latitude": 39.7171795}, "categories": [{"alias": "bars", "title": "Bars"}, {"alias": "tradamerican", "title": "American (Traditional)"}], "review_count": 314, "location": {"city": "Denver", "address1": "24 Broadway", "address3": "", "address2": "Ste 102", "zip_code": "80203", "country": "US", "display_address": ["24 Broadway", "Ste 102", "Denver, CO 80203"], "state": "CO"}, "price": "$$", "transactions": [], "display_phone": "(720) 479-8505"}, {"rating": 4.0, "is_closed": false, "distance": 3677.94942585, "name": "The Abbey Tavern", "id": "the-abbey-tavern-denver", "image_url": "https://s3-media1.fl.yelpcdn.com/bphoto/auzawwlZFreNkOZqD8zoIw/o.jpg", "url": "https://www.yelp.com/biz/the-abbey-tavern-denver?adjust_creative=gBcvfFpabk3CnzmXKdYe3w&utm_campaign=yelp_api_v3&utm_medium=api_v3_business_search&utm_source=gBcvfFpabk3CnzmXKdYe3w", "phone": "+13033215151", "coordinates": {"longitude": -104.927743077278, "latitude": 39.7406050567441}, "categories": [{"alias": "irish", "title": "Irish"}, {"alias": "newamerican", "title": "American (New)"}, {"alias": "pubs", "title": "Pubs"}], "review_count": 127, "location": {"city": "Denver", "address1": "5151 E Colfax Ave", "address3": "", "address2": "", "zip_code": "80220", "country": "US", "display_address": ["5151 E Colfax Ave", "Denver, CO 80220"], "state": "CO"}, "price": "$$", "transactions": [], "display_phone": "(303) 321-5151"}, {"rating": 4.5, "is_closed": false, "distance": 10991.397911699998, "name": "Cody's Cafe and Bar", "id": "codys-cafe-and-bar-denver-3", "image_url": "https://s3-media3.fl.yelpcdn.com/bphoto/dAFWkB_Pl2Utc_Vubuna1w/o.jpg", "url": "https://www.yelp.com/biz/codys-cafe-and-bar-denver-3?adjust_creative=gBcvfFpabk3CnzmXKdYe3w&utm_campaign=yelp_api_v3&utm_medium=api_v3_business_search&utm_source=gBcvfFpabk3CnzmXKdYe3w", "phone": "+13037501580", "coordinates": {"longitude": -104.86886305014, "latitude": 39.6747969651139}, "categories": [{"alias": "italian", "title": "Italian"}, {"alias": "pizza", "title": "Pizza"}, {"alias": "bars", "title": "Bars"}], "review_count": 230, "location": {"city": "Denver", "address1": "10253 E Iliff Ave", "address3": "", "address2": "", "zip_code": "80247", "country": "US", "display_address": ["10253 E Iliff Ave", "Denver, CO 80247"], "state": "CO"}, "price": "$$", "transactions": ["pickup"], "display_phone": "(303) 750-1580"}, {"rating": 4.0, "is_closed": false, "distance": 3463.29324264, "name": "The Pig & The Sprout", "id": "the-pig-and-the-sprout-denver", "image_url": "https://s3-media4.fl.yelpcdn.com/bphoto/DYus__23GUkcGjlqDSKpNg/o.jpg", "url": "https://www.yelp.com/biz/the-pig-and-the-sprout-denver?adjust_creative=gBcvfFpabk3CnzmXKdYe3w&utm_campaign=yelp_api_v3&utm_medium=api_v3_business_search&utm_source=gBcvfFpabk3CnzmXKdYe3w", "phone": "+17205359719", "coordinates": {"longitude": -104.999712893792, "latitude": 39.7567557848021}, "categories": [{"alias": "newamerican", "title": "American (New)"}, {"alias": "bars", "title": "Bars"}, {"alias": "breakfast_brunch", "title": "Breakfast & Brunch"}], "review_count": 75, "location": {"city": "Denver", "address1": "1900 Chestnut Pl", "address3": "", "address2": null, "zip_code": "80202", "country": "US", "display_address": ["1900 Chestnut Pl", "Denver, CO 80202"], "state": "CO"}, "price": "$$", "transactions": [], "display_phone": "(720) 535-9719"}, {"rating": 4.5, "is_closed": false, "distance": 4257.50414198, "name": "Charcoal Bistro", "id": "charcoal-bistro-denver", "image_url": "https://s3-media3.fl.yelpcdn.com/bphoto/QF0uF81jbA4wOp6m-X6xjQ/o.jpg", "url": "https://www.yelp.com/biz/charcoal-bistro-denver?adjust_creative=gBcvfFpabk3CnzmXKdYe3w&utm_campaign=yelp_api_v3&utm_medium=api_v3_business_search&utm_source=gBcvfFpabk3CnzmXKdYe3w", "phone": "+13039538718", "coordinates": {"longitude": -104.961410522461, "latitude": 39.6978340148926}, "categories": [{"alias": "newamerican", "title": "American (New)"}, {"alias": "breakfast_brunch", "title": "Breakfast & Brunch"}], "review_count": 29, "location": {"city": "Denver", "address1": "1028 S Gaylord St", "address3": "", "address2": null, "zip_code": "80209", "country": "US", "display_address": ["1028 S Gaylord St", "Denver, CO 80209"], "state": "CO"}, "price": "$$", "transactions": [], "display_phone": "(303) 953-8718"}, {"rating": 3.5, "is_closed": false, "distance": 2849.9382022259997, "name": "Fat Sully's Pizza", "id": "fat-sullys-pizza-denver-2", "image_url": "https://s3-media2.fl.yelpcdn.com/bphoto/S1ei1DPTXUjKh0w7vObfJg/o.jpg", "url": "https://www.yelp.com/biz/fat-sullys-pizza-denver-2?adjust_creative=gBcvfFpabk3CnzmXKdYe3w&utm_campaign=yelp_api_v3&utm_medium=api_v3_business_search&utm_source=gBcvfFpabk3CnzmXKdYe3w", "phone": "+13033931515", "coordinates": {"longitude": -104.987945, "latitude": 39.713722}, "categories": [{"alias": "pizza", "title": "Pizza"}], "review_count": 123, "location": {"city": "Denver", "address1": "141 S Broadway", "address3": "", "address2": "", "zip_code": "80209", "country": "US", "display_address": ["141 S Broadway", "Denver, CO 80209"], "state": "CO"}, "price": "$", "transactions": ["pickup"], "display_phone": "(303) 393-1515"}, {"rating": 3.5, "is_closed": false, "distance": 3220.2410598, "name": "Marg's Taco Bistro", "id": "margs-taco-bistro-denver", "image_url": "https://s3-media1.fl.yelpcdn.com/bphoto/n4OaMZ2g5zPh_qedyfrDaQ/o.jpg", "url": "https://www.yelp.com/biz/margs-taco-bistro-denver?adjust_creative=gBcvfFpabk3CnzmXKdYe3w&utm_campaign=yelp_api_v3&utm_medium=api_v3_business_search&utm_source=gBcvfFpabk3CnzmXKdYe3w", "phone": "+13035346274", "coordinates": {"longitude": -105.001729690205, "latitude": 39.7514140420134}, "categories": [{"alias": "mexican", "title": "Mexican"}, {"alias": "bars", "title": "Bars"}], "review_count": 241, "location": {"city": "Denver", "address1": "1519 Wynkoop St", "address3": "", "address2": "", "zip_code": "80202", "country": "US", "display_address": ["1519 Wynkoop St", "Denver, CO 80202"], "state": "CO"}, "price": "$$", "transactions": [], "display_phone": "(303) 534-6274"}, {"rating": 4.5, "is_closed": false, "distance": 3386.0030798, "name": "sONO!", "id": "sono-denver-3", "image_url": "https://s3-media3.fl.yelpcdn.com/bphoto/wo6d09fYq1lwee-yu-wNkg/o.jpg", "url": "https://www.yelp.com/biz/sono-denver-3?adjust_creative=gBcvfFpabk3CnzmXKdYe3w&utm_campaign=yelp_api_v3&utm_medium=api_v3_business_search&utm_source=gBcvfFpabk3CnzmXKdYe3w", "phone": "+13039539147", "coordinates": {"longitude": -105.007257834077, "latitude": 39.7463575769633}, "categories": [{"alias": "asianfusion", "title": "Asian Fusion"}, {"alias": "poke", "title": "Poke"}], "review_count": 28, "location": {"city": "Denver", "address1": "900 Auraria Pkwy", "address3": "101-E", "address2": null, "zip_code": "80204", "country": "US", "display_address": ["900 Auraria Pkwy", "101-E", "Denver, CO 80204"], "state": "CO"}, "price": "$", "transactions": ["delivery", "pickup"], "display_phone": "(303) 953-9147"}, {"rating": 4.0, "is_closed": false, "distance": 1096.23734648, "name": "Buzz Cafe", "id": "buzz-cafe-denver", "image_url": "https://s3-media3.fl.yelpcdn.com/bphoto/pE8Z5L03kWrvVjt-U6tb1w/o.jpg", "url": "https://www.yelp.com/biz/buzz-cafe-denver?adjust_creative=gBcvfFpabk3CnzmXKdYe3w&utm_campaign=yelp_api_v3&utm_medium=api_v3_business_search&utm_source=gBcvfFpabk3CnzmXKdYe3w", "phone": "+13038311077", "coordinates": {"longitude": -104.97202, "latitude": 39.72572}, "categories": [{"alias": "coffee", "title": "Coffee & Tea"}], "review_count": 70, "location": {"city": "Denver", "address1": "1229 E 6th Ave", "address3": "", "address2": "", "zip_code": "80218", "country": "US", "display_address": ["1229 E 6th Ave", "Denver, CO 80218"], "state": "CO"}, "price": "$", "transactions": [], "display_phone": "(303) 831-1077"}, {"rating": 4.5, "is_closed": false, "distance": 4762.156633962, "name": "Baba's Falafel", "id": "babas-falafel-denver", "image_url": "https://s3-media2.fl.yelpcdn.com/bphoto/NAb93dCaWOkTlKJKC5uY2g/o.jpg", "url": "https://www.yelp.com/biz/babas-falafel-denver?adjust_creative=gBcvfFpabk3CnzmXKdYe3w&utm_campaign=yelp_api_v3&utm_medium=api_v3_business_search&utm_source=gBcvfFpabk3CnzmXKdYe3w", "phone": "", "coordinates": {"longitude": -104.914777603325, "latitude": 39.7393899082844}, "categories": [{"alias": "foodtrucks", "title": "Food Trucks"}, {"alias": "falafel", "title": "Falafel"}], "review_count": 15, "location": {"city": "Denver", "address1": "", "address3": "", "address2": "", "zip_code": "80203", "country": "US", "display_address": ["Denver, CO 80203"], "state": "CO"}, "price": "$", "transactions": [], "display_phone": ""}, {"rating": 4.0, "is_closed": false, "distance": 2196.6895544199997, "name": "Jason's Deli", "id": "jasons-deli-denver-5", "image_url": "https://s3-media3.fl.yelpcdn.com/bphoto/cvLAxzdayPA4MDwnG6yD0A/o.jpg", "url": "https://www.yelp.com/biz/jasons-deli-denver-5?adjust_creative=gBcvfFpabk3CnzmXKdYe3w&utm_campaign=yelp_api_v3&utm_medium=api_v3_business_search&utm_source=gBcvfFpabk3CnzmXKdYe3w", "phone": "+13032435599", "coordinates": {"longitude": -104.99258, "latitude": 39.74521}, "categories": [{"alias": "delis", "title": "Delis"}, {"alias": "sandwiches", "title": "Sandwiches"}, {"alias": "salad", "title": "Salad"}], "review_count": 58, "location": {"city": "Denver", "address1": "702 16th St", "address3": "", "address2": "", "zip_code": "80202", "country": "US", "display_address": ["702 16th St", "Denver, CO 80202"], "state": "CO"}, "price": "$", "transactions": ["pickup"], "display_phone": "(303) 243-5599"}]}