{"total": 34880, "region": {"center": {"longitude": -104.97024536132812, "latitude": 39.73552421220229}}, "businesses": [{"rating": 5.0, "is_closed": false, "distance": 5856.9193422, "name": "Classic Eats", "id": "classic-eats-denver", "image_url": "https://s3-media2.fl.yelpcdn.com/bphoto/Wz1jq_PUBWXe8eg68ypRdg/o.jpg", "url": "https://www.yelp.com/biz/classic-eats-denver?adjust_creative=gBcvfFpabk3CnzmXKdYe3w&utm_campaign=yelp_api_v3&utm_medium=api_v3_business_search&utm_source=gBcvfFpabk3CnzmXKdYe3w", "phone": "+13039990173", "coordinates": {"longitude": -105.0384, "latitude": 39.74009}, "categories": [{"alias": "delis", "title": "Delis"}, {"alias": "coffee", "title": "Coffee & Tea"}, {"alias": "breakfast_brunch", "title": "Breakfast & Brunch"}], "review_count": 22, "location": {"city": "Denver", "address1": "3910 W Colfax Ave", "address3": null, "address2": "", "zip_code": "80204", "country": "US", "display_address": ["3910 W Colfax Ave", "Denver, CO 80204"], "state": "CO"}, "price": "$", "transactions": ["delivery"], "display_phone": "(303) 999-0173"}, {"rating": 4.0, "is_closed": false, "distance": 500.7718260664, "name": "Denver Fresh Mex", "id": "denver-fresh-mex-denver", "image_url": "https://s3-media2.fl.yelpcdn.com/bphoto/k6gHStpVK_VNv8nW7UmfYw/o.jpg", "url": "https://www.yelp.com/biz/denver-fresh-mex-denver?adjust_creative=gBcvfFpabk3CnzmXKdYe3w&utm_campaign=yelp_api_v3&utm_medium=api_v3_business_search&utm_source=gBcvfFpabk3CnzmXKdYe3w", "phone": "+17204209955", "coordinates": {"longitude": -104.968226, "latitude": 39.739751}, "categories": [{"alias": "mexican", "title": "Mexican"}], "review_count": 34, "location": {"city": "Denver", "address1": "1600 E Colfax Ave", "address3": "", "address2": "", "zip_code": "80218", "country": "US", "display_address": ["1600 E Colfax Ave", "Denver, CO 80218"], "state": "CO"}, "price": "$", "transactions": [], "display_phone": "(720) 420-9955"}, {"rating": 3.5, "is_closed": false, "distance": 2874.4865917839998, "name": "Fontana Sushi", "id": "fontana-sushi-denver", "image_url": "https://s3-media4.fl.yelpcdn.com/bphoto/eAQSShII2Y6yOOSRdNXI5g/o.jpg", "url": "https://www.yelp.com/biz/fontana-sushi-denver?adjust_creative=gBcvfFpabk3CnzmXKdYe3w&utm_campaign=yelp_api_v3&utm_medium=api_v3_business_search&utm_source=gBcvfFpabk3CnzmXKdYe3w", "phone": "+13037788818", "coordinates": {"longitude": -104.980844601278, "latitude": 39.7109900884806}, "categories": [{"alias": "sushi", "title": "Sushi Bars"}, {"alias": "japanese", "title": "Japanese"}], "review_count": 153, "location": {"city": "Denver", "address1": "534 E Alameda Ave", "address3": "", "address2": "", "zip_code": "80209", "country": "US", "display_address": ["534 E Alameda Ave", "Denver, CO 80209"], "state": "CO"}, "price": "$$", "transactions": ["delivery", "pickup"], "display_phone": "(303) 778-8818"}, {"rating": 3.5, "is_closed": false, "distance": 4970.310761704, "name": "Lechuga's Italian Restaurant", "id": "lechugas-italian-restaurant-denver", "image_url": "https://s3-media1.fl.yelpcdn.com/bphoto/BhCQP93zaL1x5uGoJlQpgA/o.jpg", "url": "https://www.yelp.com/biz/lechugas-italian-restaurant-denver?adjust_creative=gBcvfFpabk3CnzmXKdYe3w&utm_campaign=yelp_api_v3&utm_medium=api_v3_business_search&utm_source=gBcvfFpabk3CnzmXKdYe3w", "phone": "+13034551502", "coordinates": {"longitude": -105.011512756348, "latitude": 39.7671356201172}, "categories": [{"alias": "italian", "title": "Italian"}, {"alias": "pizza", "title": "Pizza"}], "review_count": 128, "location": {"city": "Denver", "address1": "3609 Tejon St", "address3": "", "address2": "", "zip_code": "80211", "country": "US", "display_address": ["3609 Tejon St", "Denver, CO 80211"], "state": "CO"}, "price": "$", "transactions": [], "display_phone": "(303) 455-1502"}, {"rating": 3.5, "is_closed": false, "distance": 4290.3652554400005, "name": "Blue Moon Brewing Company", "id": "blue-moon-brewing-company-denver", "image_url": "https://s3-media4.fl.yelpcdn.com/bphoto/NcLvxOo_XAgao3QLugeX-Q/o.jpg", "url": "https://www.yelp.com/biz/blue-moon-brewing-company-denver?adjust_creative=gBcvfFpabk3CnzmXKdYe3w&utm_campaign=yelp_api_v3&utm_medium=api_v3_business_search&utm_source=gBcvfFpabk3CnzmXKdYe3w", "phone": "+13037282337", "coordinates": {"longitude": -104.977273335194, "latitude": 39.7737268446}, "categories": [{"alias": "breweries", "title": "Breweries"}, {"alias": "beerbar", "title": "Beer Bar"}, {"alias": "newamerican", "title": "American (New)"}], "review_count": 95, "location": {"city": "Denver", "address1": "3750 Chestnut Pl", "address3": null, "address2": "", "zip_code": "80216", "country": "US", "display_address": ["3750 Chestnut Pl", "Denver, CO 80216"], "state": "CO"}, "price": "$$", "transactions": [], "display_phone": "(303) 728-2337"}, {"rating": 4.5, "is_closed": false, "distance": 10170.498844337999, "name": "Firehouse Subs", "id": "firehouse-subs-denver-2", "image_url": "https://s3-media4.fl.yelpcdn.com/bphoto/nVjme3MdTLQUAfHYZYbftg/o.jpg", "url": "https://www.yelp.com/biz/firehouse-subs-denver-2?adjust_creative=gBcvfFpabk3CnzmXKdYe3w&utm_campaign=yelp_api_v3&utm_medium=api_v3_business_search&utm_source=gBcvfFpabk3CnzmXKdYe3w", "phone": "+13037566874", "coordinates": {"longitude": -104.91625285159, "latitude": 39.6540360116921}, "categories": [{"alias": "hotdogs", "title": "Fast Food"}, {"alias": "delis", "title": "Delis"}, {"alias": "sandwiches", "title": "Sandwiches"}], "review_count": 35, "location": {"city": "Denver", "address1": "6345 E Hampden Ave", "address3": null, "address2": "Ste 102", "zip_code": "80222", "country": "US", "display_address": ["6345 E Hampden Ave", "Ste 102", "Denver, CO 80222"], "state": "CO"}, "price": "$", "transactions": ["pickup"], "display_phone": "(303) 756-6874"}, {"rating": 4.0, "is_closed": false, "distance": 6583.14367324, "name": "El Chalate", "id": "el-chalate-denver", "image_url": "https://s3-media2.fl.yelpcdn.com/bphoto/630Zf9_E3udn8a_PTYsmgg/o.jpg", "url": "https://www.yelp.com/biz/el-chalate-denver?adjust_creative=gBcvfFpabk3CnzmXKdYe3w&utm_campaign=yelp_api_v3&utm_medium=api_v3_business_search&utm_source=gBcvfFpabk3CnzmXKdYe3w", "phone": "+13033330818", "coordinates": {"longitude": -104.89352, "latitude": 39.74036}, "categories": [{"alias": "mexican", "title": "Mexican"}, {"alias": "salvadoran", "title": "Salvadoran"}], "review_count": 63, "location": {"city": "Denver", "address1": "8119 E Colfax Ave", "address3": "", "address2": "", "zip_code": "80220", "country": "US", "display_address": ["8119 E Colfax Ave", "Denver, CO 80220"], "state": "CO"}, "price": "$", "transactions": [], "display_phone": "(303) 333-0818"}, {"rating": 4.0, "is_closed": false, "distance": 1835.926703432, "name": "Dulce Vida", "id": "dulce-vida-denver", "image_url": "https://s3-media4.fl.yelpcdn.com/bphoto/c6atKI1k2o2lctaVsBhrTA/o.jpg", "url": "https://www.yelp.com/biz/dulce-vida-denver?adjust_creative=gBcvfFpabk3CnzmXKdYe3w&utm_campaign=yelp_api_v3&utm_medium=api_v3_business_search&utm_source=gBcvfFpabk3CnzmXKdYe3w", "phone": "+13039548665", "coordinates": {"longitude": -104.991717476782, "latitude": 39.7353364065781}, "categories": [{"alias": "bars", "title": "Bars"}], "review_count": 44, "location": {"city": "Denver", "address1": "1201 Cherokee St", "address3": "", "address2": "", "zip_code": "80204", "country": "US", "display_address": ["1201 Cherokee St", "Denver, CO 80204"], "state": "CO"}, "price": "$$", "transactions": ["pickup"], "display_phone": "(303) 954-8665"}, {"rating": 3.5, "is_closed": false, "distance": 3079.2321374059998, "name": "Morton's The Steakhouse", "id": "mortons-the-steakhouse-denver-2", "image_url": "https://s3-media3.fl.yelpcdn.com/bphoto/c86oV0nZkTOm2Pt9tKFYog/o.jpg", "url": "https://www.yelp.com/biz/mortons-the-steakhouse-denver-2?adjust_creative=gBcvfFpabk3CnzmXKdYe3w&utm_campaign=yelp_api_v3&utm_medium=api_v3_business_search&utm_source=gBcvfFpabk3CnzmXKdYe3w", "phone": "+13038253353", "coordinates": {"longitude": -104.998126650297, "latitude": 39.7530570684622}, "categories": [{"alias": "steak", "title": "Steakhouses"}, {"alias": "tradamerican", "title": "American (Traditional)"}], "review_count": 127, "location": {"city": "Denver", "address1": "1745 Wazee St", "address3": "", "address2": "", "zip_code": "80202", "country": "US", "display_address": ["1745 Wazee St", "Denver, CO 80202"], "state": "CO"}, "price": "$$$$", "transactions": [], "display_phone": "(303) 825-3353"}, {"rating": 3.5, "is_closed": false, "distance": 3212.866581118, "name": "Terminal Bar", "id": "terminal-bar-denver-2", "image_url": "https://s3-media3.fl.yelpcdn.com/bphoto/r19PuLtiX2oOOViw4yCgpg/o.jpg", "url": "https://www.yelp.com/biz/terminal-bar-denver-2?adjust_creative=gBcvfFpabk3CnzmXKdYe3w&utm_campaign=yelp_api_v3&utm_medium=api_v3_business_search&utm_source=gBcvfFpabk3CnzmXKdYe3w", "phone": "+17204603701", "coordinates": {"longitude": -105.000173204721, "latitude": 39.7529929915332}, "categories": [{"alias": "bars", "title": "Bars"}, {"alias": "burgers", "title": "Burgers"}], "review_count": 192, "location": {"city": "Denver", "address1": "1701 Wynkoop St", "address3": "", "address2": "", "zip_code": "80202", "country": "US", "display_address": ["1701 Wynkoop St", "Denver, CO 80202"], "state": "CO"}, "price": "$$", "transactions": [], "display_phone": "(720) 460-3701"}, {"rating": 3.5, "is_closed": false, "distance": 3639.317380084, "name": "La Guera Gastro Cantina", "id": "la-guera-gastro-cantina-denver", "image_url": "https://s3-media3.fl.yelpcdn.com/bphoto/_mhMQaf_U9UrfO_WTnY8gA/o.jpg", "url": "https://www.yelp.com/biz/la-guera-gastro-cantina-denver?adjust_creative=gBcvfFpabk3CnzmXKdYe3w&utm_campaign=yelp_api_v3&utm_medium=api_v3_business_search&utm_source=gBcvfFpabk3CnzmXKdYe3w", "phone": "+13035345775", "coordinates": {"longitude": -105.004496702816, "latitude": 39.754959679446}, "categories": [{"alias": "newamerican", "title": "American (New)"}, {"alias": "lounges", "title": "Lounges"}], "review_count": 110, "location": {"city": "Denver", "address1": "1610 Little Raven St", "address3": null, "address2": "Ste 200", "zip_code": "80202", "country": "US", "display_address": ["1610 Little Raven St", "Ste 200", "Denver, CO 80202"], "state": "CO"}, "price": "$$", "transactions": [], "display_phone": "(303) 534-5775"}, {"rating": 3.5, "is_closed": false, "distance": 1968.479670664, "name": "Marlowe's", "id": "marlowes-denver", "image_url": "https://s3-media2.fl.yelpcdn.com/bphoto/VMnW7KBhyT46H4_zLT6LEg/o.jpg", "url": "https://www.yelp.com/biz/marlowes-denver?adjust_creative=gBcvfFpabk3CnzmXKdYe3w&utm_campaign=yelp_api_v3&utm_medium=api_v3_business_search&utm_source=gBcvfFpabk3CnzmXKdYe3w", "phone": "+13035953700", "coordinates": {"longitude": -104.99044, "latitude": 39.74403}, "categories": [{"alias": "newamerican", "title": "American (New)"}, {"alias": "seafood", "title": "Seafood"}, {"alias": "breakfast_brunch", "title": "Breakfast & Brunch"}], "review_count": 334, "location": {"city": "Denver", "address1": "501 16th St", "address3": "", "address2": "", "zip_code": "80202", "country": "US", "display_address": ["501 16th St", "Denver, CO 80202"], "state": "CO"}, "price": "$$", "transactions": [], "display_phone": "(303) 595-3700"}, {"rating": 3.5, "is_closed": false, "distance": 2513.69654295, "name": "Del Frisco's Grille", "id": "del-friscos-grille-denver", "image_url": "https://s3-media2.fl.yelpcdn.com/bphoto/HQZe0HBu8LBG1XgeTcdrJA/o.jpg", "url": "https://www.yelp.com/biz/del-friscos-grille-denver?adjust_creative=gBcvfFpabk3CnzmXKdYe3w&utm_campaign=yelp_api_v3&utm_medium=api_v3_business_search&utm_source=gBcvfFpabk3CnzmXKdYe3w", "phone": "+13033208529", "coordinates": {"longitude": -104.950825643185, "latitude": 39.7185500550969}, "categories": [{"alias": "newamerican", "title": "American (New)"}], "review_count": 109, "location": {"city": "Denver", "address1": "100 St Paul St", "address3": "", "address2": "Ste 140", "zip_code": "80206", "country": "US", "display_address": ["100 St Paul St", "Ste 140", "Denver, CO 80206"], "state": "CO"}, "price": "$$", "transactions": [], "display_phone": "(303) 320-8529"}, {"rating": 3.5, "is_closed": false, "distance": 2134.757645068, "name": "CY Steak House", "id": "cy-steak-house-denver", "image_url": "https://s3-media2.fl.yelpcdn.com/bphoto/ikBesRGNLuURDSqe-bbXvg/o.jpg", "url": "https://www.yelp.com/biz/cy-steak-house-denver?adjust_creative=gBcvfFpabk3CnzmXKdYe3w&utm_campaign=yelp_api_v3&utm_medium=api_v3_business_search&utm_source=gBcvfFpabk3CnzmXKdYe3w", "phone": "+17203172664", "coordinates": {"longitude": -104.994300842285, "latitude": 39.7404632568359}, "categories": [{"alias": "steak", "title": "Steakhouses"}], "review_count": 84, "location": {"city": "Denver", "address1": "1222 Glenarm Pl", "address3": "", "address2": "", "zip_code": "80204", "country": "US", "display_address": ["1222 Glenarm Pl", "Denver, CO 80204"], "state": "CO"}, "price": "$$$$", "transactions": [], "display_phone": "(720) 317-2664"}, {"rating": 3.5, "is_closed": false, "distance": 2188.924006118, "name": "The Humble Pie Store", "id": "the-humble-pie-store-denver", "image_url": "https://s3-media1.fl.yelpcdn.com/bphoto/Tr7fYZTGDXJQSIdmJOdsaQ/o.jpg", "url": "https://www.yelp.com/biz/the-humble-pie-store-denver?adjust_creative=gBcvfFpabk3CnzmXKdYe3w&utm_campaign=yelp_api_v3&utm_medium=api_v3_business_search&utm_source=gBcvfFpabk3CnzmXKdYe3w", "phone": "+17204798690", "coordinates": {"longitude": -104.945609699776, "latitude": 39.7401050346174}, "categories": [{"alias": "coffee", "title": "Coffee & Tea"}, {"alias": "cocktailbars", "title": "Cocktail Bars"}, {"alias": "bakeries", "title": "Bakeries"}], "review_count": 135, "location": {"city": "Denver", "address1": "3550 E Colfax Ave", "address3": "", "address2": "", "zip_code": "80206", "country": "US", "display_address": ["3550 E Colfax Ave", "Denver, CO 80206"], "state": "CO"}, "price": "$", "transactions": [], "display_phone": "(720) 479-8690"}, {"rating": 4.0, "is_closed": false, "distance": 7787.27600134, "name": "Tacos Rapidos", "id": "tacos-rapidos-denver", "image_url": "https://s3-media3.fl.yelpcdn.com/bphoto/DAJKMQP8K3ruu5jPLkAI8A/o.jpg", "url": "https://www.yelp.com/biz/tacos-rapidos-denver?adjust_creative=gBcvfFpabk3CnzmXKdYe3w&utm_campaign=yelp_api_v3&utm_medium=api_v3_business_search&utm_source=gBcvfFpabk3CnzmXKdYe3w", "phone": "+13039350453", "coordinates": {"longitude": -105.022659301758, "latitude": 39.6782302856445}, "categories": [{"alias": "mexican", "title": "Mexican"}], "review_count": 179, "location": {"city": "Denver", "address1": "2800 W Evans Ave", "address3": "", "address2": "", "zip_code": "80219", "country": "US", "display_address": ["2800 W Evans Ave", "Denver, CO 80219"], "state": "CO"}, "price": "$", "transactions": [], "display_phone": "(303) 935-0453"}, {"rating": 3.5, "is_closed": false, "distance": 2238.062628074, "name": "Lost Lake Lounge", "id": "lost-lake-lounge-denver", "image_url": "https://s3-media4.fl.yelpcdn.com/bphoto/L5cqa-cC0bH48N6n9IK3jg/o.jpg", "url": "https://www.yelp.com/biz/lost-lake-lounge-denver?adjust_creative=gBcvfFpabk3CnzmXKdYe3w&utm_campaign=yelp_api_v3&utm_medium=api_v3_business_search&utm_source=gBcvfFpabk3CnzmXKdYe3w", "phone": "+13032961003", "coordinates": {"longitude": -104.94474, "latitude": 39.73989}, "categories": [{"alias": "musicvenues", "title": "Music Venues"}, {"alias": "divebars", "title": "Dive Bars"}], "review_count": 71, "location": {"city": "Denver", "address1": "3602 E Colfax Ave", "address3": "", "address2": "", "zip_code": "80206", "country": "US", "display_address": ["3602 E Colfax Ave", "Denver, CO 80206"], "state": "CO"}, "price": "$", "transactions": [], "display_phone": "(303) 296-1003"}, {"rating": 4.0, "is_closed": false, "distance": 7987.509440403999, "name": "Local 46", "id": "local-46-denver", "image_url": "https://s3-media1.fl.yelpcdn.com/bphoto/8uz5rSnhK2dcIa8Ag2vYUA/o.jpg", "url": "https://www.yelp.com/biz/local-46-denver?adjust_creative=gBcvfFpabk3CnzmXKdYe3w&utm_campaign=yelp_api_v3&utm_medium=api_v3_business_search&utm_source=gBcvfFpabk3CnzmXKdYe3w", "phone": "+17205243792", "coordinates": {"longitude": -105.043731828489, "latitude": 39.7798934606812}, "categories": [{"alias": "pubs", "title": "Pubs"}, {"alias": "danceclubs", "title": "Dance Clubs"}, {"alias": "musicvenues", "title": "Music Venues"}], "review_count": 65, "location": {"city": "Denver", "address1": "4586 Tennyson St", "address3": "", "address2": "", "zip_code": "80212", "country": "US", "display_address": ["4586 Tennyson St", "Denver, CO 80212"], "state": "CO"}, "price": "$", "transactions": [], "display_phone": "(720) 524-3792"}, {"rating": 4.0, "is_closed": false, "distance": 2246.938942844, "name": "Bogey's On the Park", "id": "bogeys-on-the-park-denver", "image_url": "https://s3-media4.fl.yelpcdn.com/bphoto/TIOCMg1KktGn9sVVhY3Q_A/o.jpg", "url": "https://www.yelp.com/biz/bogeys-on-the-park-denver?adjust_creative=gBcvfFpabk3CnzmXKdYe3w&utm_campaign=yelp_api_v3&utm_medium=api_v3_business_search&utm_source=gBcvfFpabk3CnzmXKdYe3w", "phone": "+17208653418", "coordinates": {"longitude": -104.95495, "latitude": 39.75277}, "categories": [{"alias": "tradamerican", "title": "American (Traditional)"}], "review_count": 16, "location": {"city": "Denver", "address1": "2500 York St", "address3": "", "address2": "", "zip_code": "80205", "country": "US", "display_address": ["2500 York St", "Denver, CO 80205"], "state": "CO"}, "price": "$", "transactions": [], "display_phone": "(720) 865-3418"}, {"rating": 4.0, "is_closed": false, "distance": 7171.122801467999, "name": "Cafe Brazil", "id": "caf\u00e9-brazil-denver-2", "image_url": "https://s3-media1.fl.yelpcdn.com/bphoto/CAU1y4xh2lbECEVUYGuYuQ/o.jpg", "url": "https://www.yelp.com/biz/caf%C3%A9-brazil-denver-2?adjust_creative=gBcvfFpabk3CnzmXKdYe3w&utm_campaign=yelp_api_v3&utm_medium=api_v3_business_search&utm_source=gBcvfFpabk3CnzmXKdYe3w", "phone": "+13034801877", "coordinates": {"longitude": -105.034560039639, "latitude": 39.7769310325384}, "categories": [{"alias": "brazilian", "title": "Brazilian"}, {"alias": "latin", "title": "Latin American"}], "review_count": 240, "location": {"city": "Denver", "address1": "4408 Lowell Blvd", "address3": "", "address2": "", "zip_code": "80211", "country": "US", "display_address": ["4408 Lowell Blvd", "Denver, CO 80211"], "state": "CO"}, "price": "$$", "transactions": [], "display_phone": "(303) 480-1877"}, {"rating": 3.5, "is_closed": false, "distance": 2638.429888056, "name": "Epernay Lounge", "id": "epernay-lounge-denver", "image_url": "https://s3-media3.fl.yelpcdn.com/bphoto/GGknqQ9DaLvWC-tYZwWuAA/o.jpg", "url": "https://www.yelp.com/biz/epernay-lounge-denver?adjust_creative=gBcvfFpabk3CnzmXKdYe3w&utm_campaign=yelp_api_v3&utm_medium=api_v3_business_search&utm_source=gBcvfFpabk3CnzmXKdYe3w", "phone": "+13035735000", "coordinates": {"longitude": -104.997952139496, "latitude": 39.7459653838521}, "categories": [{"alias": "sushi", "title": "Sushi Bars"}, {"alias": "lounges", "title": "Lounges"}], "review_count": 92, "location": {"city": "Denver", "address1": "1080 14th St", "address3": "", "address2": "", "zip_code": "80202", "country": "US", "display_address": ["1080 14th St", "Denver, CO 80202"], "state": "CO"}, "price": "$$", "transactions": [], "display_phone": "(303) 573-5000"}, {"rating": 3.5, "is_closed": false, "distance": 3626.8268095420003, "name": "Tracks Nightclub", "id": "tracks-nightclub-denver", "image_url": "https://s3-media4.fl.yelpcdn.com/bphoto/Rwmxbw87Sl6ybAKx1tyEJg/o.jpg", "url": "https://www.yelp.com/biz/tracks-nightclub-denver?adjust_creative=gBcvfFpabk3CnzmXKdYe3w&utm_campaign=yelp_api_v3&utm_medium=api_v3_business_search&utm_source=gBcvfFpabk3CnzmXKdYe3w", "phone": "+13038637326", "coordinates": {"longitude": -104.974408001209, "latitude": 39.767981324554}, "categories": [{"alias": "gaybars", "title": "Gay Bars"}, {"alias": "danceclubs", "title": "Dance Clubs"}], "review_count": 91, "location": {"city": "Denver", "address1": "3500 Walnut St", "address3": "", "address2": "", "zip_code": "80205", "country": "US", "display_address": ["3500 Walnut St", "Denver, CO 80205"], "state": "CO"}, "price": "$$", "transactions": [], "display_phone": "(303) 863-7326"}, {"rating": 4.0, "is_closed": false, "distance": 6342.78230688, "name": "Lucile's Creole Cafe", "id": "luciles-creole-cafe-denver-2", "image_url": "https://s3-media4.fl.yelpcdn.com/bphoto/CNl9EMuR6U9DzOD6IyCSMQ/o.jpg", "url": "https://www.yelp.com/biz/luciles-creole-cafe-denver-2?adjust_creative=gBcvfFpabk3CnzmXKdYe3w&utm_campaign=yelp_api_v3&utm_medium=api_v3_business_search&utm_source=gBcvfFpabk3CnzmXKdYe3w", "phone": "+13032845230", "coordinates": {"longitude": -104.97606, "latitude": 39.67883}, "categories": [{"alias": "breakfast_brunch", "title": "Breakfast & Brunch"}, {"alias": "cajun", "title": "Cajun/Creole"}], "review_count": 49, "location": {"city": "Denver", "address1": "999 Evans Ave", "address3": "", "address2": "", "zip_code": "80210", "country": "US", "display_address": ["999 Evans Ave", "Denver, CO 80210"], "state": "CO"}, "price": "$$", "transactions": [], "display_phone": "(303) 284-5230"}, {"rating": 4.5, "is_closed": false, "distance": 5529.476427506, "name": "Jersey Mike's Subs", "id": "jersey-mikes-subs-denver-6", "image_url": "https://s3-media4.fl.yelpcdn.com/bphoto/5lwSMNzsi_XyG57J1OTXdw/o.jpg", "url": "https://www.yelp.com/biz/jersey-mikes-subs-denver-6?adjust_creative=gBcvfFpabk3CnzmXKdYe3w&utm_campaign=yelp_api_v3&utm_medium=api_v3_business_search&utm_source=gBcvfFpabk3CnzmXKdYe3w", "phone": "+17207722101", "coordinates": {"longitude": -104.940053410828, "latitude": 39.6915504474684}, "categories": [{"alias": "delis", "title": "Delis"}, {"alias": "hotdogs", "title": "Fast Food"}, {"alias": "sandwiches", "title": "Sandwiches"}], "review_count": 20, "location": {"city": "Denver", "address1": "1390 S Colorado Blvd", "address3": "", "address2": "", "zip_code": "80222", "country": "US", "display_address": ["1390 S Colorado Blvd", "Denver, CO 80222"], "state": "CO"}, "price": "$", "transactions": [], "display_phone": "(720) 772-2101"}, {"rating": 4.5, "is_closed": false, "distance": 803.9629847511999, "name": "Pearl's", "id": "pearls-denver", "image_url": "https://s3-media3.fl.yelpcdn.com/bphoto/q3xnTxMQLVInRPSoVLDMjA/o.jpg", "url": "https://www.yelp.com/biz/pearls-denver?adjust_creative=gBcvfFpabk3CnzmXKdYe3w&utm_campaign=yelp_api_v3&utm_medium=api_v3_business_search&utm_source=gBcvfFpabk3CnzmXKdYe3w", "phone": "+13038604516", "coordinates": {"longitude": -104.97948, "latitude": 39.73679}, "categories": [{"alias": "bars", "title": "Bars"}, {"alias": "danceclubs", "title": "Dance Clubs"}], "review_count": 12, "location": {"city": "Denver", "address1": "608 E 13th Ave", "address3": "", "address2": null, "zip_code": "80203", "country": "US", "display_address": ["608 E 13th Ave", "Denver, CO 80203"], "state": "CO"}, "price": "$", "transactions": [], "display_phone": "(303) 860-4516"}, {"rating": 4.5, "is_closed": false, "distance": 4356.905509882, "name": "LOW Country Kitchen", "id": "low-country-kitchen-denver", "image_url": "https://s3-media3.fl.yelpcdn.com/bphoto/Ub431h1hR2yaFS5dEMVQpw/o.jpg", "url": "https://www.yelp.com/biz/low-country-kitchen-denver?adjust_creative=gBcvfFpabk3CnzmXKdYe3w&utm_campaign=yelp_api_v3&utm_medium=api_v3_business_search&utm_source=gBcvfFpabk3CnzmXKdYe3w", "phone": "+17205124168", "coordinates": {"longitude": -105.011045474869, "latitude": 39.7589971170985}, "categories": [{"alias": "southern", "title": "Southern"}, {"alias": "comfortfood", "title": "Comfort Food"}, {"alias": "bars", "title": "Bars"}], "review_count": 23, "location": {"city": "Denver", "address1": "1575 Boulder St", "address3": null, "address2": "Unit A", "zip_code": "80211", "country": "US", "display_address": ["1575 Boulder St", "Unit A", "Denver, CO 80211"], "state": "CO"}, "price": "$$$", "transactions": [], "display_phone": "(720) 512-4168"}, {"rating": 4.0, "is_closed": false, "distance": 4423.212410024, "name": "Los Parceros", "id": "los-parceros-denver", "image_url": "https://s3-media1.fl.yelpcdn.com/bphoto/mohjP6zlczOc5-7AFpbmBQ/o.jpg", "url": "https://www.yelp.com/biz/los-parceros-denver?adjust_creative=gBcvfFpabk3CnzmXKdYe3w&utm_campaign=yelp_api_v3&utm_medium=api_v3_business_search&utm_source=gBcvfFpabk3CnzmXKdYe3w", "phone": "+17204364581", "coordinates": {"longitude": -104.9188397, "latitude": 39.739958}, "categories": [{"alias": "colombian", "title": "Colombian"}], "review_count": 55, "location": {"city": "Denver", "address1": "5922 E Colfax Ave", "address3": "", "address2": "", "zip_code": "80220", "country": "US", "display_address": ["5922 E Colfax Ave", "Denver, CO 80220"], "state": "CO"}, "price": "$$", "transactions": [], "display_phone": "(720) 436-4581"}, {"rating": 4.0, "is_closed": false, "distance": 3087.533917796, "name": "Mile High Thai", "id": "mile-high-thai-denver", "image_url": "https://s3-media2.fl.yelpcdn.com/bphoto/u308JAp6lyovv2NvXVpayg/o.jpg", "url": "https://www.yelp.com/biz/mile-high-thai-denver?adjust_creative=gBcvfFpabk3CnzmXKdYe3w&utm_campaign=yelp_api_v3&utm_medium=api_v3_business_search&utm_source=gBcvfFpabk3CnzmXKdYe3w", "phone": "+17205519590", "coordinates": {"longitude": -104.981534, "latitude": 39.761898}, "categories": [{"alias": "foodtrucks", "title": "Food Trucks"}, {"alias": "thai", "title": "Thai"}], "review_count": 19, "location": {"city": "Denver", "address1": "2927 Larimer St", "address3": "", "address2": "", "zip_code": "80205", "country": "US", "display_address": ["2927 Larimer St", "Denver, CO 80205"], "state": "CO"}, "price": "$", "transactions": ["pickup"], "display_phone": "(720) 551-9590"}, {"rating": 3.5, "is_closed": false, "distance": 3313.0674691319996, "name": "Coohills Restaurant", "id": "coohills-restaurant-denver", "image_url": "https://s3-media4.fl.yelpcdn.com/bphoto/QchHdN1D23qzI7xIrry-Ag/o.jpg", "url": "https://www.yelp.com/biz/coohills-restaurant-denver?adjust_creative=gBcvfFpabk3CnzmXKdYe3w&utm_campaign=yelp_api_v3&utm_medium=api_v3_business_search&utm_source=gBcvfFpabk3CnzmXKdYe3w", "phone": "+13036235700", "coordinates": {"longitude": -105.003334, "latitude": 39.750721}, "categories": [{"alias": "french", "title": "French"}], "review_count": 179, "location": {"city": "Denver", "address1": "1400 Wewatta St", "address3": "", "address2": null, "zip_code": "80202", "country": "US", "display_address": ["1400 Wewatta St", "Denver, CO 80202"], "state": "CO"}, "price": "$$$", "transactions": [], "display_phone": "(303) 623-5700"}, {"rating": 3.0, "is_closed": false, "distance": 1897.6962303779999, "name": "Mezcal", "id": "mezcal-denver-6", "image_url": "https://s3-media3.fl.yelpcdn.com/bphoto/KckXhX2_JEREJWY657b3Dw/o.jpg", "url": "https://www.yelp.com/biz/mezcal-denver-6?adjust_creative=gBcvfFpabk3CnzmXKdYe3w&utm_campaign=yelp_api_v3&utm_medium=api_v3_business_search&utm_source=gBcvfFpabk3CnzmXKdYe3w", "phone": "+13033225219", "coordinates": {"longitude": -104.9491179, "latitude": 39.7400251}, "categories": [{"alias": "mexican", "title": "Mexican"}], "review_count": 398, "location": {"city": "Denver", "address1": "3230 E Colfax Ave", "address3": "", "address2": null, "zip_code": "80206", "country": "US", "display_address": ["3230 E Colfax Ave", "Denver, CO 80206"], "state": "CO"}, "price": "$$", "transactions": ["delivery", "pickup"], "display_phone": "(303) 322-5219"}, {"rating": 3.5, "is_closed": false, "distance": 1781.0721885979997, "name": "Annie's Cafe", "id": "annies-cafe-denver-2", "image_url": "https://s3-media3.fl.yelpcdn.com/bphoto/9U6fVY2jlW35hl05M6-zFw/o.jpg", "url": "https://www.yelp.com/biz/annies-cafe-denver-2?adjust_creative=gBcvfFpabk3CnzmXKdYe3w&utm_campaign=yelp_api_v3&utm_medium=api_v3_business_search&utm_source=gBcvfFpabk3CnzmXKdYe3w", "phone": "+13033558197", "coordinates": {"longitude": -104.950230717659, "latitude": 39.7399683157917}, "categories": [{"alias": "breakfast_brunch", "title": "Breakfast & Brunch"}], "review_count": 268, "location": {"city": "Denver", "address1": "3100 E Colfax Ave", "address3": "", "address2": "", "zip_code": "80206", "country": "US", "display_address": ["3100 E Colfax Ave", "Denver, CO 80206"], "state": "CO"}, "price": "$$", "transactions": [], "display_phone": "(303) 355-8197"}, {"rating": 3.5, "is_closed": false, "distance": 1061.202658416, "name": "Great Wall Chinese Restaurant", "id": "great-wall-chinese-restaurant-denver", "image_url": "https://s3-media3.fl.yelpcdn.com/bphoto/Ndw--isPYW2nmzpVEiPHpw/o.jpg", "url": "https://www.yelp.com/biz/great-wall-chinese-restaurant-denver?adjust_creative=gBcvfFpabk3CnzmXKdYe3w&utm_campaign=yelp_api_v3&utm_medium=api_v3_business_search&utm_source=gBcvfFpabk3CnzmXKdYe3w", "phone": "+13038326611", "coordinates": {"longitude": -104.981267826754, "latitude": 39.739906164459}, "categories": [{"alias": "chinese", "title": "Chinese"}], "review_count": 172, "location": {"city": "Denver", "address1": "440 E Colfax Ave", "address3": "", "address2": "", "zip_code": "80203", "country": "US", "display_address": ["440 E Colfax Ave", "Denver, CO 80203"], "state": "CO"}, "price": "$", "transactions": ["pickup", "delivery"], "display_phone": "(303) 832-6611"}, {"rating": 3.5, "is_closed": false, "distance": 3030.5795361299997, "name": "Rio Grande Mexican Restaurant", "id": "rio-grande-mexican-restaurant-denver-2", "image_url": "https://s3-media2.fl.yelpcdn.com/bphoto/jQ6lOjrhES8fwJ_uTCvOfA/o.jpg", "url": "https://www.yelp.com/biz/rio-grande-mexican-restaurant-denver-2?adjust_creative=gBcvfFpabk3CnzmXKdYe3w&utm_campaign=yelp_api_v3&utm_medium=api_v3_business_search&utm_source=gBcvfFpabk3CnzmXKdYe3w", "phone": "+13036235432", "coordinates": {"longitude": -104.999992370605, "latitude": 39.7502670288086}, "categories": [{"alias": "mexican", "title": "Mexican"}, {"alias": "tex-mex", "title": "Tex-Mex"}], "review_count": 497, "location": {"city": "Denver", "address1": "1525 Blake St", "address3": "", "address2": "", "zip_code": "80202", "country": "US", "display_address": ["1525 Blake St", "Denver, CO 80202"], "state": "CO"}, "price": "$$", "transactions": [], "display_phone": "(303) 623-5432"}, {"rating": 3.5, "is_closed": false, "distance": 4754.9339160419995, "name": "Kings Land Seafood Restaurant", "id": "kings-land-seafood-restaurant-denver", "image_url": "https://s3-media1.fl.yelpcdn.com/bphoto/SAexX5IejfwMox_b7WUeYA/o.jpg", "url": "https://www.yelp.com/biz/kings-land-seafood-restaurant-denver?adjust_creative=gBcvfFpabk3CnzmXKdYe3w&utm_campaign=yelp_api_v3&utm_medium=api_v3_business_search&utm_source=gBcvfFpabk3CnzmXKdYe3w", "phone": "+13039752399", "coordinates": {"longitude": -105.014898499634, "latitude": 39.7100500071209}, "categories": [{"alias": "dimsum", "title": "Dim Sum"}], "review_count": 137, "location": {"city": "Denver", "address1": "2200 W Alameda Ave", "address3": "", "address2": null, "zip_code": "80223", "country": "US", "display_address": ["2200 W Alameda Ave", "Denver, CO 80223"], "state": "CO"}, "price": "$$", "transactions": [], "display_phone": "(303) 975-2399"}, {"rating": 3.5, "is_closed": false, "distance": 2279.7479136879997, "name": "Harry's Bar", "id": "harrys-bar-denver", "image_url": "https://s3-media4.fl.yelpcdn.com/bphoto/il7hODHXHDqGVRj0dftggA/o.jpg", "url": "https://www.yelp.com/biz/harrys-bar-denver?adjust_creative=gBcvfFpabk3CnzmXKdYe3w&utm_campaign=yelp_api_v3&utm_medium=api_v3_business_search&utm_source=gBcvfFpabk3CnzmXKdYe3w", "phone": "+13036070208", "coordinates": {"longitude": -104.992093, "latitude": 39.747272}, "categories": [{"alias": "bars", "title": "Bars"}, {"alias": "tradamerican", "title": "American (Traditional)"}], "review_count": 60, "location": {"city": "Denver", "address1": "818 17th St", "address3": "Magnolia Hotel", "address2": "", "zip_code": "80202", "country": "US", "display_address": ["818 17th St", "Magnolia Hotel", "Denver, CO 80202"], "state": "CO"}, "price": "$$", "transactions": [], "display_phone": "(303) 607-0208"}, {"rating": 3.5, "is_closed": false, "distance": 6294.176376464, "name": "Banzai Sushi", "id": "banzai-sushi-denver-2", "image_url": "https://s3-media1.fl.yelpcdn.com/bphoto/XPKyzkBW0lt56hdzrHIQzw/o.jpg", "url": "https://www.yelp.com/biz/banzai-sushi-denver-2?adjust_creative=gBcvfFpabk3CnzmXKdYe3w&utm_campaign=yelp_api_v3&utm_medium=api_v3_business_search&utm_source=gBcvfFpabk3CnzmXKdYe3w", "phone": "+13033293366", "coordinates": {"longitude": -104.910972595215, "latitude": 39.7018814086914}, "categories": [{"alias": "sushi", "title": "Sushi Bars"}, {"alias": "japanese", "title": "Japanese"}], "review_count": 268, "location": {"city": "Denver", "address1": "6655 Leetsdale Dr", "address3": "", "address2": "", "zip_code": "80224", "country": "US", "display_address": ["6655 Leetsdale Dr", "Denver, CO 80224"], "state": "CO"}, "price": "$$", "transactions": ["delivery", "pickup"], "display_phone": "(303) 329-3366"}, {"rating": 5.0, "is_closed": false, "distance": 2266.2618054219997, "name": "ScooTours Denver Scooter Rental", "id": "scootours-denver-scooter-rental-denver-3", "image_url": "https://s3-media4.fl.yelpcdn.com/bphoto/iX_yX0jGp_pPM3SX2WWFwQ/o.jpg", "url": "https://www.yelp.com/biz/scootours-denver-scooter-rental-denver-3?adjust_creative=gBcvfFpabk3CnzmXKdYe3w&utm_campaign=yelp_api_v3&utm_medium=api_v3_business_search&utm_source=gBcvfFpabk3CnzmXKdYe3w", "phone": "+17205233240", "coordinates": {"longitude": -104.994462, "latitude": 39.7438069}, "categories": [{"alias": "tours", "title": "Tours"}, {"alias": "motorcycle_rental", "title": "Motorcycle Rental"}], "review_count": 120, "location": {"city": "Denver", "address1": "1417 California St", "address3": "", "address2": null, "zip_code": "80202", "country": "US", "display_address": ["1417 California St", "Denver, CO 80202"], "state": "CO"}, "transactions": [], "display_phone": "(720) 523-3240"}, {"rating": 3.5, "is_closed": false, "distance": 2293.1978118039997, "name": "Carioca Cafe - Bar Bar", "id": "carioca-cafe-bar-bar-denver-2", "image_url": "https://s3-media3.fl.yelpcdn.com/bphoto/o3f-hDn30KmDtrp9y9A2SQ/o.jpg", "url": "https://www.yelp.com/biz/carioca-cafe-bar-bar-denver-2?adjust_creative=gBcvfFpabk3CnzmXKdYe3w&utm_campaign=yelp_api_v3&utm_medium=api_v3_business_search&utm_source=gBcvfFpabk3CnzmXKdYe3w", "phone": "+13032961250", "coordinates": {"longitude": -104.98779, "latitude": 39.75088}, "categories": [{"alias": "divebars", "title": "Dive Bars"}, {"alias": "musicvenues", "title": "Music Venues"}], "review_count": 40, "location": {"city": "Denver", "address1": "2060 Champa St", "address3": "", "address2": null, "zip_code": "80205", "country": "US", "display_address": ["2060 Champa St", "Denver, CO 80205"], "state": "CO"}, "price": "$", "transactions": [], "display_phone": "(303) 296-1250"}, {"rating": 3.5, "is_closed": false, "distance": 2812.383931458, "name": "101 Asian Fusion", "id": "101-asian-fusion-denver", "image_url": "https://s3-media3.fl.yelpcdn.com/bphoto/QbBe-bNH7ajPJAIj80O-vA/o.jpg", "url": "https://www.yelp.com/biz/101-asian-fusion-denver?adjust_creative=gBcvfFpabk3CnzmXKdYe3w&utm_campaign=yelp_api_v3&utm_medium=api_v3_business_search&utm_source=gBcvfFpabk3CnzmXKdYe3w", "phone": "+13033551688", "coordinates": {"longitude": -104.94651, "latitude": 39.71798}, "categories": [{"alias": "chinese", "title": "Chinese"}, {"alias": "asianfusion", "title": "Asian Fusion"}], "review_count": 84, "location": {"city": "Denver", "address1": "101 Madison St", "address3": "", "address2": "", "zip_code": "80206", "country": "US", "display_address": ["101 Madison St", "Denver, CO 80206"], "state": "CO"}, "price": "$$", "transactions": ["delivery", "pickup"], "display_phone": "(303) 355-1688"}, {"rating": 4.0, "is_closed": false, "distance": 6513.786912863999, "name": "Pho Le", "id": "pho-le-denver", "image_url": "https://s3-media2.fl.yelpcdn.com/bphoto/bEwjwSuRnjM-Pz9KLIUXog/o.jpg", "url": "https://www.yelp.com/biz/pho-le-denver?adjust_creative=gBcvfFpabk3CnzmXKdYe3w&utm_campaign=yelp_api_v3&utm_medium=api_v3_business_search&utm_source=gBcvfFpabk3CnzmXKdYe3w", "phone": "+13039356264", "coordinates": {"longitude": -105.02546, "latitude": 39.69514}, "categories": [{"alias": "vietnamese", "title": "Vietnamese"}, {"alias": "noodles", "title": "Noodles"}, {"alias": "soup", "title": "Soup"}], "review_count": 36, "location": {"city": "Denver", "address1": "1195 S Federal Blvd", "address3": "", "address2": "", "zip_code": "80219", "country": "US", "display_address": ["1195 S Federal Blvd", "Denver, CO 80219"], "state": "CO"}, "price": "$", "transactions": [], "display_phone": "(303) 935-6264"}, {"rating": 3.5, "is_closed": false, "distance": 4552.259591, "name": "Denver Deep Dish", "id": "denver-deep-dish-denver-3", "image_url": "https://s3-media1.fl.yelpcdn.com/bphoto/kyDwRjLq7KDsCHvkeu1Luw/o.jpg", "url": "https://www.yelp.com/biz/denver-deep-dish-denver-3?adjust_creative=gBcvfFpabk3CnzmXKdYe3w&utm_campaign=yelp_api_v3&utm_medium=api_v3_business_search&utm_source=gBcvfFpabk3CnzmXKdYe3w", "phone": "+17206193337", "coordinates": {"longitude": -105.0009316, "latitude": 39.7689824}, "categories": [{"alias": "pizza", "title": "Pizza"}, {"alias": "sandwiches", "title": "Sandwiches"}, {"alias": "chicken_wings", "title": "Chicken Wings"}], "review_count": 174, "location": {"city": "Denver", "address1": "1200 W 38th Ave", "address3": "", "address2": null, "zip_code": "80211", "country": "US", "display_address": ["1200 W 38th Ave", "Denver, CO 80211"], "state": "CO"}, "price": "$$", "transactions": ["delivery", "pickup"], "display_phone": "(720) 619-3337"}, {"rating": 3.5, "is_closed": false, "distance": 2568.378053734, "name": "Swing Thai", "id": "swing-thai-denver", "image_url": "https://s3-media4.fl.yelpcdn.com/bphoto/K2ODR8e8_oM50Moxi87oFA/o.jpg", "url": "https://www.yelp.com/biz/swing-thai-denver?adjust_creative=gBcvfFpabk3CnzmXKdYe3w&utm_campaign=yelp_api_v3&utm_medium=api_v3_business_search&utm_source=gBcvfFpabk3CnzmXKdYe3w", "phone": "+13033330444", "coordinates": {"longitude": -104.94107, "latitude": 39.72984}, "categories": [{"alias": "thai", "title": "Thai"}, {"alias": "bars", "title": "Bars"}, {"alias": "gluten_free", "title": "Gluten-Free"}], "review_count": 216, "location": {"city": "Denver", "address1": "845 Colorado Blvd", "address3": "", "address2": "", "zip_code": "80206", "country": "US", "display_address": ["845 Colorado Blvd", "Denver, CO 80206"], "state": "CO"}, "price": "$$", "transactions": ["delivery", "pickup"], "display_phone": "(303) 333-0444"}, {"rating": 3.5, "is_closed": false, "distance": 588.9428975804, "name": "Tooey's Off Colfax", "id": "tooeys-off-colfax-denver", "image_url": "https://s3-media3.fl.yelpcdn.com/bphoto/JtEsn8hZm6qbbSNJ6y1pkg/o.jpg", "url": "https://www.yelp.com/biz/tooeys-off-colfax-denver?adjust_creative=gBcvfFpabk3CnzmXKdYe3w&utm_campaign=yelp_api_v3&utm_medium=api_v3_business_search&utm_source=gBcvfFpabk3CnzmXKdYe3w", "phone": "+13035865075", "coordinates": {"longitude": -104.9724899, "latitude": 39.74051}, "categories": [{"alias": "bars", "title": "Bars"}], "review_count": 64, "location": {"city": "Denver", "address1": "1521 Marion St", "address3": "", "address2": "", "zip_code": "80218", "country": "US", "display_address": ["1521 Marion St", "Denver, CO 80218"], "state": "CO"}, "price": "$", "transactions": [], "display_phone": "(303) 586-5075"}, {"rating": 3.5, "is_closed": false, "distance": 2881.080540566, "name": "Sushi-Rama", "id": "sushi-rama-denver", "image_url": "https://s3-media3.fl.yelpcdn.com/bphoto/6I1KhnFN7oTGlEFnTuoPQQ/o.jpg", "url": "https://www.yelp.com/biz/sushi-rama-denver?adjust_creative=gBcvfFpabk3CnzmXKdYe3w&utm_campaign=yelp_api_v3&utm_medium=api_v3_business_search&utm_source=gBcvfFpabk3CnzmXKdYe3w", "phone": "+17204764643", "coordinates": {"longitude": -104.9850478, "latitude": 39.7588009}, "categories": [{"alias": "sushi", "title": "Sushi Bars"}], "review_count": 93, "location": {"city": "Denver", "address1": "2615 Larimer St", "address3": "", "address2": "", "zip_code": "80205", "country": "US", "display_address": ["2615 Larimer St", "Denver, CO 80205"], "state": "CO"}, "price": "$$", "transactions": [], "display_phone": "(720) 476-4643"}, {"rating": 4.0, "is_closed": false, "distance": 7781.653932984, "name": "Breakfast Inn", "id": "breakfast-inn-denver-2", "image_url": "https://s3-media2.fl.yelpcdn.com/bphoto/BpqgbcWmRPegfnra-XCkqg/o.jpg", "url": "https://www.yelp.com/biz/breakfast-inn-denver-2?adjust_creative=gBcvfFpabk3CnzmXKdYe3w&utm_campaign=yelp_api_v3&utm_medium=api_v3_business_search&utm_source=gBcvfFpabk3CnzmXKdYe3w", "phone": "+13037577491", "coordinates": {"longitude": -104.91697, "latitude": 39.67879}, "categories": [{"alias": "breakfast_brunch", "title": "Breakfast & Brunch"}, {"alias": "comfortfood", "title": "Comfort Food"}, {"alias": "tradamerican", "title": "American (Traditional)"}], "review_count": 146, "location": {"city": "Denver", "address1": "6135 E Evans Ave", "address3": "", "address2": "", "zip_code": "80222", "country": "US", "display_address": ["6135 E Evans Ave", "Denver, CO 80222"], "state": "CO"}, "price": "$", "transactions": ["delivery", "pickup"], "display_phone": "(303) 757-7491"}, {"rating": 3.5, "is_closed": false, "distance": 2181.534238706, "name": "Chow Urban Grill", "id": "chow-urban-grill-denver", "image_url": "https://s3-media2.fl.yelpcdn.com/bphoto/jd4MkKbCrOWWjh5BYcOHwg/o.jpg", "url": "https://www.yelp.com/biz/chow-urban-grill-denver?adjust_creative=gBcvfFpabk3CnzmXKdYe3w&utm_campaign=yelp_api_v3&utm_medium=api_v3_business_search&utm_source=gBcvfFpabk3CnzmXKdYe3w", "phone": "+13035970624", "coordinates": {"longitude": -104.945409223423, "latitude": 39.740022038785}, "categories": [{"alias": "tradamerican", "title": "American (Traditional)"}, {"alias": "seafood", "title": "Seafood"}], "review_count": 74, "location": {"city": "Denver", "address1": "3570 E Colfax Ave", "address3": "", "address2": "", "zip_code": "80206", "country": "US", "display_address": ["3570 E Colfax Ave", "Denver, CO 80206"], "state": "CO"}, "price": "$$", "transactions": ["delivery", "pickup"], "display_phone": "(303) 597-0624"}, {"rating": 3.5, "is_closed": false, "distance": 7003.859589115999, "name": "Famous Dave's BBQ", "id": "famous-daves-bbq-denver-2", "image_url": "https://s3-media2.fl.yelpcdn.com/bphoto/QzyEXDz6Recq6TdvC-lsnA/o.jpg", "url": "https://www.yelp.com/biz/famous-daves-bbq-denver-2?adjust_creative=gBcvfFpabk3CnzmXKdYe3w&utm_campaign=yelp_api_v3&utm_medium=api_v3_business_search&utm_source=gBcvfFpabk3CnzmXKdYe3w", "phone": "+13033993100", "coordinates": {"longitude": -104.89985335967, "latitude": 39.767752151727}, "categories": [{"alias": "bbq", "title": "Barbeque"}], "review_count": 150, "location": {"city": "Denver", "address1": "7557 E 36th Ave", "address3": "", "address2": "", "zip_code": "80207", "country": "US", "display_address": ["7557 E 36th Ave", "Denver, CO 80207"], "state": "CO"}, "price": "$$", "transactions": [], "display_phone": "(303) 399-3100"}, {"rating": 5.0, "is_closed": false, "distance": 2463.2260312099997, "name": "The Bar At the Aztlan Theater", "id": "the-bar-at-the-aztlan-theater-denver", "image_url": "https://s3-media1.fl.yelpcdn.com/bphoto/3VaqEl9DPUyOvuV2PwfrgQ/o.jpg", "url": "https://www.yelp.com/biz/the-bar-at-the-aztlan-theater-denver?adjust_creative=gBcvfFpabk3CnzmXKdYe3w&utm_campaign=yelp_api_v3&utm_medium=api_v3_business_search&utm_source=gBcvfFpabk3CnzmXKdYe3w", "phone": "+13035730188", "coordinates": {"longitude": -104.9985428, "latitude": 39.7318916}, "categories": [{"alias": "divebars", "title": "Dive Bars"}], "review_count": 8, "location": {"city": "Denver", "address1": "974 Santa Fe Dr", "address3": "", "address2": "", "zip_code": "80204", "country": "US", "display_address": ["974 Santa Fe Dr", "Denver, CO 80204"], "state": "CO"}, "price": "$", "transactions": [], "display_phone": "(303) 573-0188"}, {"rating": 3.5, "is_closed": false, "distance": 4895.068644948, "name": "Zio Romolo's Alley Bar", "id": "zio-romolos-alley-bar-denver", "image_url": "https://s3-media4.fl.yelpcdn.com/bphoto/SXmhvu7ix8olq7ZNEENHMA/o.jpg", "url": "https://www.yelp.com/biz/zio-romolos-alley-bar-denver?adjust_creative=gBcvfFpabk3CnzmXKdYe3w&utm_campaign=yelp_api_v3&utm_medium=api_v3_business_search&utm_source=gBcvfFpabk3CnzmXKdYe3w", "phone": "+13034774900", "coordinates": {"longitude": -105.01613, "latitude": 39.76186}, "categories": [{"alias": "lounges", "title": "Lounges"}, {"alias": "italian", "title": "Italian"}, {"alias": "musicvenues", "title": "Music Venues"}], "review_count": 66, "location": {"city": "Denver", "address1": "2400 W 32nd Ave", "address3": "", "address2": "", "zip_code": "80211", "country": "US", "display_address": ["2400 W 32nd Ave", "Denver, CO 80211"], "state": "CO"}, "price": "$$", "transactions": [], "display_phone": "(303) 477-4900"}, {"rating": 3.5, "is_closed": false, "distance": 2909.687846538, "name": "Swing Thai", "id": "swing-thai-denver-2", "image_url": "https://s3-media3.fl.yelpcdn.com/bphoto/szp94mQPbBS-cED5fRJHag/o.jpg", "url": "https://www.yelp.com/biz/swing-thai-denver-2?adjust_creative=gBcvfFpabk3CnzmXKdYe3w&utm_campaign=yelp_api_v3&utm_medium=api_v3_business_search&utm_source=gBcvfFpabk3CnzmXKdYe3w", "phone": "+13037770559", "coordinates": {"longitude": -104.981842041016, "latitude": 39.7109642028809}, "categories": [{"alias": "thai", "title": "Thai"}, {"alias": "gluten_free", "title": "Gluten-Free"}], "review_count": 117, "location": {"city": "Denver", "address1": "301 S Pennsylvania St", "address3": "", "address2": "", "zip_code": "80209", "country": "US", "display_address": ["301 S Pennsylvania St", "Denver, CO 80209"], "state": "CO"}, "price": "$$", "transactions": ["delivery", "pickup"], "display_phone": "(303) 777-0559"}]}