{"total": 34880, "region": {"center": {"longitude": -104.97024536132812, "latitude": 39.73552421220229}}, "businesses": [{"rating": 4.0, "is_closed": false, "distance": 5220.682383798, "name": "Santiago's", "id": "santiagos-denver-3", "image_url": "https://s3-media4.fl.yelpcdn.com/bphoto/R3jWFDNWLLkrxW8oXqootw/o.jpg", "url": "https://www.yelp.com/biz/santiagos-denver-3?adjust_creative=gBcvfFpabk3CnzmXKdYe3w&utm_campaign=yelp_api_v3&utm_medium=api_v3_business_search&utm_source=gBcvfFpabk3CnzmXKdYe3w", "phone": "+13033335305", "coordinates": {"longitude": -104.9214, "latitude": 39.70736}, "categories": [{"alias": "mexican", "title": "Mexican"}], "review_count": 182, "location": {"city": "Denver", "address1": "5701 Leetsdale Dr", "address3": "", "address2": null, "zip_code": "80224", "country": "US", "display_address": ["5701 Leetsdale Dr", "Denver, CO 80224"], "state": "CO"}, "price": "$", "transactions": [], "display_phone": "(303) 333-5305"}, {"rating": 4.0, "is_closed": false, "distance": 1901.509400574, "name": "Backcountry Delicatessen", "id": "backcountry-delicatessen-denver-3", "image_url": "https://s3-media4.fl.yelpcdn.com/bphoto/HTOC16YdJ-BBtaB5co_cUg/o.jpg", "url": "https://www.yelp.com/biz/backcountry-delicatessen-denver-3?adjust_creative=gBcvfFpabk3CnzmXKdYe3w&utm_campaign=yelp_api_v3&utm_medium=api_v3_business_search&utm_source=gBcvfFpabk3CnzmXKdYe3w", "phone": "+13035342100", "coordinates": {"longitude": -104.989265, "latitude": 39.744385}, "categories": [{"alias": "salad", "title": "Salad"}, {"alias": "delis", "title": "Delis"}, {"alias": "sandwiches", "title": "Sandwiches"}], "review_count": 47, "location": {"city": "Denver", "address1": "444 17th St", "address3": "", "address2": null, "zip_code": "80202", "country": "US", "display_address": ["444 17th St", "Denver, CO 80202"], "state": "CO"}, "price": "$", "transactions": ["delivery", "pickup"], "display_phone": "(303) 534-2100"}, {"rating": 3.5, "is_closed": false, "distance": 2590.340233912, "name": "The Corner Office", "id": "the-corner-office-denver", "image_url": "https://s3-media2.fl.yelpcdn.com/bphoto/J8El5r5EODOCPvFDr3wbLQ/o.jpg", "url": "https://www.yelp.com/biz/the-corner-office-denver?adjust_creative=gBcvfFpabk3CnzmXKdYe3w&utm_campaign=yelp_api_v3&utm_medium=api_v3_business_search&utm_source=gBcvfFpabk3CnzmXKdYe3w", "phone": "+13038256500", "coordinates": {"longitude": -104.99718, "latitude": 39.74558}, "categories": [{"alias": "newamerican", "title": "American (New)"}, {"alias": "lounges", "title": "Lounges"}], "review_count": 583, "location": {"city": "Denver", "address1": "1401 Curtis St", "address3": "", "address2": "", "zip_code": "80202", "country": "US", "display_address": ["1401 Curtis St", "Denver, CO 80202"], "state": "CO"}, "price": "$$", "transactions": [], "display_phone": "(303) 825-6500"}, {"rating": 4.0, "is_closed": false, "distance": 6348.0094432, "name": "Pho OK", "id": "pho-ok-denver-3", "image_url": "https://s3-media2.fl.yelpcdn.com/bphoto/wU8RTiXsXz84VMhXU6viXA/o.jpg", "url": "https://www.yelp.com/biz/pho-ok-denver-3?adjust_creative=gBcvfFpabk3CnzmXKdYe3w&utm_campaign=yelp_api_v3&utm_medium=api_v3_business_search&utm_source=gBcvfFpabk3CnzmXKdYe3w", "phone": "+17203289589", "coordinates": {"longitude": -104.9113603, "latitude": 39.7007696}, "categories": [{"alias": "vietnamese", "title": "Vietnamese"}, {"alias": "bubbletea", "title": "Bubble Tea"}, {"alias": "soup", "title": "Soup"}], "review_count": 181, "location": {"city": "Denver", "address1": "890 S Monaco Pkwy", "address3": "", "address2": "Unit 8", "zip_code": "80224", "country": "US", "display_address": ["890 S Monaco Pkwy", "Unit 8", "Denver, CO 80224"], "state": "CO"}, "price": "$", "transactions": ["pickup"], "display_phone": "(720) 328-9589"}, {"rating": 4.0, "is_closed": false, "distance": 6097.268316642, "name": "Ranch House Caf\u00e9", "id": "ranch-house-caf\u00e9-denver-2", "image_url": "https://s3-media3.fl.yelpcdn.com/bphoto/Hh4AO3r0izXlCApqD62C5g/o.jpg", "url": "https://www.yelp.com/biz/ranch-house-caf%C3%A9-denver-2?adjust_creative=gBcvfFpabk3CnzmXKdYe3w&utm_campaign=yelp_api_v3&utm_medium=api_v3_business_search&utm_source=gBcvfFpabk3CnzmXKdYe3w", "phone": "+13033338328", "coordinates": {"longitude": -104.899147033691, "latitude": 39.7398681640625}, "categories": [{"alias": "tradamerican", "title": "American (Traditional)"}, {"alias": "breakfast_brunch", "title": "Breakfast & Brunch"}], "review_count": 86, "location": {"city": "Denver", "address1": "7676 E Colfax Ave", "address3": "", "address2": "", "zip_code": "80220", "country": "US", "display_address": ["7676 E Colfax Ave", "Denver, CO 80220"], "state": "CO"}, "price": "$", "transactions": [], "display_phone": "(303) 333-8328"}, {"rating": 3.5, "is_closed": false, "distance": 4205.588925722, "name": "Ale House", "id": "ale-house-denver-3", "image_url": "https://s3-media3.fl.yelpcdn.com/bphoto/ijNyZwIFSBdY7Qs630Htig/o.jpg", "url": "https://www.yelp.com/biz/ale-house-denver-3?adjust_creative=gBcvfFpabk3CnzmXKdYe3w&utm_campaign=yelp_api_v3&utm_medium=api_v3_business_search&utm_source=gBcvfFpabk3CnzmXKdYe3w", "phone": "+13034339734", "coordinates": {"longitude": -105.00910949707, "latitude": 39.7586708068848}, "categories": [{"alias": "newamerican", "title": "American (New)"}], "review_count": 604, "location": {"city": "Denver", "address1": "2501 16th St", "address3": "", "address2": "", "zip_code": "80211", "country": "US", "display_address": ["2501 16th St", "Denver, CO 80211"], "state": "CO"}, "price": "$$", "transactions": [], "display_phone": "(303) 433-9734"}, {"rating": 4.5, "is_closed": false, "distance": 3013.028395958, "name": "Li'l Devils Lounge", "id": "lil-devils-lounge-denver-3", "image_url": "https://s3-media1.fl.yelpcdn.com/bphoto/CT5xw--l3SZFus1CX521-w/o.jpg", "url": "https://www.yelp.com/biz/lil-devils-lounge-denver-3?adjust_creative=gBcvfFpabk3CnzmXKdYe3w&utm_campaign=yelp_api_v3&utm_medium=api_v3_business_search&utm_source=gBcvfFpabk3CnzmXKdYe3w", "phone": "+13037331156", "coordinates": {"longitude": -104.987640157342, "latitude": 39.7118975222111}, "categories": [{"alias": "gaybars", "title": "Gay Bars"}, {"alias": "lounges", "title": "Lounges"}], "review_count": 24, "location": {"city": "Denver", "address1": "255 S Broadway", "address3": "", "address2": "", "zip_code": "80209", "country": "US", "display_address": ["255 S Broadway", "Denver, CO 80209"], "state": "CO"}, "price": "$", "transactions": [], "display_phone": "(303) 733-1156"}, {"rating": 4.0, "is_closed": false, "distance": 2586.42342222, "name": "Max Market", "id": "max-market-denver", "image_url": "https://s3-media2.fl.yelpcdn.com/bphoto/NUutoqfZU97yXSjoGRfrTQ/o.jpg", "url": "https://www.yelp.com/biz/max-market-denver?adjust_creative=gBcvfFpabk3CnzmXKdYe3w&utm_campaign=yelp_api_v3&utm_medium=api_v3_business_search&utm_source=gBcvfFpabk3CnzmXKdYe3w", "phone": "+13039789530", "coordinates": {"longitude": -104.9907999, "latitude": 39.7526}, "categories": [{"alias": "delis", "title": "Delis"}, {"alias": "grocery", "title": "Grocery"}, {"alias": "sandwiches", "title": "Sandwiches"}], "review_count": 24, "location": {"city": "Denver", "address1": "2020 Lawrence St", "address3": "", "address2": "Unit B", "zip_code": "80205", "country": "US", "display_address": ["2020 Lawrence St", "Unit B", "Denver, CO 80205"], "state": "CO"}, "price": "$$", "transactions": ["pickup"], "display_phone": "(303) 978-9530"}, {"rating": 3.5, "is_closed": false, "distance": 2978.2866077739995, "name": "Buckhorn Exchange Restaurant", "id": "buckhorn-exchange-restaurant-denver", "image_url": "https://s3-media3.fl.yelpcdn.com/bphoto/tkvaQUvudGt_548QrRMDCg/o.jpg", "url": "https://www.yelp.com/biz/buckhorn-exchange-restaurant-denver?adjust_creative=gBcvfFpabk3CnzmXKdYe3w&utm_campaign=yelp_api_v3&utm_medium=api_v3_business_search&utm_source=gBcvfFpabk3CnzmXKdYe3w", "phone": "+13035349505", "coordinates": {"longitude": -105.004928588867, "latitude": 39.7323722839355}, "categories": [{"alias": "steak", "title": "Steakhouses"}], "review_count": 573, "location": {"city": "Denver", "address1": "1000 Osage St", "address3": "", "address2": "", "zip_code": "80204", "country": "US", "display_address": ["1000 Osage St", "Denver, CO 80204"], "state": "CO"}, "price": "$$$", "transactions": [], "display_phone": "(303) 534-9505"}, {"rating": 4.5, "is_closed": false, "distance": 3493.8871179079997, "name": "City Donuts", "id": "city-donuts-denver-2", "image_url": "https://s3-media3.fl.yelpcdn.com/bphoto/e8T78zM92CuVBj8VFo0J7w/o.jpg", "url": "https://www.yelp.com/biz/city-donuts-denver-2?adjust_creative=gBcvfFpabk3CnzmXKdYe3w&utm_campaign=yelp_api_v3&utm_medium=api_v3_business_search&utm_source=gBcvfFpabk3CnzmXKdYe3w", "phone": "+17204855706", "coordinates": {"longitude": -104.929796079762, "latitude": 39.7399637999269}, "categories": [{"alias": "donuts", "title": "Donuts"}, {"alias": "coffee", "title": "Coffee & Tea"}], "review_count": 28, "location": {"city": "Denver", "address1": "4918 E Colfax Ave", "address3": "", "address2": "", "zip_code": "80220", "country": "US", "display_address": ["4918 E Colfax Ave", "Denver, CO 80220"], "state": "CO"}, "price": "$", "transactions": [], "display_phone": "(720) 485-5706"}, {"rating": 3.5, "is_closed": false, "distance": 1161.5575602679999, "name": "Satchel's on 6th", "id": "satchels-on-6th-denver", "image_url": "https://s3-media3.fl.yelpcdn.com/bphoto/QmD0i611GTWlt0yIErAeoQ/o.jpg", "url": "https://www.yelp.com/biz/satchels-on-6th-denver?adjust_creative=gBcvfFpabk3CnzmXKdYe3w&utm_campaign=yelp_api_v3&utm_medium=api_v3_business_search&utm_source=gBcvfFpabk3CnzmXKdYe3w", "phone": "+13033992560", "coordinates": {"longitude": -104.96674, "latitude": 39.72545}, "categories": [{"alias": "newamerican", "title": "American (New)"}, {"alias": "salad", "title": "Salad"}, {"alias": "cocktailbars", "title": "Cocktail Bars"}], "review_count": 106, "location": {"city": "Denver", "address1": "1710 E 6th Ave", "address3": "", "address2": "", "zip_code": "80218", "country": "US", "display_address": ["1710 E 6th Ave", "Denver, CO 80218"], "state": "CO"}, "price": "$$", "transactions": [], "display_phone": "(303) 399-2560"}, {"rating": 4.0, "is_closed": false, "distance": 4821.342526472, "name": "The Village Cork", "id": "the-village-cork-denver-2", "image_url": "https://s3-media2.fl.yelpcdn.com/bphoto/sp-BSri9kk50CZrLnSp38Q/o.jpg", "url": "https://www.yelp.com/biz/the-village-cork-denver-2?adjust_creative=gBcvfFpabk3CnzmXKdYe3w&utm_campaign=yelp_api_v3&utm_medium=api_v3_business_search&utm_source=gBcvfFpabk3CnzmXKdYe3w", "phone": "+13032828399", "coordinates": {"longitude": -104.980382099748, "latitude": 39.6928726136684}, "categories": [{"alias": "wine_bars", "title": "Wine Bars"}, {"alias": "tradamerican", "title": "American (Traditional)"}, {"alias": "mediterranean", "title": "Mediterranean"}], "review_count": 113, "location": {"city": "Denver", "address1": "1300 S Pearl St", "address3": "", "address2": "", "zip_code": "80210", "country": "US", "display_address": ["1300 S Pearl St", "Denver, CO 80210"], "state": "CO"}, "price": "$$", "transactions": [], "display_phone": "(303) 282-8399"}, {"rating": 4.5, "is_closed": false, "distance": 6194.815402996, "name": "Thuan Viet Restaurant", "id": "thuan-viet-restaurant-denver-2", "image_url": "https://s3-media3.fl.yelpcdn.com/bphoto/XL1-AKuE6J-r7KaS2i4ezg/o.jpg", "url": "https://www.yelp.com/biz/thuan-viet-restaurant-denver-2?adjust_creative=gBcvfFpabk3CnzmXKdYe3w&utm_campaign=yelp_api_v3&utm_medium=api_v3_business_search&utm_source=gBcvfFpabk3CnzmXKdYe3w", "phone": "+13039222226", "coordinates": {"longitude": -105.0254593, "latitude": 39.6995087}, "categories": [{"alias": "vietnamese", "title": "Vietnamese"}], "review_count": 31, "location": {"city": "Denver", "address1": "945 S Federal Blvd", "address3": "", "address2": "Ste G", "zip_code": "80219", "country": "US", "display_address": ["945 S Federal Blvd", "Ste G", "Denver, CO 80219"], "state": "CO"}, "price": "$", "transactions": ["pickup"], "display_phone": "(303) 922-2226"}, {"rating": 3.5, "is_closed": false, "distance": 2386.264495598, "name": "The Shag Lounge", "id": "the-shag-lounge-denver", "image_url": "https://s3-media2.fl.yelpcdn.com/bphoto/7EQ80MPxGwycI_TK1AMa0Q/o.jpg", "url": "https://www.yelp.com/biz/the-shag-lounge-denver?adjust_creative=gBcvfFpabk3CnzmXKdYe3w&utm_campaign=yelp_api_v3&utm_medium=api_v3_business_search&utm_source=gBcvfFpabk3CnzmXKdYe3w", "phone": "+13038257424", "coordinates": {"longitude": -104.99504, "latitude": 39.74526}, "categories": [{"alias": "lounges", "title": "Lounges"}], "review_count": 78, "location": {"city": "Denver", "address1": "830 15th St", "address3": "", "address2": "", "zip_code": "80202", "country": "US", "display_address": ["830 15th St", "Denver, CO 80202"], "state": "CO"}, "price": "$", "transactions": [], "display_phone": "(303) 825-7424"}, {"rating": 4.0, "is_closed": false, "distance": 2585.112775724, "name": "III Forks", "id": "iii-forks-denver", "image_url": "https://s3-media2.fl.yelpcdn.com/bphoto/wwbFohUS1uG0QBzDRvtbeg/o.jpg", "url": "https://www.yelp.com/biz/iii-forks-denver?adjust_creative=gBcvfFpabk3CnzmXKdYe3w&utm_campaign=yelp_api_v3&utm_medium=api_v3_business_search&utm_source=gBcvfFpabk3CnzmXKdYe3w", "phone": "+13035340404", "coordinates": {"longitude": -104.996482849121, "latitude": 39.7464218139648}, "categories": [{"alias": "steak", "title": "Steakhouses"}, {"alias": "beer_and_wine", "title": "Beer, Wine & Spirits"}, {"alias": "seafood", "title": "Seafood"}], "review_count": 67, "location": {"city": "Denver", "address1": "1040 15th St", "address3": null, "address2": null, "zip_code": "80202", "country": "US", "display_address": ["1040 15th St", "Denver, CO 80202"], "state": "CO"}, "price": "$$$", "transactions": [], "display_phone": "(303) 534-0404"}, {"rating": 4.0, "is_closed": false, "distance": 4400.934638272, "name": "Red Sea Restaurant", "id": "red-sea-restaurant-denver-2", "image_url": "https://s3-media2.fl.yelpcdn.com/bphoto/buVQxC3x0QTZ1nzrma5Wew/o.jpg", "url": "https://www.yelp.com/biz/red-sea-restaurant-denver-2?adjust_creative=gBcvfFpabk3CnzmXKdYe3w&utm_campaign=yelp_api_v3&utm_medium=api_v3_business_search&utm_source=gBcvfFpabk3CnzmXKdYe3w", "phone": "+17209209648", "coordinates": {"longitude": -104.9190799, "latitude": 39.73994}, "categories": [{"alias": "ethiopian", "title": "Ethiopian"}, {"alias": "coffee", "title": "Coffee & Tea"}, {"alias": "vegetarian", "title": "Vegetarian"}], "review_count": 53, "location": {"city": "Denver", "address1": "5910 E Colfax Ave", "address3": "", "address2": "", "zip_code": "80220", "country": "US", "display_address": ["5910 E Colfax Ave", "Denver, CO 80220"], "state": "CO"}, "price": "$$", "transactions": [], "display_phone": "(720) 920-9648"}, {"rating": 4.0, "is_closed": false, "distance": 2723.0089126899998, "name": "Black Sky Brewery", "id": "black-sky-brewery-denver", "image_url": "https://s3-media2.fl.yelpcdn.com/bphoto/Ene7ja_n15TgvHgtH8IN8A/o.jpg", "url": "https://www.yelp.com/biz/black-sky-brewery-denver?adjust_creative=gBcvfFpabk3CnzmXKdYe3w&utm_campaign=yelp_api_v3&utm_medium=api_v3_business_search&utm_source=gBcvfFpabk3CnzmXKdYe3w", "phone": "+17207085816", "coordinates": {"longitude": -104.998298, "latitude": 39.723938}, "categories": [{"alias": "breweries", "title": "Breweries"}, {"alias": "pizza", "title": "Pizza"}], "review_count": 115, "location": {"city": "Denver", "address1": "490 Santa Fe Dr", "address3": "", "address2": "", "zip_code": "80204", "country": "US", "display_address": ["490 Santa Fe Dr", "Denver, CO 80204"], "state": "CO"}, "price": "$", "transactions": ["pickup"], "display_phone": "(720) 708-5816"}, {"rating": 4.0, "is_closed": false, "distance": 2978.5468380519997, "name": "All-V's Sandwiches", "id": "all-vs-sandwiches-denver", "image_url": "https://s3-media2.fl.yelpcdn.com/bphoto/dSsHR200bM83h-LxLijvYw/o.jpg", "url": "https://www.yelp.com/biz/all-vs-sandwiches-denver?adjust_creative=gBcvfFpabk3CnzmXKdYe3w&utm_campaign=yelp_api_v3&utm_medium=api_v3_business_search&utm_source=gBcvfFpabk3CnzmXKdYe3w", "phone": "+13033770401", "coordinates": {"longitude": -104.93642, "latitude": 39.72904}, "categories": [{"alias": "sandwiches", "title": "Sandwiches"}], "review_count": 89, "location": {"city": "Denver", "address1": "4326 E 8th Ave", "address3": "", "address2": "", "zip_code": "80220", "country": "US", "display_address": ["4326 E 8th Ave", "Denver, CO 80220"], "state": "CO"}, "price": "$", "transactions": [], "display_phone": "(303) 377-0401"}, {"rating": 3.5, "is_closed": false, "distance": 2514.6983571, "name": "Rock Bottom Restaurant & Brewery", "id": "rock-bottom-restaurant-and-brewery-denver", "image_url": "https://s3-media3.fl.yelpcdn.com/bphoto/2ASS3Z9gaHHdSa70J4dFDg/o.jpg", "url": "https://www.yelp.com/biz/rock-bottom-restaurant-and-brewery-denver?adjust_creative=gBcvfFpabk3CnzmXKdYe3w&utm_campaign=yelp_api_v3&utm_medium=api_v3_business_search&utm_source=gBcvfFpabk3CnzmXKdYe3w", "phone": "+13035347616", "coordinates": {"longitude": -104.99449, "latitude": 39.74794}, "categories": [{"alias": "breweries", "title": "Breweries"}, {"alias": "sportsbars", "title": "Sports Bars"}, {"alias": "tradamerican", "title": "American (Traditional)"}], "review_count": 477, "location": {"city": "Denver", "address1": "1001 16th St", "address3": "", "address2": "Ste A-100", "zip_code": "80265", "country": "US", "display_address": ["1001 16th St", "Ste A-100", "Denver, CO 80265"], "state": "CO"}, "price": "$$", "transactions": [], "display_phone": "(303) 534-7616"}, {"rating": 4.0, "is_closed": false, "distance": 2805.982942542, "name": "New China Cafe", "id": "new-china-cafe-denver", "image_url": "https://s3-media2.fl.yelpcdn.com/bphoto/e-O1RTwekXs4txXfSql76A/o.jpg", "url": "https://www.yelp.com/biz/new-china-cafe-denver?adjust_creative=gBcvfFpabk3CnzmXKdYe3w&utm_campaign=yelp_api_v3&utm_medium=api_v3_business_search&utm_source=gBcvfFpabk3CnzmXKdYe3w", "phone": "+13037332833", "coordinates": {"longitude": -104.97996, "latitude": 39.71126}, "categories": [{"alias": "chinese", "title": "Chinese"}], "review_count": 121, "location": {"city": "Denver", "address1": "609 E Alameda Ave", "address3": "", "address2": "", "zip_code": "80209", "country": "US", "display_address": ["609 E Alameda Ave", "Denver, CO 80209"], "state": "CO"}, "price": "$", "transactions": [], "display_phone": "(303) 733-2833"}, {"rating": 4.0, "is_closed": false, "distance": 1165.5107430439998, "name": "Fork & Spoon", "id": "fork-and-spoon-denver", "image_url": "https://s3-media2.fl.yelpcdn.com/bphoto/JhlBlhf3Jf2hYt3Vp28-Eg/o.jpg", "url": "https://www.yelp.com/biz/fork-and-spoon-denver?adjust_creative=gBcvfFpabk3CnzmXKdYe3w&utm_campaign=yelp_api_v3&utm_medium=api_v3_business_search&utm_source=gBcvfFpabk3CnzmXKdYe3w", "phone": "+13038470345", "coordinates": {"longitude": -104.9824917, "latitude": 39.7401289}, "categories": [{"alias": "tradamerican", "title": "American (Traditional)"}, {"alias": "salad", "title": "Salad"}, {"alias": "sandwiches", "title": "Sandwiches"}], "review_count": 123, "location": {"city": "Denver", "address1": "341 E Colfax Ave", "address3": "", "address2": "", "zip_code": "80203", "country": "US", "display_address": ["341 E Colfax Ave", "Denver, CO 80203"], "state": "CO"}, "price": "$$", "transactions": ["delivery", "pickup"], "display_phone": "(303) 847-0345"}, {"rating": 3.5, "is_closed": false, "distance": 2040.063596666, "name": "Tommy's Thai Restaurant", "id": "tommys-thai-restaurant-denver", "image_url": "https://s3-media1.fl.yelpcdn.com/bphoto/N6cu6vffDtiXewjMg3-4-w/o.jpg", "url": "https://www.yelp.com/biz/tommys-thai-restaurant-denver?adjust_creative=gBcvfFpabk3CnzmXKdYe3w&utm_campaign=yelp_api_v3&utm_medium=api_v3_business_search&utm_source=gBcvfFpabk3CnzmXKdYe3w", "phone": "+13033774244", "coordinates": {"longitude": -104.94699, "latitude": 39.73992}, "categories": [{"alias": "thai", "title": "Thai"}], "review_count": 356, "location": {"city": "Denver", "address1": "3410 E Colfax Ave", "address3": "", "address2": "", "zip_code": "80206", "country": "US", "display_address": ["3410 E Colfax Ave", "Denver, CO 80206"], "state": "CO"}, "price": "$", "transactions": [], "display_phone": "(303) 377-4244"}, {"rating": 4.5, "is_closed": false, "distance": 8347.613266662, "name": "Stapleton Tap House", "id": "stapleton-tap-house-denver", "image_url": "https://s3-media2.fl.yelpcdn.com/bphoto/Go8kpXcPzrLiDVVl5CR7EA/o.jpg", "url": "https://www.yelp.com/biz/stapleton-tap-house-denver?adjust_creative=gBcvfFpabk3CnzmXKdYe3w&utm_campaign=yelp_api_v3&utm_medium=api_v3_business_search&utm_source=gBcvfFpabk3CnzmXKdYe3w", "phone": "+17204492337", "coordinates": {"longitude": -104.892424722855, "latitude": 39.7808749995451}, "categories": [{"alias": "bars", "title": "Bars"}], "review_count": 90, "location": {"city": "Denver", "address1": "8286 E Northfield Blvd", "address3": "", "address2": "Unit 1525", "zip_code": "80238", "country": "US", "display_address": ["8286 E Northfield Blvd", "Unit 1525", "Denver, CO 80238"], "state": "CO"}, "price": "$", "transactions": [], "display_phone": "(720) 449-2337"}, {"rating": 4.0, "is_closed": false, "distance": 6558.968811496, "name": "Lowry Beer Garden", "id": "lowry-beer-garden-denver", "image_url": "https://s3-media3.fl.yelpcdn.com/bphoto/dzW-gbeGHPZW9l0ZkWt2Nw/o.jpg", "url": "https://www.yelp.com/biz/lowry-beer-garden-denver?adjust_creative=gBcvfFpabk3CnzmXKdYe3w&utm_campaign=yelp_api_v3&utm_medium=api_v3_business_search&utm_source=gBcvfFpabk3CnzmXKdYe3w", "phone": "+13033660114", "coordinates": {"longitude": -104.89617123048, "latitude": 39.720228365275}, "categories": [{"alias": "burgers", "title": "Burgers"}, {"alias": "beergardens", "title": "Beer Gardens"}, {"alias": "sandwiches", "title": "Sandwiches"}], "review_count": 341, "location": {"city": "Denver", "address1": "7577 E Academy Blvd", "address3": "", "address2": "", "zip_code": "80230", "country": "US", "display_address": ["7577 E Academy Blvd", "Denver, CO 80230"], "state": "CO"}, "price": "$$", "transactions": [], "display_phone": "(303) 366-0114"}, {"rating": 3.5, "is_closed": false, "distance": 3166.40702746, "name": "Rodizio Grill", "id": "rodizio-grill-denver-4", "image_url": "https://s3-media3.fl.yelpcdn.com/bphoto/vwCRvR-ckv7qbJpNtcKKEA/o.jpg", "url": "https://www.yelp.com/biz/rodizio-grill-denver-4?adjust_creative=gBcvfFpabk3CnzmXKdYe3w&utm_campaign=yelp_api_v3&utm_medium=api_v3_business_search&utm_source=gBcvfFpabk3CnzmXKdYe3w", "phone": "+13032949277", "coordinates": {"longitude": -104.998431005314, "latitude": 39.7539989260745}, "categories": [{"alias": "steak", "title": "Steakhouses"}, {"alias": "brazilian", "title": "Brazilian"}, {"alias": "buffets", "title": "Buffets"}], "review_count": 348, "location": {"city": "Denver", "address1": "1801 Wynkoop St", "address3": "", "address2": "", "zip_code": "80202", "country": "US", "display_address": ["1801 Wynkoop St", "Denver, CO 80202"], "state": "CO"}, "price": "$$$", "transactions": [], "display_phone": "(303) 294-9277"}, {"rating": 4.0, "is_closed": false, "distance": 10239.92142672, "name": "The Bagel Deli & Restaurant", "id": "the-bagel-deli-and-restaurant-denver-3", "image_url": "https://s3-media2.fl.yelpcdn.com/bphoto/EsH9CnegHfQ8PVkhDY-nKQ/o.jpg", "url": "https://www.yelp.com/biz/the-bagel-deli-and-restaurant-denver-3?adjust_creative=gBcvfFpabk3CnzmXKdYe3w&utm_campaign=yelp_api_v3&utm_medium=api_v3_business_search&utm_source=gBcvfFpabk3CnzmXKdYe3w", "phone": "+13037566667", "coordinates": {"longitude": -104.913963317871, "latitude": 39.6541938781738}, "categories": [{"alias": "delis", "title": "Delis"}, {"alias": "bagels", "title": "Bagels"}, {"alias": "breakfast_brunch", "title": "Breakfast & Brunch"}], "review_count": 447, "location": {"city": "Denver", "address1": "6439 E Hampden Ave", "address3": "", "address2": "", "zip_code": "80222", "country": "US", "display_address": ["6439 E Hampden Ave", "Denver, CO 80222"], "state": "CO"}, "price": "$$", "transactions": ["delivery", "pickup"], "display_phone": "(303) 756-6667"}, {"rating": 4.5, "is_closed": false, "distance": 2086.016208224, "name": "12 at Madison", "id": "12-at-madison-denver", "image_url": "https://s3-media2.fl.yelpcdn.com/bphoto/ZoaC94182oFl05F3C-CQ3g/o.jpg", "url": "https://www.yelp.com/biz/12-at-madison-denver?adjust_creative=gBcvfFpabk3CnzmXKdYe3w&utm_campaign=yelp_api_v3&utm_medium=api_v3_business_search&utm_source=gBcvfFpabk3CnzmXKdYe3w", "phone": "+17202160190", "coordinates": {"longitude": -104.94586, "latitude": 39.73477}, "categories": [{"alias": "tradamerican", "title": "American (Traditional)"}, {"alias": "bars", "title": "Bars"}], "review_count": 17, "location": {"city": "Denver", "address1": "1160 Madison St", "address3": "", "address2": null, "zip_code": "80206", "country": "US", "display_address": ["1160 Madison St", "Denver, CO 80206"], "state": "CO"}, "transactions": [], "display_phone": "(720) 216-0190"}, {"rating": 3.5, "is_closed": false, "distance": 2972.547218532, "name": "Blake Street Vault", "id": "blake-street-vault-denver", "image_url": "https://s3-media4.fl.yelpcdn.com/bphoto/qjy10Z3ps6zJHCnPayI0AA/o.jpg", "url": "https://www.yelp.com/biz/blake-street-vault-denver?adjust_creative=gBcvfFpabk3CnzmXKdYe3w&utm_campaign=yelp_api_v3&utm_medium=api_v3_business_search&utm_source=gBcvfFpabk3CnzmXKdYe3w", "phone": "+13038259833", "coordinates": {"longitude": -104.99959, "latitude": 39.7498}, "categories": [{"alias": "pubs", "title": "Pubs"}, {"alias": "burgers", "title": "Burgers"}, {"alias": "cocktailbars", "title": "Cocktail Bars"}], "review_count": 165, "location": {"city": "Denver", "address1": "1526 Blake St", "address3": "", "address2": "", "zip_code": "80202", "country": "US", "display_address": ["1526 Blake St", "Denver, CO 80202"], "state": "CO"}, "price": "$$", "transactions": [], "display_phone": "(303) 825-9833"}, {"rating": 3.5, "is_closed": false, "distance": 2556.2442738699997, "name": "iSushi Japanese Restaurant", "id": "isushi-japanese-restaurant-denver", "image_url": "https://s3-media2.fl.yelpcdn.com/bphoto/DGXzPyyqdjWZcWAc5ilxWQ/o.jpg", "url": "https://www.yelp.com/biz/isushi-japanese-restaurant-denver?adjust_creative=gBcvfFpabk3CnzmXKdYe3w&utm_campaign=yelp_api_v3&utm_medium=api_v3_business_search&utm_source=gBcvfFpabk3CnzmXKdYe3w", "phone": "+13037476776", "coordinates": {"longitude": -104.998976, "latitude": 39.729179}, "categories": [{"alias": "sushi", "title": "Sushi Bars"}, {"alias": "japanese", "title": "Japanese"}], "review_count": 156, "location": {"city": "Denver", "address1": "801 Santa Fe Dr", "address3": "", "address2": "", "zip_code": "80204", "country": "US", "display_address": ["801 Santa Fe Dr", "Denver, CO 80204"], "state": "CO"}, "price": "$$", "transactions": ["delivery", "pickup"], "display_phone": "(303) 747-6776"}, {"rating": 3.5, "is_closed": false, "distance": 864.6284400835999, "name": "Waffle Brothers Pub Style", "id": "waffle-brothers-pub-style-denver", "image_url": "https://s3-media4.fl.yelpcdn.com/bphoto/GpToyM6OW8VoYqH4R8gFDg/o.jpg", "url": "https://www.yelp.com/biz/waffle-brothers-pub-style-denver?adjust_creative=gBcvfFpabk3CnzmXKdYe3w&utm_campaign=yelp_api_v3&utm_medium=api_v3_business_search&utm_source=gBcvfFpabk3CnzmXKdYe3w", "phone": "+17207085150", "coordinates": {"longitude": -104.971216385249, "latitude": 39.7432622332078}, "categories": [{"alias": "breakfast_brunch", "title": "Breakfast & Brunch"}, {"alias": "burgers", "title": "Burgers"}], "review_count": 167, "location": {"city": "Denver", "address1": "1707 Lafayette St", "address3": "", "address2": "", "zip_code": "80218", "country": "US", "display_address": ["1707 Lafayette St", "Denver, CO 80218"], "state": "CO"}, "price": "$", "transactions": ["delivery", "pickup"], "display_phone": "(720) 708-5150"}, {"rating": 3.5, "is_closed": false, "distance": 2658.79946537, "name": "Matsuhisa Denver", "id": "matsuhisa-denver-denver", "image_url": "https://s3-media1.fl.yelpcdn.com/bphoto/J4kW1WagS6CqeD_Q616k7Q/o.jpg", "url": "https://www.yelp.com/biz/matsuhisa-denver-denver?adjust_creative=gBcvfFpabk3CnzmXKdYe3w&utm_campaign=yelp_api_v3&utm_medium=api_v3_business_search&utm_source=gBcvfFpabk3CnzmXKdYe3w", "phone": "+13033296628", "coordinates": {"longitude": -104.949611, "latitude": 39.717639}, "categories": [{"alias": "sushi", "title": "Sushi Bars"}, {"alias": "japanese", "title": "Japanese"}, {"alias": "cocktailbars", "title": "Cocktail Bars"}], "review_count": 91, "location": {"city": "Denver", "address1": "98 N Steele St", "address3": "", "address2": "", "zip_code": "80206", "country": "US", "display_address": ["98 N Steele St", "Denver, CO 80206"], "state": "CO"}, "price": "$$$", "transactions": [], "display_phone": "(303) 329-6628"}, {"rating": 4.0, "is_closed": false, "distance": 1871.16835262, "name": "Denver Pizza Company", "id": "denver-pizza-company-denver", "image_url": "https://s3-media2.fl.yelpcdn.com/bphoto/4VE4k-N1PiK8Hc6q98m63w/o.jpg", "url": "https://www.yelp.com/biz/denver-pizza-company-denver?adjust_creative=gBcvfFpabk3CnzmXKdYe3w&utm_campaign=yelp_api_v3&utm_medium=api_v3_business_search&utm_source=gBcvfFpabk3CnzmXKdYe3w", "phone": "+17204751471", "coordinates": {"longitude": -104.99204, "latitude": 39.73403}, "categories": [{"alias": "pizza", "title": "Pizza"}], "review_count": 140, "location": {"city": "Denver", "address1": "309 W 11th Ave", "address3": "", "address2": "", "zip_code": "80204", "country": "US", "display_address": ["309 W 11th Ave", "Denver, CO 80204"], "state": "CO"}, "price": "$$", "transactions": ["pickup", "delivery"], "display_phone": "(720) 475-1471"}, {"rating": 4.0, "is_closed": false, "distance": 2955.036955596, "name": "Larimer Lounge", "id": "larimer-lounge-denver", "image_url": "https://s3-media1.fl.yelpcdn.com/bphoto/8vdfQaZfMzYTxZwHtc53CQ/o.jpg", "url": "https://www.yelp.com/biz/larimer-lounge-denver?adjust_creative=gBcvfFpabk3CnzmXKdYe3w&utm_campaign=yelp_api_v3&utm_medium=api_v3_business_search&utm_source=gBcvfFpabk3CnzmXKdYe3w", "phone": "+13032961003", "coordinates": {"longitude": -104.98393, "latitude": 39.7600399}, "categories": [{"alias": "musicvenues", "title": "Music Venues"}, {"alias": "divebars", "title": "Dive Bars"}], "review_count": 97, "location": {"city": "Denver", "address1": "2721 Larimer St", "address3": "", "address2": null, "zip_code": "80205", "country": "US", "display_address": ["2721 Larimer St", "Denver, CO 80205"], "state": "CO"}, "price": "$", "transactions": [], "display_phone": "(303) 296-1003"}, {"rating": 4.0, "is_closed": false, "distance": 2691.023119256, "name": "Larimer Beer Hall", "id": "larimer-beer-hall-denver", "image_url": "https://s3-media2.fl.yelpcdn.com/bphoto/LhEScglvchn6IOGfT4-g8A/o.jpg", "url": "https://www.yelp.com/biz/larimer-beer-hall-denver?adjust_creative=gBcvfFpabk3CnzmXKdYe3w&utm_campaign=yelp_api_v3&utm_medium=api_v3_business_search&utm_source=gBcvfFpabk3CnzmXKdYe3w", "phone": "+17205507610", "coordinates": {"longitude": -104.992017, "latitude": 39.752997}, "categories": [{"alias": "beerbar", "title": "Beer Bar"}, {"alias": "burgers", "title": "Burgers"}], "review_count": 40, "location": {"city": "Denver", "address1": "2012 Larimer St", "address3": "", "address2": "", "zip_code": "80205", "country": "US", "display_address": ["2012 Larimer St", "Denver, CO 80205"], "state": "CO"}, "price": "$", "transactions": [], "display_phone": "(720) 550-7610"}, {"rating": 4.0, "is_closed": false, "distance": 1257.595890372, "name": "Burger Radio", "id": "burger-radio-denver", "image_url": "https://s3-media3.fl.yelpcdn.com/bphoto/BVOSoHRijnDTgxdgzrCFrw/o.jpg", "url": "https://www.yelp.com/biz/burger-radio-denver?adjust_creative=gBcvfFpabk3CnzmXKdYe3w&utm_campaign=yelp_api_v3&utm_medium=api_v3_business_search&utm_source=gBcvfFpabk3CnzmXKdYe3w", "phone": "", "coordinates": {"longitude": -104.984167, "latitude": 39.739167}, "categories": [{"alias": "foodtrucks", "title": "Food Trucks"}, {"alias": "burgers", "title": "Burgers"}], "review_count": 34, "location": {"city": "Denver", "address1": "", "address3": "", "address2": "", "zip_code": "", "country": "US", "display_address": ["Denver, CO"], "state": "CO"}, "price": "$$", "transactions": [], "display_phone": ""}, {"rating": 4.0, "is_closed": false, "distance": 7199.5318367519985, "name": "Billy's Inn", "id": "billys-inn-denver", "image_url": "https://s3-media1.fl.yelpcdn.com/bphoto/7IMbXpVxSNaa8yxupQaSIA/o.jpg", "url": "https://www.yelp.com/biz/billys-inn-denver?adjust_creative=gBcvfFpabk3CnzmXKdYe3w&utm_campaign=yelp_api_v3&utm_medium=api_v3_business_search&utm_source=gBcvfFpabk3CnzmXKdYe3w", "phone": "+13034559733", "coordinates": {"longitude": -105.03494, "latitude": 39.7769199}, "categories": [{"alias": "bars", "title": "Bars"}, {"alias": "tradamerican", "title": "American (Traditional)"}], "review_count": 293, "location": {"city": "Denver", "address1": "4403 Lowell Blvd", "address3": "", "address2": "", "zip_code": "80211", "country": "US", "display_address": ["4403 Lowell Blvd", "Denver, CO 80211"], "state": "CO"}, "price": "$$", "transactions": [], "display_phone": "(303) 455-9733"}, {"rating": 4.0, "is_closed": false, "distance": 2403.868261188, "name": "Senor Burritos", "id": "senor-burritos-denver", "image_url": "https://s3-media3.fl.yelpcdn.com/bphoto/dFGbY3fOwo6FAzpn84_nHw/o.jpg", "url": "https://www.yelp.com/biz/senor-burritos-denver?adjust_creative=gBcvfFpabk3CnzmXKdYe3w&utm_campaign=yelp_api_v3&utm_medium=api_v3_business_search&utm_source=gBcvfFpabk3CnzmXKdYe3w", "phone": "+13037330747", "coordinates": {"longitude": -104.98705, "latitude": 39.71823}, "categories": [{"alias": "mexican", "title": "Mexican"}], "review_count": 118, "location": {"city": "Denver", "address1": "12 E 1st Ave", "address3": "", "address2": "", "zip_code": "80203", "country": "US", "display_address": ["12 E 1st Ave", "Denver, CO 80203"], "state": "CO"}, "price": "$", "transactions": [], "display_phone": "(303) 733-0747"}, {"rating": 4.0, "is_closed": false, "distance": 4328.13807458, "name": "Mizu Izakaya", "id": "mizu-izakaya-denver-2", "image_url": "https://s3-media4.fl.yelpcdn.com/bphoto/GHoKjFtZrd-Zxeb_X4CLTQ/o.jpg", "url": "https://www.yelp.com/biz/mizu-izakaya-denver-2?adjust_creative=gBcvfFpabk3CnzmXKdYe3w&utm_campaign=yelp_api_v3&utm_medium=api_v3_business_search&utm_source=gBcvfFpabk3CnzmXKdYe3w", "phone": "+17203727100", "coordinates": {"longitude": -105.010517541783, "latitude": 39.7591040251325}, "categories": [{"alias": "sushi", "title": "Sushi Bars"}, {"alias": "izakaya", "title": "Izakaya"}, {"alias": "tapas", "title": "Tapas Bars"}], "review_count": 84, "location": {"city": "Denver", "address1": "1560 Boulder St", "address3": "", "address2": null, "zip_code": "80211", "country": "US", "display_address": ["1560 Boulder St", "Denver, CO 80211"], "state": "CO"}, "price": "$$", "transactions": [], "display_phone": "(720) 372-7100"}, {"rating": 4.0, "is_closed": false, "distance": 5053.0158708419995, "name": "The Burrito Company", "id": "the-burrito-company-denver", "image_url": "https://s3-media1.fl.yelpcdn.com/bphoto/MnqdW8eAKZEvGumElx_CvA/o.jpg", "url": "https://www.yelp.com/biz/the-burrito-company-denver?adjust_creative=gBcvfFpabk3CnzmXKdYe3w&utm_campaign=yelp_api_v3&utm_medium=api_v3_business_search&utm_source=gBcvfFpabk3CnzmXKdYe3w", "phone": "+13038710512", "coordinates": {"longitude": -104.992172241211, "latitude": 39.6933250427246}, "categories": [{"alias": "mexican", "title": "Mexican"}, {"alias": "tex-mex", "title": "Tex-Mex"}], "review_count": 53, "location": {"city": "Denver", "address1": "1290 S Santa Fe Dr", "address3": "", "address2": "", "zip_code": "80223", "country": "US", "display_address": ["1290 S Santa Fe Dr", "Denver, CO 80223"], "state": "CO"}, "price": "$", "transactions": [], "display_phone": "(303) 871-0512"}, {"rating": 3.5, "is_closed": false, "distance": 1562.292715374, "name": "Little India", "id": "little-india-denver-7", "image_url": "https://s3-media3.fl.yelpcdn.com/bphoto/Wrkek8l3Rmbfrgyv0T8S5A/o.jpg", "url": "https://www.yelp.com/biz/little-india-denver-7?adjust_creative=gBcvfFpabk3CnzmXKdYe3w&utm_campaign=yelp_api_v3&utm_medium=api_v3_business_search&utm_source=gBcvfFpabk3CnzmXKdYe3w", "phone": "+13038719777", "coordinates": {"longitude": -104.982921, "latitude": 39.725402}, "categories": [{"alias": "indpak", "title": "Indian"}, {"alias": "vegan", "title": "Vegan"}, {"alias": "gluten_free", "title": "Gluten-Free"}], "review_count": 473, "location": {"city": "Denver", "address1": "330 E 6th Ave", "address3": "", "address2": "", "zip_code": "80203", "country": "US", "display_address": ["330 E 6th Ave", "Denver, CO 80203"], "state": "CO"}, "price": "$$", "transactions": ["delivery", "pickup"], "display_phone": "(303) 871-9777"}, {"rating": 3.5, "is_closed": false, "distance": 2924.994279278, "name": "Breck On Blake", "id": "breck-on-blake-denver", "image_url": "https://s3-media3.fl.yelpcdn.com/bphoto/aXIGH8KGJmtk-x781dkqkQ/o.jpg", "url": "https://www.yelp.com/biz/breck-on-blake-denver?adjust_creative=gBcvfFpabk3CnzmXKdYe3w&utm_campaign=yelp_api_v3&utm_medium=api_v3_business_search&utm_source=gBcvfFpabk3CnzmXKdYe3w", "phone": "+13032973644", "coordinates": {"longitude": -104.991241455078, "latitude": 39.756290435791}, "categories": [{"alias": "breweries", "title": "Breweries"}, {"alias": "sportsbars", "title": "Sports Bars"}, {"alias": "newamerican", "title": "American (New)"}], "review_count": 319, "location": {"city": "Denver", "address1": "2220 Blake St", "address3": "", "address2": "", "zip_code": "80205", "country": "US", "display_address": ["2220 Blake St", "Denver, CO 80205"], "state": "CO"}, "price": "$$", "transactions": [], "display_phone": "(303) 297-3644"}, {"rating": 4.0, "is_closed": false, "distance": 5514.977722512, "name": "Viet's Restaurant", "id": "viets-restaurant-denver", "image_url": "https://s3-media2.fl.yelpcdn.com/bphoto/6QWsyt-meMYHSpLkJeysJA/o.jpg", "url": "https://www.yelp.com/biz/viets-restaurant-denver?adjust_creative=gBcvfFpabk3CnzmXKdYe3w&utm_campaign=yelp_api_v3&utm_medium=api_v3_business_search&utm_source=gBcvfFpabk3CnzmXKdYe3w", "phone": "+13039225774", "coordinates": {"longitude": -105.025787353516, "latitude": 39.7101974487305}, "categories": [{"alias": "vietnamese", "title": "Vietnamese"}], "review_count": 76, "location": {"city": "Denver", "address1": "333 S Federal Blvd", "address3": "", "address2": "Unit 125", "zip_code": "80219", "country": "US", "display_address": ["333 S Federal Blvd", "Unit 125", "Denver, CO 80219"], "state": "CO"}, "price": "$$", "transactions": [], "display_phone": "(303) 922-5774"}, {"rating": 3.5, "is_closed": false, "distance": 2464.649653374, "name": "Europa Coffee House", "id": "europa-coffee-house-denver", "image_url": "https://s3-media4.fl.yelpcdn.com/bphoto/PLxJi6-MN9Yf-7eDoNZWEw/o.jpg", "url": "https://www.yelp.com/biz/europa-coffee-house-denver?adjust_creative=gBcvfFpabk3CnzmXKdYe3w&utm_campaign=yelp_api_v3&utm_medium=api_v3_business_search&utm_source=gBcvfFpabk3CnzmXKdYe3w", "phone": "+13037221024", "coordinates": {"longitude": -104.981158629, "latitude": 39.7150087446568}, "categories": [{"alias": "coffee", "title": "Coffee & Tea"}, {"alias": "breakfast_brunch", "title": "Breakfast & Brunch"}], "review_count": 96, "location": {"city": "Denver", "address1": "76 S Pennsylvania St", "address3": "", "address2": "", "zip_code": "80209", "country": "US", "display_address": ["76 S Pennsylvania St", "Denver, CO 80209"], "state": "CO"}, "price": "$", "transactions": [], "display_phone": "(303) 722-1024"}, {"rating": 3.5, "is_closed": false, "distance": 1917.776126492, "name": "Earls Kitchen + Bar", "id": "earls-kitchen-bar-denver", "image_url": "https://s3-media1.fl.yelpcdn.com/bphoto/jYxIsk7GKPaONY9hRJWbcA/o.jpg", "url": "https://www.yelp.com/biz/earls-kitchen-bar-denver?adjust_creative=gBcvfFpabk3CnzmXKdYe3w&utm_campaign=yelp_api_v3&utm_medium=api_v3_business_search&utm_source=gBcvfFpabk3CnzmXKdYe3w", "phone": "+13035953275", "coordinates": {"longitude": -104.99000189212, "latitude": 39.743682174629}, "categories": [{"alias": "newamerican", "title": "American (New)"}, {"alias": "cocktailbars", "title": "Cocktail Bars"}], "review_count": 403, "location": {"city": "Denver", "address1": "1600 Glenarm Pl", "address3": "", "address2": "Unit 140", "zip_code": "80202", "country": "US", "display_address": ["1600 Glenarm Pl", "Unit 140", "Denver, CO 80202"], "state": "CO"}, "price": "$$", "transactions": [], "display_phone": "(303) 595-3275"}, {"rating": 3.5, "is_closed": false, "distance": 2831.931136032, "name": "Billy's Gourmet Hot Dogs", "id": "billys-gourmet-hot-dogs-denver", "image_url": "https://s3-media2.fl.yelpcdn.com/bphoto/A04p_dY0t4_iAQBlB8dnDg/o.jpg", "url": "https://www.yelp.com/biz/billys-gourmet-hot-dogs-denver?adjust_creative=gBcvfFpabk3CnzmXKdYe3w&utm_campaign=yelp_api_v3&utm_medium=api_v3_business_search&utm_source=gBcvfFpabk3CnzmXKdYe3w", "phone": "+13032842714", "coordinates": {"longitude": -104.98708, "latitude": 39.75749}, "categories": [{"alias": "hotdog", "title": "Hot Dogs"}], "review_count": 217, "location": {"city": "Denver", "address1": "2445 Larimer St", "address3": "", "address2": "", "zip_code": "80205", "country": "US", "display_address": ["2445 Larimer St", "Denver, CO 80205"], "state": "CO"}, "price": "$", "transactions": ["delivery"], "display_phone": "(303) 284-2714"}, {"rating": 3.5, "is_closed": false, "distance": 3457.046106628, "name": "Honor Society Handcrafted Eatery", "id": "honor-society-handcrafted-eatery-denver", "image_url": "https://s3-media4.fl.yelpcdn.com/bphoto/KisQpxqKh1DurtBcum00_w/o.jpg", "url": "https://www.yelp.com/biz/honor-society-handcrafted-eatery-denver?adjust_creative=gBcvfFpabk3CnzmXKdYe3w&utm_campaign=yelp_api_v3&utm_medium=api_v3_business_search&utm_source=gBcvfFpabk3CnzmXKdYe3w", "phone": "+17204200614", "coordinates": {"longitude": -105.00382, "latitude": 39.75326}, "categories": [{"alias": "vegan", "title": "Vegan"}, {"alias": "pizza", "title": "Pizza"}, {"alias": "salad", "title": "Salad"}], "review_count": 105, "location": {"city": "Denver", "address1": "1900 16th St", "address3": "", "address2": "Ste 150", "zip_code": "80202", "country": "US", "display_address": ["1900 16th St", "Ste 150", "Denver, CO 80202"], "state": "CO"}, "price": "$$", "transactions": [], "display_phone": "(720) 420-0614"}, {"rating": 3.5, "is_closed": false, "distance": 4575.267198441999, "name": "LoHi Steakbar", "id": "lohi-steakbar-denver", "image_url": "https://s3-media3.fl.yelpcdn.com/bphoto/c877gRehAtl4HjKD3H1nIw/o.jpg", "url": "https://www.yelp.com/biz/lohi-steakbar-denver?adjust_creative=gBcvfFpabk3CnzmXKdYe3w&utm_campaign=yelp_api_v3&utm_medium=api_v3_business_search&utm_source=gBcvfFpabk3CnzmXKdYe3w", "phone": "+13039276334", "coordinates": {"longitude": -105.011061, "latitude": 39.762136}, "categories": [{"alias": "steak", "title": "Steakhouses"}, {"alias": "bars", "title": "Bars"}], "review_count": 396, "location": {"city": "Denver", "address1": "3200 Tejon St", "address3": "", "address2": "", "zip_code": "80211", "country": "US", "display_address": ["3200 Tejon St", "Denver, CO 80211"], "state": "CO"}, "price": "$$", "transactions": [], "display_phone": "(303) 927-6334"}, {"rating": 4.0, "is_closed": false, "distance": 6283.300778612, "name": "Ba Le Sandwiches", "id": "ba-le-sandwiches-denver", "image_url": "https://s3-media3.fl.yelpcdn.com/bphoto/JZQCDONm_VhZcQBJ2PbLDw/o.jpg", "url": "https://www.yelp.com/biz/ba-le-sandwiches-denver?adjust_creative=gBcvfFpabk3CnzmXKdYe3w&utm_campaign=yelp_api_v3&utm_medium=api_v3_business_search&utm_source=gBcvfFpabk3CnzmXKdYe3w", "phone": "+13039222129", "coordinates": {"longitude": -105.025031492114, "latitude": 39.6978903561831}, "categories": [{"alias": "bakeries", "title": "Bakeries"}, {"alias": "sandwiches", "title": "Sandwiches"}], "review_count": 151, "location": {"city": "Denver", "address1": "1044 S Federal Blvd", "address3": "", "address2": "", "zip_code": "80219", "country": "US", "display_address": ["1044 S Federal Blvd", "Denver, CO 80219"], "state": "CO"}, "price": "$", "transactions": [], "display_phone": "(303) 922-2129"}, {"rating": 4.0, "is_closed": false, "distance": 7656.65552958, "name": "Pantaleone's New York Pizza", "id": "pantaleones-new-york-pizza-denver", "image_url": "https://s3-media3.fl.yelpcdn.com/bphoto/Uomn5P0YFBPLcO5Aezhcbw/o.jpg", "url": "https://www.yelp.com/biz/pantaleones-new-york-pizza-denver?adjust_creative=gBcvfFpabk3CnzmXKdYe3w&utm_campaign=yelp_api_v3&utm_medium=api_v3_business_search&utm_source=gBcvfFpabk3CnzmXKdYe3w", "phone": "+13037573456", "coordinates": {"longitude": -104.9216406, "latitude": 39.6777026}, "categories": [{"alias": "pizza", "title": "Pizza"}], "review_count": 141, "location": {"city": "Denver", "address1": "2120 S Holly St", "address3": "", "address2": "", "zip_code": "80222", "country": "US", "display_address": ["2120 S Holly St", "Denver, CO 80222"], "state": "CO"}, "price": "$$", "transactions": [], "display_phone": "(303) 757-3456"}, {"rating": 3.5, "is_closed": false, "distance": 1767.415651226, "name": "The Delectable Egg - Downtown", "id": "the-delectable-egg-downtown-denver", "image_url": "https://s3-media3.fl.yelpcdn.com/bphoto/uBOifR-HyHEJtTqrK5nX2A/o.jpg", "url": "https://www.yelp.com/biz/the-delectable-egg-downtown-denver?adjust_creative=gBcvfFpabk3CnzmXKdYe3w&utm_campaign=yelp_api_v3&utm_medium=api_v3_business_search&utm_source=gBcvfFpabk3CnzmXKdYe3w", "phone": "+13038925720", "coordinates": {"longitude": -104.988405, "latitude": 39.74312}, "categories": [{"alias": "breakfast_brunch", "title": "Breakfast & Brunch"}, {"alias": "creperies", "title": "Creperies"}, {"alias": "sandwiches", "title": "Sandwiches"}], "review_count": 229, "location": {"city": "Denver", "address1": "1625 Court Pl", "address3": "", "address2": "", "zip_code": "80202", "country": "US", "display_address": ["1625 Court Pl", "Denver, CO 80202"], "state": "CO"}, "price": "$", "transactions": ["pickup"], "display_phone": "(303) 892-5720"}]}