{"total": 34880, "region": {"center": {"longitude": -104.97024536132812, "latitude": 39.73552421220229}}, "businesses": [{"rating": 4.0, "is_closed": false, "distance": 1214.1185402944, "name": "Satellite Bar", "id": "satellite-bar-denver", "image_url": "https://s3-media1.fl.yelpcdn.com/bphoto/drvZ6GtC-oCXXfx9rqOcBw/o.jpg", "url": "https://www.yelp.com/biz/satellite-bar-denver?adjust_creative=gBcvfFpabk3CnzmXKdYe3w&utm_campaign=yelp_api_v3&utm_medium=api_v3_business_search&utm_source=gBcvfFpabk3CnzmXKdYe3w", "phone": "+13038323488", "coordinates": {"longitude": -104.98324, "latitude": 39.73988}, "categories": [{"alias": "bars", "title": "Bars"}], "review_count": 40, "location": {"city": "Denver", "address1": "308 E Colfax Ave", "address3": "", "address2": "", "zip_code": "80203", "country": "US", "display_address": ["308 E Colfax Ave", "Denver, CO 80203"], "state": "CO"}, "price": "$", "transactions": [], "display_phone": "(303) 832-3488"}, {"rating": 4.0, "is_closed": false, "distance": 2907.746499696, "name": "Hayter's & Co.", "id": "hayters-and-co-denver", "image_url": "https://s3-media1.fl.yelpcdn.com/bphoto/oX34DwgZ09m9x5DEgyOP3A/o.jpg", "url": "https://www.yelp.com/biz/hayters-and-co-denver?adjust_creative=gBcvfFpabk3CnzmXKdYe3w&utm_campaign=yelp_api_v3&utm_medium=api_v3_business_search&utm_source=gBcvfFpabk3CnzmXKdYe3w", "phone": "+13032978279", "coordinates": {"longitude": -104.994877, "latitude": 39.75355}, "categories": [{"alias": "bars", "title": "Bars"}, {"alias": "tradamerican", "title": "American (Traditional)"}], "review_count": 134, "location": {"city": "Denver", "address1": "1920 Blake St", "address3": "", "address2": null, "zip_code": "80202", "country": "US", "display_address": ["1920 Blake St", "Denver, CO 80202"], "state": "CO"}, "price": "$$", "transactions": [], "display_phone": "(303) 297-8279"}, {"rating": 4.0, "is_closed": false, "distance": 2742.375388382, "name": "LaMar's Donuts & Coffee", "id": "lamars-donuts-and-coffee-denver-2", "image_url": "https://s3-media2.fl.yelpcdn.com/bphoto/9A-tkOBDFcaztja-NMW9Mw/o.jpg", "url": "https://www.yelp.com/biz/lamars-donuts-and-coffee-denver-2?adjust_creative=gBcvfFpabk3CnzmXKdYe3w&utm_campaign=yelp_api_v3&utm_medium=api_v3_business_search&utm_source=gBcvfFpabk3CnzmXKdYe3w", "phone": "+17209045792", "coordinates": {"longitude": -105.0000354, "latitude": 39.7255551}, "categories": [{"alias": "donuts", "title": "Donuts"}, {"alias": "coffee", "title": "Coffee & Tea"}], "review_count": 52, "location": {"city": "Denver", "address1": "990 W 6th Ave", "address3": "", "address2": "", "zip_code": "80204", "country": "US", "display_address": ["990 W 6th Ave", "Denver, CO 80204"], "state": "CO"}, "price": "$", "transactions": ["delivery", "pickup"], "display_phone": "(720) 904-5792"}, {"rating": 4.5, "is_closed": false, "distance": 4779.10330603, "name": "Ophelia's Kansas City BBQ", "id": "ophelias-kansas-city-bbq-denver", "image_url": "https://s3-media1.fl.yelpcdn.com/bphoto/Q26R5hnGRbewHEdJBZWUXA/o.jpg", "url": "https://www.yelp.com/biz/ophelias-kansas-city-bbq-denver?adjust_creative=gBcvfFpabk3CnzmXKdYe3w&utm_campaign=yelp_api_v3&utm_medium=api_v3_business_search&utm_source=gBcvfFpabk3CnzmXKdYe3w", "phone": "+17206128055", "coordinates": {"longitude": -105.0031457, "latitude": 39.7007844}, "categories": [{"alias": "foodtrucks", "title": "Food Trucks"}, {"alias": "streetvendors", "title": "Street Vendors"}, {"alias": "bbq", "title": "Barbeque"}], "review_count": 15, "location": {"city": "Denver", "address1": "", "address3": "", "address2": "", "zip_code": "80223", "country": "US", "display_address": ["Denver, CO 80223"], "state": "CO"}, "transactions": [], "display_phone": "(720) 612-8055"}, {"rating": 4.0, "is_closed": false, "distance": 927.9213039, "name": "Los Tacos Famous Taqueria", "id": "los-tacos-famous-taqueria-denver", "image_url": "https://s3-media3.fl.yelpcdn.com/bphoto/JYrrUImIC9B8RvOQgVa1ew/o.jpg", "url": "https://www.yelp.com/biz/los-tacos-famous-taqueria-denver?adjust_creative=gBcvfFpabk3CnzmXKdYe3w&utm_campaign=yelp_api_v3&utm_medium=api_v3_business_search&utm_source=gBcvfFpabk3CnzmXKdYe3w", "phone": "+17202874479", "coordinates": {"longitude": -104.97958, "latitude": 39.73977}, "categories": [{"alias": "mexican", "title": "Mexican"}, {"alias": "cocktailbars", "title": "Cocktail Bars"}], "review_count": 122, "location": {"city": "Denver", "address1": "600 E Colfax Ave", "address3": "", "address2": null, "zip_code": "80203", "country": "US", "display_address": ["600 E Colfax Ave", "Denver, CO 80203"], "state": "CO"}, "price": "$", "transactions": [], "display_phone": "(720) 287-4479"}, {"rating": 4.0, "is_closed": false, "distance": 1841.8136691519999, "name": "Trattoria Stella on Colfax", "id": "trattoria-stella-on-colfax-denver", "image_url": "https://s3-media3.fl.yelpcdn.com/bphoto/fsShJNChqsZzGFXyCfVbkA/o.jpg", "url": "https://www.yelp.com/biz/trattoria-stella-on-colfax-denver?adjust_creative=gBcvfFpabk3CnzmXKdYe3w&utm_campaign=yelp_api_v3&utm_medium=api_v3_business_search&utm_source=gBcvfFpabk3CnzmXKdYe3w", "phone": "+13033208635", "coordinates": {"longitude": -104.949575923383, "latitude": 39.7401868885279}, "categories": [{"alias": "italian", "title": "Italian"}, {"alias": "bars", "title": "Bars"}, {"alias": "venues", "title": "Venues & Event Spaces"}], "review_count": 232, "location": {"city": "Denver", "address1": "3201 E Colfax Ave", "address3": "", "address2": "", "zip_code": "80206", "country": "US", "display_address": ["3201 E Colfax Ave", "Denver, CO 80206"], "state": "CO"}, "price": "$$", "transactions": [], "display_phone": "(303) 320-8635"}, {"rating": 4.5, "is_closed": false, "distance": 1902.112420272, "name": "Paella Cuisine from Spain", "id": "paella-cuisine-from-spain-denver", "image_url": "https://s3-media4.fl.yelpcdn.com/bphoto/am7bc46YIBtoo1Di2InM_A/o.jpg", "url": "https://www.yelp.com/biz/paella-cuisine-from-spain-denver?adjust_creative=gBcvfFpabk3CnzmXKdYe3w&utm_campaign=yelp_api_v3&utm_medium=api_v3_business_search&utm_source=gBcvfFpabk3CnzmXKdYe3w", "phone": "+17209008484", "coordinates": {"longitude": -104.989903059711, "latitude": 39.7435280848753}, "categories": [{"alias": "spanish", "title": "Spanish"}, {"alias": "foodstands", "title": "Food Stands"}], "review_count": 17, "location": {"city": "Denver", "address1": "16TH St Mall", "address3": "", "address2": "", "zip_code": "80202", "country": "US", "display_address": ["16TH St Mall", "Denver, CO 80202"], "state": "CO"}, "price": "$$", "transactions": [], "display_phone": "(720) 900-8484"}, {"rating": 4.0, "is_closed": false, "distance": 2080.513874764, "name": "Under the Umbrella Cafe and Bakery", "id": "under-the-umbrella-cafe-and-bakery-denver", "image_url": "https://s3-media3.fl.yelpcdn.com/bphoto/iyt4lPSBxALFB1yQ5GJKnQ/o.jpg", "url": "https://www.yelp.com/biz/under-the-umbrella-cafe-and-bakery-denver?adjust_creative=gBcvfFpabk3CnzmXKdYe3w&utm_campaign=yelp_api_v3&utm_medium=api_v3_business_search&utm_source=gBcvfFpabk3CnzmXKdYe3w", "phone": "+13032560797", "coordinates": {"longitude": -104.945961982012, "latitude": 39.7350630909204}, "categories": [{"alias": "delis", "title": "Delis"}, {"alias": "breakfast_brunch", "title": "Breakfast & Brunch"}, {"alias": "vegetarian", "title": "Vegetarian"}], "review_count": 138, "location": {"city": "Denver", "address1": "3504 E 12th Ave", "address3": "", "address2": "", "zip_code": "80206", "country": "US", "display_address": ["3504 E 12th Ave", "Denver, CO 80206"], "state": "CO"}, "price": "$", "transactions": ["delivery", "pickup"], "display_phone": "(303) 256-0797"}, {"rating": 4.0, "is_closed": false, "distance": 1161.032271692, "name": "Novo Coffee", "id": "novo-coffee-denver-5", "image_url": "https://s3-media2.fl.yelpcdn.com/bphoto/6N-sI5Xv2rHWhevXhNnqQQ/o.jpg", "url": "https://www.yelp.com/biz/novo-coffee-denver-5?adjust_creative=gBcvfFpabk3CnzmXKdYe3w&utm_campaign=yelp_api_v3&utm_medium=api_v3_business_search&utm_source=gBcvfFpabk3CnzmXKdYe3w", "phone": "+17205247732", "coordinates": {"longitude": -104.966824, "latitude": 39.725417}, "categories": [{"alias": "coffee", "title": "Coffee & Tea"}], "review_count": 70, "location": {"city": "Denver", "address1": "1700 E 6th Ave", "address3": "", "address2": "", "zip_code": "80218", "country": "US", "display_address": ["1700 E 6th Ave", "Denver, CO 80218"], "state": "CO"}, "price": "$$", "transactions": [], "display_phone": "(720) 524-7732"}, {"rating": 4.0, "is_closed": false, "distance": 2752.4683641919996, "name": "Marquis Pizza", "id": "marquis-pizza-denver", "image_url": "https://s3-media1.fl.yelpcdn.com/bphoto/tVx20svDUzq_lYcPJOSVTw/o.jpg", "url": "https://www.yelp.com/biz/marquis-pizza-denver?adjust_creative=gBcvfFpabk3CnzmXKdYe3w&utm_campaign=yelp_api_v3&utm_medium=api_v3_business_search&utm_source=gBcvfFpabk3CnzmXKdYe3w", "phone": "+13032922829", "coordinates": {"longitude": -104.99252, "latitude": 39.75338}, "categories": [{"alias": "pizza", "title": "Pizza"}, {"alias": "vegan", "title": "Vegan"}], "review_count": 161, "location": {"city": "Denver", "address1": "2009 Larimer St", "address3": "", "address2": "", "zip_code": "80205", "country": "US", "display_address": ["2009 Larimer St", "Denver, CO 80205"], "state": "CO"}, "price": "$", "transactions": ["delivery", "pickup"], "display_phone": "(303) 292-2829"}, {"rating": 4.0, "is_closed": false, "distance": 3243.6479444959996, "name": "Corner Ramen", "id": "corner-ramen-denver", "image_url": "https://s3-media2.fl.yelpcdn.com/bphoto/qfzsCk25qk2mVxpX4FcX-A/o.jpg", "url": "https://www.yelp.com/biz/corner-ramen-denver?adjust_creative=gBcvfFpabk3CnzmXKdYe3w&utm_campaign=yelp_api_v3&utm_medium=api_v3_business_search&utm_source=gBcvfFpabk3CnzmXKdYe3w", "phone": "+13032920250", "coordinates": {"longitude": -104.967441364202, "latitude": 39.7646151055781}, "categories": [{"alias": "ramen", "title": "Ramen"}], "review_count": 52, "location": {"city": "Denver", "address1": "1629 Bruce Randolph Ave", "address3": null, "address2": "", "zip_code": "80205", "country": "US", "display_address": ["1629 Bruce Randolph Ave", "Denver, CO 80205"], "state": "CO"}, "price": "$$", "transactions": [], "display_phone": "(303) 292-0250"}, {"rating": 3.5, "is_closed": false, "distance": 1573.658357256, "name": "Racines Restaurant", "id": "racines-restaurant-denver-2", "image_url": "https://s3-media1.fl.yelpcdn.com/bphoto/7PLfEvCdW533QVwi16jBbA/o.jpg", "url": "https://www.yelp.com/biz/racines-restaurant-denver-2?adjust_creative=gBcvfFpabk3CnzmXKdYe3w&utm_campaign=yelp_api_v3&utm_medium=api_v3_business_search&utm_source=gBcvfFpabk3CnzmXKdYe3w", "phone": "+13035950418", "coordinates": {"longitude": -104.984489440918, "latitude": 39.7266464233398}, "categories": [{"alias": "tradamerican", "title": "American (Traditional)"}, {"alias": "salad", "title": "Salad"}, {"alias": "breakfast_brunch", "title": "Breakfast & Brunch"}], "review_count": 445, "location": {"city": "Denver", "address1": "650 Sherman St", "address3": "", "address2": "", "zip_code": "80203", "country": "US", "display_address": ["650 Sherman St", "Denver, CO 80203"], "state": "CO"}, "price": "$$", "transactions": [], "display_phone": "(303) 595-0418"}, {"rating": 3.5, "is_closed": false, "distance": 2121.036573162, "name": "Bastien's", "id": "bastiens-denver", "image_url": "https://s3-media2.fl.yelpcdn.com/bphoto/NInZ5MpbjwYGCW7te972WA/o.jpg", "url": "https://www.yelp.com/biz/bastiens-denver?adjust_creative=gBcvfFpabk3CnzmXKdYe3w&utm_campaign=yelp_api_v3&utm_medium=api_v3_business_search&utm_source=gBcvfFpabk3CnzmXKdYe3w", "phone": "+13033220363", "coordinates": {"longitude": -104.946197509766, "latitude": 39.7404861450195}, "categories": [{"alias": "steak", "title": "Steakhouses"}], "review_count": 274, "location": {"city": "Denver", "address1": "3503 E Colfax Ave", "address3": "", "address2": "", "zip_code": "80206", "country": "US", "display_address": ["3503 E Colfax Ave", "Denver, CO 80206"], "state": "CO"}, "price": "$$", "transactions": [], "display_phone": "(303) 322-0363"}, {"rating": 5.0, "is_closed": false, "distance": 3438.0217766200003, "name": "Urban Mix Coffee House", "id": "urban-mix-coffee-house-denver", "image_url": "https://s3-media3.fl.yelpcdn.com/bphoto/pY6n5Pva9_RVsh9UVFPWVg/o.jpg", "url": "https://www.yelp.com/biz/urban-mix-coffee-house-denver?adjust_creative=gBcvfFpabk3CnzmXKdYe3w&utm_campaign=yelp_api_v3&utm_medium=api_v3_business_search&utm_source=gBcvfFpabk3CnzmXKdYe3w", "phone": "+13038626434", "coordinates": {"longitude": -104.997180578232, "latitude": 39.7584841888222}, "categories": [{"alias": "coffee", "title": "Coffee & Tea"}], "review_count": 12, "location": {"city": "Denver", "address1": "2907 Huron St", "address3": null, "address2": "Unit 101", "zip_code": "80202", "country": "US", "display_address": ["2907 Huron St", "Unit 101", "Denver, CO 80202"], "state": "CO"}, "price": "$$", "transactions": [], "display_phone": "(303) 862-6434"}, {"rating": 4.5, "is_closed": false, "distance": 2179.517252884, "name": "Five On Black", "id": "five-on-black-denver", "image_url": "https://s3-media2.fl.yelpcdn.com/bphoto/ceYXwEsbAaoLAEbVKJ6TmQ/o.jpg", "url": "https://www.yelp.com/biz/five-on-black-denver?adjust_creative=gBcvfFpabk3CnzmXKdYe3w&utm_campaign=yelp_api_v3&utm_medium=api_v3_business_search&utm_source=gBcvfFpabk3CnzmXKdYe3w", "phone": "+17209045505", "coordinates": {"longitude": -104.9920239, "latitude": 39.7457029}, "categories": [{"alias": "hotdogs", "title": "Fast Food"}, {"alias": "brazilian", "title": "Brazilian"}], "review_count": 66, "location": {"city": "Denver", "address1": "1617-A California St", "address3": null, "address2": "", "zip_code": "80202", "country": "US", "display_address": ["1617-A California St", "Denver, CO 80202"], "state": "CO"}, "price": "$", "transactions": [], "display_phone": "(720) 904-5505"}, {"rating": 4.0, "is_closed": false, "distance": 2574.257455556, "name": "DAE GEE KOREAN BBQ", "id": "dae-gee-korean-bbq-denver-4", "image_url": "https://s3-media2.fl.yelpcdn.com/bphoto/7vaupofWNfEjyxojkh4_1Q/o.jpg", "url": "https://www.yelp.com/biz/dae-gee-korean-bbq-denver-4?adjust_creative=gBcvfFpabk3CnzmXKdYe3w&utm_campaign=yelp_api_v3&utm_medium=api_v3_business_search&utm_source=gBcvfFpabk3CnzmXKdYe3w", "phone": "+17206399986", "coordinates": {"longitude": -104.94107, "latitude": 39.72984}, "categories": [{"alias": "korean", "title": "Korean"}, {"alias": "bbq", "title": "Barbeque"}], "review_count": 318, "location": {"city": "Denver", "address1": "827 Colorado Blvd", "address3": "", "address2": "", "zip_code": "80206", "country": "US", "display_address": ["827 Colorado Blvd", "Denver, CO 80206"], "state": "CO"}, "price": "$$", "transactions": ["delivery"], "display_phone": "(720) 639-9986"}, {"rating": 4.0, "is_closed": false, "distance": 2760.947976652, "name": "Curtis Park Creamery", "id": "curtis-park-creamery-denver", "image_url": "https://s3-media3.fl.yelpcdn.com/bphoto/0AcJ-JoKYSrvk_rDkXN2Aw/o.jpg", "url": "https://www.yelp.com/biz/curtis-park-creamery-denver?adjust_creative=gBcvfFpabk3CnzmXKdYe3w&utm_campaign=yelp_api_v3&utm_medium=api_v3_business_search&utm_source=gBcvfFpabk3CnzmXKdYe3w", "phone": "+13032952404", "coordinates": {"longitude": -104.977195635438, "latitude": 39.759693145752}, "categories": [{"alias": "mexican", "title": "Mexican"}], "review_count": 46, "location": {"city": "Denver", "address1": "908 30th St", "address3": "", "address2": "", "zip_code": "80205", "country": "US", "display_address": ["908 30th St", "Denver, CO 80205"], "state": "CO"}, "price": "$", "transactions": [], "display_phone": "(303) 295-2404"}, {"rating": 4.0, "is_closed": false, "distance": 6186.293303959999, "name": "Trattoria Stella", "id": "trattoria-stella-denver", "image_url": "https://s3-media3.fl.yelpcdn.com/bphoto/bLc22kzTdq2MsNrIILFReA/o.jpg", "url": "https://www.yelp.com/biz/trattoria-stella-denver?adjust_creative=gBcvfFpabk3CnzmXKdYe3w&utm_campaign=yelp_api_v3&utm_medium=api_v3_business_search&utm_source=gBcvfFpabk3CnzmXKdYe3w", "phone": "+13034581128", "coordinates": {"longitude": -105.0339233, "latitude": 39.7619496}, "categories": [{"alias": "italian", "title": "Italian"}], "review_count": 322, "location": {"city": "Denver", "address1": "3470 W 32nd Ave", "address3": "", "address2": "", "zip_code": "80211", "country": "US", "display_address": ["3470 W 32nd Ave", "Denver, CO 80211"], "state": "CO"}, "price": "$$", "transactions": [], "display_phone": "(303) 458-1128"}, {"rating": 4.5, "is_closed": false, "distance": 3503.3883393999995, "name": "The White Whale Room", "id": "the-white-whale-room-denver", "image_url": "https://s3-media1.fl.yelpcdn.com/bphoto/k4AMTh8rgHo4XPBel7Zs3Q/o.jpg", "url": "https://www.yelp.com/biz/the-white-whale-room-denver?adjust_creative=gBcvfFpabk3CnzmXKdYe3w&utm_campaign=yelp_api_v3&utm_medium=api_v3_business_search&utm_source=gBcvfFpabk3CnzmXKdYe3w", "phone": "+14156568997", "coordinates": {"longitude": -104.9926992, "latitude": 39.7091695}, "categories": [{"alias": "cocktailbars", "title": "Cocktail Bars"}, {"alias": "cafes", "title": "Cafes"}, {"alias": "coffee", "title": "Coffee & Tea"}], "review_count": 40, "location": {"city": "Denver", "address1": "415 S Cherokee St", "address3": "", "address2": "Ste 125", "zip_code": "80223", "country": "US", "display_address": ["415 S Cherokee St", "Ste 125", "Denver, CO 80223"], "state": "CO"}, "price": "$", "transactions": [], "display_phone": "(415) 656-8997"}, {"rating": 4.0, "is_closed": false, "distance": 1866.093459864, "name": "Enstrom Candies", "id": "enstrom-candies-denver", "image_url": "https://s3-media3.fl.yelpcdn.com/bphoto/hd6NpafyMJGvNqnS3UNnlw/o.jpg", "url": "https://www.yelp.com/biz/enstrom-candies-denver?adjust_creative=gBcvfFpabk3CnzmXKdYe3w&utm_campaign=yelp_api_v3&utm_medium=api_v3_business_search&utm_source=gBcvfFpabk3CnzmXKdYe3w", "phone": "+13033221005", "coordinates": {"longitude": -104.9598784, "latitude": 39.7207572}, "categories": [{"alias": "candy", "title": "Candy Stores"}, {"alias": "chocolate", "title": "Chocolatiers & Shops"}, {"alias": "coffee", "title": "Coffee & Tea"}], "review_count": 26, "location": {"city": "Denver", "address1": "201 University Blvd", "address3": "", "address2": "Ste 118", "zip_code": "80206", "country": "US", "display_address": ["201 University Blvd", "Ste 118", "Denver, CO 80206"], "state": "CO"}, "price": "$$", "transactions": [], "display_phone": "(303) 322-1005"}, {"rating": 4.5, "is_closed": false, "distance": 2699.282252136, "name": "Sidecar", "id": "sidecar-denver-2", "image_url": "https://s3-media2.fl.yelpcdn.com/bphoto/9sdqHvonb-uyMzTvKG1AoA/o.jpg", "url": "https://www.yelp.com/biz/sidecar-denver-2?adjust_creative=gBcvfFpabk3CnzmXKdYe3w&utm_campaign=yelp_api_v3&utm_medium=api_v3_business_search&utm_source=gBcvfFpabk3CnzmXKdYe3w", "phone": "+13032973952", "coordinates": {"longitude": -104.991372642499, "latitude": 39.7535622590741}, "categories": [{"alias": "cocktailbars", "title": "Cocktail Bars"}], "review_count": 12, "location": {"city": "Denver", "address1": "2048 Larimer St", "address3": "", "address2": "", "zip_code": "80205", "country": "US", "display_address": ["2048 Larimer St", "Denver, CO 80205"], "state": "CO"}, "price": "$$", "transactions": [], "display_phone": "(303) 297-3952"}, {"rating": 4.5, "is_closed": false, "distance": 4240.7827775119995, "name": "The Juicing Tree", "id": "the-juicing-tree-denver", "image_url": "https://s3-media2.fl.yelpcdn.com/bphoto/fTT0aKIDr1dKE-53Lu0fEQ/o.jpg", "url": "https://www.yelp.com/biz/the-juicing-tree-denver?adjust_creative=gBcvfFpabk3CnzmXKdYe3w&utm_campaign=yelp_api_v3&utm_medium=api_v3_business_search&utm_source=gBcvfFpabk3CnzmXKdYe3w", "phone": "+17205099055", "coordinates": {"longitude": -104.921063371003, "latitude": 39.7404606832941}, "categories": [{"alias": "raw_food", "title": "Live/Raw Food"}, {"alias": "healthmarkets", "title": "Health Markets"}, {"alias": "juicebars", "title": "Juice Bars & Smoothies"}], "review_count": 20, "location": {"city": "Denver", "address1": "1504 Ivanhoe St", "address3": "", "address2": "", "zip_code": "80220", "country": "US", "display_address": ["1504 Ivanhoe St", "Denver, CO 80220"], "state": "CO"}, "price": "$$", "transactions": [], "display_phone": "(720) 509-9055"}, {"rating": 4.0, "is_closed": false, "distance": 2409.817025564, "name": "Menya Noodle Bar", "id": "menya-noodle-bar-denver", "image_url": "https://s3-media1.fl.yelpcdn.com/bphoto/RKWjCV-77EdAomnXoymNRw/o.jpg", "url": "https://www.yelp.com/biz/menya-noodle-bar-denver?adjust_creative=gBcvfFpabk3CnzmXKdYe3w&utm_campaign=yelp_api_v3&utm_medium=api_v3_business_search&utm_source=gBcvfFpabk3CnzmXKdYe3w", "phone": "+13036078888", "coordinates": {"longitude": -104.99429, "latitude": 39.74716}, "categories": [{"alias": "noodles", "title": "Noodles"}], "review_count": 137, "location": {"city": "Denver", "address1": "951 16th St", "address3": "", "address2": "", "zip_code": "80202", "country": "US", "display_address": ["951 16th St", "Denver, CO 80202"], "state": "CO"}, "price": "$$", "transactions": ["delivery", "pickup"], "display_phone": "(303) 607-8888"}, {"rating": 4.0, "is_closed": false, "distance": 6169.585457948, "name": "Pho Duy", "id": "pho-duy-denver-2", "image_url": "https://s3-media4.fl.yelpcdn.com/bphoto/o8J-t8B-WRg80-cUZtVXZg/o.jpg", "url": "https://www.yelp.com/biz/pho-duy-denver-2?adjust_creative=gBcvfFpabk3CnzmXKdYe3w&utm_campaign=yelp_api_v3&utm_medium=api_v3_business_search&utm_source=gBcvfFpabk3CnzmXKdYe3w", "phone": "+13039371609", "coordinates": {"longitude": -105.025596618652, "latitude": 39.6998672485352}, "categories": [{"alias": "vietnamese", "title": "Vietnamese"}], "review_count": 89, "location": {"city": "Denver", "address1": "925 S Federal Blvd", "address3": "", "address2": "", "zip_code": "80219", "country": "US", "display_address": ["925 S Federal Blvd", "Denver, CO 80219"], "state": "CO"}, "price": "$", "transactions": [], "display_phone": "(303) 937-1609"}, {"rating": 3.5, "is_closed": false, "distance": 1466.7260828239998, "name": "Luca", "id": "luca-denver-2", "image_url": "https://s3-media3.fl.yelpcdn.com/bphoto/p-MenJnzC-Gj5U0a5s0u1Q/o.jpg", "url": "https://www.yelp.com/biz/luca-denver-2?adjust_creative=gBcvfFpabk3CnzmXKdYe3w&utm_campaign=yelp_api_v3&utm_medium=api_v3_business_search&utm_source=gBcvfFpabk3CnzmXKdYe3w", "phone": "+13038326600", "coordinates": {"longitude": -104.98378, "latitude": 39.72754}, "categories": [{"alias": "italian", "title": "Italian"}], "review_count": 189, "location": {"city": "Denver", "address1": "711 Grant St", "address3": "", "address2": "", "zip_code": "80203", "country": "US", "display_address": ["711 Grant St", "Denver, CO 80203"], "state": "CO"}, "price": "$$$", "transactions": [], "display_phone": "(303) 832-6600"}, {"rating": 4.5, "is_closed": false, "distance": 4551.760051864, "name": "Occidental", "id": "occidental-denver", "image_url": "https://s3-media3.fl.yelpcdn.com/bphoto/z9NOBOw4SFGv7DyUeSRa2w/o.jpg", "url": "https://www.yelp.com/biz/occidental-denver?adjust_creative=gBcvfFpabk3CnzmXKdYe3w&utm_campaign=yelp_api_v3&utm_medium=api_v3_business_search&utm_source=gBcvfFpabk3CnzmXKdYe3w", "phone": "+17205368318", "coordinates": {"longitude": -105.010890213934, "latitude": 39.761965492618}, "categories": [{"alias": "cocktailbars", "title": "Cocktail Bars"}, {"alias": "beerbar", "title": "Beer Bar"}], "review_count": 38, "location": {"city": "Denver", "address1": "1950 W 32nd Ave", "address3": "", "address2": "", "zip_code": "80211", "country": "US", "display_address": ["1950 W 32nd Ave", "Denver, CO 80211"], "state": "CO"}, "price": "$$", "transactions": [], "display_phone": "(720) 536-8318"}, {"rating": 4.0, "is_closed": false, "distance": 5490.140617358, "name": "Thai Pot Cafe", "id": "thai-pot-cafe-denver-2", "image_url": "https://s3-media3.fl.yelpcdn.com/bphoto/ffMPRgh2UHzvT2WT1xC1WQ/o.jpg", "url": "https://www.yelp.com/biz/thai-pot-cafe-denver-2?adjust_creative=gBcvfFpabk3CnzmXKdYe3w&utm_campaign=yelp_api_v3&utm_medium=api_v3_business_search&utm_source=gBcvfFpabk3CnzmXKdYe3w", "phone": "+13036396200", "coordinates": {"longitude": -104.9397939, "latitude": 39.6920584}, "categories": [{"alias": "thai", "title": "Thai"}], "review_count": 229, "location": {"city": "Denver", "address1": "1350 S Colorado Blvd", "address3": "", "address2": "Ste 191", "zip_code": "80222", "country": "US", "display_address": ["1350 S Colorado Blvd", "Ste 191", "Denver, CO 80222"], "state": "CO"}, "price": "$$", "transactions": ["pickup"], "display_phone": "(303) 639-6200"}, {"rating": 4.0, "is_closed": false, "distance": 7493.408907999999, "name": "Rise & Shine Biscuit Kitchen and Cafe", "id": "rise-and-shine-biscuit-kitchen-and-cafe-denver-3", "image_url": "https://s3-media1.fl.yelpcdn.com/bphoto/omp0imanqr7a6AM8uwvULg/o.jpg", "url": "https://www.yelp.com/biz/rise-and-shine-biscuit-kitchen-and-cafe-denver-3?adjust_creative=gBcvfFpabk3CnzmXKdYe3w&utm_campaign=yelp_api_v3&utm_medium=api_v3_business_search&utm_source=gBcvfFpabk3CnzmXKdYe3w", "phone": "+17208550540", "coordinates": {"longitude": -105.05271, "latitude": 39.75827}, "categories": [{"alias": "breakfast_brunch", "title": "Breakfast & Brunch"}], "review_count": 115, "location": {"city": "Denver", "address1": "5126 W 29th Ave", "address3": "", "address2": "", "zip_code": "80212", "country": "US", "display_address": ["5126 W 29th Ave", "Denver, CO 80212"], "state": "CO"}, "price": "$", "transactions": [], "display_phone": "(720) 855-0540"}, {"rating": 4.0, "is_closed": false, "distance": 1622.0785698359998, "name": "Palettes Contemporary Cuisine", "id": "palettes-contemporary-cuisine-denver-3", "image_url": "https://s3-media2.fl.yelpcdn.com/bphoto/X4uHyVonbG2Dq3_J-t6p2Q/o.jpg", "url": "https://www.yelp.com/biz/palettes-contemporary-cuisine-denver-3?adjust_creative=gBcvfFpabk3CnzmXKdYe3w&utm_campaign=yelp_api_v3&utm_medium=api_v3_business_search&utm_source=gBcvfFpabk3CnzmXKdYe3w", "phone": "+13035341455", "coordinates": {"longitude": -104.9888547, "latitude": 39.7376451}, "categories": [{"alias": "newamerican", "title": "American (New)"}, {"alias": "venues", "title": "Venues & Event Spaces"}], "review_count": 75, "location": {"city": "Denver", "address1": "100 W 14th Ave Pkwy", "address3": "Denver Art Museum", "address2": "", "zip_code": "80204", "country": "US", "display_address": ["100 W 14th Ave Pkwy", "Denver Art Museum", "Denver, CO 80204"], "state": "CO"}, "price": "$$", "transactions": [], "display_phone": "(303) 534-1455"}, {"rating": 4.5, "is_closed": false, "distance": 7011.802164818, "name": "Hamburghini", "id": "hamburghini-denver", "image_url": "https://s3-media2.fl.yelpcdn.com/bphoto/zG690syHW7N6toeaIG2HNg/o.jpg", "url": "https://www.yelp.com/biz/hamburghini-denver?adjust_creative=gBcvfFpabk3CnzmXKdYe3w&utm_campaign=yelp_api_v3&utm_medium=api_v3_business_search&utm_source=gBcvfFpabk3CnzmXKdYe3w", "phone": "+18187988969", "coordinates": {"longitude": -105.035015, "latitude": 39.696864}, "categories": [{"alias": "foodtrucks", "title": "Food Trucks"}, {"alias": "burgers", "title": "Burgers"}], "review_count": 70, "location": {"city": "Denver", "address1": "", "address3": null, "address2": null, "zip_code": "80219", "country": "US", "display_address": ["Denver, CO 80219"], "state": "CO"}, "price": "$$", "transactions": [], "display_phone": "(818) 798-8969"}, {"rating": 4.0, "is_closed": false, "distance": 1504.4504608299999, "name": "Vesper Lounge", "id": "vesper-lounge-denver", "image_url": "https://s3-media4.fl.yelpcdn.com/bphoto/jtwXeAlRqABLoy4kf5dArQ/o.jpg", "url": "https://www.yelp.com/biz/vesper-lounge-denver?adjust_creative=gBcvfFpabk3CnzmXKdYe3w&utm_campaign=yelp_api_v3&utm_medium=api_v3_business_search&utm_source=gBcvfFpabk3CnzmXKdYe3w", "phone": "+17203280314", "coordinates": {"longitude": -104.9841976, "latitude": 39.7272833}, "categories": [{"alias": "pubs", "title": "Pubs"}, {"alias": "divebars", "title": "Dive Bars"}, {"alias": "mediterranean", "title": "Mediterranean"}], "review_count": 105, "location": {"city": "Denver", "address1": "233 E 7th Ave", "address3": "", "address2": "", "zip_code": "80203", "country": "US", "display_address": ["233 E 7th Ave", "Denver, CO 80203"], "state": "CO"}, "price": "$$", "transactions": [], "display_phone": "(720) 328-0314"}, {"rating": 4.5, "is_closed": false, "distance": 6261.484565572, "name": "Zook's Coffee and Ice Cream", "id": "zooks-coffee-and-ice-cream-denver", "image_url": "https://s3-media2.fl.yelpcdn.com/bphoto/clYzMvgg7NOHvijCfpsMkA/o.jpg", "url": "https://www.yelp.com/biz/zooks-coffee-and-ice-cream-denver?adjust_creative=gBcvfFpabk3CnzmXKdYe3w&utm_campaign=yelp_api_v3&utm_medium=api_v3_business_search&utm_source=gBcvfFpabk3CnzmXKdYe3w", "phone": "+13035172010", "coordinates": {"longitude": -105.028900146484, "latitude": 39.7690505981445}, "categories": [{"alias": "coffee", "title": "Coffee & Tea"}, {"alias": "sandwiches", "title": "Sandwiches"}, {"alias": "soup", "title": "Soup"}], "review_count": 58, "location": {"city": "Denver", "address1": "3156 W 38th Ave", "address3": "", "address2": "", "zip_code": "80211", "country": "US", "display_address": ["3156 W 38th Ave", "Denver, CO 80211"], "state": "CO"}, "price": "$", "transactions": [], "display_phone": "(303) 517-2010"}, {"rating": 4.0, "is_closed": false, "distance": 2692.477640748, "name": "Retro Room Lounge and Salon", "id": "retro-room-lounge-and-salon-denver", "image_url": "https://s3-media2.fl.yelpcdn.com/bphoto/5h2KbogyNbM0VQhsz4SsZQ/o.jpg", "url": "https://www.yelp.com/biz/retro-room-lounge-and-salon-denver?adjust_creative=gBcvfFpabk3CnzmXKdYe3w&utm_campaign=yelp_api_v3&utm_medium=api_v3_business_search&utm_source=gBcvfFpabk3CnzmXKdYe3w", "phone": "+13032963242", "coordinates": {"longitude": -104.991661071777, "latitude": 39.7532577514648}, "categories": [{"alias": "lounges", "title": "Lounges"}, {"alias": "hair", "title": "Hair Salons"}], "review_count": 145, "location": {"city": "Denver", "address1": "2034 Larimer St", "address3": "", "address2": "", "zip_code": "80205", "country": "US", "display_address": ["2034 Larimer St", "Denver, CO 80205"], "state": "CO"}, "price": "$", "transactions": [], "display_phone": "(303) 296-3242"}, {"rating": 4.0, "is_closed": false, "distance": 4268.4444353, "name": "Big Smoke Burger", "id": "big-smoke-burger-denver", "image_url": "https://s3-media4.fl.yelpcdn.com/bphoto/oWKUAWIwo27pVf3rrhR2Sw/o.jpg", "url": "https://www.yelp.com/biz/big-smoke-burger-denver?adjust_creative=gBcvfFpabk3CnzmXKdYe3w&utm_campaign=yelp_api_v3&utm_medium=api_v3_business_search&utm_source=gBcvfFpabk3CnzmXKdYe3w", "phone": "+13037563145", "coordinates": {"longitude": -104.938996067459, "latitude": 39.7055940587413}, "categories": [{"alias": "burgers", "title": "Burgers"}], "review_count": 176, "location": {"city": "Denver", "address1": "652 S Colorado Blvd", "address3": "", "address2": "", "zip_code": "80246", "country": "US", "display_address": ["652 S Colorado Blvd", "Denver, CO 80246"], "state": "CO"}, "price": "$$", "transactions": ["pickup"], "display_phone": "(303) 756-3145"}, {"rating": 3.5, "is_closed": false, "distance": 2973.0786226, "name": "Falling Rock Tap House", "id": "falling-rock-tap-house-denver", "image_url": "https://s3-media4.fl.yelpcdn.com/bphoto/d5Ot4gpQFXNV5EuPojSVfA/o.jpg", "url": "https://www.yelp.com/biz/falling-rock-tap-house-denver?adjust_creative=gBcvfFpabk3CnzmXKdYe3w&utm_campaign=yelp_api_v3&utm_medium=api_v3_business_search&utm_source=gBcvfFpabk3CnzmXKdYe3w", "phone": "+13032938338", "coordinates": {"longitude": -104.99539, "latitude": 39.75386}, "categories": [{"alias": "bars", "title": "Bars"}, {"alias": "tradamerican", "title": "American (Traditional)"}, {"alias": "sandwiches", "title": "Sandwiches"}], "review_count": 558, "location": {"city": "Denver", "address1": "1919 Blake St", "address3": "", "address2": "", "zip_code": "80202", "country": "US", "display_address": ["1919 Blake St", "Denver, CO 80202"], "state": "CO"}, "price": "$$", "transactions": [], "display_phone": "(303) 293-8338"}, {"rating": 4.5, "is_closed": false, "distance": 4430.881719794, "name": "Hamburguesas Don Jesus", "id": "hamburguesas-don-jesus-denver", "image_url": "https://s3-media2.fl.yelpcdn.com/bphoto/2qq7BCpd5EssFlupX8F5pQ/o.jpg", "url": "https://www.yelp.com/biz/hamburguesas-don-jesus-denver?adjust_creative=gBcvfFpabk3CnzmXKdYe3w&utm_campaign=yelp_api_v3&utm_medium=api_v3_business_search&utm_source=gBcvfFpabk3CnzmXKdYe3w", "phone": "+17203666906", "coordinates": {"longitude": -105.021514892578, "latitude": 39.7295799255371}, "categories": [{"alias": "mexican", "title": "Mexican"}, {"alias": "burgers", "title": "Burgers"}, {"alias": "hotdog", "title": "Hot Dogs"}], "review_count": 25, "location": {"city": "Denver", "address1": "800 Decatur St", "address3": "", "address2": "", "zip_code": "80204", "country": "US", "display_address": ["800 Decatur St", "Denver, CO 80204"], "state": "CO"}, "price": "$", "transactions": [], "display_phone": "(720) 366-6906"}, {"rating": 4.0, "is_closed": false, "distance": 2724.883632856, "name": "El Charrito", "id": "el-charrito-denver", "image_url": "https://s3-media2.fl.yelpcdn.com/bphoto/mP-flke6snO6qNflZkdCzA/o.jpg", "url": "https://www.yelp.com/biz/el-charrito-denver?adjust_creative=gBcvfFpabk3CnzmXKdYe3w&utm_campaign=yelp_api_v3&utm_medium=api_v3_business_search&utm_source=gBcvfFpabk3CnzmXKdYe3w", "phone": "+13035231688", "coordinates": {"longitude": -104.9913451, "latitude": 39.7538859}, "categories": [{"alias": "divebars", "title": "Dive Bars"}, {"alias": "karaoke", "title": "Karaoke"}, {"alias": "mexican", "title": "Mexican"}], "review_count": 71, "location": {"city": "Denver", "address1": "2100 Larimer St", "address3": "", "address2": "", "zip_code": "80205", "country": "US", "display_address": ["2100 Larimer St", "Denver, CO 80205"], "state": "CO"}, "price": "$", "transactions": [], "display_phone": "(303) 523-1688"}, {"rating": 4.0, "is_closed": false, "distance": 3535.286906606, "name": "Syntax Physic Opera", "id": "syntax-physic-opera-denver", "image_url": "https://s3-media1.fl.yelpcdn.com/bphoto/SojCvTEvDKYrq7BTq4PXfQ/o.jpg", "url": "https://www.yelp.com/biz/syntax-physic-opera-denver?adjust_creative=gBcvfFpabk3CnzmXKdYe3w&utm_campaign=yelp_api_v3&utm_medium=api_v3_business_search&utm_source=gBcvfFpabk3CnzmXKdYe3w", "phone": "+17204567041", "coordinates": {"longitude": -104.98739, "latitude": 39.70658}, "categories": [{"alias": "musicvenues", "title": "Music Venues"}, {"alias": "bars", "title": "Bars"}, {"alias": "tapasmallplates", "title": "Tapas/Small Plates"}], "review_count": 56, "location": {"city": "Denver", "address1": "554 S Broadway", "address3": "", "address2": "", "zip_code": "80209", "country": "US", "display_address": ["554 S Broadway", "Denver, CO 80209"], "state": "CO"}, "price": "$$", "transactions": [], "display_phone": "(720) 456-7041"}, {"rating": 3.5, "is_closed": false, "distance": 2708.4302234979996, "name": "Ignite Kitchen + Cocktails", "id": "ignite-kitchen-cocktails-denver", "image_url": "https://s3-media2.fl.yelpcdn.com/bphoto/fF5DSrKrfEVHT2aeDrnxoA/o.jpg", "url": "https://www.yelp.com/biz/ignite-kitchen-cocktails-denver?adjust_creative=gBcvfFpabk3CnzmXKdYe3w&utm_campaign=yelp_api_v3&utm_medium=api_v3_business_search&utm_source=gBcvfFpabk3CnzmXKdYe3w", "phone": "+13032962600", "coordinates": {"longitude": -104.9905643, "latitude": 39.7542117}, "categories": [{"alias": "newamerican", "title": "American (New)"}, {"alias": "gluten_free", "title": "Gluten-Free"}, {"alias": "burgers", "title": "Burgers"}], "review_count": 559, "location": {"city": "Denver", "address1": "2124 Larimer St", "address3": "", "address2": null, "zip_code": "80205", "country": "US", "display_address": ["2124 Larimer St", "Denver, CO 80205"], "state": "CO"}, "price": "$$", "transactions": [], "display_phone": "(303) 296-2600"}, {"rating": 4.0, "is_closed": false, "distance": 1251.89512529, "name": "Chef Zorba's Cuisine", "id": "chef-zorbas-cuisine-denver", "image_url": "https://s3-media4.fl.yelpcdn.com/bphoto/e2DZa1L75wCX90bHZX7fAw/o.jpg", "url": "https://www.yelp.com/biz/chef-zorbas-cuisine-denver?adjust_creative=gBcvfFpabk3CnzmXKdYe3w&utm_campaign=yelp_api_v3&utm_medium=api_v3_business_search&utm_source=gBcvfFpabk3CnzmXKdYe3w", "phone": "+13033210091", "coordinates": {"longitude": -104.95546, "latitude": 39.73489}, "categories": [{"alias": "greek", "title": "Greek"}, {"alias": "diners", "title": "Diners"}], "review_count": 149, "location": {"city": "Denver", "address1": "2626 E 12th Ave", "address3": "", "address2": "", "zip_code": "80206", "country": "US", "display_address": ["2626 E 12th Ave", "Denver, CO 80206"], "state": "CO"}, "price": "$$", "transactions": [], "display_phone": "(303) 321-0091"}, {"rating": 4.0, "is_closed": false, "distance": 2026.2046043219998, "name": "Departure", "id": "departure-denver-3", "image_url": "https://s3-media1.fl.yelpcdn.com/bphoto/oamRYxu8j9KpeVHn-E3oHA/o.jpg", "url": "https://www.yelp.com/biz/departure-denver-3?adjust_creative=gBcvfFpabk3CnzmXKdYe3w&utm_campaign=yelp_api_v3&utm_medium=api_v3_business_search&utm_source=gBcvfFpabk3CnzmXKdYe3w", "phone": "+17207725020", "coordinates": {"longitude": -104.95710862611, "latitude": 39.7201771141022}, "categories": [{"alias": "beer_and_wine", "title": "Beer, Wine & Spirits"}, {"alias": "asianfusion", "title": "Asian Fusion"}, {"alias": "sushi", "title": "Sushi Bars"}], "review_count": 88, "location": {"city": "Denver", "address1": "249 Columbine St", "address3": "", "address2": "", "zip_code": "80206", "country": "US", "display_address": ["249 Columbine St", "Denver, CO 80206"], "state": "CO"}, "price": "$$$", "transactions": [], "display_phone": "(720) 772-5020"}, {"rating": 4.5, "is_closed": false, "distance": 7487.35618026, "name": "Vital Root", "id": "vital-root-denver", "image_url": "https://s3-media2.fl.yelpcdn.com/bphoto/G-fHbpnmHweX4rbDy9YkPQ/o.jpg", "url": "https://www.yelp.com/biz/vital-root-denver?adjust_creative=gBcvfFpabk3CnzmXKdYe3w&utm_campaign=yelp_api_v3&utm_medium=api_v3_business_search&utm_source=gBcvfFpabk3CnzmXKdYe3w", "phone": "+13034744131", "coordinates": {"longitude": -105.04431, "latitude": 39.77142}, "categories": [{"alias": "vegetarian", "title": "Vegetarian"}, {"alias": "bars", "title": "Bars"}], "review_count": 115, "location": {"city": "Denver", "address1": "3915 Tennyson St", "address3": "", "address2": "", "zip_code": "80212", "country": "US", "display_address": ["3915 Tennyson St", "Denver, CO 80212"], "state": "CO"}, "price": "$$", "transactions": [], "display_phone": "(303) 474-4131"}, {"rating": 4.0, "is_closed": false, "distance": 2469.3333155759997, "name": "Dougherty's Neighborhood Pub", "id": "doughertys-neighborhood-pub-denver", "image_url": "https://s3-media2.fl.yelpcdn.com/bphoto/N93-DnwEvUCuVQ6IxSLVJQ/o.jpg", "url": "https://www.yelp.com/biz/doughertys-neighborhood-pub-denver?adjust_creative=gBcvfFpabk3CnzmXKdYe3w&utm_campaign=yelp_api_v3&utm_medium=api_v3_business_search&utm_source=gBcvfFpabk3CnzmXKdYe3w", "phone": "+13037775210", "coordinates": {"longitude": -104.985324405134, "latitude": 39.7165851475238}, "categories": [{"alias": "irish", "title": "Irish"}, {"alias": "breakfast_brunch", "title": "Breakfast & Brunch"}, {"alias": "irish_pubs", "title": "Irish Pub"}], "review_count": 119, "location": {"city": "Denver", "address1": "5 E Ellsworth Ave", "address3": "", "address2": "", "zip_code": "80209", "country": "US", "display_address": ["5 E Ellsworth Ave", "Denver, CO 80209"], "state": "CO"}, "price": "$$", "transactions": [], "display_phone": "(303) 777-5210"}, {"rating": 4.0, "is_closed": false, "distance": 4211.37562956, "name": "There - Denver", "id": "there-denver-denver", "image_url": "https://s3-media3.fl.yelpcdn.com/bphoto/jck49HTbUACdgEzR_O0ucg/o.jpg", "url": "https://www.yelp.com/biz/there-denver-denver?adjust_creative=gBcvfFpabk3CnzmXKdYe3w&utm_campaign=yelp_api_v3&utm_medium=api_v3_business_search&utm_source=gBcvfFpabk3CnzmXKdYe3w", "phone": "+17205003254", "coordinates": {"longitude": -105.003989227116, "latitude": 39.7631158790758}, "categories": [{"alias": "newamerican", "title": "American (New)"}, {"alias": "bars", "title": "Bars"}], "review_count": 73, "location": {"city": "Denver", "address1": "3254 Navajo St", "address3": "", "address2": "", "zip_code": "80211", "country": "US", "display_address": ["3254 Navajo St", "Denver, CO 80211"], "state": "CO"}, "price": "$$", "transactions": [], "display_phone": "(720) 500-3254"}, {"rating": 4.0, "is_closed": false, "distance": 2044.049770912, "name": "La Merise", "id": "la-merise-denver", "image_url": "https://s3-media2.fl.yelpcdn.com/bphoto/qAGlDVcJGPT-CWm7VuHG1Q/o.jpg", "url": "https://www.yelp.com/biz/la-merise-denver?adjust_creative=gBcvfFpabk3CnzmXKdYe3w&utm_campaign=yelp_api_v3&utm_medium=api_v3_business_search&utm_source=gBcvfFpabk3CnzmXKdYe3w", "phone": "+17205964360", "coordinates": {"longitude": -104.955670908093, "latitude": 39.7209365665913}, "categories": [{"alias": "french", "title": "French"}], "review_count": 93, "location": {"city": "Denver", "address1": "2700 E 3rd Ave", "address3": "", "address2": "", "zip_code": "80206", "country": "US", "display_address": ["2700 E 3rd Ave", "Denver, CO 80206"], "state": "CO"}, "price": "$$", "transactions": [], "display_phone": "(720) 596-4360"}, {"rating": 4.5, "is_closed": false, "distance": 4057.1487149439995, "name": "South Platte River Trail", "id": "south-platte-river-trail-denver", "image_url": "https://s3-media3.fl.yelpcdn.com/bphoto/d5JG6j6FHr1BOP4I_RvNQA/o.jpg", "url": "https://www.yelp.com/biz/south-platte-river-trail-denver?adjust_creative=gBcvfFpabk3CnzmXKdYe3w&utm_campaign=yelp_api_v3&utm_medium=api_v3_business_search&utm_source=gBcvfFpabk3CnzmXKdYe3w", "phone": "", "coordinates": {"longitude": -105.015135113215, "latitude": 39.7473436051584}, "categories": [{"alias": "parks", "title": "Parks"}], "review_count": 19, "location": {"city": "Denver", "address1": "", "address3": "", "address2": "", "zip_code": "80238", "country": "US", "display_address": ["Denver, CO 80238"], "state": "CO"}, "transactions": [], "display_phone": ""}, {"rating": 5.0, "is_closed": false, "distance": 3350.517293734, "name": "Blue Sparrow Coffee", "id": "blue-sparrow-coffee-denver", "image_url": "https://s3-media1.fl.yelpcdn.com/bphoto/M7SXiIMEdeEtUhpyDwKV9A/o.jpg", "url": "https://www.yelp.com/biz/blue-sparrow-coffee-denver?adjust_creative=gBcvfFpabk3CnzmXKdYe3w&utm_campaign=yelp_api_v3&utm_medium=api_v3_business_search&utm_source=gBcvfFpabk3CnzmXKdYe3w", "phone": "+17205930180", "coordinates": {"longitude": -104.981414664122, "latitude": 39.7642179835476}, "categories": [{"alias": "coffee", "title": "Coffee & Tea"}, {"alias": "bakeries", "title": "Bakeries"}], "review_count": 14, "location": {"city": "Denver", "address1": "3070 Blake St", "address3": "", "address2": "Unit 180", "zip_code": "80205", "country": "US", "display_address": ["3070 Blake St", "Unit 180", "Denver, CO 80205"], "state": "CO"}, "price": "$", "transactions": [], "display_phone": "(720) 593-0180"}, {"rating": 3.5, "is_closed": false, "distance": 493.99930491799995, "name": "Barricuda's", "id": "barricudas-denver-3", "image_url": "https://s3-media1.fl.yelpcdn.com/bphoto/XOpnT-ncgb_Rgpge99XaEA/o.jpg", "url": "https://www.yelp.com/biz/barricudas-denver-3?adjust_creative=gBcvfFpabk3CnzmXKdYe3w&utm_campaign=yelp_api_v3&utm_medium=api_v3_business_search&utm_source=gBcvfFpabk3CnzmXKdYe3w", "phone": "+13038608353", "coordinates": {"longitude": -104.975206106901, "latitude": 39.7332264482975}, "categories": [{"alias": "bars", "title": "Bars"}, {"alias": "newamerican", "title": "American (New)"}, {"alias": "karaoke", "title": "Karaoke"}], "review_count": 158, "location": {"city": "Denver", "address1": "1076 Ogden St", "address3": "", "address2": "", "zip_code": "80218", "country": "US", "display_address": ["1076 Ogden St", "Denver, CO 80218"], "state": "CO"}, "price": "$", "transactions": ["delivery", "pickup"], "display_phone": "(303) 860-8353"}, {"rating": 4.0, "is_closed": false, "distance": 2711.335886868, "name": "Hi Rise", "id": "hi-rise-denver", "image_url": "https://s3-media2.fl.yelpcdn.com/bphoto/tuibUWKhbQuy_iWm5Zugnw/o.jpg", "url": "https://www.yelp.com/biz/hi-rise-denver?adjust_creative=gBcvfFpabk3CnzmXKdYe3w&utm_campaign=yelp_api_v3&utm_medium=api_v3_business_search&utm_source=gBcvfFpabk3CnzmXKdYe3w", "phone": "+13032963656", "coordinates": {"longitude": -104.9902, "latitude": 39.75462}, "categories": [{"alias": "breakfast_brunch", "title": "Breakfast & Brunch"}, {"alias": "bakeries", "title": "Bakeries"}, {"alias": "sandwiches", "title": "Sandwiches"}], "review_count": 242, "location": {"city": "Denver", "address1": "2162 Larimer St", "address3": "", "address2": "", "zip_code": "80205", "country": "US", "display_address": ["2162 Larimer St", "Denver, CO 80205"], "state": "CO"}, "price": "$", "transactions": [], "display_phone": "(303) 296-3656"}, {"rating": 3.5, "is_closed": false, "distance": 2931.08772332, "name": "Southern Hospitality", "id": "southern-hospitality-denver", "image_url": "https://s3-media1.fl.yelpcdn.com/bphoto/EJgh2zP1ZxQ5yMBi0Mn_uA/o.jpg", "url": "https://www.yelp.com/biz/southern-hospitality-denver?adjust_creative=gBcvfFpabk3CnzmXKdYe3w&utm_campaign=yelp_api_v3&utm_medium=api_v3_business_search&utm_source=gBcvfFpabk3CnzmXKdYe3w", "phone": "+13032985398", "coordinates": {"longitude": -104.9975789, "latitude": 39.7514296}, "categories": [{"alias": "bbq", "title": "Barbeque"}, {"alias": "breakfast_brunch", "title": "Breakfast & Brunch"}, {"alias": "tradamerican", "title": "American (Traditional)"}], "review_count": 505, "location": {"city": "Denver", "address1": "1433 17th St", "address3": "", "address2": null, "zip_code": "80202", "country": "US", "display_address": ["1433 17th St", "Denver, CO 80202"], "state": "CO"}, "price": "$$", "transactions": ["delivery"], "display_phone": "(303) 298-5398"}]}