{"total": 34880, "region": {"center": {"longitude": -104.97024536132812, "latitude": 39.73552421220229}}, "businesses": [{"rating": 4.0, "is_closed": false, "distance": 2402.122771024, "name": "Modern Market Eatery", "id": "modern-market-eatery-denver", "image_url": "https://s3-media3.fl.yelpcdn.com/bphoto/SJSjRYVKvpz4xonjgj2pKw/o.jpg", "url": "https://www.yelp.com/biz/modern-market-eatery-denver?adjust_creative=gBcvfFpabk3CnzmXKdYe3w&utm_campaign=yelp_api_v3&utm_medium=api_v3_business_search&utm_source=gBcvfFpabk3CnzmXKdYe3w", "phone": "+13035340190", "coordinates": {"longitude": -104.9944359, "latitude": 39.746505}, "categories": [{"alias": "breakfast_brunch", "title": "Breakfast & Brunch"}, {"alias": "salad", "title": "Salad"}, {"alias": "sandwiches", "title": "Sandwiches"}], "review_count": 345, "location": {"city": "Denver", "address1": "900 Sixteenth St", "address3": "", "address2": "", "zip_code": "80202", "country": "US", "display_address": ["900 Sixteenth St", "Denver, CO 80202"], "state": "CO"}, "price": "$", "transactions": [], "display_phone": "(303) 534-0190"}, {"rating": 4.5, "is_closed": false, "distance": 4395.70782382, "name": "Red Poppy Tea & Hookah Parlour", "id": "red-poppy-tea-and-hookah-parlour-denver", "image_url": "https://s3-media3.fl.yelpcdn.com/bphoto/qUK2bhd4PFQP5GzbUX_Hlw/o.jpg", "url": "https://www.yelp.com/biz/red-poppy-tea-and-hookah-parlour-denver?adjust_creative=gBcvfFpabk3CnzmXKdYe3w&utm_campaign=yelp_api_v3&utm_medium=api_v3_business_search&utm_source=gBcvfFpabk3CnzmXKdYe3w", "phone": "+13033301718", "coordinates": {"longitude": -105.012381, "latitude": 39.758176}, "categories": [{"alias": "hookah_bars", "title": "Hookah Bars"}, {"alias": "tea", "title": "Tea Rooms"}, {"alias": "galleries", "title": "Art Galleries"}], "review_count": 75, "location": {"city": "Denver", "address1": "2120 W 29th Ave", "address3": "", "address2": null, "zip_code": "80211", "country": "US", "display_address": ["2120 W 29th Ave", "Denver, CO 80211"], "state": "CO"}, "price": "$$", "transactions": [], "display_phone": "(303) 330-1718"}, {"rating": 4.5, "is_closed": false, "distance": 4268.038720686, "name": "Quiero Arepas", "id": "quiero-arepas-denver", "image_url": "https://s3-media1.fl.yelpcdn.com/bphoto/mGj0h4zhc_O_6EBGFYVhEQ/o.jpg", "url": "https://www.yelp.com/biz/quiero-arepas-denver?adjust_creative=gBcvfFpabk3CnzmXKdYe3w&utm_campaign=yelp_api_v3&utm_medium=api_v3_business_search&utm_source=gBcvfFpabk3CnzmXKdYe3w", "phone": "+17204324205", "coordinates": {"longitude": -105.00611114502, "latitude": 39.7622413635254}, "categories": [{"alias": "gluten_free", "title": "Gluten-Free"}, {"alias": "latin", "title": "Latin American"}, {"alias": "foodtrucks", "title": "Food Trucks"}], "review_count": 128, "location": {"city": "Denver", "address1": "3200 Pecos St", "address3": "", "address2": "", "zip_code": "80211", "country": "US", "display_address": ["3200 Pecos St", "Denver, CO 80211"], "state": "CO"}, "price": "$", "transactions": [], "display_phone": "(720) 432-4205"}, {"rating": 4.0, "is_closed": false, "distance": 2833.421384872, "name": "Ocean Prime", "id": "ocean-prime-denver", "image_url": "https://s3-media2.fl.yelpcdn.com/bphoto/0fRtdNPSHj0594XgnEevUw/o.jpg", "url": "https://www.yelp.com/biz/ocean-prime-denver?adjust_creative=gBcvfFpabk3CnzmXKdYe3w&utm_campaign=yelp_api_v3&utm_medium=api_v3_business_search&utm_source=gBcvfFpabk3CnzmXKdYe3w", "phone": "+13038253663", "coordinates": {"longitude": -104.99887, "latitude": 39.74827}, "categories": [{"alias": "newamerican", "title": "American (New)"}, {"alias": "seafood", "title": "Seafood"}, {"alias": "steak", "title": "Steakhouses"}], "review_count": 546, "location": {"city": "Denver", "address1": "1465 Larimer St", "address3": "", "address2": "", "zip_code": "80202", "country": "US", "display_address": ["1465 Larimer St", "Denver, CO 80202"], "state": "CO"}, "price": "$$$", "transactions": [], "display_phone": "(303) 825-3663"}, {"rating": 4.5, "is_closed": false, "distance": 4834.9599568819995, "name": "Tacos El Paisa", "id": "tacos-el-paisa-denver-2", "image_url": "https://s3-media1.fl.yelpcdn.com/bphoto/hR7zeQJviCWWOaEK4bInQA/o.jpg", "url": "https://www.yelp.com/biz/tacos-el-paisa-denver-2?adjust_creative=gBcvfFpabk3CnzmXKdYe3w&utm_campaign=yelp_api_v3&utm_medium=api_v3_business_search&utm_source=gBcvfFpabk3CnzmXKdYe3w", "phone": "+17203284414", "coordinates": {"longitude": -105.02478, "latitude": 39.74694}, "categories": [{"alias": "mexican", "title": "Mexican"}], "review_count": 61, "location": {"city": "Denver", "address1": "1920 Federal Blvd", "address3": "", "address2": "", "zip_code": "80204", "country": "US", "display_address": ["1920 Federal Blvd", "Denver, CO 80204"], "state": "CO"}, "price": "$", "transactions": [], "display_phone": "(720) 328-4414"}, {"rating": 4.0, "is_closed": false, "distance": 1657.8904081859998, "name": "Horseshoe Lounge", "id": "horseshoe-lounge-denver", "image_url": "https://s3-media3.fl.yelpcdn.com/bphoto/2ZD0A0fIFfhhx1bzyr7tAg/o.jpg", "url": "https://www.yelp.com/biz/horseshoe-lounge-denver?adjust_creative=gBcvfFpabk3CnzmXKdYe3w&utm_campaign=yelp_api_v3&utm_medium=api_v3_business_search&utm_source=gBcvfFpabk3CnzmXKdYe3w", "phone": "+13038321180", "coordinates": {"longitude": -104.98184, "latitude": 39.74745}, "categories": [{"alias": "lounges", "title": "Lounges"}], "review_count": 176, "location": {"city": "Denver", "address1": "414 E 20th Ave", "address3": "", "address2": "", "zip_code": "80205", "country": "US", "display_address": ["414 E 20th Ave", "Denver, CO 80205"], "state": "CO"}, "price": "$", "transactions": [], "display_phone": "(303) 832-1180"}, {"rating": 4.5, "is_closed": false, "distance": 4085.6102147119996, "name": "House of Commons", "id": "house-of-commons-denver", "image_url": "https://s3-media3.fl.yelpcdn.com/bphoto/JMXWftpXRrobPD23YKLzbw/o.jpg", "url": "https://www.yelp.com/biz/house-of-commons-denver?adjust_creative=gBcvfFpabk3CnzmXKdYe3w&utm_campaign=yelp_api_v3&utm_medium=api_v3_business_search&utm_source=gBcvfFpabk3CnzmXKdYe3w", "phone": "+13034554832", "coordinates": {"longitude": -105.009170532227, "latitude": 39.7569236755371}, "categories": [{"alias": "british", "title": "British"}, {"alias": "tea", "title": "Tea Rooms"}, {"alias": "coffee", "title": "Coffee & Tea"}], "review_count": 184, "location": {"city": "Denver", "address1": "2401 15th St", "address3": "", "address2": "", "zip_code": "80202", "country": "US", "display_address": ["2401 15th St", "Denver, CO 80202"], "state": "CO"}, "price": "$$", "transactions": [], "display_phone": "(303) 455-4832"}, {"rating": 4.0, "is_closed": false, "distance": 1847.3338662859999, "name": "Parsley", "id": "parsley-denver", "image_url": "https://s3-media3.fl.yelpcdn.com/bphoto/ER8loIKEip6pHzhVeRd1DA/o.jpg", "url": "https://www.yelp.com/biz/parsley-denver?adjust_creative=gBcvfFpabk3CnzmXKdYe3w&utm_campaign=yelp_api_v3&utm_medium=api_v3_business_search&utm_source=gBcvfFpabk3CnzmXKdYe3w", "phone": "+13038937914", "coordinates": {"longitude": -104.991856589913, "latitude": 39.7338782250881}, "categories": [{"alias": "juicebars", "title": "Juice Bars & Smoothies"}, {"alias": "vegetarian", "title": "Vegetarian"}, {"alias": "soup", "title": "Soup"}], "review_count": 226, "location": {"city": "Denver", "address1": "303 W 11th Ave", "address3": "", "address2": "", "zip_code": "80204", "country": "US", "display_address": ["303 W 11th Ave", "Denver, CO 80204"], "state": "CO"}, "price": "$$", "transactions": [], "display_phone": "(303) 893-7914"}, {"rating": 4.5, "is_closed": false, "distance": 2836.675309418, "name": "Bubu", "id": "bubu-denver", "image_url": "https://s3-media4.fl.yelpcdn.com/bphoto/-vDHq3PsJxvcwvfxE199eg/o.jpg", "url": "https://www.yelp.com/biz/bubu-denver?adjust_creative=gBcvfFpabk3CnzmXKdYe3w&utm_campaign=yelp_api_v3&utm_medium=api_v3_business_search&utm_source=gBcvfFpabk3CnzmXKdYe3w", "phone": "+13039962685", "coordinates": {"longitude": -104.9994096, "latitude": 39.7476804}, "categories": [{"alias": "asianfusion", "title": "Asian Fusion"}], "review_count": 97, "location": {"city": "Denver", "address1": "1423 Larimer St", "address3": "", "address2": "", "zip_code": "80202", "country": "US", "display_address": ["1423 Larimer St", "Denver, CO 80202"], "state": "CO"}, "price": "$$", "transactions": ["pickup"], "display_phone": "(303) 996-2685"}, {"rating": 4.0, "is_closed": false, "distance": 4408.874156228, "name": "Linger", "id": "linger-denver-2", "image_url": "https://s3-media1.fl.yelpcdn.com/bphoto/EeO1ljLf2LkxlANtr8Du2Q/o.jpg", "url": "https://www.yelp.com/biz/linger-denver-2?adjust_creative=gBcvfFpabk3CnzmXKdYe3w&utm_campaign=yelp_api_v3&utm_medium=api_v3_business_search&utm_source=gBcvfFpabk3CnzmXKdYe3w", "phone": "+13039933120", "coordinates": {"longitude": -105.0113754, "latitude": 39.7595139}, "categories": [{"alias": "newamerican", "title": "American (New)"}], "review_count": 1992, "location": {"city": "Denver", "address1": "2030 W 30th Ave", "address3": "", "address2": "", "zip_code": "80211", "country": "US", "display_address": ["2030 W 30th Ave", "Denver, CO 80211"], "state": "CO"}, "price": "$$", "transactions": ["pickup"], "display_phone": "(303) 993-3120"}, {"rating": 4.5, "is_closed": false, "distance": 4134.457707062, "name": "The Butcher Block Cafe", "id": "the-butcher-block-cafe-denver", "image_url": "https://s3-media4.fl.yelpcdn.com/bphoto/tn5BHr644tjq0RoeMps9ag/o.jpg", "url": "https://www.yelp.com/biz/the-butcher-block-cafe-denver?adjust_creative=gBcvfFpabk3CnzmXKdYe3w&utm_campaign=yelp_api_v3&utm_medium=api_v3_business_search&utm_source=gBcvfFpabk3CnzmXKdYe3w", "phone": "+13032952915", "coordinates": {"longitude": -104.9745499, "latitude": 39.77247}, "categories": [{"alias": "breakfast_brunch", "title": "Breakfast & Brunch"}, {"alias": "diners", "title": "Diners"}, {"alias": "tradamerican", "title": "American (Traditional)"}], "review_count": 218, "location": {"city": "Denver", "address1": "1701 38th St", "address3": "", "address2": "", "zip_code": "80216", "country": "US", "display_address": ["1701 38th St", "Denver, CO 80216"], "state": "CO"}, "price": "$", "transactions": [], "display_phone": "(303) 295-2915"}, {"rating": 4.0, "is_closed": false, "distance": 3081.7139006199995, "name": "The Cruise Room", "id": "the-cruise-room-denver", "image_url": "https://s3-media4.fl.yelpcdn.com/bphoto/25OXurhFru-PapvyXlZxMA/o.jpg", "url": "https://www.yelp.com/biz/the-cruise-room-denver?adjust_creative=gBcvfFpabk3CnzmXKdYe3w&utm_campaign=yelp_api_v3&utm_medium=api_v3_business_search&utm_source=gBcvfFpabk3CnzmXKdYe3w", "phone": "+13038251107", "coordinates": {"longitude": -104.999095201492, "latitude": 39.7521392600685}, "categories": [{"alias": "lounges", "title": "Lounges"}], "review_count": 267, "location": {"city": "Denver", "address1": "1600 17th St", "address3": "Oxford Hotel", "address2": "", "zip_code": "80238", "country": "US", "display_address": ["1600 17th St", "Oxford Hotel", "Denver, CO 80238"], "state": "CO"}, "price": "$$", "transactions": [], "display_phone": "(303) 825-1107"}, {"rating": 4.5, "is_closed": false, "distance": 4652.740182306, "name": "American Cultures Kombucha Taproom", "id": "american-cultures-kombucha-taproom-denver", "image_url": "https://s3-media4.fl.yelpcdn.com/bphoto/YU4blKNbuo-gV2z-C0JTTA/o.jpg", "url": "https://www.yelp.com/biz/american-cultures-kombucha-taproom-denver?adjust_creative=gBcvfFpabk3CnzmXKdYe3w&utm_campaign=yelp_api_v3&utm_medium=api_v3_business_search&utm_source=gBcvfFpabk3CnzmXKdYe3w", "phone": "+17204028394", "coordinates": {"longitude": -105.0115299, "latitude": 39.76285}, "categories": [{"alias": "coffee", "title": "Coffee & Tea"}, {"alias": "kombucha", "title": "Kombucha"}, {"alias": "breakfast_brunch", "title": "Breakfast & Brunch"}], "review_count": 42, "location": {"city": "Denver", "address1": "3233 Tejon St", "address3": null, "address2": "Unit 107", "zip_code": "80211", "country": "US", "display_address": ["3233 Tejon St", "Unit 107", "Denver, CO 80211"], "state": "CO"}, "price": "$", "transactions": [], "display_phone": "(720) 402-8394"}, {"rating": 4.5, "is_closed": false, "distance": 3698.2638028019996, "name": "Grillin' Wings & Things", "id": "grillin-wings-and-things-denver", "image_url": "https://s3-media4.fl.yelpcdn.com/bphoto/fAA0gg8jnnXAMuHxjrRCLg/o.jpg", "url": "https://www.yelp.com/biz/grillin-wings-and-things-denver?adjust_creative=gBcvfFpabk3CnzmXKdYe3w&utm_campaign=yelp_api_v3&utm_medium=api_v3_business_search&utm_source=gBcvfFpabk3CnzmXKdYe3w", "phone": "+17205707800", "coordinates": {"longitude": -104.95956, "latitude": 39.70324}, "categories": [{"alias": "chicken_wings", "title": "Chicken Wings"}, {"alias": "gluten_free", "title": "Gluten-Free"}], "review_count": 198, "location": {"city": "Denver", "address1": "723 S University Blvd", "address3": "", "address2": "", "zip_code": "80209", "country": "US", "display_address": ["723 S University Blvd", "Denver, CO 80209"], "state": "CO"}, "price": "$$", "transactions": ["pickup", "delivery"], "display_phone": "(720) 570-7800"}, {"rating": 4.0, "is_closed": false, "distance": 3269.4073624039997, "name": "The Populist", "id": "the-populist-denver", "image_url": "https://s3-media4.fl.yelpcdn.com/bphoto/TSqSkyILdweMVObH-v02EA/o.jpg", "url": "https://www.yelp.com/biz/the-populist-denver?adjust_creative=gBcvfFpabk3CnzmXKdYe3w&utm_campaign=yelp_api_v3&utm_medium=api_v3_business_search&utm_source=gBcvfFpabk3CnzmXKdYe3w", "phone": "+17204323163", "coordinates": {"longitude": -104.97848, "latitude": 39.764238}, "categories": [{"alias": "newamerican", "title": "American (New)"}, {"alias": "bars", "title": "Bars"}], "review_count": 314, "location": {"city": "Denver", "address1": "3163 Larimer St", "address3": "", "address2": "", "zip_code": "80205", "country": "US", "display_address": ["3163 Larimer St", "Denver, CO 80205"], "state": "CO"}, "price": "$$", "transactions": [], "display_phone": "(720) 432-3163"}, {"rating": 4.0, "is_closed": false, "distance": 1961.54888702, "name": "Barolo Grill", "id": "barolo-grill-denver", "image_url": "https://s3-media2.fl.yelpcdn.com/bphoto/L15BRKE3hTlAyizicc99vw/o.jpg", "url": "https://www.yelp.com/biz/barolo-grill-denver?adjust_creative=gBcvfFpabk3CnzmXKdYe3w&utm_campaign=yelp_api_v3&utm_medium=api_v3_business_search&utm_source=gBcvfFpabk3CnzmXKdYe3w", "phone": "+13033931040", "coordinates": {"longitude": -104.95152, "latitude": 39.72546}, "categories": [{"alias": "italian", "title": "Italian"}, {"alias": "wine_bars", "title": "Wine Bars"}], "review_count": 197, "location": {"city": "Denver", "address1": "3030 E 6th Ave", "address3": "", "address2": "", "zip_code": "80206", "country": "US", "display_address": ["3030 E 6th Ave", "Denver, CO 80206"], "state": "CO"}, "price": "$$$", "transactions": [], "display_phone": "(303) 393-1040"}, {"rating": 4.5, "is_closed": false, "distance": 7341.098878258, "name": "Esters Neighborhood Pub", "id": "esters-neighborhood-pub-denver", "image_url": "https://s3-media4.fl.yelpcdn.com/bphoto/lSQYzjsY9EmHj6gDuUCmPA/o.jpg", "url": "https://www.yelp.com/biz/esters-neighborhood-pub-denver?adjust_creative=gBcvfFpabk3CnzmXKdYe3w&utm_campaign=yelp_api_v3&utm_medium=api_v3_business_search&utm_source=gBcvfFpabk3CnzmXKdYe3w", "phone": "+13039554904", "coordinates": {"longitude": -104.921157823147, "latitude": 39.6813687156506}, "categories": [{"alias": "pizza", "title": "Pizza"}, {"alias": "newamerican", "title": "American (New)"}, {"alias": "pubs", "title": "Pubs"}], "review_count": 312, "location": {"city": "Denver", "address1": "1950 S Holly St", "address3": "", "address2": "", "zip_code": "80222", "country": "US", "display_address": ["1950 S Holly St", "Denver, CO 80222"], "state": "CO"}, "price": "$$", "transactions": [], "display_phone": "(303) 955-4904"}, {"rating": 4.5, "is_closed": false, "distance": 3002.0892291759997, "name": "Society Sports & Spirits", "id": "society-sports-and-spirits-denver", "image_url": "https://s3-media2.fl.yelpcdn.com/bphoto/3XdH7qZ5Iq1sf6xL0q8sKA/o.jpg", "url": "https://www.yelp.com/biz/society-sports-and-spirits-denver?adjust_creative=gBcvfFpabk3CnzmXKdYe3w&utm_campaign=yelp_api_v3&utm_medium=api_v3_business_search&utm_source=gBcvfFpabk3CnzmXKdYe3w", "phone": "+17204659830", "coordinates": {"longitude": -105.000679, "latitude": 39.748973}, "categories": [{"alias": "sportsbars", "title": "Sports Bars"}, {"alias": "whiskeybars", "title": "Whiskey Bars"}], "review_count": 82, "location": {"city": "Denver", "address1": "1434 Blake St", "address3": "", "address2": "", "zip_code": "80202", "country": "US", "display_address": ["1434 Blake St", "Denver, CO 80202"], "state": "CO"}, "price": "$$", "transactions": [], "display_phone": "(720) 465-9830"}, {"rating": 4.0, "is_closed": false, "distance": 3011.1548023299997, "name": "Cholon", "id": "cholon-denver-3", "image_url": "https://s3-media4.fl.yelpcdn.com/bphoto/JKLcVlxRyZzKcmroSLxN8Q/o.jpg", "url": "https://www.yelp.com/biz/cholon-denver-3?adjust_creative=gBcvfFpabk3CnzmXKdYe3w&utm_campaign=yelp_api_v3&utm_medium=api_v3_business_search&utm_source=gBcvfFpabk3CnzmXKdYe3w", "phone": "+13033535223", "coordinates": {"longitude": -104.999534787109, "latitude": 39.7505617815134}, "categories": [{"alias": "asianfusion", "title": "Asian Fusion"}], "review_count": 707, "location": {"city": "Denver", "address1": "1555 Blake St", "address3": "", "address2": "", "zip_code": "80202", "country": "US", "display_address": ["1555 Blake St", "Denver, CO 80202"], "state": "CO"}, "price": "$$$", "transactions": ["pickup"], "display_phone": "(303) 353-5223"}, {"rating": 4.5, "is_closed": false, "distance": 5813.895729442, "name": "Corvus Coffee Roasters", "id": "corvus-coffee-roasters-denver-2", "image_url": "https://s3-media1.fl.yelpcdn.com/bphoto/zbvPYs0eKp-RVq9iuULzSQ/o.jpg", "url": "https://www.yelp.com/biz/corvus-coffee-roasters-denver-2?adjust_creative=gBcvfFpabk3CnzmXKdYe3w&utm_campaign=yelp_api_v3&utm_medium=api_v3_business_search&utm_source=gBcvfFpabk3CnzmXKdYe3w", "phone": "+13037151740", "coordinates": {"longitude": -104.98726, "latitude": 39.6849}, "categories": [{"alias": "coffee", "title": "Coffee & Tea"}], "review_count": 251, "location": {"city": "Denver", "address1": "1740 S Broadway", "address3": "", "address2": null, "zip_code": "80210", "country": "US", "display_address": ["1740 S Broadway", "Denver, CO 80210"], "state": "CO"}, "price": "$$", "transactions": [], "display_phone": "(303) 715-1740"}, {"rating": 4.0, "is_closed": false, "distance": 1534.7732749617999, "name": "Fluid Coffee Bar", "id": "fluid-coffee-bar-denver", "image_url": "https://s3-media2.fl.yelpcdn.com/bphoto/glts7-MjbzULj8Nw8lj-WA/o.jpg", "url": "https://www.yelp.com/biz/fluid-coffee-bar-denver?adjust_creative=gBcvfFpabk3CnzmXKdYe3w&utm_campaign=yelp_api_v3&utm_medium=api_v3_business_search&utm_source=gBcvfFpabk3CnzmXKdYe3w", "phone": "+17205194681", "coordinates": {"longitude": -104.98047, "latitude": 39.74686}, "categories": [{"alias": "breakfast_brunch", "title": "Breakfast & Brunch"}, {"alias": "cafes", "title": "Cafes"}], "review_count": 257, "location": {"city": "Denver", "address1": "501 E 19th Ave", "address3": "", "address2": "", "zip_code": "80203", "country": "US", "display_address": ["501 E 19th Ave", "Denver, CO 80203"], "state": "CO"}, "price": "$", "transactions": [], "display_phone": "(720) 519-4681"}, {"rating": 4.5, "is_closed": false, "distance": 6090.458072564, "name": "Regal Bakery & Cafe", "id": "regal-bakery-and-cafe-denver", "image_url": "https://s3-media2.fl.yelpcdn.com/bphoto/LMG740a98-9O1MYRJ9GN_g/o.jpg", "url": "https://www.yelp.com/biz/regal-bakery-and-cafe-denver?adjust_creative=gBcvfFpabk3CnzmXKdYe3w&utm_campaign=yelp_api_v3&utm_medium=api_v3_business_search&utm_source=gBcvfFpabk3CnzmXKdYe3w", "phone": "+17203897796", "coordinates": {"longitude": -104.898824170232, "latitude": 39.7340237349272}, "categories": [{"alias": "coffee", "title": "Coffee & Tea"}, {"alias": "breakfast_brunch", "title": "Breakfast & Brunch"}, {"alias": "bakeries", "title": "Bakeries"}], "review_count": 43, "location": {"city": "Denver", "address1": "1141 Syracuse St", "address3": "", "address2": "", "zip_code": "80220", "country": "US", "display_address": ["1141 Syracuse St", "Denver, CO 80220"], "state": "CO"}, "price": "$", "transactions": [], "display_phone": "(720) 389-7796"}, {"rating": 4.5, "is_closed": false, "distance": 6727.145324298, "name": "David's Kebab House", "id": "davids-kebab-house-denver", "image_url": "https://s3-media3.fl.yelpcdn.com/bphoto/ZodJvjHORZ1LiVJOx8vxuQ/o.jpg", "url": "https://www.yelp.com/biz/davids-kebab-house-denver?adjust_creative=gBcvfFpabk3CnzmXKdYe3w&utm_campaign=yelp_api_v3&utm_medium=api_v3_business_search&utm_source=gBcvfFpabk3CnzmXKdYe3w", "phone": "+13033552188", "coordinates": {"longitude": -104.907522200929, "latitude": 39.6990192186856}, "categories": [{"alias": "russian", "title": "Russian"}], "review_count": 79, "location": {"city": "Denver", "address1": "970 S Oneida St", "address3": "", "address2": "", "zip_code": "80224", "country": "US", "display_address": ["970 S Oneida St", "Denver, CO 80224"], "state": "CO"}, "price": "$$", "transactions": [], "display_phone": "(303) 355-2188"}, {"rating": 4.0, "is_closed": false, "distance": 1491.0444333223998, "name": "Mizuna", "id": "mizuna-denver", "image_url": "https://s3-media3.fl.yelpcdn.com/bphoto/Ab-ODC2vw7k5mSC8YJ4m8A/o.jpg", "url": "https://www.yelp.com/biz/mizuna-denver?adjust_creative=gBcvfFpabk3CnzmXKdYe3w&utm_campaign=yelp_api_v3&utm_medium=api_v3_business_search&utm_source=gBcvfFpabk3CnzmXKdYe3w", "phone": "+13038324778", "coordinates": {"longitude": -104.98411, "latitude": 39.72741}, "categories": [{"alias": "french", "title": "French"}, {"alias": "gluten_free", "title": "Gluten-Free"}, {"alias": "bars", "title": "Bars"}], "review_count": 214, "location": {"city": "Denver", "address1": "225 E 7th Ave", "address3": "", "address2": "", "zip_code": "80203", "country": "US", "display_address": ["225 E 7th Ave", "Denver, CO 80203"], "state": "CO"}, "price": "$$$$", "transactions": [], "display_phone": "(303) 832-4778"}, {"rating": 4.5, "is_closed": false, "distance": 683.9500913595999, "name": "Capitol Cigars", "id": "capitol-cigars-denver", "image_url": "https://s3-media3.fl.yelpcdn.com/bphoto/erjF9ZxyF-XLzBje77ArOw/o.jpg", "url": "https://www.yelp.com/biz/capitol-cigars-denver?adjust_creative=gBcvfFpabk3CnzmXKdYe3w&utm_campaign=yelp_api_v3&utm_medium=api_v3_business_search&utm_source=gBcvfFpabk3CnzmXKdYe3w", "phone": "+13038322440", "coordinates": {"longitude": -104.97569963336, "latitude": 39.7400546818972}, "categories": [{"alias": "tobaccoshops", "title": "Tobacco Shops"}, {"alias": "lounges", "title": "Lounges"}], "review_count": 33, "location": {"city": "Denver", "address1": "919 E Colfax Ave", "address3": null, "address2": null, "zip_code": "80218", "country": "US", "display_address": ["919 E Colfax Ave", "Denver, CO 80218"], "state": "CO"}, "price": "$$", "transactions": [], "display_phone": "(303) 832-2440"}, {"rating": 4.5, "is_closed": false, "distance": 6558.74768818, "name": "Blue Pan Pizza", "id": "blue-pan-pizza-denver", "image_url": "https://s3-media2.fl.yelpcdn.com/bphoto/EE8AE_3_Ll-VmkFBP52Wow/o.jpg", "url": "https://www.yelp.com/biz/blue-pan-pizza-denver?adjust_creative=gBcvfFpabk3CnzmXKdYe3w&utm_campaign=yelp_api_v3&utm_medium=api_v3_business_search&utm_source=gBcvfFpabk3CnzmXKdYe3w", "phone": "+17204567666", "coordinates": {"longitude": -105.039, "latitude": 39.76196}, "categories": [{"alias": "pizza", "title": "Pizza"}], "review_count": 279, "location": {"city": "Denver", "address1": "3930 W 32nd Ave", "address3": "", "address2": "", "zip_code": "80212", "country": "US", "display_address": ["3930 W 32nd Ave", "Denver, CO 80212"], "state": "CO"}, "price": "$$", "transactions": [], "display_phone": "(720) 456-7666"}, {"rating": 4.5, "is_closed": false, "distance": 2947.4358818419996, "name": "Nocturne", "id": "nocturne-denver", "image_url": "https://s3-media1.fl.yelpcdn.com/bphoto/lVVrM2uA2EaII7gZdv5G6w/o.jpg", "url": "https://www.yelp.com/biz/nocturne-denver?adjust_creative=gBcvfFpabk3CnzmXKdYe3w&utm_campaign=yelp_api_v3&utm_medium=api_v3_business_search&utm_source=gBcvfFpabk3CnzmXKdYe3w", "phone": "+13032953333", "coordinates": {"longitude": -104.9845123, "latitude": 39.7595901}, "categories": [{"alias": "jazzandblues", "title": "Jazz & Blues"}, {"alias": "newamerican", "title": "American (New)"}, {"alias": "cocktailbars", "title": "Cocktail Bars"}], "review_count": 114, "location": {"city": "Denver", "address1": "1330 27th St", "address3": "", "address2": "", "zip_code": "80205", "country": "US", "display_address": ["1330 27th St", "Denver, CO 80205"], "state": "CO"}, "price": "$$", "transactions": [], "display_phone": "(303) 295-3333"}, {"rating": 4.0, "is_closed": false, "distance": 2253.43890617, "name": "Welton Street Caf\u00e9", "id": "welton-street-caf\u00e9-denver-2", "image_url": "https://s3-media4.fl.yelpcdn.com/bphoto/A0cqQ6j61yD7HZT40hukDQ/o.jpg", "url": "https://www.yelp.com/biz/welton-street-caf%C3%A9-denver-2?adjust_creative=gBcvfFpabk3CnzmXKdYe3w&utm_campaign=yelp_api_v3&utm_medium=api_v3_business_search&utm_source=gBcvfFpabk3CnzmXKdYe3w", "phone": "+13032966602", "coordinates": {"longitude": -104.977111, "latitude": 39.755069}, "categories": [{"alias": "soulfood", "title": "Soul Food"}, {"alias": "caribbean", "title": "Caribbean"}, {"alias": "southern", "title": "Southern"}], "review_count": 197, "location": {"city": "Denver", "address1": "2736 Welton St", "address3": "", "address2": "Ste 107", "zip_code": "80205", "country": "US", "display_address": ["2736 Welton St", "Ste 107", "Denver, CO 80205"], "state": "CO"}, "price": "$$", "transactions": [], "display_phone": "(303) 296-6602"}, {"rating": 4.5, "is_closed": false, "distance": 6922.002441223999, "name": "Roaming Buffalo BBQ", "id": "roaming-buffalo-bbq-denver", "image_url": "https://s3-media3.fl.yelpcdn.com/bphoto/dOlWDxQ6KHvrnBksgCBqqA/o.jpg", "url": "https://www.yelp.com/biz/roaming-buffalo-bbq-denver?adjust_creative=gBcvfFpabk3CnzmXKdYe3w&utm_campaign=yelp_api_v3&utm_medium=api_v3_business_search&utm_source=gBcvfFpabk3CnzmXKdYe3w", "phone": "+13037222226", "coordinates": {"longitude": -104.97368, "latitude": 39.67329}, "categories": [{"alias": "bbq", "title": "Barbeque"}, {"alias": "desserts", "title": "Desserts"}, {"alias": "newamerican", "title": "American (New)"}], "review_count": 179, "location": {"city": "Denver", "address1": "2387 S Downing St", "address3": "", "address2": "", "zip_code": "80210", "country": "US", "display_address": ["2387 S Downing St", "Denver, CO 80210"], "state": "CO"}, "price": "$$", "transactions": [], "display_phone": "(303) 722-2226"}, {"rating": 4.0, "is_closed": false, "distance": 2586.234646638, "name": "The Clocktower Cabaret", "id": "the-clocktower-cabaret-denver", "image_url": "https://s3-media2.fl.yelpcdn.com/bphoto/CsJviv7frR28D4cjyvZ5hw/o.jpg", "url": "https://www.yelp.com/biz/the-clocktower-cabaret-denver?adjust_creative=gBcvfFpabk3CnzmXKdYe3w&utm_campaign=yelp_api_v3&utm_medium=api_v3_business_search&utm_source=gBcvfFpabk3CnzmXKdYe3w", "phone": "+13032930075", "coordinates": {"longitude": -104.995666503906, "latitude": 39.7481384277344}, "categories": [{"alias": "bars", "title": "Bars"}, {"alias": "theater", "title": "Performing Arts"}], "review_count": 165, "location": {"city": "Denver", "address1": "1601 Arapahoe St", "address3": "", "address2": "", "zip_code": "80202", "country": "US", "display_address": ["1601 Arapahoe St", "Denver, CO 80202"], "state": "CO"}, "price": "$$", "transactions": [], "display_phone": "(303) 293-0075"}, {"rating": 4.5, "is_closed": false, "distance": 4316.839864044, "name": "Ohana Island Kitchen", "id": "ohana-island-kitchen-denver", "image_url": "https://s3-media2.fl.yelpcdn.com/bphoto/zhRfsZaJ1Sqykc5ohV1hgQ/o.jpg", "url": "https://www.yelp.com/biz/ohana-island-kitchen-denver?adjust_creative=gBcvfFpabk3CnzmXKdYe3w&utm_campaign=yelp_api_v3&utm_medium=api_v3_business_search&utm_source=gBcvfFpabk3CnzmXKdYe3w", "phone": "+13037186580", "coordinates": {"longitude": -105.011284688851, "latitude": 39.7581416793258}, "categories": [{"alias": "hawaiian", "title": "Hawaiian"}, {"alias": "japanese", "title": "Japanese"}], "review_count": 83, "location": {"city": "Denver", "address1": "2563 15th St", "address3": null, "address2": "Ste 105", "zip_code": "80211", "country": "US", "display_address": ["2563 15th St", "Ste 105", "Denver, CO 80211"], "state": "CO"}, "price": "$$", "transactions": ["pickup"], "display_phone": "(303) 718-6580"}, {"rating": 5.0, "is_closed": false, "distance": 5102.426310323999, "name": "Cluck Chicken", "id": "cluck-chicken-denver", "image_url": "https://s3-media2.fl.yelpcdn.com/bphoto/bYmvwpF58wzuo4u13aeE_g/o.jpg", "url": "https://www.yelp.com/biz/cluck-chicken-denver?adjust_creative=gBcvfFpabk3CnzmXKdYe3w&utm_campaign=yelp_api_v3&utm_medium=api_v3_business_search&utm_source=gBcvfFpabk3CnzmXKdYe3w", "phone": "+17203793131", "coordinates": {"longitude": -104.98710089149, "latitude": 39.6915041767329}, "categories": [{"alias": "foodtrucks", "title": "Food Trucks"}, {"alias": "comfortfood", "title": "Comfort Food"}, {"alias": "southern", "title": "Southern"}], "review_count": 24, "location": {"city": "Denver", "address1": "1380 S Broadway", "address3": "", "address2": null, "zip_code": "80210", "country": "US", "display_address": ["1380 S Broadway", "Denver, CO 80210"], "state": "CO"}, "price": "$", "transactions": [], "display_phone": "(720) 379-3131"}, {"rating": 4.0, "is_closed": false, "distance": 513.7734747121999, "name": "Bourbon Grill", "id": "bourbon-grill-denver", "image_url": "https://s3-media1.fl.yelpcdn.com/bphoto/8MyLgmIRY6KB7FKHP9WGOw/o.jpg", "url": "https://www.yelp.com/biz/bourbon-grill-denver?adjust_creative=gBcvfFpabk3CnzmXKdYe3w&utm_campaign=yelp_api_v3&utm_medium=api_v3_business_search&utm_source=gBcvfFpabk3CnzmXKdYe3w", "phone": "+13033553821", "coordinates": {"longitude": -104.968, "latitude": 39.73974}, "categories": [{"alias": "bbq", "title": "Barbeque"}, {"alias": "tradamerican", "title": "American (Traditional)"}, {"alias": "cajun", "title": "Cajun/Creole"}], "review_count": 251, "location": {"city": "Denver", "address1": "1618 E Colfax Ave", "address3": "", "address2": "", "zip_code": "80218", "country": "US", "display_address": ["1618 E Colfax Ave", "Denver, CO 80218"], "state": "CO"}, "price": "$", "transactions": [], "display_phone": "(303) 355-3821"}, {"rating": 4.0, "is_closed": false, "distance": 1853.273135556, "name": "Pizzeria Locale", "id": "pizzeria-locale-denver-4", "image_url": "https://s3-media2.fl.yelpcdn.com/bphoto/y7amdjpiILO-pYoizLcCMQ/o.jpg", "url": "https://www.yelp.com/biz/pizzeria-locale-denver-4?adjust_creative=gBcvfFpabk3CnzmXKdYe3w&utm_campaign=yelp_api_v3&utm_medium=api_v3_business_search&utm_source=gBcvfFpabk3CnzmXKdYe3w", "phone": "+17205088828", "coordinates": {"longitude": -104.987212519344, "latitude": 39.725155616015}, "categories": [{"alias": "pizza", "title": "Pizza"}, {"alias": "hotdogs", "title": "Fast Food"}, {"alias": "italian", "title": "Italian"}], "review_count": 320, "location": {"city": "Denver", "address1": "550 Broadway", "address3": "", "address2": "Unit C", "zip_code": "80203", "country": "US", "display_address": ["550 Broadway", "Unit C", "Denver, CO 80203"], "state": "CO"}, "price": "$", "transactions": [], "display_phone": "(720) 508-8828"}, {"rating": 4.5, "is_closed": false, "distance": 6847.421924141999, "name": "Pho 95", "id": "pho-95-denver", "image_url": "https://s3-media3.fl.yelpcdn.com/bphoto/C30MOQw4kXf9oVSk3IKkqg/o.jpg", "url": "https://www.yelp.com/biz/pho-95-denver?adjust_creative=gBcvfFpabk3CnzmXKdYe3w&utm_campaign=yelp_api_v3&utm_medium=api_v3_business_search&utm_source=gBcvfFpabk3CnzmXKdYe3w", "phone": "+13039363322", "coordinates": {"longitude": -105.025489807129, "latitude": 39.6910552978516}, "categories": [{"alias": "vietnamese", "title": "Vietnamese"}, {"alias": "vegetarian", "title": "Vegetarian"}, {"alias": "soup", "title": "Soup"}], "review_count": 1000, "location": {"city": "Denver", "address1": "1401 S Federal Blvd", "address3": "", "address2": "", "zip_code": "80219", "country": "US", "display_address": ["1401 S Federal Blvd", "Denver, CO 80219"], "state": "CO"}, "price": "$", "transactions": [], "display_phone": "(303) 936-3322"}, {"rating": 4.5, "is_closed": false, "distance": 4646.131749464, "name": "Teatulia Tea Bar", "id": "teatulia-tea-bar-denver", "image_url": "https://s3-media2.fl.yelpcdn.com/bphoto/c9INV6MbGAI_M4LqM2guFQ/o.jpg", "url": "https://www.yelp.com/biz/teatulia-tea-bar-denver?adjust_creative=gBcvfFpabk3CnzmXKdYe3w&utm_campaign=yelp_api_v3&utm_medium=api_v3_business_search&utm_source=gBcvfFpabk3CnzmXKdYe3w", "phone": "+13035730710", "coordinates": {"longitude": -105.0154419, "latitude": 39.758726}, "categories": [{"alias": "coffee", "title": "Coffee & Tea"}, {"alias": "sandwiches", "title": "Sandwiches"}], "review_count": 93, "location": {"city": "Denver", "address1": "2900 Zuni St", "address3": "", "address2": null, "zip_code": "80211", "country": "US", "display_address": ["2900 Zuni St", "Denver, CO 80211"], "state": "CO"}, "price": "$", "transactions": [], "display_phone": "(303) 573-0710"}, {"rating": 4.0, "is_closed": false, "distance": 3233.874744544, "name": "Fogo de Ch\u00e3o Brazilian Steakhouse", "id": "fogo-de-ch\u00e3o-brazilian-steakhouse-denver-4", "image_url": "https://s3-media3.fl.yelpcdn.com/bphoto/WlCLDVV4SNLMn7J01iWZIw/o.jpg", "url": "https://www.yelp.com/biz/fogo-de-ch%C3%A3o-brazilian-steakhouse-denver-4?adjust_creative=gBcvfFpabk3CnzmXKdYe3w&utm_campaign=yelp_api_v3&utm_medium=api_v3_business_search&utm_source=gBcvfFpabk3CnzmXKdYe3w", "phone": "+13036239600", "coordinates": {"longitude": -105.002120441429, "latitude": 39.7511787925102}, "categories": [{"alias": "brazilian", "title": "Brazilian"}, {"alias": "steak", "title": "Steakhouses"}, {"alias": "seafood", "title": "Seafood"}], "review_count": 542, "location": {"city": "Denver", "address1": "1513 Wynkoop St", "address3": "", "address2": "", "zip_code": "80202", "country": "US", "display_address": ["1513 Wynkoop St", "Denver, CO 80202"], "state": "CO"}, "price": "$$$", "transactions": [], "display_phone": "(303) 623-9600"}, {"rating": 4.5, "is_closed": false, "distance": 1972.2226736359999, "name": "Whittier Cafe", "id": "whittier-cafe-denver-2", "image_url": "https://s3-media3.fl.yelpcdn.com/bphoto/Kb6ET-qAmFnLiiOHHnfP_Q/o.jpg", "url": "https://www.yelp.com/biz/whittier-cafe-denver-2?adjust_creative=gBcvfFpabk3CnzmXKdYe3w&utm_campaign=yelp_api_v3&utm_medium=api_v3_business_search&utm_source=gBcvfFpabk3CnzmXKdYe3w", "phone": "+17205507440", "coordinates": {"longitude": -104.9668212, "latitude": 39.7530643}, "categories": [{"alias": "coffee", "title": "Coffee & Tea"}, {"alias": "internetcafe", "title": "Internet Cafes"}], "review_count": 38, "location": {"city": "Denver", "address1": "1710 E 25th Ave", "address3": "", "address2": "", "zip_code": "80205", "country": "US", "display_address": ["1710 E 25th Ave", "Denver, CO 80205"], "state": "CO"}, "price": "$", "transactions": [], "display_phone": "(720) 550-7440"}, {"rating": 4.0, "is_closed": false, "distance": 1110.1343192479999, "name": "Beast + Bottle", "id": "beast-bottle-denver", "image_url": "https://s3-media3.fl.yelpcdn.com/bphoto/HnEcnLZXyRVVW78KEXhd-Q/o.jpg", "url": "https://www.yelp.com/biz/beast-bottle-denver?adjust_creative=gBcvfFpabk3CnzmXKdYe3w&utm_campaign=yelp_api_v3&utm_medium=api_v3_business_search&utm_source=gBcvfFpabk3CnzmXKdYe3w", "phone": "+13036233223", "coordinates": {"longitude": -104.97814, "latitude": 39.74339}, "categories": [{"alias": "newamerican", "title": "American (New)"}, {"alias": "breakfast_brunch", "title": "Breakfast & Brunch"}], "review_count": 309, "location": {"city": "Denver", "address1": "719 E 17th Ave", "address3": "", "address2": "", "zip_code": "80203", "country": "US", "display_address": ["719 E 17th Ave", "Denver, CO 80203"], "state": "CO"}, "price": "$$$", "transactions": [], "display_phone": "(303) 623-3223"}, {"rating": 4.5, "is_closed": false, "distance": 4499.226527178, "name": "Great Harvest Bread Co of Denver", "id": "great-harvest-bread-co-of-denver-denver-2", "image_url": "https://s3-media3.fl.yelpcdn.com/bphoto/U22a-xJjCzpFBK6Ve6almw/o.jpg", "url": "https://www.yelp.com/biz/great-harvest-bread-co-of-denver-denver-2?adjust_creative=gBcvfFpabk3CnzmXKdYe3w&utm_campaign=yelp_api_v3&utm_medium=api_v3_business_search&utm_source=gBcvfFpabk3CnzmXKdYe3w", "phone": "+13037788877", "coordinates": {"longitude": -104.9407919, "latitude": 39.7019986}, "categories": [{"alias": "bakeries", "title": "Bakeries"}, {"alias": "coffee", "title": "Coffee & Tea"}, {"alias": "sandwiches", "title": "Sandwiches"}], "review_count": 75, "location": {"city": "Denver", "address1": "765 S Colorado Blvd", "address3": "Belcaro Shopping Center", "address2": null, "zip_code": "80246", "country": "US", "display_address": ["765 S Colorado Blvd", "Belcaro Shopping Center", "Denver, CO 80246"], "state": "CO"}, "price": "$", "transactions": [], "display_phone": "(303) 778-8877"}, {"rating": 4.5, "is_closed": false, "distance": 7690.041287879999, "name": "Bookbar", "id": "bookbar-denver", "image_url": "https://s3-media3.fl.yelpcdn.com/bphoto/zVg7z8mXYo8JOz6nnG1bng/o.jpg", "url": "https://www.yelp.com/biz/bookbar-denver?adjust_creative=gBcvfFpabk3CnzmXKdYe3w&utm_campaign=yelp_api_v3&utm_medium=api_v3_business_search&utm_source=gBcvfFpabk3CnzmXKdYe3w", "phone": "+13032840194", "coordinates": {"longitude": -105.0439652, "latitude": 39.775154}, "categories": [{"alias": "wine_bars", "title": "Wine Bars"}, {"alias": "bookstores", "title": "Bookstores"}], "review_count": 99, "location": {"city": "Denver", "address1": "4280 Tennyson St", "address3": "", "address2": "", "zip_code": "80212", "country": "US", "display_address": ["4280 Tennyson St", "Denver, CO 80212"], "state": "CO"}, "price": "$$", "transactions": [], "display_phone": "(303) 284-0194"}, {"rating": 4.5, "is_closed": false, "distance": 5772.019737038, "name": "New Saigon Bakery & Deli", "id": "new-saigon-bakery-and-deli-denver", "image_url": "https://s3-media1.fl.yelpcdn.com/bphoto/4bIXFNYjgivAbTq0uChH6w/o.jpg", "url": "https://www.yelp.com/biz/new-saigon-bakery-and-deli-denver?adjust_creative=gBcvfFpabk3CnzmXKdYe3w&utm_campaign=yelp_api_v3&utm_medium=api_v3_business_search&utm_source=gBcvfFpabk3CnzmXKdYe3w", "phone": "+13039357859", "coordinates": {"longitude": -105.0247, "latitude": 39.70482}, "categories": [{"alias": "vietnamese", "title": "Vietnamese"}, {"alias": "delis", "title": "Delis"}, {"alias": "juicebars", "title": "Juice Bars & Smoothies"}], "review_count": 173, "location": {"city": "Denver", "address1": "640 S Federal Blvd", "address3": "", "address2": "", "zip_code": "80219", "country": "US", "display_address": ["640 S Federal Blvd", "Denver, CO 80219"], "state": "CO"}, "price": "$", "transactions": [], "display_phone": "(303) 935-7859"}, {"rating": 4.0, "is_closed": false, "distance": 888.6314404089999, "name": "Humboldt Farm Fish Wine", "id": "humboldt-farm-fish-wine-denver-2", "image_url": "https://s3-media2.fl.yelpcdn.com/bphoto/kM93Rg1pcm1G2_CSQTQw7Q/o.jpg", "url": "https://www.yelp.com/biz/humboldt-farm-fish-wine-denver-2?adjust_creative=gBcvfFpabk3CnzmXKdYe3w&utm_campaign=yelp_api_v3&utm_medium=api_v3_business_search&utm_source=gBcvfFpabk3CnzmXKdYe3w", "phone": "+13038131700", "coordinates": {"longitude": -104.969402299734, "latitude": 39.7434886712108}, "categories": [{"alias": "newamerican", "title": "American (New)"}, {"alias": "bars", "title": "Bars"}, {"alias": "seafood", "title": "Seafood"}], "review_count": 422, "location": {"city": "Denver", "address1": "1700 Humboldt St", "address3": "", "address2": "", "zip_code": "80218", "country": "US", "display_address": ["1700 Humboldt St", "Denver, CO 80218"], "state": "CO"}, "price": "$$", "transactions": [], "display_phone": "(303) 813-1700"}, {"rating": 4.5, "is_closed": false, "distance": 4692.126203862, "name": "Vinh Xuong Bakery 2", "id": "vinh-xuong-bakery-2-denver", "image_url": "https://s3-media1.fl.yelpcdn.com/bphoto/mkujKaL4UMI1LLfnSkff9g/o.jpg", "url": "https://www.yelp.com/biz/vinh-xuong-bakery-2-denver?adjust_creative=gBcvfFpabk3CnzmXKdYe3w&utm_campaign=yelp_api_v3&utm_medium=api_v3_business_search&utm_source=gBcvfFpabk3CnzmXKdYe3w", "phone": "+13039220999", "coordinates": {"longitude": -105.015258789062, "latitude": 39.7107963562012}, "categories": [{"alias": "bakeries", "title": "Bakeries"}, {"alias": "vietnamese", "title": "Vietnamese"}, {"alias": "desserts", "title": "Desserts"}], "review_count": 115, "location": {"city": "Denver", "address1": "2370 W Alameda", "address3": "", "address2": "Unit 15", "zip_code": "80223", "country": "US", "display_address": ["2370 W Alameda", "Unit 15", "Denver, CO 80223"], "state": "CO"}, "price": "$", "transactions": [], "display_phone": "(303) 922-0999"}, {"rating": 4.5, "is_closed": false, "distance": 1958.815744898, "name": "Shondiz", "id": "shondiz-denver", "image_url": "https://s3-media1.fl.yelpcdn.com/bphoto/3L24MfZfyrl97zqIa3jJDw/o.jpg", "url": "https://www.yelp.com/biz/shondiz-denver?adjust_creative=gBcvfFpabk3CnzmXKdYe3w&utm_campaign=yelp_api_v3&utm_medium=api_v3_business_search&utm_source=gBcvfFpabk3CnzmXKdYe3w", "phone": "+13033514492", "coordinates": {"longitude": -104.9904227, "latitude": 39.7438619}, "categories": [{"alias": "mediterranean", "title": "Mediterranean"}, {"alias": "foodstands", "title": "Food Stands"}], "review_count": 117, "location": {"city": "Denver", "address1": "16TH St Mall", "address3": "", "address2": "", "zip_code": "80202", "country": "US", "display_address": ["16TH St Mall", "Denver, CO 80202"], "state": "CO"}, "price": "$", "transactions": [], "display_phone": "(303) 351-4492"}, {"rating": 4.0, "is_closed": false, "distance": 3108.2400081039996, "name": "Backcountry Delicatessen", "id": "backcountry-delicatessen-denver", "image_url": "https://s3-media1.fl.yelpcdn.com/bphoto/57koSIh3DNVjO70mjJw1Mg/o.jpg", "url": "https://www.yelp.com/biz/backcountry-delicatessen-denver?adjust_creative=gBcvfFpabk3CnzmXKdYe3w&utm_campaign=yelp_api_v3&utm_medium=api_v3_business_search&utm_source=gBcvfFpabk3CnzmXKdYe3w", "phone": "+13035347900", "coordinates": {"longitude": -104.999877, "latitude": 39.751716}, "categories": [{"alias": "sandwiches", "title": "Sandwiches"}, {"alias": "delis", "title": "Delis"}, {"alias": "salad", "title": "Salad"}], "review_count": 171, "location": {"city": "Denver", "address1": "1617 Wazee St", "address3": "", "address2": "", "zip_code": "80202", "country": "US", "display_address": ["1617 Wazee St", "Denver, CO 80202"], "state": "CO"}, "price": "$", "transactions": ["delivery", "pickup"], "display_phone": "(303) 534-7900"}, {"rating": 4.5, "is_closed": false, "distance": 3292.0031397400003, "name": "Manna From Heaven Gourmet Food Truck", "id": "manna-from-heaven-gourmet-food-truck-denver-2", "image_url": "https://s3-media4.fl.yelpcdn.com/bphoto/OnZeSrb7EPbSwXTpz6Im9A/o.jpg", "url": "https://www.yelp.com/biz/manna-from-heaven-gourmet-food-truck-denver-2?adjust_creative=gBcvfFpabk3CnzmXKdYe3w&utm_campaign=yelp_api_v3&utm_medium=api_v3_business_search&utm_source=gBcvfFpabk3CnzmXKdYe3w", "phone": "", "coordinates": {"longitude": -104.99326, "latitude": 39.74584}, "categories": [{"alias": "vietnamese", "title": "Vietnamese"}, {"alias": "foodtrucks", "title": "Food Trucks"}], "review_count": 59, "location": {"city": "Denver", "address1": "", "address3": "", "address2": "", "zip_code": "80202", "country": "US", "display_address": ["Denver, CO 80202"], "state": "CO"}, "price": "$", "transactions": [], "display_phone": ""}, {"rating": 4.5, "is_closed": false, "distance": 1257.595890372, "name": "Crock Spot", "id": "crock-spot-denver", "image_url": "https://s3-media2.fl.yelpcdn.com/bphoto/RrJGPkk98nk0av_A_Wx0dA/o.jpg", "url": "https://www.yelp.com/biz/crock-spot-denver?adjust_creative=gBcvfFpabk3CnzmXKdYe3w&utm_campaign=yelp_api_v3&utm_medium=api_v3_business_search&utm_source=gBcvfFpabk3CnzmXKdYe3w", "phone": "+17206757720", "coordinates": {"longitude": null, "latitude": null}, "categories": [{"alias": "newamerican", "title": "American (New)"}, {"alias": "foodtrucks", "title": "Food Trucks"}], "review_count": 50, "location": {"city": "Denver", "address1": "", "address3": "", "address2": null, "zip_code": "", "country": "US", "display_address": ["Denver, CO"], "state": "CO"}, "price": "$", "transactions": [], "display_phone": "(720) 675-7720"}, {"rating": 4.0, "is_closed": false, "distance": 1969.810112042, "name": "5280 Burger Bar", "id": "5280-burger-bar-denver", "image_url": "https://s3-media2.fl.yelpcdn.com/bphoto/mQBeYONSF3ZWiLttzJVUKQ/o.jpg", "url": "https://www.yelp.com/biz/5280-burger-bar-denver?adjust_creative=gBcvfFpabk3CnzmXKdYe3w&utm_campaign=yelp_api_v3&utm_medium=api_v3_business_search&utm_source=gBcvfFpabk3CnzmXKdYe3w", "phone": "+13038251020", "coordinates": {"longitude": -104.990984, "latitude": 39.74324}, "categories": [{"alias": "burgers", "title": "Burgers"}, {"alias": "tradamerican", "title": "American (Traditional)"}], "review_count": 662, "location": {"city": "Denver", "address1": "500 16th St", "address3": "", "address2": "Ste 160", "zip_code": "80202", "country": "US", "display_address": ["500 16th St", "Ste 160", "Denver, CO 80202"], "state": "CO"}, "price": "$$", "transactions": ["pickup"], "display_phone": "(303) 825-1020"}, {"rating": 4.5, "is_closed": false, "distance": 1533.633910522, "name": "Milk", "id": "milk-denver", "image_url": "https://s3-media3.fl.yelpcdn.com/bphoto/cnpKoW9EqmIrLXkPyY5Whw/o.jpg", "url": "https://www.yelp.com/biz/milk-denver?adjust_creative=gBcvfFpabk3CnzmXKdYe3w&utm_campaign=yelp_api_v3&utm_medium=api_v3_business_search&utm_source=gBcvfFpabk3CnzmXKdYe3w", "phone": "+13038328628", "coordinates": {"longitude": -104.9875249, "latitude": 39.7328107}, "categories": [{"alias": "lounges", "title": "Lounges"}, {"alias": "danceclubs", "title": "Dance Clubs"}], "review_count": 60, "location": {"city": "Denver", "address1": "1037 Broadway", "address3": "", "address2": "", "zip_code": "80203", "country": "US", "display_address": ["1037 Broadway", "Denver, CO 80203"], "state": "CO"}, "price": "$$", "transactions": [], "display_phone": "(303) 832-8628"}]}