{"total": 34880, "region": {"center": {"longitude": -104.97024536132812, "latitude": 39.73552421220229}}, "businesses": [{"rating": 4.5, "is_closed": false, "distance": 3791.3961476679997, "name": "Commons Park", "id": "commons-park-denver", "image_url": "https://s3-media3.fl.yelpcdn.com/bphoto/2k29MdvOz3O4-MANmO2gvA/o.jpg", "url": "https://www.yelp.com/biz/commons-park-denver?adjust_creative=gBcvfFpabk3CnzmXKdYe3w&utm_campaign=yelp_api_v3&utm_medium=api_v3_business_search&utm_source=gBcvfFpabk3CnzmXKdYe3w", "phone": "", "coordinates": {"longitude": -105.005417464064, "latitude": 39.7562893868511}, "categories": [{"alias": "parks", "title": "Parks"}], "review_count": 12, "location": {"city": "Denver", "address1": "Little Raven St & 16th St", "address3": "", "address2": "", "zip_code": "80202", "country": "US", "display_address": ["Little Raven St & 16th St", "Denver, CO 80202"], "state": "CO"}, "transactions": [], "display_phone": ""}, {"rating": 3.5, "is_closed": false, "distance": 4854.458559388, "name": "JJ Chinese Restaurant", "id": "jj-chinese-restaurant-denver", "image_url": "https://s3-media1.fl.yelpcdn.com/bphoto/ygSfgQzWeRTi_hXn_30Jag/o.jpg", "url": "https://www.yelp.com/biz/jj-chinese-restaurant-denver?adjust_creative=gBcvfFpabk3CnzmXKdYe3w&utm_campaign=yelp_api_v3&utm_medium=api_v3_business_search&utm_source=gBcvfFpabk3CnzmXKdYe3w", "phone": "+13039348888", "coordinates": {"longitude": -105.017227172852, "latitude": 39.7109146118164}, "categories": [{"alias": "chinese", "title": "Chinese"}, {"alias": "seafood", "title": "Seafood"}], "review_count": 122, "location": {"city": "Denver", "address1": "2500 W Alameda Ave", "address3": "", "address2": "", "zip_code": "80219", "country": "US", "display_address": ["2500 W Alameda Ave", "Denver, CO 80219"], "state": "CO"}, "price": "$$", "transactions": [], "display_phone": "(303) 934-8888"}, {"rating": 4.5, "is_closed": false, "distance": 3292.0031397400003, "name": "Vegan Van", "id": "vegan-van-denver", "image_url": "https://s3-media1.fl.yelpcdn.com/bphoto/JMvwNsIczBQ4gOxCTxArIw/o.jpg", "url": "https://www.yelp.com/biz/vegan-van-denver?adjust_creative=gBcvfFpabk3CnzmXKdYe3w&utm_campaign=yelp_api_v3&utm_medium=api_v3_business_search&utm_source=gBcvfFpabk3CnzmXKdYe3w", "phone": "+13036561964", "coordinates": {"longitude": -104.997459411621, "latitude": 39.7524070739746}, "categories": [{"alias": "vegan", "title": "Vegan"}, {"alias": "foodtrucks", "title": "Food Trucks"}], "review_count": 19, "location": {"city": "Denver", "address1": "", "address3": "", "address2": "", "zip_code": "80202", "country": "US", "display_address": ["Denver, CO 80202"], "state": "CO"}, "price": "$", "transactions": [], "display_phone": "(303) 656-1964"}, {"rating": 4.0, "is_closed": false, "distance": 8044.710212024, "name": "Bruno's Italian Bistro", "id": "brunos-italian-bistro-denver", "image_url": "https://s3-media4.fl.yelpcdn.com/bphoto/GirQ2_MjjZYBxmcyz9vL5g/o.jpg", "url": "https://www.yelp.com/biz/brunos-italian-bistro-denver?adjust_creative=gBcvfFpabk3CnzmXKdYe3w&utm_campaign=yelp_api_v3&utm_medium=api_v3_business_search&utm_source=gBcvfFpabk3CnzmXKdYe3w", "phone": "+13037597025", "coordinates": {"longitude": -104.91406824736, "latitude": 39.677500720155}, "categories": [{"alias": "italian", "title": "Italian"}], "review_count": 114, "location": {"city": "Denver", "address1": "2223 S Monaco Pkwy", "address3": "", "address2": "", "zip_code": "80222", "country": "US", "display_address": ["2223 S Monaco Pkwy", "Denver, CO 80222"], "state": "CO"}, "price": "$$", "transactions": ["delivery"], "display_phone": "(303) 759-7025"}, {"rating": 3.5, "is_closed": false, "distance": 1772.9250657819998, "name": "Bannock Street Garage", "id": "bannock-street-garage-denver", "image_url": "https://s3-media2.fl.yelpcdn.com/bphoto/37ZO_o0T7cmCX-fVkWP2_g/o.jpg", "url": "https://www.yelp.com/biz/bannock-street-garage-denver?adjust_creative=gBcvfFpabk3CnzmXKdYe3w&utm_campaign=yelp_api_v3&utm_medium=api_v3_business_search&utm_source=gBcvfFpabk3CnzmXKdYe3w", "phone": "+13035347000", "coordinates": {"longitude": -104.990646362305, "latitude": 39.7323875427246}, "categories": [{"alias": "divebars", "title": "Dive Bars"}], "review_count": 59, "location": {"city": "Denver", "address1": "1015 Bannock St", "address3": "", "address2": null, "zip_code": "80204", "country": "US", "display_address": ["1015 Bannock St", "Denver, CO 80204"], "state": "CO"}, "price": "$", "transactions": [], "display_phone": "(303) 534-7000"}, {"rating": 4.0, "is_closed": false, "distance": 5336.791275844, "name": "Cherry Famous Pizza", "id": "cherry-famous-pizza-denver", "image_url": "https://s3-media2.fl.yelpcdn.com/bphoto/r3a_EPP4O4OcR_rn3C8DSQ/o.jpg", "url": "https://www.yelp.com/biz/cherry-famous-pizza-denver?adjust_creative=gBcvfFpabk3CnzmXKdYe3w&utm_campaign=yelp_api_v3&utm_medium=api_v3_business_search&utm_source=gBcvfFpabk3CnzmXKdYe3w", "phone": "+13037573333", "coordinates": {"longitude": -104.933729097247, "latitude": 39.6966471523046}, "categories": [{"alias": "pizza", "title": "Pizza"}, {"alias": "italian", "title": "Italian"}, {"alias": "sandwiches", "title": "Sandwiches"}], "review_count": 65, "location": {"city": "Denver", "address1": "4615 E Mississippi Ave", "address3": "", "address2": null, "zip_code": "80246", "country": "US", "display_address": ["4615 E Mississippi Ave", "Denver, CO 80246"], "state": "CO"}, "price": "$", "transactions": ["delivery", "pickup"], "display_phone": "(303) 757-3333"}, {"rating": 3.5, "is_closed": false, "distance": 3216.83006367, "name": "Thirsty Lion Gastropub & Grill", "id": "thirsty-lion-gastropub-and-grill-denver-4", "image_url": "https://s3-media2.fl.yelpcdn.com/bphoto/CvAM9FHDfQ6Sl-ChVBd4Gg/o.jpg", "url": "https://www.yelp.com/biz/thirsty-lion-gastropub-and-grill-denver-4?adjust_creative=gBcvfFpabk3CnzmXKdYe3w&utm_campaign=yelp_api_v3&utm_medium=api_v3_business_search&utm_source=gBcvfFpabk3CnzmXKdYe3w", "phone": "+13036230316", "coordinates": {"longitude": -105.000897039881, "latitude": 39.7522980108067}, "categories": [{"alias": "gastropubs", "title": "Gastropubs"}, {"alias": "pubs", "title": "Pubs"}, {"alias": "tradamerican", "title": "American (Traditional)"}], "review_count": 350, "location": {"city": "Denver", "address1": "1605 Wynkoop St", "address3": "", "address2": "", "zip_code": "80202", "country": "US", "display_address": ["1605 Wynkoop St", "Denver, CO 80202"], "state": "CO"}, "price": "$$", "transactions": [], "display_phone": "(303) 623-0316"}, {"rating": 3.5, "is_closed": false, "distance": 1521.6520523539998, "name": "Masterpiece Luncheonette on 17th Avenue", "id": "masterpiece-luncheonette-on-17th-avenue-denver", "image_url": "https://s3-media2.fl.yelpcdn.com/bphoto/qDxku6JBFU4oAaTeR3kHgw/o.jpg", "url": "https://www.yelp.com/biz/masterpiece-luncheonette-on-17th-avenue-denver?adjust_creative=gBcvfFpabk3CnzmXKdYe3w&utm_campaign=yelp_api_v3&utm_medium=api_v3_business_search&utm_source=gBcvfFpabk3CnzmXKdYe3w", "phone": "+13038325555", "coordinates": {"longitude": -104.9847447, "latitude": 39.7434602}, "categories": [{"alias": "delis", "title": "Delis"}, {"alias": "sandwiches", "title": "Sandwiches"}], "review_count": 98, "location": {"city": "Denver", "address1": "1710 Sherman St", "address3": "", "address2": "", "zip_code": "80203", "country": "US", "display_address": ["1710 Sherman St", "Denver, CO 80203"], "state": "CO"}, "price": "$$", "transactions": ["delivery", "pickup"], "display_phone": "(303) 832-5555"}, {"rating": 3.5, "is_closed": false, "distance": 3207.192370146, "name": "Pigtrain Coffee Co", "id": "pigtrain-coffee-co-denver-2", "image_url": "https://s3-media2.fl.yelpcdn.com/bphoto/fjL9tTuRnH251DwZcwIORw/o.jpg", "url": "https://www.yelp.com/biz/pigtrain-coffee-co-denver-2?adjust_creative=gBcvfFpabk3CnzmXKdYe3w&utm_campaign=yelp_api_v3&utm_medium=api_v3_business_search&utm_source=gBcvfFpabk3CnzmXKdYe3w", "phone": "+17204603708", "coordinates": {"longitude": -105.000133871164, "latitude": 39.7529491832963}, "categories": [{"alias": "cafes", "title": "Cafes"}, {"alias": "desserts", "title": "Desserts"}, {"alias": "coffee", "title": "Coffee & Tea"}], "review_count": 126, "location": {"city": "Denver", "address1": "1701 Wynkoop St", "address3": "Union Station", "address2": "", "zip_code": "80202", "country": "US", "display_address": ["1701 Wynkoop St", "Union Station", "Denver, CO 80202"], "state": "CO"}, "price": "$", "transactions": [], "display_phone": "(720) 460-3708"}, {"rating": 3.5, "is_closed": false, "distance": 2332.79304756, "name": "Brio Tuscan Grille", "id": "brio-tuscan-grille-denver", "image_url": "https://s3-media3.fl.yelpcdn.com/bphoto/2GSo2dHs4fAv-qqAbqa1Zw/o.jpg", "url": "https://www.yelp.com/biz/brio-tuscan-grille-denver?adjust_creative=gBcvfFpabk3CnzmXKdYe3w&utm_campaign=yelp_api_v3&utm_medium=api_v3_business_search&utm_source=gBcvfFpabk3CnzmXKdYe3w", "phone": "+13033290222", "coordinates": {"longitude": -104.956143175942, "latitude": 39.7175622896783}, "categories": [{"alias": "italian", "title": "Italian"}, {"alias": "gluten_free", "title": "Gluten-Free"}, {"alias": "cocktailbars", "title": "Cocktail Bars"}], "review_count": 173, "location": {"city": "Denver", "address1": "2500 E 1st Ave", "address3": "", "address2": "Ste B115", "zip_code": "80206", "country": "US", "display_address": ["2500 E 1st Ave", "Ste B115", "Denver, CO 80206"], "state": "CO"}, "price": "$$", "transactions": [], "display_phone": "(303) 329-0222"}, {"rating": 4.5, "is_closed": false, "distance": 3168.17649679, "name": "Degree Metropolitan Food + Drink", "id": "degree-metropolitan-food-drink-denver", "image_url": "https://s3-media2.fl.yelpcdn.com/bphoto/Rhhm4JOUXwysWTXnm8UTQg/o.jpg", "url": "https://www.yelp.com/biz/degree-metropolitan-food-drink-denver?adjust_creative=gBcvfFpabk3CnzmXKdYe3w&utm_campaign=yelp_api_v3&utm_medium=api_v3_business_search&utm_source=gBcvfFpabk3CnzmXKdYe3w", "phone": "+17204392890", "coordinates": {"longitude": -105.0045818, "latitude": 39.747607}, "categories": [{"alias": "bars", "title": "Bars"}, {"alias": "newamerican", "title": "American (New)"}, {"alias": "burgers", "title": "Burgers"}], "review_count": 27, "location": {"city": "Denver", "address1": "1190 Auraria Pkwy", "address3": "", "address2": "Ste C", "zip_code": "80204", "country": "US", "display_address": ["1190 Auraria Pkwy", "Ste C", "Denver, CO 80204"], "state": "CO"}, "price": "$$", "transactions": [], "display_phone": "(720) 439-2890"}, {"rating": 4.0, "is_closed": false, "distance": 6355.848216472, "name": "Chipotle Mexican Grill", "id": "chipotle-mexican-grill-denver-5", "image_url": "https://s3-media2.fl.yelpcdn.com/bphoto/DaUTKiuMqgfNJdcUcmNMnA/o.jpg", "url": "https://www.yelp.com/biz/chipotle-mexican-grill-denver-5?adjust_creative=gBcvfFpabk3CnzmXKdYe3w&utm_campaign=yelp_api_v3&utm_medium=api_v3_business_search&utm_source=gBcvfFpabk3CnzmXKdYe3w", "phone": "+13037224121", "coordinates": {"longitude": -104.968200847507, "latitude": 39.6784450113773}, "categories": [{"alias": "mexican", "title": "Mexican"}, {"alias": "hotdogs", "title": "Fast Food"}], "review_count": 75, "location": {"city": "Denver", "address1": "1644 E Evans", "address3": "", "address2": "", "zip_code": "80210", "country": "US", "display_address": ["1644 E Evans", "Denver, CO 80210"], "state": "CO"}, "price": "$", "transactions": [], "display_phone": "(303) 722-4121"}, {"rating": 4.0, "is_closed": false, "distance": 10665.33999501, "name": "Slices", "id": "slices-denver", "image_url": "https://s3-media3.fl.yelpcdn.com/bphoto/a1B4fXx_doiS-r27dwP0yw/o.jpg", "url": "https://www.yelp.com/biz/slices-denver?adjust_creative=gBcvfFpabk3CnzmXKdYe3w&utm_campaign=yelp_api_v3&utm_medium=api_v3_business_search&utm_source=gBcvfFpabk3CnzmXKdYe3w", "phone": "+13037580940", "coordinates": {"longitude": -104.905319213867, "latitude": 39.6536560058594}, "categories": [{"alias": "pizza", "title": "Pizza"}], "review_count": 146, "location": {"city": "Denver", "address1": "7155 E Hampden Ave", "address3": "", "address2": "", "zip_code": "80224", "country": "US", "display_address": ["7155 E Hampden Ave", "Denver, CO 80224"], "state": "CO"}, "price": "$", "transactions": [], "display_phone": "(303) 758-0940"}, {"rating": 4.5, "is_closed": false, "distance": 6850.437666368, "name": "SloHi Coffee Co", "id": "slohi-coffee-co-denver", "image_url": "https://s3-media1.fl.yelpcdn.com/bphoto/7V1bGGV800m8sP7yI0cWEw/o.jpg", "url": "https://www.yelp.com/biz/slohi-coffee-co-denver?adjust_creative=gBcvfFpabk3CnzmXKdYe3w&utm_campaign=yelp_api_v3&utm_medium=api_v3_business_search&utm_source=gBcvfFpabk3CnzmXKdYe3w", "phone": "+17204845359", "coordinates": {"longitude": -105.044660568237, "latitude": 39.7584452480078}, "categories": [{"alias": "coffee", "title": "Coffee & Tea"}], "review_count": 49, "location": {"city": "Denver", "address1": "4436 W 29th Ave", "address3": "", "address2": "", "zip_code": "80212", "country": "US", "display_address": ["4436 W 29th Ave", "Denver, CO 80212"], "state": "CO"}, "price": "$", "transactions": [], "display_phone": "(720) 484-5359"}, {"rating": 3.5, "is_closed": false, "distance": 836.2619879360001, "name": "The District", "id": "the-district-denver-2", "image_url": "https://s3-media1.fl.yelpcdn.com/bphoto/2UDr0TK7RfQVFDPb8e-lEQ/o.jpg", "url": "https://www.yelp.com/biz/the-district-denver-2?adjust_creative=gBcvfFpabk3CnzmXKdYe3w&utm_campaign=yelp_api_v3&utm_medium=api_v3_business_search&utm_source=gBcvfFpabk3CnzmXKdYe3w", "phone": "+13038136688", "coordinates": {"longitude": -104.970021061599, "latitude": 39.7430438910984}, "categories": [{"alias": "tradamerican", "title": "American (Traditional)"}, {"alias": "bars", "title": "Bars"}, {"alias": "chicken_wings", "title": "Chicken Wings"}], "review_count": 239, "location": {"city": "Denver", "address1": "1320 E 17th Ave", "address3": "", "address2": "", "zip_code": "80218", "country": "US", "display_address": ["1320 E 17th Ave", "Denver, CO 80218"], "state": "CO"}, "price": "$$", "transactions": ["delivery", "pickup"], "display_phone": "(303) 813-6688"}, {"rating": 4.5, "is_closed": false, "distance": 7061.016264819999, "name": "Keith's Coffee Bar", "id": "keiths-coffee-bar-denver", "image_url": "https://s3-media3.fl.yelpcdn.com/bphoto/0iES_R13JQtKeH3JMmFALQ/o.jpg", "url": "https://www.yelp.com/biz/keiths-coffee-bar-denver?adjust_creative=gBcvfFpabk3CnzmXKdYe3w&utm_campaign=yelp_api_v3&utm_medium=api_v3_business_search&utm_source=gBcvfFpabk3CnzmXKdYe3w", "phone": "+13037334496", "coordinates": {"longitude": -104.97314453125, "latitude": 39.6721076965332}, "categories": [{"alias": "coffee", "title": "Coffee & Tea"}, {"alias": "breakfast_brunch", "title": "Breakfast & Brunch"}], "review_count": 39, "location": {"city": "Denver", "address1": "2450 S Downing St", "address3": "", "address2": null, "zip_code": "80210", "country": "US", "display_address": ["2450 S Downing St", "Denver, CO 80210"], "state": "CO"}, "price": "$", "transactions": [], "display_phone": "(303) 733-4496"}, {"rating": 3.5, "is_closed": false, "distance": 1307.6700860436, "name": "Williams Tavern", "id": "williams-tavern-denver", "image_url": "https://s3-media1.fl.yelpcdn.com/bphoto/i9l2Wpr0_5OMK9We9eFjdg/o.jpg", "url": "https://www.yelp.com/biz/williams-tavern-denver?adjust_creative=gBcvfFpabk3CnzmXKdYe3w&utm_campaign=yelp_api_v3&utm_medium=api_v3_business_search&utm_source=gBcvfFpabk3CnzmXKdYe3w", "phone": "+13038619813", "coordinates": {"longitude": -104.981607911639, "latitude": 39.7433972230683}, "categories": [{"alias": "bars", "title": "Bars"}], "review_count": 62, "location": {"city": "Denver", "address1": "423 E 17th Ave", "address3": "", "address2": "", "zip_code": "80203", "country": "US", "display_address": ["423 E 17th Ave", "Denver, CO 80203"], "state": "CO"}, "price": "$", "transactions": [], "display_phone": "(303) 861-9813"}, {"rating": 3.5, "is_closed": false, "distance": 2647.422075306, "name": "La Popular", "id": "la-popular-denver", "image_url": "https://s3-media1.fl.yelpcdn.com/bphoto/Mks-IfN6ellwPsSZ0xWRPg/o.jpg", "url": "https://www.yelp.com/biz/la-popular-denver?adjust_creative=gBcvfFpabk3CnzmXKdYe3w&utm_campaign=yelp_api_v3&utm_medium=api_v3_business_search&utm_source=gBcvfFpabk3CnzmXKdYe3w", "phone": "+13032961687", "coordinates": {"longitude": -104.9913399, "latitude": 39.75294}, "categories": [{"alias": "mexican", "title": "Mexican"}], "review_count": 71, "location": {"city": "Denver", "address1": "2033 Lawrence St", "address3": "", "address2": "", "zip_code": "80205", "country": "US", "display_address": ["2033 Lawrence St", "Denver, CO 80205"], "state": "CO"}, "price": "$", "transactions": [], "display_phone": "(303) 296-1687"}, {"rating": 3.5, "is_closed": false, "distance": 3192.40430582, "name": "Mataam Fez Moroccan Restaurant", "id": "mataam-fez-moroccan-restaurant-denver", "image_url": "https://s3-media2.fl.yelpcdn.com/bphoto/md0z7EDri8wa6CWxoyflNg/o.jpg", "url": "https://www.yelp.com/biz/mataam-fez-moroccan-restaurant-denver?adjust_creative=gBcvfFpabk3CnzmXKdYe3w&utm_campaign=yelp_api_v3&utm_medium=api_v3_business_search&utm_source=gBcvfFpabk3CnzmXKdYe3w", "phone": "+13033999282", "coordinates": {"longitude": -104.933441, "latitude": 39.740425}, "categories": [{"alias": "moroccan", "title": "Moroccan"}, {"alias": "salad", "title": "Salad"}, {"alias": "soup", "title": "Soup"}], "review_count": 142, "location": {"city": "Denver", "address1": "4609 E Colfax Ave", "address3": "", "address2": "", "zip_code": "80220", "country": "US", "display_address": ["4609 E Colfax Ave", "Denver, CO 80220"], "state": "CO"}, "price": "$$$", "transactions": [], "display_phone": "(303) 399-9282"}, {"rating": 3.5, "is_closed": false, "distance": 4393.972472498, "name": "Agave Taco Bar", "id": "agave-taco-bar-denver", "image_url": "https://s3-media3.fl.yelpcdn.com/bphoto/msSRi3rjZWq3bo_YAS8s4Q/o.jpg", "url": "https://www.yelp.com/biz/agave-taco-bar-denver?adjust_creative=gBcvfFpabk3CnzmXKdYe3w&utm_campaign=yelp_api_v3&utm_medium=api_v3_business_search&utm_source=gBcvfFpabk3CnzmXKdYe3w", "phone": "+13034256225", "coordinates": {"longitude": -104.9613927, "latitude": 39.6965971}, "categories": [{"alias": "mexican", "title": "Mexican"}, {"alias": "bars", "title": "Bars"}], "review_count": 195, "location": {"city": "Denver", "address1": "2217 E Mississippi Ave", "address3": "", "address2": "", "zip_code": "80210", "country": "US", "display_address": ["2217 E Mississippi Ave", "Denver, CO 80210"], "state": "CO"}, "price": "$$", "transactions": ["pickup"], "display_phone": "(303) 425-6225"}, {"rating": 4.0, "is_closed": false, "distance": 3050.7513255579997, "name": "Biergarten", "id": "biergarten-denver", "image_url": "https://s3-media1.fl.yelpcdn.com/bphoto/8HbCSHaQKE3pmY8Z-fGC-g/o.jpg", "url": "https://www.yelp.com/biz/biergarten-denver?adjust_creative=gBcvfFpabk3CnzmXKdYe3w&utm_campaign=yelp_api_v3&utm_medium=api_v3_business_search&utm_source=gBcvfFpabk3CnzmXKdYe3w", "phone": "+17204856450", "coordinates": {"longitude": -104.99951171875, "latitude": 39.7512359619141}, "categories": [{"alias": "beergardens", "title": "Beer Gardens"}, {"alias": "salad", "title": "Salad"}, {"alias": "sandwiches", "title": "Sandwiches"}], "review_count": 24, "location": {"city": "Denver", "address1": "1612 Wazee St", "address3": "", "address2": null, "zip_code": "80202", "country": "US", "display_address": ["1612 Wazee St", "Denver, CO 80202"], "state": "CO"}, "price": "$$", "transactions": ["pickup"], "display_phone": "(720) 485-6450"}, {"rating": 3.5, "is_closed": false, "distance": 1180.2797688777998, "name": "Charlie Brown's Bar & Grill", "id": "charlie-browns-bar-and-grill-denver", "image_url": "https://s3-media2.fl.yelpcdn.com/bphoto/kisQ3wGC6ZA8EDXB3FEFbg/o.jpg", "url": "https://www.yelp.com/biz/charlie-browns-bar-and-grill-denver?adjust_creative=gBcvfFpabk3CnzmXKdYe3w&utm_campaign=yelp_api_v3&utm_medium=api_v3_business_search&utm_source=gBcvfFpabk3CnzmXKdYe3w", "phone": "+13038601655", "coordinates": {"longitude": -104.98318, "latitude": 39.73165}, "categories": [{"alias": "lounges", "title": "Lounges"}, {"alias": "tradamerican", "title": "American (Traditional)"}, {"alias": "divebars", "title": "Dive Bars"}], "review_count": 208, "location": {"city": "Denver", "address1": "980 Grant St", "address3": "", "address2": "", "zip_code": "80203", "country": "US", "display_address": ["980 Grant St", "Denver, CO 80203"], "state": "CO"}, "price": "$$", "transactions": [], "display_phone": "(303) 860-1655"}, {"rating": 4.0, "is_closed": false, "distance": 5982.291273417999, "name": "Pho 79", "id": "pho-79-denver", "image_url": "https://s3-media4.fl.yelpcdn.com/bphoto/fMgj8iXgLGDAxB5UGjZ-6g/o.jpg", "url": "https://www.yelp.com/biz/pho-79-denver?adjust_creative=gBcvfFpabk3CnzmXKdYe3w&utm_campaign=yelp_api_v3&utm_medium=api_v3_business_search&utm_source=gBcvfFpabk3CnzmXKdYe3w", "phone": "+13039222930", "coordinates": {"longitude": -105.0252149, "latitude": 39.7025501}, "categories": [{"alias": "vietnamese", "title": "Vietnamese"}], "review_count": 124, "location": {"city": "Denver", "address1": "781 S Federal Blvd", "address3": "", "address2": "", "zip_code": "80219", "country": "US", "display_address": ["781 S Federal Blvd", "Denver, CO 80219"], "state": "CO"}, "price": "$", "transactions": [], "display_phone": "(303) 922-2930"}, {"rating": 4.5, "is_closed": false, "distance": 7732.268760139999, "name": "El Chingon Mexican Bistro", "id": "el-chingon-mexican-bistro-denver-2", "image_url": "https://s3-media2.fl.yelpcdn.com/bphoto/VqzlJZa3jOcddXzIC5vblw/o.jpg", "url": "https://www.yelp.com/biz/el-chingon-mexican-bistro-denver-2?adjust_creative=gBcvfFpabk3CnzmXKdYe3w&utm_campaign=yelp_api_v3&utm_medium=api_v3_business_search&utm_source=gBcvfFpabk3CnzmXKdYe3w", "phone": "+13032483641", "coordinates": {"longitude": -105.043913347845, "latitude": 39.7758712142473}, "categories": [{"alias": "mexican", "title": "Mexican"}], "review_count": 199, "location": {"city": "Denver", "address1": "4326 Tennyson St", "address3": "", "address2": "", "zip_code": "80212", "country": "US", "display_address": ["4326 Tennyson St", "Denver, CO 80212"], "state": "CO"}, "price": "$$", "transactions": [], "display_phone": "(303) 248-3641"}, {"rating": 3.5, "is_closed": false, "distance": 2314.621667752, "name": "Back East Bar and Grill", "id": "back-east-bar-and-grill-denver", "image_url": "https://s3-media3.fl.yelpcdn.com/bphoto/r17nNOD3geD61jtefYALIA/o.jpg", "url": "https://www.yelp.com/biz/back-east-bar-and-grill-denver?adjust_creative=gBcvfFpabk3CnzmXKdYe3w&utm_campaign=yelp_api_v3&utm_medium=api_v3_business_search&utm_source=gBcvfFpabk3CnzmXKdYe3w", "phone": "+13036230070", "coordinates": {"longitude": -104.99366, "latitude": 39.74653}, "categories": [{"alias": "sportsbars", "title": "Sports Bars"}, {"alias": "tradamerican", "title": "American (Traditional)"}, {"alias": "musicvenues", "title": "Music Venues"}], "review_count": 93, "location": {"city": "Denver", "address1": "1600 Champa St", "address3": "", "address2": "Ste 240", "zip_code": "80202", "country": "US", "display_address": ["1600 Champa St", "Ste 240", "Denver, CO 80202"], "state": "CO"}, "price": "$$", "transactions": [], "display_phone": "(303) 623-0070"}, {"rating": 4.0, "is_closed": false, "distance": 6373.479501776, "name": "Illegal Petes", "id": "illegal-petes-denver-2", "image_url": "https://s3-media2.fl.yelpcdn.com/bphoto/zFrEmsn5yQp3K9PNbYCSWQ/o.jpg", "url": "https://www.yelp.com/biz/illegal-petes-denver-2?adjust_creative=gBcvfFpabk3CnzmXKdYe3w&utm_campaign=yelp_api_v3&utm_medium=api_v3_business_search&utm_source=gBcvfFpabk3CnzmXKdYe3w", "phone": "+17209742198", "coordinates": {"longitude": -104.96659, "latitude": 39.67831}, "categories": [{"alias": "mexican", "title": "Mexican"}], "review_count": 169, "location": {"city": "Denver", "address1": "1744 E Evans Ave", "address3": "", "address2": "", "zip_code": "80210", "country": "US", "display_address": ["1744 E Evans Ave", "Denver, CO 80210"], "state": "CO"}, "price": "$", "transactions": [], "display_phone": "(720) 974-2198"}, {"rating": 4.0, "is_closed": false, "distance": 1739.6675718800002, "name": "Lo Stella Ristorante", "id": "lo-stella-ristorante-denver-2", "image_url": "https://s3-media1.fl.yelpcdn.com/bphoto/H3DLAOBMqJgH_K8jQNW1Kw/o.jpg", "url": "https://www.yelp.com/biz/lo-stella-ristorante-denver-2?adjust_creative=gBcvfFpabk3CnzmXKdYe3w&utm_campaign=yelp_api_v3&utm_medium=api_v3_business_search&utm_source=gBcvfFpabk3CnzmXKdYe3w", "phone": "+13038251995", "coordinates": {"longitude": -104.9903999, "latitude": 39.73449}, "categories": [{"alias": "italian", "title": "Italian"}], "review_count": 102, "location": {"city": "Denver", "address1": "1135 Bannock St", "address3": "", "address2": null, "zip_code": "80204", "country": "US", "display_address": ["1135 Bannock St", "Denver, CO 80204"], "state": "CO"}, "price": "$$", "transactions": ["pickup"], "display_phone": "(303) 825-1995"}, {"rating": 4.5, "is_closed": false, "distance": 3549.03404982, "name": "3 Girasoles", "id": "3-girasoles-denver-2", "image_url": "https://s3-media4.fl.yelpcdn.com/bphoto/y4ZKcjp7i4dNonXP8YRnxw/o.jpg", "url": "https://www.yelp.com/biz/3-girasoles-denver-2?adjust_creative=gBcvfFpabk3CnzmXKdYe3w&utm_campaign=yelp_api_v3&utm_medium=api_v3_business_search&utm_source=gBcvfFpabk3CnzmXKdYe3w", "phone": "+17206903836", "coordinates": {"longitude": -104.952556192875, "latitude": 39.7643949575026}, "categories": [{"alias": "mexican", "title": "Mexican"}], "review_count": 16, "location": {"city": "Denver", "address1": "2940 E Bruce Randolph Ave", "address3": "", "address2": "", "zip_code": "80205", "country": "US", "display_address": ["2940 E Bruce Randolph Ave", "Denver, CO 80205"], "state": "CO"}, "price": "$", "transactions": [], "display_phone": "(720) 690-3836"}, {"rating": 4.0, "is_closed": false, "distance": 2457.410359252, "name": "Chuey Fu's", "id": "chuey-fus-denver", "image_url": "https://s3-media3.fl.yelpcdn.com/bphoto/DhDzD9eNAIt6McET7pHkUQ/o.jpg", "url": "https://www.yelp.com/biz/chuey-fus-denver?adjust_creative=gBcvfFpabk3CnzmXKdYe3w&utm_campaign=yelp_api_v3&utm_medium=api_v3_business_search&utm_source=gBcvfFpabk3CnzmXKdYe3w", "phone": "+13034841681", "coordinates": {"longitude": -104.998938627541, "latitude": 39.7342984909538}, "categories": [{"alias": "asianfusion", "title": "Asian Fusion"}], "review_count": 30, "location": {"city": "Denver", "address1": "1131 Santa Fe Dr", "address3": null, "address2": "", "zip_code": "80204", "country": "US", "display_address": ["1131 Santa Fe Dr", "Denver, CO 80204"], "state": "CO"}, "price": "$$", "transactions": ["delivery"], "display_phone": "(303) 484-1681"}, {"rating": 4.0, "is_closed": false, "distance": 723.5261920629999, "name": "Gyroz", "id": "gyroz-denver-2", "image_url": "https://s3-media3.fl.yelpcdn.com/bphoto/KP_V6FF0vvnOF2ovbBsDVQ/o.jpg", "url": "https://www.yelp.com/biz/gyroz-denver-2?adjust_creative=gBcvfFpabk3CnzmXKdYe3w&utm_campaign=yelp_api_v3&utm_medium=api_v3_business_search&utm_source=gBcvfFpabk3CnzmXKdYe3w", "phone": "+13038321010", "coordinates": {"longitude": -104.976699, "latitude": 39.7397327}, "categories": [{"alias": "mediterranean", "title": "Mediterranean"}, {"alias": "greek", "title": "Greek"}, {"alias": "hotdogs", "title": "Fast Food"}], "review_count": 68, "location": {"city": "Denver", "address1": "880 E Colfax Ave", "address3": "", "address2": "", "zip_code": "80218", "country": "US", "display_address": ["880 E Colfax Ave", "Denver, CO 80218"], "state": "CO"}, "price": "$", "transactions": [], "display_phone": "(303) 832-1010"}, {"rating": 4.5, "is_closed": false, "distance": 3610.73453608, "name": "Riverfront Park", "id": "riverfront-park-denver", "image_url": "https://s3-media2.fl.yelpcdn.com/bphoto/wOEr1fP_rNBymPwnjiMZJw/o.jpg", "url": "https://www.yelp.com/biz/riverfront-park-denver?adjust_creative=gBcvfFpabk3CnzmXKdYe3w&utm_campaign=yelp_api_v3&utm_medium=api_v3_business_search&utm_source=gBcvfFpabk3CnzmXKdYe3w", "phone": "+13036231500", "coordinates": {"longitude": -105.0041885, "latitude": 39.7550812}, "categories": [{"alias": "parks", "title": "Parks"}], "review_count": 16, "location": {"city": "Denver", "address1": "1610 Little Raven St", "address3": "", "address2": "Unit 506", "zip_code": "80202", "country": "US", "display_address": ["1610 Little Raven St", "Unit 506", "Denver, CO 80202"], "state": "CO"}, "transactions": [], "display_phone": "(303) 623-1500"}, {"rating": 4.0, "is_closed": false, "distance": 6142.34222856, "name": "Sloan's Lake Tap & Burger", "id": "sloans-lake-tap-and-burger-denver", "image_url": "https://s3-media4.fl.yelpcdn.com/bphoto/iBEtgakhvE-ebT1I9u9BSA/o.jpg", "url": "https://www.yelp.com/biz/sloans-lake-tap-and-burger-denver?adjust_creative=gBcvfFpabk3CnzmXKdYe3w&utm_campaign=yelp_api_v3&utm_medium=api_v3_business_search&utm_source=gBcvfFpabk3CnzmXKdYe3w", "phone": "+17204566779", "coordinates": {"longitude": -105.0418582, "latitude": 39.7410523}, "categories": [{"alias": "burgers", "title": "Burgers"}, {"alias": "tradamerican", "title": "American (Traditional)"}, {"alias": "breakfast_brunch", "title": "Breakfast & Brunch"}], "review_count": 83, "location": {"city": "Denver", "address1": "1565 Raleigh St", "address3": null, "address2": "Unit 100", "zip_code": "80204", "country": "US", "display_address": ["1565 Raleigh St", "Unit 100", "Denver, CO 80204"], "state": "CO"}, "price": "$$", "transactions": [], "display_phone": "(720) 456-6779"}, {"rating": 3.5, "is_closed": false, "distance": 4652.298901278, "name": "The Garlic Knot", "id": "the-garlic-knot-denver-2", "image_url": "https://s3-media4.fl.yelpcdn.com/bphoto/vmWzKsvJh3AN7BVQCtep-A/o.jpg", "url": "https://www.yelp.com/biz/the-garlic-knot-denver-2?adjust_creative=gBcvfFpabk3CnzmXKdYe3w&utm_campaign=yelp_api_v3&utm_medium=api_v3_business_search&utm_source=gBcvfFpabk3CnzmXKdYe3w", "phone": "+17209411000", "coordinates": {"longitude": -104.9159655, "latitude": 39.7383581}, "categories": [{"alias": "pizza", "title": "Pizza"}, {"alias": "italian", "title": "Italian"}], "review_count": 87, "location": {"city": "Denver", "address1": "6217 E 14th Ave", "address3": "", "address2": "", "zip_code": "80220", "country": "US", "display_address": ["6217 E 14th Ave", "Denver, CO 80220"], "state": "CO"}, "price": "$$", "transactions": ["delivery", "pickup"], "display_phone": "(720) 941-1000"}, {"rating": 3.5, "is_closed": false, "distance": 2173.295866312, "name": "Green Fine Salad Co", "id": "green-fine-salad-co-denver", "image_url": "https://s3-media2.fl.yelpcdn.com/bphoto/p_yiS94BXRTcP6Y0QZtZXg/o.jpg", "url": "https://www.yelp.com/biz/green-fine-salad-co-denver?adjust_creative=gBcvfFpabk3CnzmXKdYe3w&utm_campaign=yelp_api_v3&utm_medium=api_v3_business_search&utm_source=gBcvfFpabk3CnzmXKdYe3w", "phone": "+13032916965", "coordinates": {"longitude": -104.990752879099, "latitude": 39.747069430225}, "categories": [{"alias": "salad", "title": "Salad"}, {"alias": "steak", "title": "Steakhouses"}, {"alias": "vegetarian", "title": "Vegetarian"}], "review_count": 46, "location": {"city": "Denver", "address1": "707 17th St", "address3": "", "address2": null, "zip_code": "80202", "country": "US", "display_address": ["707 17th St", "Denver, CO 80202"], "state": "CO"}, "price": "$", "transactions": ["delivery", "pickup"], "display_phone": "(303) 291-6965"}, {"rating": 3.5, "is_closed": false, "distance": 2161.814834752, "name": "Sushi Tazu", "id": "sushi-tazu-denver", "image_url": "https://s3-media2.fl.yelpcdn.com/bphoto/1t8LkWZbNnLjAdfuy4WvIw/o.jpg", "url": "https://www.yelp.com/biz/sushi-tazu-denver?adjust_creative=gBcvfFpabk3CnzmXKdYe3w&utm_campaign=yelp_api_v3&utm_medium=api_v3_business_search&utm_source=gBcvfFpabk3CnzmXKdYe3w", "phone": "+13033201672", "coordinates": {"longitude": -104.953056335449, "latitude": 39.7212715148926}, "categories": [{"alias": "japanese", "title": "Japanese"}, {"alias": "sushi", "title": "Sushi Bars"}], "review_count": 145, "location": {"city": "Denver", "address1": "300 Fillmore St", "address3": "", "address2": "", "zip_code": "80206", "country": "US", "display_address": ["300 Fillmore St", "Denver, CO 80206"], "state": "CO"}, "price": "$$", "transactions": ["pickup"], "display_phone": "(303) 320-1672"}, {"rating": 4.0, "is_closed": false, "distance": 6361.3032353359995, "name": "Ali Baba Grill", "id": "ali-baba-grill-denver", "image_url": "https://s3-media1.fl.yelpcdn.com/bphoto/7xBOUsQZJMBh2ZT37MZ1Fg/o.jpg", "url": "https://www.yelp.com/biz/ali-baba-grill-denver?adjust_creative=gBcvfFpabk3CnzmXKdYe3w&utm_campaign=yelp_api_v3&utm_medium=api_v3_business_search&utm_source=gBcvfFpabk3CnzmXKdYe3w", "phone": "+13032825008", "coordinates": {"longitude": -104.9590798, "latitude": 39.6789624}, "categories": [{"alias": "arabian", "title": "Arabian"}, {"alias": "mideastern", "title": "Middle Eastern"}, {"alias": "halal", "title": "Halal"}], "review_count": 90, "location": {"city": "Denver", "address1": "2060 S University Blvd", "address3": "", "address2": "", "zip_code": "80210", "country": "US", "display_address": ["2060 S University Blvd", "Denver, CO 80210"], "state": "CO"}, "price": "$$", "transactions": ["delivery", "pickup"], "display_phone": "(303) 282-5008"}, {"rating": 3.5, "is_closed": false, "distance": 448.7876978696, "name": "Sexy Pizza", "id": "sexy-pizza-denver", "image_url": "https://s3-media1.fl.yelpcdn.com/bphoto/IUEZlRzsh8CM6AH8VB19cw/o.jpg", "url": "https://www.yelp.com/biz/sexy-pizza-denver?adjust_creative=gBcvfFpabk3CnzmXKdYe3w&utm_campaign=yelp_api_v3&utm_medium=api_v3_business_search&utm_source=gBcvfFpabk3CnzmXKdYe3w", "phone": "+13038308111", "coordinates": {"longitude": -104.97483, "latitude": 39.73355}, "categories": [{"alias": "pizza", "title": "Pizza"}], "review_count": 393, "location": {"city": "Denver", "address1": "1018 E 11th Ave", "address3": "", "address2": "", "zip_code": "80218", "country": "US", "display_address": ["1018 E 11th Ave", "Denver, CO 80218"], "state": "CO"}, "price": "$", "transactions": [], "display_phone": "(303) 830-8111"}, {"rating": 4.0, "is_closed": false, "distance": 5519.011533221999, "name": "Fritangas Mexican Restaurant", "id": "fritangas-mexican-restaurant-denver", "image_url": "https://s3-media4.fl.yelpcdn.com/bphoto/bPyIy12FjfQNXmltgKXzOQ/o.jpg", "url": "https://www.yelp.com/biz/fritangas-mexican-restaurant-denver?adjust_creative=gBcvfFpabk3CnzmXKdYe3w&utm_campaign=yelp_api_v3&utm_medium=api_v3_business_search&utm_source=gBcvfFpabk3CnzmXKdYe3w", "phone": "+13039360388", "coordinates": {"longitude": -105.02622, "latitude": 39.71084}, "categories": [{"alias": "mexican", "title": "Mexican"}], "review_count": 38, "location": {"city": "Denver", "address1": "3090 W Alameda Ave", "address3": "", "address2": "", "zip_code": "80219", "country": "US", "display_address": ["3090 W Alameda Ave", "Denver, CO 80219"], "state": "CO"}, "price": "$", "transactions": [], "display_phone": "(303) 936-0388"}, {"rating": 4.5, "is_closed": false, "distance": 2774.3887015299997, "name": "Lazo Empanadas", "id": "lazo-empanadas-denver-4", "image_url": "https://s3-media4.fl.yelpcdn.com/bphoto/pi3rCBuvKIu92-x8-cyacQ/o.jpg", "url": "https://www.yelp.com/biz/lazo-empanadas-denver-4?adjust_creative=gBcvfFpabk3CnzmXKdYe3w&utm_campaign=yelp_api_v3&utm_medium=api_v3_business_search&utm_source=gBcvfFpabk3CnzmXKdYe3w", "phone": "+13032966710", "coordinates": {"longitude": -104.990285368717, "latitude": 39.7551452346982}, "categories": [{"alias": "empanadas", "title": "Empanadas"}, {"alias": "argentine", "title": "Argentine"}], "review_count": 27, "location": {"city": "Denver", "address1": "1319 22nd St", "address3": null, "address2": null, "zip_code": "80205", "country": "US", "display_address": ["1319 22nd St", "Denver, CO 80205"], "state": "CO"}, "price": "$", "transactions": ["delivery", "pickup"], "display_phone": "(303) 296-6710"}, {"rating": 4.0, "is_closed": false, "distance": 7432.711040559999, "name": "Sushi Bay", "id": "sushi-bay-denver", "image_url": "https://s3-media1.fl.yelpcdn.com/bphoto/47ZwvxeEWdksgmr_63asCg/o.jpg", "url": "https://www.yelp.com/biz/sushi-bay-denver?adjust_creative=gBcvfFpabk3CnzmXKdYe3w&utm_campaign=yelp_api_v3&utm_medium=api_v3_business_search&utm_source=gBcvfFpabk3CnzmXKdYe3w", "phone": "+13034775489", "coordinates": {"longitude": -105.044334411621, "latitude": 39.7706413269043}, "categories": [{"alias": "sushi", "title": "Sushi Bars"}, {"alias": "japanese", "title": "Japanese"}], "review_count": 136, "location": {"city": "Denver", "address1": "3877 Tennyson St", "address3": "", "address2": "", "zip_code": "80212", "country": "US", "display_address": ["3877 Tennyson St", "Denver, CO 80212"], "state": "CO"}, "price": "$$", "transactions": ["delivery", "pickup"], "display_phone": "(303) 477-5489"}, {"rating": 3.5, "is_closed": false, "distance": 2698.7637227879995, "name": "Santiago's", "id": "santiagos-denver", "image_url": "https://s3-media3.fl.yelpcdn.com/bphoto/1swO3p3GgRfND9wFaaaVow/o.jpg", "url": "https://www.yelp.com/biz/santiagos-denver?adjust_creative=gBcvfFpabk3CnzmXKdYe3w&utm_campaign=yelp_api_v3&utm_medium=api_v3_business_search&utm_source=gBcvfFpabk3CnzmXKdYe3w", "phone": "+13035345004", "coordinates": {"longitude": -104.99892, "latitude": 39.7254099}, "categories": [{"alias": "mexican", "title": "Mexican"}], "review_count": 109, "location": {"city": "Denver", "address1": "571 Santa Fe Dr", "address3": "", "address2": null, "zip_code": "80204", "country": "US", "display_address": ["571 Santa Fe Dr", "Denver, CO 80204"], "state": "CO"}, "price": "$", "transactions": [], "display_phone": "(303) 534-5004"}, {"rating": 4.0, "is_closed": false, "distance": 10202.32643965, "name": "Taquer\u00eda El Trompito", "id": "taquer\u00eda-el-trompito-denver-3", "image_url": "https://s3-media1.fl.yelpcdn.com/bphoto/KDy8lgOZBqycVOmjLN1Nzw/o.jpg", "url": "https://www.yelp.com/biz/taquer%C3%ADa-el-trompito-denver-3?adjust_creative=gBcvfFpabk3CnzmXKdYe3w&utm_campaign=yelp_api_v3&utm_medium=api_v3_business_search&utm_source=gBcvfFpabk3CnzmXKdYe3w", "phone": "+17205403483", "coordinates": {"longitude": -105.00542, "latitude": 39.8232799}, "categories": [{"alias": "mexican", "title": "Mexican"}], "review_count": 107, "location": {"city": "Denver", "address1": "1540 W 70th Ave", "address3": "", "address2": "", "zip_code": "80221", "country": "US", "display_address": ["1540 W 70th Ave", "Denver, CO 80221"], "state": "CO"}, "price": "$", "transactions": [], "display_phone": "(720) 540-3483"}, {"rating": 4.0, "is_closed": false, "distance": 2635.61853201, "name": "Mici Handcrafted Italian", "id": "mici-handcrafted-italian-denver-11", "image_url": "https://s3-media3.fl.yelpcdn.com/bphoto/SjFLrrQvp55z2-8WS9JnGg/o.jpg", "url": "https://www.yelp.com/biz/mici-handcrafted-italian-denver-11?adjust_creative=gBcvfFpabk3CnzmXKdYe3w&utm_campaign=yelp_api_v3&utm_medium=api_v3_business_search&utm_source=gBcvfFpabk3CnzmXKdYe3w", "phone": "+13033226424", "coordinates": {"longitude": -104.941009276493, "latitude": 39.7280191170141}, "categories": [{"alias": "pizza", "title": "Pizza"}, {"alias": "italian", "title": "Italian"}, {"alias": "breakfast_brunch", "title": "Breakfast & Brunch"}], "review_count": 31, "location": {"city": "Denver", "address1": "727 Colorado Blvd", "address3": "", "address2": "", "zip_code": "80206", "country": "US", "display_address": ["727 Colorado Blvd", "Denver, CO 80206"], "state": "CO"}, "price": "$$", "transactions": [], "display_phone": "(303) 322-6424"}, {"rating": 3.5, "is_closed": false, "distance": 2725.2841975819997, "name": "Famous Pizza", "id": "famous-pizza-denver-3", "image_url": "https://s3-media3.fl.yelpcdn.com/bphoto/soyM4lVOg0OijVlgr8SVpg/o.jpg", "url": "https://www.yelp.com/biz/famous-pizza-denver-3?adjust_creative=gBcvfFpabk3CnzmXKdYe3w&utm_campaign=yelp_api_v3&utm_medium=api_v3_business_search&utm_source=gBcvfFpabk3CnzmXKdYe3w", "phone": "+13037787998", "coordinates": {"longitude": -104.98736, "latitude": 39.71491}, "categories": [{"alias": "pizza", "title": "Pizza"}], "review_count": 128, "location": {"city": "Denver", "address1": "98 S Broadway", "address3": "", "address2": "", "zip_code": "80209", "country": "US", "display_address": ["98 S Broadway", "Denver, CO 80209"], "state": "CO"}, "price": "$", "transactions": [], "display_phone": "(303) 778-7998"}, {"rating": 4.0, "is_closed": false, "distance": 7502.9281541, "name": "West End Tap House", "id": "west-end-tap-house-denver", "image_url": "https://s3-media4.fl.yelpcdn.com/bphoto/_HS4VkG7WaQmI9NLrsEk8Q/o.jpg", "url": "https://www.yelp.com/biz/west-end-tap-house-denver?adjust_creative=gBcvfFpabk3CnzmXKdYe3w&utm_campaign=yelp_api_v3&utm_medium=api_v3_business_search&utm_source=gBcvfFpabk3CnzmXKdYe3w", "phone": "+13034334759", "coordinates": {"longitude": -105.0441407, "latitude": 39.7719261}, "categories": [{"alias": "tradamerican", "title": "American (Traditional)"}, {"alias": "bars", "title": "Bars"}], "review_count": 148, "location": {"city": "Denver", "address1": "3945 Tennyson St", "address3": "", "address2": "", "zip_code": "80212", "country": "US", "display_address": ["3945 Tennyson St", "Denver, CO 80212"], "state": "CO"}, "price": "$$", "transactions": [], "display_phone": "(303) 433-4759"}, {"rating": 3.5, "is_closed": false, "distance": 1382.347260086, "name": "Govnr's Park Tavern", "id": "govnrs-park-tavern-denver", "image_url": "https://s3-media2.fl.yelpcdn.com/bphoto/QLOZMdz6cB1Sbb42U6RWyQ/o.jpg", "url": "https://www.yelp.com/biz/govnrs-park-tavern-denver?adjust_creative=gBcvfFpabk3CnzmXKdYe3w&utm_campaign=yelp_api_v3&utm_medium=api_v3_business_search&utm_source=gBcvfFpabk3CnzmXKdYe3w", "phone": "+13038318605", "coordinates": {"longitude": -104.98212, "latitude": 39.72696}, "categories": [{"alias": "sportsbars", "title": "Sports Bars"}, {"alias": "tradamerican", "title": "American (Traditional)"}], "review_count": 321, "location": {"city": "Denver", "address1": "672 Logan St", "address3": "", "address2": "", "zip_code": "80203", "country": "US", "display_address": ["672 Logan St", "Denver, CO 80203"], "state": "CO"}, "price": "$$", "transactions": [], "display_phone": "(303) 831-8605"}, {"rating": 4.0, "is_closed": false, "distance": 4820.003394658, "name": "Chuey Fu's Latin Asian Grub", "id": "chuey-fus-latin-asian-grub-denver", "image_url": "https://s3-media3.fl.yelpcdn.com/bphoto/qWIkIU5wnM3-aE60CcwP5w/o.jpg", "url": "https://www.yelp.com/biz/chuey-fus-latin-asian-grub-denver?adjust_creative=gBcvfFpabk3CnzmXKdYe3w&utm_campaign=yelp_api_v3&utm_medium=api_v3_business_search&utm_source=gBcvfFpabk3CnzmXKdYe3w", "phone": "+17202332897", "coordinates": {"longitude": -105.020149230957, "latitude": 39.7349586486816}, "categories": [{"alias": "foodtrucks", "title": "Food Trucks"}, {"alias": "latin", "title": "Latin American"}, {"alias": "asianfusion", "title": "Asian Fusion"}], "review_count": 37, "location": {"city": "Denver", "address1": "", "address3": "", "address2": "", "zip_code": "80204", "country": "US", "display_address": ["Denver, CO 80204"], "state": "CO"}, "price": "$$", "transactions": [], "display_phone": "(720) 233-2897"}, {"rating": 3.5, "is_closed": false, "distance": 793.689231779, "name": "Lion's Lair", "id": "lions-lair-denver", "image_url": "https://s3-media3.fl.yelpcdn.com/bphoto/M-lmOoDBXcMzl9MZ6vr0AQ/o.jpg", "url": "https://www.yelp.com/biz/lions-lair-denver?adjust_creative=gBcvfFpabk3CnzmXKdYe3w&utm_campaign=yelp_api_v3&utm_medium=api_v3_business_search&utm_source=gBcvfFpabk3CnzmXKdYe3w", "phone": "+13033209200", "coordinates": {"longitude": -104.96269, "latitude": 39.73983}, "categories": [{"alias": "musicvenues", "title": "Music Venues"}, {"alias": "divebars", "title": "Dive Bars"}, {"alias": "comedyclubs", "title": "Comedy Clubs"}], "review_count": 58, "location": {"city": "Denver", "address1": "2022 E Colfax Ave", "address3": "", "address2": "", "zip_code": "80206", "country": "US", "display_address": ["2022 E Colfax Ave", "Denver, CO 80206"], "state": "CO"}, "price": "$", "transactions": [], "display_phone": "(303) 320-9200"}, {"rating": 4.5, "is_closed": false, "distance": 3315.920668018, "name": "Jack Rabbit Slims", "id": "jack-rabbit-slims-denver", "image_url": "https://s3-media1.fl.yelpcdn.com/bphoto/v1Zohz2auuaiA0r75M7ahA/o.jpg", "url": "https://www.yelp.com/biz/jack-rabbit-slims-denver?adjust_creative=gBcvfFpabk3CnzmXKdYe3w&utm_campaign=yelp_api_v3&utm_medium=api_v3_business_search&utm_source=gBcvfFpabk3CnzmXKdYe3w", "phone": "+13033799369", "coordinates": {"longitude": -104.96029, "latitude": 39.76438}, "categories": [{"alias": "bars", "title": "Bars"}, {"alias": "pizza", "title": "Pizza"}, {"alias": "poolbilliards", "title": "Pool & Billiards"}], "review_count": 25, "location": {"city": "Denver", "address1": "2222 Bruce Randolph St", "address3": "", "address2": "", "zip_code": "80205", "country": "US", "display_address": ["2222 Bruce Randolph St", "Denver, CO 80205"], "state": "CO"}, "price": "$$", "transactions": [], "display_phone": "(303) 379-9369"}, {"rating": 3.5, "is_closed": false, "distance": 6308.07206176, "name": "Mead Street Station", "id": "mead-street-station-denver-3", "image_url": "https://s3-media2.fl.yelpcdn.com/bphoto/v040hrZEphDiS68Y3mCcZQ/o.jpg", "url": "https://www.yelp.com/biz/mead-street-station-denver-3?adjust_creative=gBcvfFpabk3CnzmXKdYe3w&utm_campaign=yelp_api_v3&utm_medium=api_v3_business_search&utm_source=gBcvfFpabk3CnzmXKdYe3w", "phone": "+13034332138", "coordinates": {"longitude": -105.03527, "latitude": 39.76236}, "categories": [{"alias": "bars", "title": "Bars"}, {"alias": "tradamerican", "title": "American (Traditional)"}], "review_count": 286, "location": {"city": "Denver", "address1": "3625 W 32nd Ave", "address3": "", "address2": "", "zip_code": "80211", "country": "US", "display_address": ["3625 W 32nd Ave", "Denver, CO 80211"], "state": "CO"}, "price": "$$", "transactions": [], "display_phone": "(303) 433-2138"}]}