{"total": 34880, "region": {"center": {"longitude": -104.97024536132812, "latitude": 39.73552421220229}}, "businesses": [{"rating": 4.0, "is_closed": false, "distance": 2471.136259178, "name": "Sam's No. 3 - Downtown", "id": "sams-no-3-downtown-denver", "image_url": "https://s3-media1.fl.yelpcdn.com/bphoto/yff2GbSWzp_6ZOwQd40HZw/o.jpg", "url": "https://www.yelp.com/biz/sams-no-3-downtown-denver?adjust_creative=gBcvfFpabk3CnzmXKdYe3w&utm_campaign=yelp_api_v3&utm_medium=api_v3_business_search&utm_source=gBcvfFpabk3CnzmXKdYe3w", "phone": "+13035341927", "coordinates": {"longitude": -104.995590209961, "latitude": 39.7461967468262}, "categories": [{"alias": "diners", "title": "Diners"}, {"alias": "mexican", "title": "Mexican"}, {"alias": "tradamerican", "title": "American (Traditional)"}], "review_count": 1202, "location": {"city": "Denver", "address1": "1500 Curtis St", "address3": "", "address2": null, "zip_code": "80202", "country": "US", "display_address": ["1500 Curtis St", "Denver, CO 80202"], "state": "CO"}, "price": "$$", "transactions": ["delivery"], "display_phone": "(303) 534-1927"}, {"rating": 4.5, "is_closed": false, "distance": 5961.359875509999, "name": "Chickee's Lil Kitchen", "id": "chickees-lil-kitchen-denver", "image_url": "https://s3-media2.fl.yelpcdn.com/bphoto/cELWb1YsZg8e9SE9RY_zew/o.jpg", "url": "https://www.yelp.com/biz/chickees-lil-kitchen-denver?adjust_creative=gBcvfFpabk3CnzmXKdYe3w&utm_campaign=yelp_api_v3&utm_medium=api_v3_business_search&utm_source=gBcvfFpabk3CnzmXKdYe3w", "phone": "+17203293980", "coordinates": {"longitude": -105.015556335449, "latitude": 39.7762031555176}, "categories": [{"alias": "cajun", "title": "Cajun/Creole"}, {"alias": "mexican", "title": "Mexican"}], "review_count": 50, "location": {"city": "Denver", "address1": "4340 Zuni St", "address3": "", "address2": "", "zip_code": "80211", "country": "US", "display_address": ["4340 Zuni St", "Denver, CO 80211"], "state": "CO"}, "price": "$", "transactions": [], "display_phone": "(720) 329-3980"}, {"rating": 4.5, "is_closed": false, "distance": 481.7467074818, "name": "Izu", "id": "izu-denver", "image_url": "https://s3-media1.fl.yelpcdn.com/bphoto/Hp2vwcywoGvDWVKVT89xEQ/o.jpg", "url": "https://www.yelp.com/biz/izu-denver?adjust_creative=gBcvfFpabk3CnzmXKdYe3w&utm_campaign=yelp_api_v3&utm_medium=api_v3_business_search&utm_source=gBcvfFpabk3CnzmXKdYe3w", "phone": "+13032847981", "coordinates": {"longitude": -104.96889, "latitude": 39.73973}, "categories": [{"alias": "japanese", "title": "Japanese"}, {"alias": "salad", "title": "Salad"}, {"alias": "sushi", "title": "Sushi Bars"}], "review_count": 158, "location": {"city": "Denver", "address1": "1528 E Colfax Ave", "address3": "", "address2": "", "zip_code": "80218", "country": "US", "display_address": ["1528 E Colfax Ave", "Denver, CO 80218"], "state": "CO"}, "price": "$$", "transactions": ["delivery", "pickup"], "display_phone": "(303) 284-7981"}, {"rating": 4.0, "is_closed": false, "distance": 1647.2978932400001, "name": "Charcoal Restaurant", "id": "charcoal-restaurant-denver-2", "image_url": "https://s3-media1.fl.yelpcdn.com/bphoto/l5yNX4BS1CqjcnHXbWhSJA/o.jpg", "url": "https://www.yelp.com/biz/charcoal-restaurant-denver-2?adjust_creative=gBcvfFpabk3CnzmXKdYe3w&utm_campaign=yelp_api_v3&utm_medium=api_v3_business_search&utm_source=gBcvfFpabk3CnzmXKdYe3w", "phone": "+13034540000", "coordinates": {"longitude": -104.9884401, "latitude": 39.7306585}, "categories": [{"alias": "modern_european", "title": "Modern European"}], "review_count": 246, "location": {"city": "Denver", "address1": "43 W 9th Ave", "address3": "", "address2": "", "zip_code": "80204", "country": "US", "display_address": ["43 W 9th Ave", "Denver, CO 80204"], "state": "CO"}, "price": "$$$", "transactions": [], "display_phone": "(303) 454-0000"}, {"rating": 4.0, "is_closed": false, "distance": 735.7041483099999, "name": "Pete's Kitchen", "id": "petes-kitchen-denver-2", "image_url": "https://s3-media4.fl.yelpcdn.com/bphoto/Jdiy6ixh5saGYURx1nXdlw/o.jpg", "url": "https://www.yelp.com/biz/petes-kitchen-denver-2?adjust_creative=gBcvfFpabk3CnzmXKdYe3w&utm_campaign=yelp_api_v3&utm_medium=api_v3_business_search&utm_source=gBcvfFpabk3CnzmXKdYe3w", "phone": "+13033213139", "coordinates": {"longitude": -104.96383, "latitude": 39.73981}, "categories": [{"alias": "greek", "title": "Greek"}, {"alias": "diners", "title": "Diners"}], "review_count": 505, "location": {"city": "Denver", "address1": "1962 E Colfax Ave", "address3": "", "address2": "", "zip_code": "80206", "country": "US", "display_address": ["1962 E Colfax Ave", "Denver, CO 80206"], "state": "CO"}, "price": "$", "transactions": [], "display_phone": "(303) 321-3139"}, {"rating": 4.0, "is_closed": false, "distance": 3134.6343106419995, "name": "7 Leguas Mexican Grille", "id": "7-leguas-mexican-grille-denver-3", "image_url": "https://s3-media4.fl.yelpcdn.com/bphoto/V0_ik-DMd6D6bosGP_kr4Q/o.jpg", "url": "https://www.yelp.com/biz/7-leguas-mexican-grille-denver-3?adjust_creative=gBcvfFpabk3CnzmXKdYe3w&utm_campaign=yelp_api_v3&utm_medium=api_v3_business_search&utm_source=gBcvfFpabk3CnzmXKdYe3w", "phone": "+13033224431", "coordinates": {"longitude": -104.93404, "latitude": 39.73992}, "categories": [{"alias": "mexican", "title": "Mexican"}], "review_count": 165, "location": {"city": "Denver", "address1": "4550 E Colfax Ave", "address3": "", "address2": "", "zip_code": "80220", "country": "US", "display_address": ["4550 E Colfax Ave", "Denver, CO 80220"], "state": "CO"}, "price": "$$", "transactions": [], "display_phone": "(303) 322-4431"}, {"rating": 4.0, "is_closed": false, "distance": 2800.143452352, "name": "Sushi Harbor", "id": "sushi-harbor-denver", "image_url": "https://s3-media4.fl.yelpcdn.com/bphoto/dUaMZ58R3blH3Ubp1A700w/o.jpg", "url": "https://www.yelp.com/biz/sushi-harbor-denver?adjust_creative=gBcvfFpabk3CnzmXKdYe3w&utm_campaign=yelp_api_v3&utm_medium=api_v3_business_search&utm_source=gBcvfFpabk3CnzmXKdYe3w", "phone": "+13033336888", "coordinates": {"longitude": -104.93861, "latitude": 39.72901}, "categories": [{"alias": "sushi", "title": "Sushi Bars"}], "review_count": 179, "location": {"city": "Denver", "address1": "4136 E 8th Ave", "address3": "", "address2": "", "zip_code": "80220", "country": "US", "display_address": ["4136 E 8th Ave", "Denver, CO 80220"], "state": "CO"}, "price": "$$", "transactions": ["delivery", "pickup"], "display_phone": "(303) 333-6888"}, {"rating": 4.0, "is_closed": false, "distance": 2971.177670192, "name": "Freshcraft", "id": "freshcraft-denver", "image_url": "https://s3-media4.fl.yelpcdn.com/bphoto/ZySbBr1awH85fEDisYLs9g/o.jpg", "url": "https://www.yelp.com/biz/freshcraft-denver?adjust_creative=gBcvfFpabk3CnzmXKdYe3w&utm_campaign=yelp_api_v3&utm_medium=api_v3_business_search&utm_source=gBcvfFpabk3CnzmXKdYe3w", "phone": "+13037589608", "coordinates": {"longitude": -104.999519348145, "latitude": 39.7499084472656}, "categories": [{"alias": "beerbar", "title": "Beer Bar"}, {"alias": "comfortfood", "title": "Comfort Food"}, {"alias": "wine_bars", "title": "Wine Bars"}], "review_count": 793, "location": {"city": "Denver", "address1": "1530 Blake St", "address3": "", "address2": "Ste A", "zip_code": "80202", "country": "US", "display_address": ["1530 Blake St", "Ste A", "Denver, CO 80202"], "state": "CO"}, "price": "$$", "transactions": [], "display_phone": "(303) 758-9608"}, {"rating": 4.5, "is_closed": false, "distance": 5990.5146789499995, "name": "Sunny's", "id": "sunnys-denver", "image_url": "https://s3-media3.fl.yelpcdn.com/bphoto/EXkVzNfBlad_rIkupZ0M7w/o.jpg", "url": "https://www.yelp.com/biz/sunnys-denver?adjust_creative=gBcvfFpabk3CnzmXKdYe3w&utm_campaign=yelp_api_v3&utm_medium=api_v3_business_search&utm_source=gBcvfFpabk3CnzmXKdYe3w", "phone": "+13034770005", "coordinates": {"longitude": -105.015444, "latitude": 39.7766937}, "categories": [{"alias": "breakfast_brunch", "title": "Breakfast & Brunch"}], "review_count": 191, "location": {"city": "Denver", "address1": "2339 W 44th Ave", "address3": "", "address2": "", "zip_code": "80211", "country": "US", "display_address": ["2339 W 44th Ave", "Denver, CO 80211"], "state": "CO"}, "price": "$$", "transactions": [], "display_phone": "(303) 477-0005"}, {"rating": 4.0, "is_closed": false, "distance": 2611.0025501719997, "name": "Karma Asian", "id": "karma-asian-denver", "image_url": "https://s3-media4.fl.yelpcdn.com/bphoto/0S8JYA4iDM6IzV9f2_f2WA/o.jpg", "url": "https://www.yelp.com/biz/karma-asian-denver?adjust_creative=gBcvfFpabk3CnzmXKdYe3w&utm_campaign=yelp_api_v3&utm_medium=api_v3_business_search&utm_source=gBcvfFpabk3CnzmXKdYe3w", "phone": "+13038710167", "coordinates": {"longitude": -104.9871299, "latitude": 39.7161}, "categories": [{"alias": "asianfusion", "title": "Asian Fusion"}, {"alias": "salad", "title": "Salad"}, {"alias": "tapasmallplates", "title": "Tapas/Small Plates"}], "review_count": 317, "location": {"city": "Denver", "address1": "22 S Broadway", "address3": "", "address2": "", "zip_code": "80209", "country": "US", "display_address": ["22 S Broadway", "Denver, CO 80209"], "state": "CO"}, "price": "$$", "transactions": ["delivery", "pickup"], "display_phone": "(303) 871-0167"}, {"rating": 4.0, "is_closed": false, "distance": 2520.299343102, "name": "Cherry Creek Grill", "id": "cherry-creek-grill-denver-4", "image_url": "https://s3-media2.fl.yelpcdn.com/bphoto/SE8vrAmoHNPUq4NbEGOQuA/o.jpg", "url": "https://www.yelp.com/biz/cherry-creek-grill-denver-4?adjust_creative=gBcvfFpabk3CnzmXKdYe3w&utm_campaign=yelp_api_v3&utm_medium=api_v3_business_search&utm_source=gBcvfFpabk3CnzmXKdYe3w", "phone": "+13033223524", "coordinates": {"longitude": -104.949774742126, "latitude": 39.7191193699837}, "categories": [{"alias": "newamerican", "title": "American (New)"}], "review_count": 389, "location": {"city": "Denver", "address1": "184 Steele St", "address3": "", "address2": "", "zip_code": "80206", "country": "US", "display_address": ["184 Steele St", "Denver, CO 80206"], "state": "CO"}, "price": "$$", "transactions": [], "display_phone": "(303) 322-3524"}, {"rating": 4.0, "is_closed": false, "distance": 2171.4143869179998, "name": "British Bulldog", "id": "british-bulldog-denver-2", "image_url": "https://s3-media1.fl.yelpcdn.com/bphoto/HOx36iK1UFhR2etXa4pGIA/o.jpg", "url": "https://www.yelp.com/biz/british-bulldog-denver-2?adjust_creative=gBcvfFpabk3CnzmXKdYe3w&utm_campaign=yelp_api_v3&utm_medium=api_v3_business_search&utm_source=gBcvfFpabk3CnzmXKdYe3w", "phone": "+13032957974", "coordinates": {"longitude": -104.987022399902, "latitude": 39.750129699707}, "categories": [{"alias": "british", "title": "British"}, {"alias": "pubs", "title": "Pubs"}], "review_count": 191, "location": {"city": "Denver", "address1": "2052 Stout St", "address3": "", "address2": "", "zip_code": "80205", "country": "US", "display_address": ["2052 Stout St", "Denver, CO 80205"], "state": "CO"}, "price": "$$", "transactions": [], "display_phone": "(303) 295-7974"}, {"rating": 4.0, "is_closed": false, "distance": 3751.00058713, "name": "Wash Perk", "id": "wash-perk-denver", "image_url": "https://s3-media3.fl.yelpcdn.com/bphoto/KI48x3H7ZlOeR9p7Qa5jmg/o.jpg", "url": "https://www.yelp.com/biz/wash-perk-denver?adjust_creative=gBcvfFpabk3CnzmXKdYe3w&utm_campaign=yelp_api_v3&utm_medium=api_v3_business_search&utm_source=gBcvfFpabk3CnzmXKdYe3w", "phone": "+17205429202", "coordinates": {"longitude": -104.9770999, "latitude": 39.7022199}, "categories": [{"alias": "coffee", "title": "Coffee & Tea"}, {"alias": "bakeries", "title": "Bakeries"}], "review_count": 206, "location": {"city": "Denver", "address1": "853 E Ohio Ave", "address3": "", "address2": "", "zip_code": "80209", "country": "US", "display_address": ["853 E Ohio Ave", "Denver, CO 80209"], "state": "CO"}, "price": "$", "transactions": [], "display_phone": "(720) 542-9202"}, {"rating": 4.0, "is_closed": false, "distance": 2343.2772539239995, "name": "Yazoo Barbeque Company", "id": "yazoo-barbeque-company-denver", "image_url": "https://s3-media4.fl.yelpcdn.com/bphoto/jys5YeDx1hJp6WkrflyGyQ/o.jpg", "url": "https://www.yelp.com/biz/yazoo-barbeque-company-denver?adjust_creative=gBcvfFpabk3CnzmXKdYe3w&utm_campaign=yelp_api_v3&utm_medium=api_v3_business_search&utm_source=gBcvfFpabk3CnzmXKdYe3w", "phone": "+13032963334", "coordinates": {"longitude": -104.98711, "latitude": 39.75213}, "categories": [{"alias": "bbq", "title": "Barbeque"}], "review_count": 298, "location": {"city": "Denver", "address1": "2150 Broadway", "address3": "", "address2": "", "zip_code": "80205", "country": "US", "display_address": ["2150 Broadway", "Denver, CO 80205"], "state": "CO"}, "price": "$", "transactions": ["pickup"], "display_phone": "(303) 296-3334"}, {"rating": 4.0, "is_closed": false, "distance": 2554.588102076, "name": "El Taco De Mexico", "id": "el-taco-de-mexico-denver", "image_url": "https://s3-media3.fl.yelpcdn.com/bphoto/XT1fjGCn5D6Qp6bcai8YWA/o.jpg", "url": "https://www.yelp.com/biz/el-taco-de-mexico-denver?adjust_creative=gBcvfFpabk3CnzmXKdYe3w&utm_campaign=yelp_api_v3&utm_medium=api_v3_business_search&utm_source=gBcvfFpabk3CnzmXKdYe3w", "phone": "+13036233926", "coordinates": {"longitude": -104.998299728836, "latitude": 39.7276260745483}, "categories": [{"alias": "mexican", "title": "Mexican"}], "review_count": 371, "location": {"city": "Denver", "address1": "714 Santa Fe Dr", "address3": "", "address2": "", "zip_code": "80204", "country": "US", "display_address": ["714 Santa Fe Dr", "Denver, CO 80204"], "state": "CO"}, "price": "$", "transactions": [], "display_phone": "(303) 623-3926"}, {"rating": 4.0, "is_closed": false, "distance": 2164.995695262, "name": "Steve's Snappin' Dogs", "id": "steves-snappin-dogs-denver", "image_url": "https://s3-media4.fl.yelpcdn.com/bphoto/SPFyHsWTrfkXXTpRWTRRtw/o.jpg", "url": "https://www.yelp.com/biz/steves-snappin-dogs-denver?adjust_creative=gBcvfFpabk3CnzmXKdYe3w&utm_campaign=yelp_api_v3&utm_medium=api_v3_business_search&utm_source=gBcvfFpabk3CnzmXKdYe3w", "phone": "+13033337627", "coordinates": {"longitude": -104.94566, "latitude": 39.74038}, "categories": [{"alias": "hotdog", "title": "Hot Dogs"}], "review_count": 289, "location": {"city": "Denver", "address1": "3525 E Colfax Ave", "address3": "", "address2": "", "zip_code": "80206", "country": "US", "display_address": ["3525 E Colfax Ave", "Denver, CO 80206"], "state": "CO"}, "price": "$", "transactions": [], "display_phone": "(303) 333-7627"}, {"rating": 4.0, "is_closed": false, "distance": 1468.4248538477998, "name": "Pete's Gyros Place", "id": "petes-gyros-place-denver-2", "image_url": "https://s3-media3.fl.yelpcdn.com/bphoto/LZUxA5zxH2IEZyxVxyuF_A/o.jpg", "url": "https://www.yelp.com/biz/petes-gyros-place-denver-2?adjust_creative=gBcvfFpabk3CnzmXKdYe3w&utm_campaign=yelp_api_v3&utm_medium=api_v3_business_search&utm_source=gBcvfFpabk3CnzmXKdYe3w", "phone": "+13033219658", "coordinates": {"longitude": -104.9541985, "latitude": 39.7403049}, "categories": [{"alias": "greek", "title": "Greek"}, {"alias": "mediterranean", "title": "Mediterranean"}], "review_count": 145, "location": {"city": "Denver", "address1": "2819 E Colfax Ave", "address3": "", "address2": null, "zip_code": "80206", "country": "US", "display_address": ["2819 E Colfax Ave", "Denver, CO 80206"], "state": "CO"}, "price": "$$", "transactions": [], "display_phone": "(303) 321-9658"}, {"rating": 4.0, "is_closed": false, "distance": 2533.513472908, "name": "20th Street Caf\u00e9", "id": "20th-street-caf\u00e9-denver-2", "image_url": "https://s3-media4.fl.yelpcdn.com/bphoto/dRLbjdZm7hA7qGsOzDynjQ/o.jpg", "url": "https://www.yelp.com/biz/20th-street-caf%C3%A9-denver-2?adjust_creative=gBcvfFpabk3CnzmXKdYe3w&utm_campaign=yelp_api_v3&utm_medium=api_v3_business_search&utm_source=gBcvfFpabk3CnzmXKdYe3w", "phone": "+13032959041", "coordinates": {"longitude": -104.991087466478, "latitude": 39.7518195211887}, "categories": [{"alias": "diners", "title": "Diners"}], "review_count": 132, "location": {"city": "Denver", "address1": "1123 20th St", "address3": "", "address2": "", "zip_code": "80202", "country": "US", "display_address": ["1123 20th St", "Denver, CO 80202"], "state": "CO"}, "price": "$", "transactions": [], "display_phone": "(303) 295-9041"}, {"rating": 4.0, "is_closed": false, "distance": 5173.630914888, "name": "Spuntino", "id": "spuntino-denver", "image_url": "https://s3-media1.fl.yelpcdn.com/bphoto/ldSTZh9bAAfd1JP14rg5jw/o.jpg", "url": "https://www.yelp.com/biz/spuntino-denver?adjust_creative=gBcvfFpabk3CnzmXKdYe3w&utm_campaign=yelp_api_v3&utm_medium=api_v3_business_search&utm_source=gBcvfFpabk3CnzmXKdYe3w", "phone": "+13034330949", "coordinates": {"longitude": -105.0199509, "latitude": 39.7621117}, "categories": [{"alias": "italian", "title": "Italian"}], "review_count": 233, "location": {"city": "Denver", "address1": "2639 W 32nd Ave", "address3": "", "address2": "", "zip_code": "80211", "country": "US", "display_address": ["2639 W 32nd Ave", "Denver, CO 80211"], "state": "CO"}, "price": "$$", "transactions": [], "display_phone": "(303) 433-0949"}, {"rating": 4.0, "is_closed": false, "distance": 2229.7534447199996, "name": "City Park", "id": "city-park-denver", "image_url": "https://s3-media4.fl.yelpcdn.com/bphoto/buMav7oKyfkT2aChZgaWpA/o.jpg", "url": "https://www.yelp.com/biz/city-park-denver?adjust_creative=gBcvfFpabk3CnzmXKdYe3w&utm_campaign=yelp_api_v3&utm_medium=api_v3_business_search&utm_source=gBcvfFpabk3CnzmXKdYe3w", "phone": "+17209131311", "coordinates": {"longitude": -104.947875230992, "latitude": 39.7458297074171}, "categories": [{"alias": "parks", "title": "Parks"}, {"alias": "boating", "title": "Boating"}], "review_count": 119, "location": {"city": "Denver", "address1": "17TH Ave Colorado Blvd", "address3": "", "address2": "", "zip_code": "80238", "country": "US", "display_address": ["17TH Ave Colorado Blvd", "Denver, CO 80238"], "state": "CO"}, "transactions": [], "display_phone": "(720) 913-1311"}, {"rating": 4.0, "is_closed": false, "distance": 4313.749126574, "name": "Osaka Sushi", "id": "osaka-sushi-denver", "image_url": "https://s3-media1.fl.yelpcdn.com/bphoto/ZlqOQvZ3yJ5QpzFYnKDOLA/o.jpg", "url": "https://www.yelp.com/biz/osaka-sushi-denver?adjust_creative=gBcvfFpabk3CnzmXKdYe3w&utm_campaign=yelp_api_v3&utm_medium=api_v3_business_search&utm_source=gBcvfFpabk3CnzmXKdYe3w", "phone": "+13036989919", "coordinates": {"longitude": -104.94149270528, "latitude": 39.703652956802}, "categories": [{"alias": "japanese", "title": "Japanese"}, {"alias": "sushi", "title": "Sushi Bars"}], "review_count": 249, "location": {"city": "Denver", "address1": "3940 E Exposition Ave", "address3": "", "address2": "", "zip_code": "80209", "country": "US", "display_address": ["3940 E Exposition Ave", "Denver, CO 80209"], "state": "CO"}, "price": "$$", "transactions": [], "display_phone": "(303) 698-9919"}, {"rating": 4.0, "is_closed": false, "distance": 2411.155674576, "name": "Snarf's", "id": "snarfs-denver-9", "image_url": "https://s3-media1.fl.yelpcdn.com/bphoto/yNu1EkJOLO6Aato-CZalzA/o.jpg", "url": "https://www.yelp.com/biz/snarfs-denver-9?adjust_creative=gBcvfFpabk3CnzmXKdYe3w&utm_campaign=yelp_api_v3&utm_medium=api_v3_business_search&utm_source=gBcvfFpabk3CnzmXKdYe3w", "phone": "+13035733939", "coordinates": {"longitude": -104.995543, "latitude": 39.745103}, "categories": [{"alias": "sandwiches", "title": "Sandwiches"}, {"alias": "salad", "title": "Salad"}], "review_count": 133, "location": {"city": "Denver", "address1": "891 14th St", "address3": "", "address2": "Ste 160", "zip_code": "80202", "country": "US", "display_address": ["891 14th St", "Ste 160", "Denver, CO 80202"], "state": "CO"}, "price": "$", "transactions": ["pickup", "delivery"], "display_phone": "(303) 573-3939"}, {"rating": 4.0, "is_closed": false, "distance": 2981.757471352, "name": "Park Burger - Rino", "id": "park-burger-rino-denver", "image_url": "https://s3-media1.fl.yelpcdn.com/bphoto/jO7FYO4HtAtoa41wliJ6QQ/o.jpg", "url": "https://www.yelp.com/biz/park-burger-rino-denver?adjust_creative=gBcvfFpabk3CnzmXKdYe3w&utm_campaign=yelp_api_v3&utm_medium=api_v3_business_search&utm_source=gBcvfFpabk3CnzmXKdYe3w", "phone": "+17203810126", "coordinates": {"longitude": -104.985993951559, "latitude": 39.759434312582}, "categories": [{"alias": "burgers", "title": "Burgers"}], "review_count": 165, "location": {"city": "Denver", "address1": "2615 Walnut St", "address3": "", "address2": "", "zip_code": "80205", "country": "US", "display_address": ["2615 Walnut St", "Denver, CO 80205"], "state": "CO"}, "price": "$$", "transactions": [], "display_phone": "(720) 381-0126"}, {"rating": 5.0, "is_closed": false, "distance": 5131.879324465999, "name": "Session Coffee", "id": "session-coffee-denver", "image_url": "https://s3-media3.fl.yelpcdn.com/bphoto/3jBQDvECna6DiJIKeGiF6g/o.jpg", "url": "https://www.yelp.com/biz/session-coffee-denver?adjust_creative=gBcvfFpabk3CnzmXKdYe3w&utm_campaign=yelp_api_v3&utm_medium=api_v3_business_search&utm_source=gBcvfFpabk3CnzmXKdYe3w", "phone": "+17203085210", "coordinates": {"longitude": -104.99196, "latitude": 39.69261}, "categories": [{"alias": "coffee", "title": "Coffee & Tea"}, {"alias": "bakeries", "title": "Bakeries"}, {"alias": "breakfast_brunch", "title": "Breakfast & Brunch"}], "review_count": 26, "location": {"city": "Denver", "address1": "1340 S Santa Fe Dr", "address3": null, "address2": "", "zip_code": "80223", "country": "US", "display_address": ["1340 S Santa Fe Dr", "Denver, CO 80223"], "state": "CO"}, "price": "$", "transactions": [], "display_phone": "(720) 308-5210"}, {"rating": 4.0, "is_closed": false, "distance": 1891.3742600560001, "name": "The Atomic Cowboy", "id": "the-atomic-cowboy-denver-4", "image_url": "https://s3-media3.fl.yelpcdn.com/bphoto/WHacQZ4CWTBI41kgKRh9CQ/o.jpg", "url": "https://www.yelp.com/biz/the-atomic-cowboy-denver-4?adjust_creative=gBcvfFpabk3CnzmXKdYe3w&utm_campaign=yelp_api_v3&utm_medium=api_v3_business_search&utm_source=gBcvfFpabk3CnzmXKdYe3w", "phone": "+13033777900", "coordinates": {"longitude": -104.949045, "latitude": 39.740373}, "categories": [{"alias": "pizza", "title": "Pizza"}, {"alias": "beer_and_wine", "title": "Beer, Wine & Spirits"}], "review_count": 287, "location": {"city": "Denver", "address1": "3237 E Colfax Ave", "address3": "", "address2": "", "zip_code": "80206", "country": "US", "display_address": ["3237 E Colfax Ave", "Denver, CO 80206"], "state": "CO"}, "price": "$", "transactions": [], "display_phone": "(303) 377-7900"}, {"rating": 4.0, "is_closed": false, "distance": 1508.3410885601998, "name": "Tony's Market", "id": "tonys-market-denver", "image_url": "https://s3-media4.fl.yelpcdn.com/bphoto/Qgam4x2qNkS41yBV3lwtJg/o.jpg", "url": "https://www.yelp.com/biz/tonys-market-denver?adjust_creative=gBcvfFpabk3CnzmXKdYe3w&utm_campaign=yelp_api_v3&utm_medium=api_v3_business_search&utm_source=gBcvfFpabk3CnzmXKdYe3w", "phone": "+17208804500", "coordinates": {"longitude": -104.98701, "latitude": 39.73135}, "categories": [{"alias": "meats", "title": "Meat Shops"}, {"alias": "delis", "title": "Delis"}, {"alias": "grocery", "title": "Grocery"}], "review_count": 163, "location": {"city": "Denver", "address1": "950 Broadway", "address3": "", "address2": "", "zip_code": "80203", "country": "US", "display_address": ["950 Broadway", "Denver, CO 80203"], "state": "CO"}, "price": "$$", "transactions": [], "display_phone": "(720) 880-4500"}, {"rating": 4.5, "is_closed": false, "distance": 7012.85113263, "name": "Maddie's Restaurant", "id": "maddies-restaurant-denver", "image_url": "https://s3-media1.fl.yelpcdn.com/bphoto/U-KRBSvpjWwHQvRDMfYvHg/o.jpg", "url": "https://www.yelp.com/biz/maddies-restaurant-denver?adjust_creative=gBcvfFpabk3CnzmXKdYe3w&utm_campaign=yelp_api_v3&utm_medium=api_v3_business_search&utm_source=gBcvfFpabk3CnzmXKdYe3w", "phone": "+17203898068", "coordinates": {"longitude": -104.9734877, "latitude": 39.6725035}, "categories": [{"alias": "tradamerican", "title": "American (Traditional)"}, {"alias": "breakfast_brunch", "title": "Breakfast & Brunch"}], "review_count": 202, "location": {"city": "Denver", "address1": "2425 S Downing St", "address3": "", "address2": "", "zip_code": "80210", "country": "US", "display_address": ["2425 S Downing St", "Denver, CO 80210"], "state": "CO"}, "price": "$$", "transactions": [], "display_phone": "(720) 389-8068"}, {"rating": 4.5, "is_closed": false, "distance": 5159.19320388, "name": "Rosales Mexican Bakery", "id": "rosales-mexican-bakery-denver", "image_url": "https://s3-media2.fl.yelpcdn.com/bphoto/u0EpKLnewAtEwr0Hg_2Tsg/o.jpg", "url": "https://www.yelp.com/biz/rosales-mexican-bakery-denver?adjust_creative=gBcvfFpabk3CnzmXKdYe3w&utm_campaign=yelp_api_v3&utm_medium=api_v3_business_search&utm_source=gBcvfFpabk3CnzmXKdYe3w", "phone": "+13034588420", "coordinates": {"longitude": -105.01974, "latitude": 39.7619}, "categories": [{"alias": "bakeries", "title": "Bakeries"}, {"alias": "mexican", "title": "Mexican"}], "review_count": 66, "location": {"city": "Denver", "address1": "2636 W 32nd Ave", "address3": "", "address2": "", "zip_code": "80211", "country": "US", "display_address": ["2636 W 32nd Ave", "Denver, CO 80211"], "state": "CO"}, "price": "$", "transactions": [], "display_phone": "(303) 458-8420"}, {"rating": 4.0, "is_closed": false, "distance": 2683.8160119339996, "name": "The Nickel", "id": "the-nickel-denver", "image_url": "https://s3-media2.fl.yelpcdn.com/bphoto/OfXoMV56FWnEN46aYc0ICg/o.jpg", "url": "https://www.yelp.com/biz/the-nickel-denver?adjust_creative=gBcvfFpabk3CnzmXKdYe3w&utm_campaign=yelp_api_v3&utm_medium=api_v3_business_search&utm_source=gBcvfFpabk3CnzmXKdYe3w", "phone": "+17208892128", "coordinates": {"longitude": -104.9985075, "latitude": 39.7460294}, "categories": [{"alias": "tradamerican", "title": "American (Traditional)"}], "review_count": 142, "location": {"city": "Denver", "address1": "1100 14th St", "address3": "", "address2": "", "zip_code": "80202", "country": "US", "display_address": ["1100 14th St", "Denver, CO 80202"], "state": "CO"}, "price": "$$", "transactions": [], "display_phone": "(720) 889-2128"}, {"rating": 4.0, "is_closed": false, "distance": 1420.403162132, "name": "Melita's Greek Caf\u00e9 & Market", "id": "melitas-greek-caf\u00e9-and-market-denver-3", "image_url": "https://s3-media4.fl.yelpcdn.com/bphoto/wAWo-bHKvjebxIpre00sVA/o.jpg", "url": "https://www.yelp.com/biz/melitas-greek-caf%C3%A9-and-market-denver-3?adjust_creative=gBcvfFpabk3CnzmXKdYe3w&utm_campaign=yelp_api_v3&utm_medium=api_v3_business_search&utm_source=gBcvfFpabk3CnzmXKdYe3w", "phone": "+13036291624", "coordinates": {"longitude": -104.98649, "latitude": 39.73275}, "categories": [{"alias": "greek", "title": "Greek"}, {"alias": "grocery", "title": "Grocery"}], "review_count": 231, "location": {"city": "Denver", "address1": "1035 Lincoln St", "address3": "", "address2": "", "zip_code": "80203", "country": "US", "display_address": ["1035 Lincoln St", "Denver, CO 80203"], "state": "CO"}, "price": "$", "transactions": ["delivery", "pickup"], "display_phone": "(303) 629-1624"}, {"rating": 4.5, "is_closed": false, "distance": 2984.777397862, "name": "Latigo Modern Mexican", "id": "latigo-modern-mexican-denver", "image_url": "https://s3-media4.fl.yelpcdn.com/bphoto/HYgiyTAA70cS_LEm3hEH6g/o.jpg", "url": "https://www.yelp.com/biz/latigo-modern-mexican-denver?adjust_creative=gBcvfFpabk3CnzmXKdYe3w&utm_campaign=yelp_api_v3&utm_medium=api_v3_business_search&utm_source=gBcvfFpabk3CnzmXKdYe3w", "phone": "+13035377682", "coordinates": {"longitude": -104.991668701172, "latitude": 39.7567176818848}, "categories": [{"alias": "mexican", "title": "Mexican"}, {"alias": "bars", "title": "Bars"}], "review_count": 48, "location": {"city": "Denver", "address1": "2229 Blake St", "address3": null, "address2": "", "zip_code": "80205", "country": "US", "display_address": ["2229 Blake St", "Denver, CO 80205"], "state": "CO"}, "price": "$$", "transactions": [], "display_phone": "(303) 537-7682"}, {"rating": 4.5, "is_closed": false, "distance": 2809.460726282, "name": "Port Side", "id": "port-side-denver-2", "image_url": "https://s3-media2.fl.yelpcdn.com/bphoto/46qVorL7DW-eYByM1FEEJg/o.jpg", "url": "https://www.yelp.com/biz/port-side-denver-2?adjust_creative=gBcvfFpabk3CnzmXKdYe3w&utm_campaign=yelp_api_v3&utm_medium=api_v3_business_search&utm_source=gBcvfFpabk3CnzmXKdYe3w", "phone": "+17205490622", "coordinates": {"longitude": -104.986045837402, "latitude": 39.7576141357422}, "categories": [{"alias": "breakfast_brunch", "title": "Breakfast & Brunch"}, {"alias": "coffee", "title": "Coffee & Tea"}], "review_count": 23, "location": {"city": "Denver", "address1": "2500 Larimer St", "address3": null, "address2": "Ste 103", "zip_code": "80205", "country": "US", "display_address": ["2500 Larimer St", "Ste 103", "Denver, CO 80205"], "state": "CO"}, "price": "$", "transactions": [], "display_phone": "(720) 549-0622"}, {"rating": 4.0, "is_closed": false, "distance": 1303.5541346199998, "name": "Colorado State Government: Capitol Building", "id": "colorado-state-government-capitol-building-denver", "image_url": "https://s3-media2.fl.yelpcdn.com/bphoto/aSDNq_FmFuY1G_MNf79JCA/o.jpg", "url": "https://www.yelp.com/biz/colorado-state-government-capitol-building-denver?adjust_creative=gBcvfFpabk3CnzmXKdYe3w&utm_campaign=yelp_api_v3&utm_medium=api_v3_business_search&utm_source=gBcvfFpabk3CnzmXKdYe3w", "phone": "+13038662604", "coordinates": {"longitude": -104.98457, "latitude": 39.73988}, "categories": [{"alias": "museums", "title": "Museums"}, {"alias": "landmarks", "title": "Landmarks & Historical Buildings"}], "review_count": 64, "location": {"city": "Denver", "address1": "200 E Colfax Ave", "address3": "", "address2": "Ste 136", "zip_code": "80203", "country": "US", "display_address": ["200 E Colfax Ave", "Ste 136", "Denver, CO 80203"], "state": "CO"}, "transactions": [], "display_phone": "(303) 866-2604"}, {"rating": 4.0, "is_closed": false, "distance": 3646.146775308, "name": "Zengo", "id": "zengo-denver", "image_url": "https://s3-media1.fl.yelpcdn.com/bphoto/xxrYF77QOEIbpA4BznP9gQ/o.jpg", "url": "https://www.yelp.com/biz/zengo-denver?adjust_creative=gBcvfFpabk3CnzmXKdYe3w&utm_campaign=yelp_api_v3&utm_medium=api_v3_business_search&utm_source=gBcvfFpabk3CnzmXKdYe3w", "phone": "+17209040965", "coordinates": {"longitude": -105.004502209103, "latitude": 39.7550557410351}, "categories": [{"alias": "latin", "title": "Latin American"}, {"alias": "panasian", "title": "Pan Asian"}], "review_count": 685, "location": {"city": "Denver", "address1": "1610 Little Raven St", "address3": "", "address2": null, "zip_code": "80202", "country": "US", "display_address": ["1610 Little Raven St", "Denver, CO 80202"], "state": "CO"}, "price": "$$$", "transactions": [], "display_phone": "(720) 904-0965"}, {"rating": 4.0, "is_closed": false, "distance": 2898.5993330039996, "name": "The Refinery", "id": "the-refinery-denver", "image_url": "https://s3-media4.fl.yelpcdn.com/bphoto/DTzR2jqht2LGUaGzB_7zZw/o.jpg", "url": "https://www.yelp.com/biz/the-refinery-denver?adjust_creative=gBcvfFpabk3CnzmXKdYe3w&utm_campaign=yelp_api_v3&utm_medium=api_v3_business_search&utm_source=gBcvfFpabk3CnzmXKdYe3w", "phone": "+17204604766", "coordinates": {"longitude": -104.994691107967, "latitude": 39.7535875466468}, "categories": [{"alias": "lounges", "title": "Lounges"}, {"alias": "breakfast_brunch", "title": "Breakfast & Brunch"}, {"alias": "sandwiches", "title": "Sandwiches"}], "review_count": 36, "location": {"city": "Denver", "address1": "1932 Blake St", "address3": "", "address2": "", "zip_code": "80202", "country": "US", "display_address": ["1932 Blake St", "Denver, CO 80202"], "state": "CO"}, "price": "$", "transactions": [], "display_phone": "(720) 460-4766"}, {"rating": 4.0, "is_closed": false, "distance": 5697.487178288, "name": "Buchi Cafe Cubano", "id": "buchi-cafe-cubano-denver", "image_url": "https://s3-media2.fl.yelpcdn.com/bphoto/R-Zq8l1WxWEVjKZsOQR_lg/o.jpg", "url": "https://www.yelp.com/biz/buchi-cafe-cubano-denver?adjust_creative=gBcvfFpabk3CnzmXKdYe3w&utm_campaign=yelp_api_v3&utm_medium=api_v3_business_search&utm_source=gBcvfFpabk3CnzmXKdYe3w", "phone": "+13034581328", "coordinates": {"longitude": -105.02031, "latitude": 39.76944}, "categories": [{"alias": "cuban", "title": "Cuban"}, {"alias": "coffee", "title": "Coffee & Tea"}, {"alias": "sandwiches", "title": "Sandwiches"}], "review_count": 329, "location": {"city": "Denver", "address1": "2651 W 38th Ave", "address3": null, "address2": "", "zip_code": "80211", "country": "US", "display_address": ["2651 W 38th Ave", "Denver, CO 80211"], "state": "CO"}, "price": "$", "transactions": [], "display_phone": "(303) 458-1328"}, {"rating": 4.0, "is_closed": false, "distance": 2409.0049526, "name": "Cheba Hut", "id": "cheba-hut-denver", "image_url": "https://s3-media4.fl.yelpcdn.com/bphoto/qeQVL3FXM8oOpMrNDB8xMQ/o.jpg", "url": "https://www.yelp.com/biz/cheba-hut-denver?adjust_creative=gBcvfFpabk3CnzmXKdYe3w&utm_campaign=yelp_api_v3&utm_medium=api_v3_business_search&utm_source=gBcvfFpabk3CnzmXKdYe3w", "phone": "+17209741880", "coordinates": {"longitude": -104.9948299, "latitude": 39.74623}, "categories": [{"alias": "sandwiches", "title": "Sandwiches"}], "review_count": 266, "location": {"city": "Denver", "address1": "1531 Champa St", "address3": "", "address2": "", "zip_code": "80202", "country": "US", "display_address": ["1531 Champa St", "Denver, CO 80202"], "state": "CO"}, "price": "$", "transactions": ["delivery"], "display_phone": "(720) 974-1880"}, {"rating": 4.0, "is_closed": false, "distance": 3783.2927989, "name": "The Source", "id": "the-source-denver", "image_url": "https://s3-media2.fl.yelpcdn.com/bphoto/tfx_FFC-Q0tFh6tyAxTSVQ/o.jpg", "url": "https://www.yelp.com/biz/the-source-denver?adjust_creative=gBcvfFpabk3CnzmXKdYe3w&utm_campaign=yelp_api_v3&utm_medium=api_v3_business_search&utm_source=gBcvfFpabk3CnzmXKdYe3w", "phone": "+17204431135", "coordinates": {"longitude": -104.979729987681, "latitude": 39.7687559646851}, "categories": [{"alias": "food_court", "title": "Food Court"}], "review_count": 201, "location": {"city": "Denver", "address1": "3350 Brighton Blvd", "address3": "", "address2": "", "zip_code": "80216", "country": "US", "display_address": ["3350 Brighton Blvd", "Denver, CO 80216"], "state": "CO"}, "price": "$$", "transactions": [], "display_phone": "(720) 443-1135"}, {"rating": 4.0, "is_closed": false, "distance": 3003.299291922, "name": "Illegal Pete's", "id": "illegal-petes-denver-3", "image_url": "https://s3-media4.fl.yelpcdn.com/bphoto/ldkEdlUauqmDktBVZrgzAw/o.jpg", "url": "https://www.yelp.com/biz/illegal-petes-denver-3?adjust_creative=gBcvfFpabk3CnzmXKdYe3w&utm_campaign=yelp_api_v3&utm_medium=api_v3_business_search&utm_source=gBcvfFpabk3CnzmXKdYe3w", "phone": "+17202875233", "coordinates": {"longitude": -104.987442, "latitude": 39.7118378}, "categories": [{"alias": "bars", "title": "Bars"}, {"alias": "mexican", "title": "Mexican"}], "review_count": 204, "location": {"city": "Denver", "address1": "270 S Broadway", "address3": "", "address2": null, "zip_code": "80209", "country": "US", "display_address": ["270 S Broadway", "Denver, CO 80209"], "state": "CO"}, "price": "$", "transactions": [], "display_phone": "(720) 287-5233"}, {"rating": 4.0, "is_closed": false, "distance": 2074.181121864, "name": "Enzo's End Pizzeria", "id": "enzos-end-pizzeria-denver", "image_url": "https://s3-media3.fl.yelpcdn.com/bphoto/N6dKqjtulQO4pfVuhTAQ0Q/o.jpg", "url": "https://www.yelp.com/biz/enzos-end-pizzeria-denver?adjust_creative=gBcvfFpabk3CnzmXKdYe3w&utm_campaign=yelp_api_v3&utm_medium=api_v3_business_search&utm_source=gBcvfFpabk3CnzmXKdYe3w", "phone": "+13033554700", "coordinates": {"longitude": -104.94668, "latitude": 39.73996}, "categories": [{"alias": "pizza", "title": "Pizza"}], "review_count": 161, "location": {"city": "Denver", "address1": "3424 E Colfax Ave", "address3": "", "address2": "", "zip_code": "80206", "country": "US", "display_address": ["3424 E Colfax Ave", "Denver, CO 80206"], "state": "CO"}, "price": "$$", "transactions": [], "display_phone": "(303) 355-4700"}, {"rating": 4.0, "is_closed": false, "distance": 4916.9942931079995, "name": "Adelitas Cocina y Cantina", "id": "adelitas-cocina-y-cantina-denver", "image_url": "https://s3-media3.fl.yelpcdn.com/bphoto/K0Ec8xkPoi-YzejCuSNgHQ/o.jpg", "url": "https://www.yelp.com/biz/adelitas-cocina-y-cantina-denver?adjust_creative=gBcvfFpabk3CnzmXKdYe3w&utm_campaign=yelp_api_v3&utm_medium=api_v3_business_search&utm_source=gBcvfFpabk3CnzmXKdYe3w", "phone": "+13037781294", "coordinates": {"longitude": -104.98741, "latitude": 39.69332}, "categories": [{"alias": "mexican", "title": "Mexican"}, {"alias": "desserts", "title": "Desserts"}, {"alias": "salad", "title": "Salad"}], "review_count": 395, "location": {"city": "Denver", "address1": "1294 S Broadway", "address3": "", "address2": "", "zip_code": "80210", "country": "US", "display_address": ["1294 S Broadway", "Denver, CO 80210"], "state": "CO"}, "price": "$$", "transactions": [], "display_phone": "(303) 778-1294"}, {"rating": 4.0, "is_closed": false, "distance": 4684.176707997999, "name": "Old Major", "id": "old-major-denver", "image_url": "https://s3-media3.fl.yelpcdn.com/bphoto/fpa17z4W_JYmmyTzjihjUA/o.jpg", "url": "https://www.yelp.com/biz/old-major-denver?adjust_creative=gBcvfFpabk3CnzmXKdYe3w&utm_campaign=yelp_api_v3&utm_medium=api_v3_business_search&utm_source=gBcvfFpabk3CnzmXKdYe3w", "phone": "+17204200622", "coordinates": {"longitude": -105.0110912, "latitude": 39.7635999}, "categories": [{"alias": "newamerican", "title": "American (New)"}, {"alias": "wine_bars", "title": "Wine Bars"}], "review_count": 469, "location": {"city": "Denver", "address1": "3316 Tejon St", "address3": "", "address2": "", "zip_code": "80211", "country": "US", "display_address": ["3316 Tejon St", "Denver, CO 80211"], "state": "CO"}, "price": "$$$", "transactions": [], "display_phone": "(720) 420-0622"}, {"rating": 4.0, "is_closed": false, "distance": 2228.101940012, "name": "Rosenberg's Bagels & Delicatessen", "id": "rosenbergs-bagels-and-delicatessen-denver-4", "image_url": "https://s3-media3.fl.yelpcdn.com/bphoto/sOazidZ9jFh_EQBr-7xK5g/o.jpg", "url": "https://www.yelp.com/biz/rosenbergs-bagels-and-delicatessen-denver-4?adjust_creative=gBcvfFpabk3CnzmXKdYe3w&utm_campaign=yelp_api_v3&utm_medium=api_v3_business_search&utm_source=gBcvfFpabk3CnzmXKdYe3w", "phone": "+17204409880", "coordinates": {"longitude": -104.977483658444, "latitude": 39.7547724338986}, "categories": [{"alias": "delis", "title": "Delis"}, {"alias": "bagels", "title": "Bagels"}], "review_count": 395, "location": {"city": "Denver", "address1": "725 E 26th Ave", "address3": "", "address2": "", "zip_code": "80205", "country": "US", "display_address": ["725 E 26th Ave", "Denver, CO 80205"], "state": "CO"}, "price": "$$", "transactions": [], "display_phone": "(720) 440-9880"}, {"rating": 4.5, "is_closed": false, "distance": 5101.428036722, "name": "Dive Inn", "id": "dive-inn-denver", "image_url": "https://s3-media3.fl.yelpcdn.com/bphoto/elxGva6XeiuygCjlrkr4rw/o.jpg", "url": "https://www.yelp.com/biz/dive-inn-denver?adjust_creative=gBcvfFpabk3CnzmXKdYe3w&utm_campaign=yelp_api_v3&utm_medium=api_v3_business_search&utm_source=gBcvfFpabk3CnzmXKdYe3w", "phone": "+17202426157", "coordinates": {"longitude": -104.987091064453, "latitude": 39.6915130615234}, "categories": [{"alias": "divebars", "title": "Dive Bars"}, {"alias": "mexican", "title": "Mexican"}], "review_count": 99, "location": {"city": "Denver", "address1": "1380 S Broadway", "address3": "", "address2": null, "zip_code": "80210", "country": "US", "display_address": ["1380 S Broadway", "Denver, CO 80210"], "state": "CO"}, "price": "$", "transactions": [], "display_phone": "(720) 242-6157"}, {"rating": 4.0, "is_closed": false, "distance": 3463.466085756, "name": "Whiskey Tango Foxtrot", "id": "whiskey-tango-foxtrot-denver-2", "image_url": "https://s3-media2.fl.yelpcdn.com/bphoto/_Q4th-lJJivGgpkTKADs0w/o.jpg", "url": "https://www.yelp.com/biz/whiskey-tango-foxtrot-denver-2?adjust_creative=gBcvfFpabk3CnzmXKdYe3w&utm_campaign=yelp_api_v3&utm_medium=api_v3_business_search&utm_source=gBcvfFpabk3CnzmXKdYe3w", "phone": "+13032261540", "coordinates": {"longitude": -104.997459411621, "latitude": 39.7586784362793}, "categories": [{"alias": "cocktailbars", "title": "Cocktail Bars"}, {"alias": "tradamerican", "title": "American (Traditional)"}, {"alias": "whiskeybars", "title": "Whiskey Bars"}], "review_count": 233, "location": {"city": "Denver", "address1": "2907 Huron St", "address3": "", "address2": "", "zip_code": "80202", "country": "US", "display_address": ["2907 Huron St", "Denver, CO 80202"], "state": "CO"}, "price": "$$", "transactions": [], "display_phone": "(303) 226-1540"}, {"rating": 4.5, "is_closed": false, "distance": 7940.5925123179995, "name": "The Noshery", "id": "the-noshery-denver-3", "image_url": "https://s3-media1.fl.yelpcdn.com/bphoto/mVQCXRROxQGmYaDy2fnfsw/o.jpg", "url": "https://www.yelp.com/biz/the-noshery-denver-3?adjust_creative=gBcvfFpabk3CnzmXKdYe3w&utm_campaign=yelp_api_v3&utm_medium=api_v3_business_search&utm_source=gBcvfFpabk3CnzmXKdYe3w", "phone": "+17205243893", "coordinates": {"longitude": -105.034302, "latitude": 39.7872427}, "categories": [{"alias": "breakfast_brunch", "title": "Breakfast & Brunch"}, {"alias": "bakeries", "title": "Bakeries"}, {"alias": "sandwiches", "title": "Sandwiches"}], "review_count": 147, "location": {"city": "Denver", "address1": "4994 Lowell Blvd", "address3": "", "address2": "", "zip_code": "80221", "country": "US", "display_address": ["4994 Lowell Blvd", "Denver, CO 80221"], "state": "CO"}, "price": "$", "transactions": [], "display_phone": "(720) 524-3893"}, {"rating": 4.0, "is_closed": false, "distance": 4237.48797573, "name": "Devil's Food Bakery & Cookery", "id": "devils-food-bakery-and-cookery-denver", "image_url": "https://s3-media1.fl.yelpcdn.com/bphoto/nE_z8iN_qcLbYddJHTzb2w/o.jpg", "url": "https://www.yelp.com/biz/devils-food-bakery-and-cookery-denver?adjust_creative=gBcvfFpabk3CnzmXKdYe3w&utm_campaign=yelp_api_v3&utm_medium=api_v3_business_search&utm_source=gBcvfFpabk3CnzmXKdYe3w", "phone": "+13037337448", "coordinates": {"longitude": -104.961609, "latitude": 39.697997}, "categories": [{"alias": "coffee", "title": "Coffee & Tea"}, {"alias": "breakfast_brunch", "title": "Breakfast & Brunch"}], "review_count": 556, "location": {"city": "Denver", "address1": "1020 S Gaylord St", "address3": "", "address2": null, "zip_code": "80209", "country": "US", "display_address": ["1020 S Gaylord St", "Denver, CO 80209"], "state": "CO"}, "price": "$$", "transactions": [], "display_phone": "(303) 733-7448"}, {"rating": 4.5, "is_closed": false, "distance": 7438.53363268, "name": "Hops & Pie", "id": "hops-and-pie-denver", "image_url": "https://s3-media2.fl.yelpcdn.com/bphoto/6qyjBMdNBWZC81kpOJGbbg/o.jpg", "url": "https://www.yelp.com/biz/hops-and-pie-denver?adjust_creative=gBcvfFpabk3CnzmXKdYe3w&utm_campaign=yelp_api_v3&utm_medium=api_v3_business_search&utm_source=gBcvfFpabk3CnzmXKdYe3w", "phone": "+13034777000", "coordinates": {"longitude": -105.04369, "latitude": 39.77136}, "categories": [{"alias": "pizza", "title": "Pizza"}, {"alias": "vegan", "title": "Vegan"}, {"alias": "beerbar", "title": "Beer Bar"}], "review_count": 684, "location": {"city": "Denver", "address1": "3920 Tennyson St", "address3": "", "address2": "", "zip_code": "80212", "country": "US", "display_address": ["3920 Tennyson St", "Denver, CO 80212"], "state": "CO"}, "price": "$$", "transactions": [], "display_phone": "(303) 477-7000"}, {"rating": 4.0, "is_closed": false, "distance": 2710.717095638, "name": "Red Square Euro Bistro", "id": "red-square-euro-bistro-denver-3", "image_url": "https://s3-media1.fl.yelpcdn.com/bphoto/gmLwGLi8KbwkQ-fDkazRzQ/o.jpg", "url": "https://www.yelp.com/biz/red-square-euro-bistro-denver-3?adjust_creative=gBcvfFpabk3CnzmXKdYe3w&utm_campaign=yelp_api_v3&utm_medium=api_v3_business_search&utm_source=gBcvfFpabk3CnzmXKdYe3w", "phone": "+13035958600", "coordinates": {"longitude": -104.9973845, "latitude": 39.7481256}, "categories": [{"alias": "bars", "title": "Bars"}, {"alias": "modern_european", "title": "Modern European"}, {"alias": "newamerican", "title": "American (New)"}], "review_count": 292, "location": {"city": "Denver", "address1": "1512 Larimer St", "address3": "", "address2": "Unit R38", "zip_code": "80202", "country": "US", "display_address": ["1512 Larimer St", "Unit R38", "Denver, CO 80202"], "state": "CO"}, "price": "$$", "transactions": [], "display_phone": "(303) 595-8600"}, {"rating": 4.0, "is_closed": false, "distance": 3947.4049235319994, "name": "Fooducopia", "id": "fooducopia-denver", "image_url": "https://s3-media2.fl.yelpcdn.com/bphoto/xk_7Wy7rnT3f6wGUeghX0A/o.jpg", "url": "https://www.yelp.com/biz/fooducopia-denver?adjust_creative=gBcvfFpabk3CnzmXKdYe3w&utm_campaign=yelp_api_v3&utm_medium=api_v3_business_search&utm_source=gBcvfFpabk3CnzmXKdYe3w", "phone": "+13037227838", "coordinates": {"longitude": -104.9642781, "latitude": 39.7003199}, "categories": [{"alias": "breakfast_brunch", "title": "Breakfast & Brunch"}, {"alias": "wine_bars", "title": "Wine Bars"}, {"alias": "sandwiches", "title": "Sandwiches"}], "review_count": 237, "location": {"city": "Denver", "address1": "1939 E Kentucky Ave", "address3": "", "address2": "", "zip_code": "80209", "country": "US", "display_address": ["1939 E Kentucky Ave", "Denver, CO 80209"], "state": "CO"}, "price": "$$", "transactions": ["delivery", "pickup"], "display_phone": "(303) 722-7838"}]}