{"total": 34880, "region": {"center": {"longitude": -104.97024536132812, "latitude": 39.73552421220229}}, "businesses": [{"rating": 3.5, "is_closed": false, "distance": 5744.856813715999, "name": "Kassai Sushi", "id": "kassai-sushi-denver", "image_url": "https://s3-media3.fl.yelpcdn.com/bphoto/acU_VBHG9lWY128-dfDz4w/o.jpg", "url": "https://www.yelp.com/biz/kassai-sushi-denver?adjust_creative=gBcvfFpabk3CnzmXKdYe3w&utm_campaign=yelp_api_v3&utm_medium=api_v3_business_search&utm_source=gBcvfFpabk3CnzmXKdYe3w", "phone": "+13033200833", "coordinates": {"longitude": -104.90379, "latitude": 39.72769}, "categories": [{"alias": "sushi", "title": "Sushi Bars"}, {"alias": "japanese", "title": "Japanese"}, {"alias": "noodles", "title": "Noodles"}], "review_count": 128, "location": {"city": "Denver", "address1": "731 Quebec St", "address3": "", "address2": "", "zip_code": "80220", "country": "US", "display_address": ["731 Quebec St", "Denver, CO 80220"], "state": "CO"}, "price": "$$", "transactions": ["delivery", "pickup"], "display_phone": "(303) 320-0833"}, {"rating": 3.5, "is_closed": false, "distance": 2534.758619266, "name": "Arada Ethiopian Restaurant", "id": "arada-ethiopian-restaurant-denver", "image_url": "https://s3-media4.fl.yelpcdn.com/bphoto/e6Ij6rlaAl1lZhMpki7QmA/o.jpg", "url": "https://www.yelp.com/biz/arada-ethiopian-restaurant-denver?adjust_creative=gBcvfFpabk3CnzmXKdYe3w&utm_campaign=yelp_api_v3&utm_medium=api_v3_business_search&utm_source=gBcvfFpabk3CnzmXKdYe3w", "phone": "+13033293344", "coordinates": {"longitude": -104.99832, "latitude": 39.72828}, "categories": [{"alias": "ethiopian", "title": "Ethiopian"}], "review_count": 93, "location": {"city": "Denver", "address1": "750 Santa Fe Dr", "address3": "", "address2": "", "zip_code": "80204", "country": "US", "display_address": ["750 Santa Fe Dr", "Denver, CO 80204"], "state": "CO"}, "price": "$$", "transactions": ["delivery"], "display_phone": "(303) 329-3344"}, {"rating": 4.5, "is_closed": false, "distance": 2827.35127626, "name": "Armenian Shish Kabob", "id": "armenian-shish-kabob-denver", "image_url": "https://s3-media2.fl.yelpcdn.com/bphoto/NSjbHSwZg-wu0HaoMf1Qvw/o.jpg", "url": "https://www.yelp.com/biz/armenian-shish-kabob-denver?adjust_creative=gBcvfFpabk3CnzmXKdYe3w&utm_campaign=yelp_api_v3&utm_medium=api_v3_business_search&utm_source=gBcvfFpabk3CnzmXKdYe3w", "phone": "+17205798558", "coordinates": {"longitude": -104.997789320029, "latitude": 39.7495947882682}, "categories": [{"alias": "foodstands", "title": "Food Stands"}, {"alias": "hotdogs", "title": "Fast Food"}], "review_count": 11, "location": {"city": "Denver", "address1": "16th St Mall between Market & Larimer Sts", "address3": "", "address2": null, "zip_code": "80202", "country": "US", "display_address": ["16th St Mall between Market & Larimer Sts", "Denver, CO 80202"], "state": "CO"}, "price": "$", "transactions": [], "display_phone": "(720) 579-8558"}, {"rating": 3.5, "is_closed": false, "distance": 6355.35929898, "name": "The Berkshire", "id": "the-berkshire-denver", "image_url": "https://s3-media2.fl.yelpcdn.com/bphoto/zj2tMlBY5F2c6l_YR_0YNA/o.jpg", "url": "https://www.yelp.com/biz/the-berkshire-denver?adjust_creative=gBcvfFpabk3CnzmXKdYe3w&utm_campaign=yelp_api_v3&utm_medium=api_v3_business_search&utm_source=gBcvfFpabk3CnzmXKdYe3w", "phone": "+13033214010", "coordinates": {"longitude": -104.90184433575, "latitude": 39.757908126632}, "categories": [{"alias": "breakfast_brunch", "title": "Breakfast & Brunch"}], "review_count": 373, "location": {"city": "Denver", "address1": "7352 E 29th Ave", "address3": "", "address2": "", "zip_code": "80238", "country": "US", "display_address": ["7352 E 29th Ave", "Denver, CO 80238"], "state": "CO"}, "price": "$$", "transactions": [], "display_phone": "(303) 321-4010"}, {"rating": 4.0, "is_closed": false, "distance": 7354.124715284001, "name": "Red Rooster Cafe", "id": "red-rooster-cafe-denver", "image_url": "https://s3-media2.fl.yelpcdn.com/bphoto/tmaHeETbIO-18scqKrg7Lg/o.jpg", "url": "https://www.yelp.com/biz/red-rooster-cafe-denver?adjust_creative=gBcvfFpabk3CnzmXKdYe3w&utm_campaign=yelp_api_v3&utm_medium=api_v3_business_search&utm_source=gBcvfFpabk3CnzmXKdYe3w", "phone": "+13032923880", "coordinates": {"longitude": -104.978422, "latitude": 39.801362}, "categories": [{"alias": "diners", "title": "Diners"}, {"alias": "breakfast_brunch", "title": "Breakfast & Brunch"}, {"alias": "cafes", "title": "Cafes"}], "review_count": 108, "location": {"city": "Denver", "address1": "5761 Washington St", "address3": "", "address2": "", "zip_code": "80216", "country": "US", "display_address": ["5761 Washington St", "Denver, CO 80216"], "state": "CO"}, "price": "$", "transactions": [], "display_phone": "(303) 292-3880"}, {"rating": 4.0, "is_closed": false, "distance": 7158.229091256, "name": "Sloan's Lake Park", "id": "sloans-lake-park-denver", "image_url": "https://s3-media4.fl.yelpcdn.com/bphoto/cOI-3KCFDXq5nJ7Yo88SWw/o.jpg", "url": "https://www.yelp.com/biz/sloans-lake-park-denver?adjust_creative=gBcvfFpabk3CnzmXKdYe3w&utm_campaign=yelp_api_v3&utm_medium=api_v3_business_search&utm_source=gBcvfFpabk3CnzmXKdYe3w", "phone": "", "coordinates": {"longitude": -105.053240284324, "latitude": 39.7439800947905}, "categories": [{"alias": "parks", "title": "Parks"}, {"alias": "boating", "title": "Boating"}], "review_count": 75, "location": {"city": "Denver", "address1": "Sheridan Blvd & W 17th Ave", "address3": "", "address2": "", "zip_code": "80219", "country": "US", "display_address": ["Sheridan Blvd & W 17th Ave", "Denver, CO 80219"], "state": "CO"}, "transactions": [], "display_phone": ""}, {"rating": 3.5, "is_closed": false, "distance": 6198.127907517999, "name": "Lao Wang Noodle House", "id": "lao-wang-noodle-house-denver", "image_url": "https://s3-media2.fl.yelpcdn.com/bphoto/OB7nSh6DFCP1GAQFHt3o5A/o.jpg", "url": "https://www.yelp.com/biz/lao-wang-noodle-house-denver?adjust_creative=gBcvfFpabk3CnzmXKdYe3w&utm_campaign=yelp_api_v3&utm_medium=api_v3_business_search&utm_source=gBcvfFpabk3CnzmXKdYe3w", "phone": "+13039752497", "coordinates": {"longitude": -105.02546, "latitude": 39.6995099}, "categories": [{"alias": "chinese", "title": "Chinese"}, {"alias": "taiwanese", "title": "Taiwanese"}, {"alias": "noodles", "title": "Noodles"}], "review_count": 404, "location": {"city": "Denver", "address1": "945 S Federal Blvd", "address3": "", "address2": "Ste D", "zip_code": "80219", "country": "US", "display_address": ["945 S Federal Blvd", "Ste D", "Denver, CO 80219"], "state": "CO"}, "price": "$$", "transactions": [], "display_phone": "(303) 975-2497"}, {"rating": 4.0, "is_closed": false, "distance": 1786.594638808, "name": "Potbelly Sandwich Shop", "id": "potbelly-sandwich-shop-denver-2", "image_url": "https://s3-media2.fl.yelpcdn.com/bphoto/3QSdeyCvl3IuGGhYz9KDaQ/o.jpg", "url": "https://www.yelp.com/biz/potbelly-sandwich-shop-denver-2?adjust_creative=gBcvfFpabk3CnzmXKdYe3w&utm_campaign=yelp_api_v3&utm_medium=api_v3_business_search&utm_source=gBcvfFpabk3CnzmXKdYe3w", "phone": "+13035869360", "coordinates": {"longitude": -104.988710675386, "latitude": 39.7430441124491}, "categories": [{"alias": "sandwiches", "title": "Sandwiches"}, {"alias": "salad", "title": "Salad"}, {"alias": "soup", "title": "Soup"}], "review_count": 34, "location": {"city": "Denver", "address1": "303 16th St", "address3": "", "address2": "", "zip_code": "80202", "country": "US", "display_address": ["303 16th St", "Denver, CO 80202"], "state": "CO"}, "price": "$", "transactions": ["pickup", "delivery"], "display_phone": "(303) 586-9360"}, {"rating": 4.0, "is_closed": false, "distance": 7411.75582442, "name": "Kikis Japanese Casual Dining", "id": "kikis-japanese-casual-dining-denver", "image_url": "https://s3-media3.fl.yelpcdn.com/bphoto/30lbiHis5l1njaJOiUn33w/o.jpg", "url": "https://www.yelp.com/biz/kikis-japanese-casual-dining-denver?adjust_creative=gBcvfFpabk3CnzmXKdYe3w&utm_campaign=yelp_api_v3&utm_medium=api_v3_business_search&utm_source=gBcvfFpabk3CnzmXKdYe3w", "phone": "+13035044043", "coordinates": {"longitude": -104.940657243133, "latitude": 39.6727017313242}, "categories": [{"alias": "japanese", "title": "Japanese"}, {"alias": "sushi", "title": "Sushi Bars"}], "review_count": 225, "location": {"city": "Denver", "address1": "2440 S Colorado Blvd", "address3": "", "address2": "", "zip_code": "80222", "country": "US", "display_address": ["2440 S Colorado Blvd", "Denver, CO 80222"], "state": "CO"}, "price": "$$", "transactions": [], "display_phone": "(303) 504-4043"}, {"rating": 3.5, "is_closed": false, "distance": 1573.1311374719999, "name": "Pete's Greek Town Cafe", "id": "petes-greek-town-cafe-denver", "image_url": "https://s3-media1.fl.yelpcdn.com/bphoto/MjJulLxolTWNKbYFiQzqVQ/o.jpg", "url": "https://www.yelp.com/biz/petes-greek-town-cafe-denver?adjust_creative=gBcvfFpabk3CnzmXKdYe3w&utm_campaign=yelp_api_v3&utm_medium=api_v3_business_search&utm_source=gBcvfFpabk3CnzmXKdYe3w", "phone": "+13033211104", "coordinates": {"longitude": -104.952667236328, "latitude": 39.7397842407227}, "categories": [{"alias": "greek", "title": "Greek"}, {"alias": "cafes", "title": "Cafes"}, {"alias": "breakfast_brunch", "title": "Breakfast & Brunch"}], "review_count": 141, "location": {"city": "Denver", "address1": "2910 E Colfax Ave", "address3": "", "address2": "", "zip_code": "80206", "country": "US", "display_address": ["2910 E Colfax Ave", "Denver, CO 80206"], "state": "CO"}, "price": "$$", "transactions": [], "display_phone": "(303) 321-1104"}, {"rating": 4.0, "is_closed": false, "distance": 6496.195217324, "name": "Bout Time Pub & Grub", "id": "bout-time-pub-and-grub-denver", "image_url": "https://s3-media2.fl.yelpcdn.com/bphoto/D1BBw3WLeu5HTpuxKjjdQQ/o.jpg", "url": "https://www.yelp.com/biz/bout-time-pub-and-grub-denver?adjust_creative=gBcvfFpabk3CnzmXKdYe3w&utm_campaign=yelp_api_v3&utm_medium=api_v3_business_search&utm_source=gBcvfFpabk3CnzmXKdYe3w", "phone": "+13034774090", "coordinates": {"longitude": -105.032026022673, "latitude": 39.769424200058}, "categories": [{"alias": "sportsbars", "title": "Sports Bars"}, {"alias": "pubs", "title": "Pubs"}], "review_count": 48, "location": {"city": "Denver", "address1": "3392 W 38th Ave", "address3": "", "address2": "", "zip_code": "80211", "country": "US", "display_address": ["3392 W 38th Ave", "Denver, CO 80211"], "state": "CO"}, "price": "$$", "transactions": [], "display_phone": "(303) 477-4090"}, {"rating": 4.5, "is_closed": false, "distance": 1205.968263172, "name": "The Spring Caf\u00e9", "id": "the-spring-caf\u00e9-denver", "image_url": "https://s3-media2.fl.yelpcdn.com/bphoto/2Gr7bcHB6D2ly0W-S_R9TA/o.jpg", "url": "https://www.yelp.com/biz/the-spring-caf%C3%A9-denver?adjust_creative=gBcvfFpabk3CnzmXKdYe3w&utm_campaign=yelp_api_v3&utm_medium=api_v3_business_search&utm_source=gBcvfFpabk3CnzmXKdYe3w", "phone": "+13038351124", "coordinates": {"longitude": -104.98398, "latitude": 39.73811}, "categories": [{"alias": "coffee", "title": "Coffee & Tea"}, {"alias": "breakfast_brunch", "title": "Breakfast & Brunch"}, {"alias": "sandwiches", "title": "Sandwiches"}], "review_count": 16, "location": {"city": "Denver", "address1": "1373 Grant St", "address3": "", "address2": "", "zip_code": "80203", "country": "US", "display_address": ["1373 Grant St", "Denver, CO 80203"], "state": "CO"}, "price": "$", "transactions": [], "display_phone": "(303) 835-1124"}, {"rating": 4.0, "is_closed": false, "distance": 2440.796820564, "name": "Cafe Bistro", "id": "cafe-bistro-denver-3", "image_url": "https://s3-media2.fl.yelpcdn.com/bphoto/y_OqYZPDDAPxHKSYgIUQWQ/o.jpg", "url": "https://www.yelp.com/biz/cafe-bistro-denver-3?adjust_creative=gBcvfFpabk3CnzmXKdYe3w&utm_campaign=yelp_api_v3&utm_medium=api_v3_business_search&utm_source=gBcvfFpabk3CnzmXKdYe3w", "phone": "+17207464610", "coordinates": {"longitude": -104.95537, "latitude": 39.7171}, "categories": [{"alias": "newamerican", "title": "American (New)"}, {"alias": "comfortfood", "title": "Comfort Food"}, {"alias": "cafes", "title": "Cafes"}], "review_count": 40, "location": {"city": "Denver", "address1": "Nordstrom", "address3": "", "address2": "2810 E First Ave", "zip_code": "80206", "country": "US", "display_address": ["Nordstrom", "2810 E First Ave", "Denver, CO 80206"], "state": "CO"}, "price": "$$", "transactions": [], "display_phone": "(720) 746-4610"}, {"rating": 4.5, "is_closed": false, "distance": 7533.512695196, "name": "Midwestern Saloon", "id": "midwestern-saloon-denver", "image_url": "https://s3-media1.fl.yelpcdn.com/bphoto/CgSfim1KtCOO-AUIPj3U6g/o.jpg", "url": "https://www.yelp.com/biz/midwestern-saloon-denver?adjust_creative=gBcvfFpabk3CnzmXKdYe3w&utm_campaign=yelp_api_v3&utm_medium=api_v3_business_search&utm_source=gBcvfFpabk3CnzmXKdYe3w", "phone": "+13034550954", "coordinates": {"longitude": -105.04432, "latitude": 39.77221}, "categories": [{"alias": "bars", "title": "Bars"}, {"alias": "tradamerican", "title": "American (Traditional)"}], "review_count": 48, "location": {"city": "Denver", "address1": "3961 Tennyson St", "address3": "", "address2": "", "zip_code": "80212", "country": "US", "display_address": ["3961 Tennyson St", "Denver, CO 80212"], "state": "CO"}, "price": "$$", "transactions": [], "display_phone": "(303) 455-0954"}, {"rating": 4.0, "is_closed": false, "distance": 4825.5243964619995, "name": "Prodigy Coffeehouse", "id": "prodigy-coffeehouse-denver", "image_url": "https://s3-media4.fl.yelpcdn.com/bphoto/T9SsHakzSgTt1UZOnBaRcg/o.jpg", "url": "https://www.yelp.com/biz/prodigy-coffeehouse-denver?adjust_creative=gBcvfFpabk3CnzmXKdYe3w&utm_campaign=yelp_api_v3&utm_medium=api_v3_business_search&utm_source=gBcvfFpabk3CnzmXKdYe3w", "phone": "+17204413187", "coordinates": {"longitude": -104.94212, "latitude": 39.77316}, "categories": [{"alias": "coffee", "title": "Coffee & Tea"}], "review_count": 30, "location": {"city": "Denver", "address1": "3801 E 40th Ave", "address3": "", "address2": null, "zip_code": "80205", "country": "US", "display_address": ["3801 E 40th Ave", "Denver, CO 80205"], "state": "CO"}, "price": "$", "transactions": [], "display_phone": "(720) 441-3187"}, {"rating": 4.5, "is_closed": false, "distance": 5037.041401068, "name": "El Rancherito", "id": "el-rancherito-denver", "image_url": "https://s3-media3.fl.yelpcdn.com/bphoto/xOo9q11q4dN73D1O0r7SxQ/o.jpg", "url": "https://www.yelp.com/biz/el-rancherito-denver?adjust_creative=gBcvfFpabk3CnzmXKdYe3w&utm_campaign=yelp_api_v3&utm_medium=api_v3_business_search&utm_source=gBcvfFpabk3CnzmXKdYe3w", "phone": "+13039223221", "coordinates": {"longitude": -105.02546, "latitude": 39.71958}, "categories": [{"alias": "mexican", "title": "Mexican"}], "review_count": 23, "location": {"city": "Denver", "address1": "195 Federal Blvd", "address3": "", "address2": "", "zip_code": "80219", "country": "US", "display_address": ["195 Federal Blvd", "Denver, CO 80219"], "state": "CO"}, "price": "$", "transactions": [], "display_phone": "(303) 922-3221"}, {"rating": 4.0, "is_closed": false, "distance": 3153.058034962, "name": "Coors Field Rooftop Bar", "id": "coors-field-rooftop-bar-denver", "image_url": "https://s3-media2.fl.yelpcdn.com/bphoto/QTYsmwskJeTdFJc1Ry2gSQ/o.jpg", "url": "https://www.yelp.com/biz/coors-field-rooftop-bar-denver?adjust_creative=gBcvfFpabk3CnzmXKdYe3w&utm_campaign=yelp_api_v3&utm_medium=api_v3_business_search&utm_source=gBcvfFpabk3CnzmXKdYe3w", "phone": "", "coordinates": {"longitude": -104.993692561984, "latitude": 39.757411925831}, "categories": [{"alias": "sportsbars", "title": "Sports Bars"}, {"alias": "tradamerican", "title": "American (Traditional)"}], "review_count": 32, "location": {"city": "Denver", "address1": "Coors Field", "address3": "", "address2": "", "zip_code": "80205", "country": "US", "display_address": ["Coors Field", "Denver, CO 80205"], "state": "CO"}, "price": "$$", "transactions": [], "display_phone": ""}, {"rating": 3.5, "is_closed": false, "distance": 4378.3660587819995, "name": "Washington Park Grille", "id": "washington-park-grille-denver-2", "image_url": "https://s3-media4.fl.yelpcdn.com/bphoto/93wI1Lk3g0woYY1E7Mcz1Q/o.jpg", "url": "https://www.yelp.com/biz/washington-park-grille-denver-2?adjust_creative=gBcvfFpabk3CnzmXKdYe3w&utm_campaign=yelp_api_v3&utm_medium=api_v3_business_search&utm_source=gBcvfFpabk3CnzmXKdYe3w", "phone": "+13037770707", "coordinates": {"longitude": -104.961548248069, "latitude": 39.6967219454826}, "categories": [{"alias": "italian", "title": "Italian"}, {"alias": "breakfast_brunch", "title": "Breakfast & Brunch"}, {"alias": "pizza", "title": "Pizza"}], "review_count": 308, "location": {"city": "Denver", "address1": "1096 S Gaylord St", "address3": "", "address2": "", "zip_code": "80209", "country": "US", "display_address": ["1096 S Gaylord St", "Denver, CO 80209"], "state": "CO"}, "price": "$$", "transactions": ["delivery"], "display_phone": "(303) 777-0707"}, {"rating": 3.5, "is_closed": false, "distance": 1262.6707831279998, "name": "Ace Eat Serve", "id": "ace-eat-serve-denver", "image_url": "https://s3-media2.fl.yelpcdn.com/bphoto/6XLAWS8y_uelZvuRHXpaag/o.jpg", "url": "https://www.yelp.com/biz/ace-eat-serve-denver?adjust_creative=gBcvfFpabk3CnzmXKdYe3w&utm_campaign=yelp_api_v3&utm_medium=api_v3_business_search&utm_source=gBcvfFpabk3CnzmXKdYe3w", "phone": "+13038007705", "coordinates": {"longitude": -104.98074, "latitude": 39.7435}, "categories": [{"alias": "bars", "title": "Bars"}, {"alias": "asianfusion", "title": "Asian Fusion"}], "review_count": 571, "location": {"city": "Denver", "address1": "501 E 17th Ave", "address3": "", "address2": "", "zip_code": "80203", "country": "US", "display_address": ["501 E 17th Ave", "Denver, CO 80203"], "state": "CO"}, "price": "$$", "transactions": ["pickup"], "display_phone": "(303) 800-7705"}, {"rating": 3.5, "is_closed": false, "distance": 1597.0785029136, "name": "Mt Fuji Hibachi & Sushi Bar", "id": "mt-fuji-hibachi-and-sushi-bar-denver", "image_url": "https://s3-media2.fl.yelpcdn.com/bphoto/q2nmBCy1msdALIatry9z0w/o.jpg", "url": "https://www.yelp.com/biz/mt-fuji-hibachi-and-sushi-bar-denver?adjust_creative=gBcvfFpabk3CnzmXKdYe3w&utm_campaign=yelp_api_v3&utm_medium=api_v3_business_search&utm_source=gBcvfFpabk3CnzmXKdYe3w", "phone": "+13038608088", "coordinates": {"longitude": -104.984009166293, "latitude": 39.725814033343}, "categories": [{"alias": "sushi", "title": "Sushi Bars"}, {"alias": "japanese", "title": "Japanese"}], "review_count": 250, "location": {"city": "Denver", "address1": "601 Grant St", "address3": "", "address2": "", "zip_code": "80203", "country": "US", "display_address": ["601 Grant St", "Denver, CO 80203"], "state": "CO"}, "price": "$$", "transactions": ["delivery", "pickup"], "display_phone": "(303) 860-8088"}, {"rating": 3.5, "is_closed": false, "distance": 4737.107739664, "name": "Inga's Alpine Tavern", "id": "ingas-alpine-tavern-denver", "image_url": "https://s3-media3.fl.yelpcdn.com/bphoto/e3jYEj0IK8kQfpoFbzL0Dg/o.jpg", "url": "https://www.yelp.com/biz/ingas-alpine-tavern-denver?adjust_creative=gBcvfFpabk3CnzmXKdYe3w&utm_campaign=yelp_api_v3&utm_medium=api_v3_business_search&utm_source=gBcvfFpabk3CnzmXKdYe3w", "phone": "+17203896203", "coordinates": {"longitude": -104.92733001709, "latitude": 39.7084197998047}, "categories": [{"alias": "cocktailbars", "title": "Cocktail Bars"}, {"alias": "lounges", "title": "Lounges"}, {"alias": "sandwiches", "title": "Sandwiches"}], "review_count": 80, "location": {"city": "Denver", "address1": "5151 Leetsdale Dr", "address3": "", "address2": "", "zip_code": "80246", "country": "US", "display_address": ["5151 Leetsdale Dr", "Denver, CO 80246"], "state": "CO"}, "price": "$$", "transactions": [], "display_phone": "(720) 389-6203"}, {"rating": 3.5, "is_closed": false, "distance": 1347.24127826, "name": "Quixote's True Blue Cafe", "id": "quixotes-true-blue-cafe-denver", "image_url": "https://s3-media3.fl.yelpcdn.com/bphoto/Djdj1k0vx7q9fway1DoqEQ/o.jpg", "url": "https://www.yelp.com/biz/quixotes-true-blue-cafe-denver?adjust_creative=gBcvfFpabk3CnzmXKdYe3w&utm_campaign=yelp_api_v3&utm_medium=api_v3_business_search&utm_source=gBcvfFpabk3CnzmXKdYe3w", "phone": "+13038617070", "coordinates": {"longitude": -104.98204, "latitude": 39.7434299}, "categories": [{"alias": "musicvenues", "title": "Music Venues"}, {"alias": "bars", "title": "Bars"}], "review_count": 41, "location": {"city": "Denver", "address1": "1700 Logan St", "address3": "", "address2": "", "zip_code": "80203", "country": "US", "display_address": ["1700 Logan St", "Denver, CO 80203"], "state": "CO"}, "price": "$", "transactions": [], "display_phone": "(303) 861-7070"}, {"rating": 4.0, "is_closed": false, "distance": 6367.270507122, "name": "Cafe Zuri", "id": "cafe-zuri-denver", "image_url": "https://s3-media2.fl.yelpcdn.com/bphoto/227s-Jdly0o-h7XCmy36iw/o.jpg", "url": "https://www.yelp.com/biz/cafe-zuri-denver?adjust_creative=gBcvfFpabk3CnzmXKdYe3w&utm_campaign=yelp_api_v3&utm_medium=api_v3_business_search&utm_source=gBcvfFpabk3CnzmXKdYe3w", "phone": "+17203814567", "coordinates": {"longitude": -105.036308, "latitude": 39.761961}, "categories": [{"alias": "coffee", "title": "Coffee & Tea"}, {"alias": "beer_and_wine", "title": "Beer, Wine & Spirits"}, {"alias": "juicebars", "title": "Juice Bars & Smoothies"}], "review_count": 49, "location": {"city": "Denver", "address1": "3718 W 32nd Ave", "address3": "", "address2": null, "zip_code": "80211", "country": "US", "display_address": ["3718 W 32nd Ave", "Denver, CO 80211"], "state": "CO"}, "price": "$", "transactions": [], "display_phone": "(720) 381-4567"}, {"rating": 3.5, "is_closed": false, "distance": 2372.721255762, "name": "Leela European Cafe", "id": "leela-european-cafe-denver", "image_url": "https://s3-media3.fl.yelpcdn.com/bphoto/OCXn3WpCnvhS3biJVcylPw/o.jpg", "url": "https://www.yelp.com/biz/leela-european-cafe-denver?adjust_creative=gBcvfFpabk3CnzmXKdYe3w&utm_campaign=yelp_api_v3&utm_medium=api_v3_business_search&utm_source=gBcvfFpabk3CnzmXKdYe3w", "phone": "+13035342255", "coordinates": {"longitude": -104.99503326416, "latitude": 39.7452545166016}, "categories": [{"alias": "lounges", "title": "Lounges"}, {"alias": "coffee", "title": "Coffee & Tea"}], "review_count": 189, "location": {"city": "Denver", "address1": "820 15th St", "address3": "", "address2": "", "zip_code": "80238", "country": "US", "display_address": ["820 15th St", "Denver, CO 80238"], "state": "CO"}, "price": "$", "transactions": [], "display_phone": "(303) 534-2255"}, {"rating": 3.5, "is_closed": false, "distance": 6243.839600877999, "name": "Pizza Alley", "id": "pizza-alley-denver", "image_url": "https://s3-media2.fl.yelpcdn.com/bphoto/tAXbcY2PT2BSk2Otm6PefQ/o.jpg", "url": "https://www.yelp.com/biz/pizza-alley-denver?adjust_creative=gBcvfFpabk3CnzmXKdYe3w&utm_campaign=yelp_api_v3&utm_medium=api_v3_business_search&utm_source=gBcvfFpabk3CnzmXKdYe3w", "phone": "+13034588415", "coordinates": {"longitude": -105.03384, "latitude": 39.76236}, "categories": [{"alias": "pizza", "title": "Pizza"}], "review_count": 150, "location": {"city": "Denver", "address1": "3499 W 32nd Ave", "address3": "", "address2": "", "zip_code": "80211", "country": "US", "display_address": ["3499 W 32nd Ave", "Denver, CO 80211"], "state": "CO"}, "price": "$", "transactions": [], "display_phone": "(303) 458-8415"}, {"rating": 4.0, "is_closed": false, "distance": 7718.977864815999, "name": "El Taco Veloz", "id": "el-taco-veloz-denver-2", "image_url": "https://s3-media4.fl.yelpcdn.com/bphoto/R0iRXeisdfhNeBBZLL_JiQ/o.jpg", "url": "https://www.yelp.com/biz/el-taco-veloz-denver-2?adjust_creative=gBcvfFpabk3CnzmXKdYe3w&utm_campaign=yelp_api_v3&utm_medium=api_v3_business_search&utm_source=gBcvfFpabk3CnzmXKdYe3w", "phone": "+13034771881", "coordinates": {"longitude": -105.0253249, "latitude": 39.7903074}, "categories": [{"alias": "mexican", "title": "Mexican"}], "review_count": 76, "location": {"city": "Denver", "address1": "5145 Federal Blvd", "address3": "", "address2": "", "zip_code": "80221", "country": "US", "display_address": ["5145 Federal Blvd", "Denver, CO 80221"], "state": "CO"}, "price": "$", "transactions": [], "display_phone": "(303) 477-1881"}, {"rating": 3.5, "is_closed": false, "distance": 4828.4867086, "name": "Hanson's Grill & Tavern", "id": "hansons-grill-and-tavern-denver", "image_url": "https://s3-media4.fl.yelpcdn.com/bphoto/zb7a3p01Z6bDE7YAaVEtzw/o.jpg", "url": "https://www.yelp.com/biz/hansons-grill-and-tavern-denver?adjust_creative=gBcvfFpabk3CnzmXKdYe3w&utm_campaign=yelp_api_v3&utm_medium=api_v3_business_search&utm_source=gBcvfFpabk3CnzmXKdYe3w", "phone": "+13037441052", "coordinates": {"longitude": -104.980735778809, "latitude": 39.6927719116211}, "categories": [{"alias": "bars", "title": "Bars"}, {"alias": "tradamerican", "title": "American (Traditional)"}, {"alias": "breakfast_brunch", "title": "Breakfast & Brunch"}], "review_count": 167, "location": {"city": "Denver", "address1": "1301 S Pearl St", "address3": "", "address2": "", "zip_code": "80210", "country": "US", "display_address": ["1301 S Pearl St", "Denver, CO 80210"], "state": "CO"}, "price": "$$", "transactions": [], "display_phone": "(303) 744-1052"}, {"rating": 4.5, "is_closed": false, "distance": 10438.655121838, "name": "Mr. Egg", "id": "mr-egg-denver", "image_url": "https://s3-media1.fl.yelpcdn.com/bphoto/JiEK3u8jE7TVPmhbcAFM-A/o.jpg", "url": "https://www.yelp.com/biz/mr-egg-denver?adjust_creative=gBcvfFpabk3CnzmXKdYe3w&utm_campaign=yelp_api_v3&utm_medium=api_v3_business_search&utm_source=gBcvfFpabk3CnzmXKdYe3w", "phone": "+13039549135", "coordinates": {"longitude": -104.9777724, "latitude": 39.8293401}, "categories": [{"alias": "breakfast_brunch", "title": "Breakfast & Brunch"}, {"alias": "coffee", "title": "Coffee & Tea"}, {"alias": "sandwiches", "title": "Sandwiches"}], "review_count": 77, "location": {"city": "Denver", "address1": "7310 Washington St", "address3": "", "address2": "", "zip_code": "80229", "country": "US", "display_address": ["7310 Washington St", "Denver, CO 80229"], "state": "CO"}, "price": "$", "transactions": [], "display_phone": "(303) 954-9135"}, {"rating": 3.5, "is_closed": false, "distance": 5340.46282412, "name": "Old Chicago Pizza & Taproom", "id": "old-chicago-pizza-and-taproom-denver", "image_url": "https://s3-media2.fl.yelpcdn.com/bphoto/QODREKm-Bk2yM8hYhJpIjg/o.jpg", "url": "https://www.yelp.com/biz/old-chicago-pizza-and-taproom-denver?adjust_creative=gBcvfFpabk3CnzmXKdYe3w&utm_campaign=yelp_api_v3&utm_medium=api_v3_business_search&utm_source=gBcvfFpabk3CnzmXKdYe3w", "phone": "+13037530824", "coordinates": {"longitude": -104.94019, "latitude": 39.69348}, "categories": [{"alias": "pizza", "title": "Pizza"}, {"alias": "sportsbars", "title": "Sports Bars"}, {"alias": "tradamerican", "title": "American (Traditional)"}], "review_count": 115, "location": {"city": "Denver", "address1": "1280 S Colorado Blvd", "address3": "", "address2": "", "zip_code": "80246", "country": "US", "display_address": ["1280 S Colorado Blvd", "Denver, CO 80246"], "state": "CO"}, "price": "$$", "transactions": ["delivery"], "display_phone": "(303) 753-0824"}, {"rating": 3.5, "is_closed": false, "distance": 4069.7274773179997, "name": "Axum Restaurant", "id": "axum-restaurant-denver", "image_url": "https://s3-media1.fl.yelpcdn.com/bphoto/f180FLm9MSuI0oSaq-fqaw/o.jpg", "url": "https://www.yelp.com/biz/axum-restaurant-denver?adjust_creative=gBcvfFpabk3CnzmXKdYe3w&utm_campaign=yelp_api_v3&utm_medium=api_v3_business_search&utm_source=gBcvfFpabk3CnzmXKdYe3w", "phone": "+13033296139", "coordinates": {"longitude": -104.92308, "latitude": 39.74043}, "categories": [{"alias": "ethiopian", "title": "Ethiopian"}], "review_count": 112, "location": {"city": "Denver", "address1": "5501 E Colfax Ave", "address3": "", "address2": "", "zip_code": "80220", "country": "US", "display_address": ["5501 E Colfax Ave", "Denver, CO 80220"], "state": "CO"}, "price": "$$", "transactions": [], "display_phone": "(303) 329-6139"}, {"rating": 3.5, "is_closed": false, "distance": 2391.942247118, "name": "The Curtis Club", "id": "the-curtis-club-denver", "image_url": "https://s3-media3.fl.yelpcdn.com/bphoto/U1C6dSIuOpwGCqgL0WM3rQ/o.jpg", "url": "https://www.yelp.com/biz/the-curtis-club-denver?adjust_creative=gBcvfFpabk3CnzmXKdYe3w&utm_campaign=yelp_api_v3&utm_medium=api_v3_business_search&utm_source=gBcvfFpabk3CnzmXKdYe3w", "phone": "+17204209898", "coordinates": {"longitude": -104.9884506, "latitude": 39.7518561}, "categories": [{"alias": "newamerican", "title": "American (New)"}, {"alias": "gastropubs", "title": "Gastropubs"}, {"alias": "cocktailbars", "title": "Cocktail Bars"}], "review_count": 145, "location": {"city": "Denver", "address1": "2100 Curtis St", "address3": "", "address2": "", "zip_code": "80205", "country": "US", "display_address": ["2100 Curtis St", "Denver, CO 80205"], "state": "CO"}, "price": "$$", "transactions": ["delivery", "pickup"], "display_phone": "(720) 420-9898"}, {"rating": 4.0, "is_closed": false, "distance": 7812.03247856, "name": "Firenze a Tavola", "id": "firenze-a-tavola-denver", "image_url": "https://s3-media1.fl.yelpcdn.com/bphoto/3pgmgUjD14ddxAFEUX8GDQ/o.jpg", "url": "https://www.yelp.com/biz/firenze-a-tavola-denver?adjust_creative=gBcvfFpabk3CnzmXKdYe3w&utm_campaign=yelp_api_v3&utm_medium=api_v3_business_search&utm_source=gBcvfFpabk3CnzmXKdYe3w", "phone": "+13035610234", "coordinates": {"longitude": -105.04427, "latitude": 39.77678}, "categories": [{"alias": "italian", "title": "Italian"}], "review_count": 83, "location": {"city": "Denver", "address1": "4401 Tennyson St", "address3": "", "address2": null, "zip_code": "80212", "country": "US", "display_address": ["4401 Tennyson St", "Denver, CO 80212"], "state": "CO"}, "price": "$$", "transactions": [], "display_phone": "(303) 561-0234"}, {"rating": 4.0, "is_closed": false, "distance": 7376.82349038, "name": "From The Ground Up", "id": "from-the-ground-up-denver", "image_url": "https://s3-media4.fl.yelpcdn.com/bphoto/bwyidOM12NX8nGAa-okS8g/o.jpg", "url": "https://www.yelp.com/biz/from-the-ground-up-denver?adjust_creative=gBcvfFpabk3CnzmXKdYe3w&utm_campaign=yelp_api_v3&utm_medium=api_v3_business_search&utm_source=gBcvfFpabk3CnzmXKdYe3w", "phone": "+13037590337", "coordinates": {"longitude": -104.940659254789, "latitude": 39.6729605644941}, "categories": [{"alias": "coffee", "title": "Coffee & Tea"}], "review_count": 84, "location": {"city": "Denver", "address1": "2418 S Colorado Blvd", "address3": "", "address2": "", "zip_code": "80222", "country": "US", "display_address": ["2418 S Colorado Blvd", "Denver, CO 80222"], "state": "CO"}, "price": "$", "transactions": [], "display_phone": "(303) 759-0337"}, {"rating": 5.0, "is_closed": false, "distance": 1749.83457733, "name": "Emily's Coffee", "id": "emilys-coffee-denver", "image_url": "https://s3-media2.fl.yelpcdn.com/bphoto/XaCgYVLj762JMG-_w3sJcQ/o.jpg", "url": "https://www.yelp.com/biz/emilys-coffee-denver?adjust_creative=gBcvfFpabk3CnzmXKdYe3w&utm_campaign=yelp_api_v3&utm_medium=api_v3_business_search&utm_source=gBcvfFpabk3CnzmXKdYe3w", "phone": "+17204234797", "coordinates": {"longitude": -104.985747981679, "latitude": 39.7457978381035}, "categories": [{"alias": "coffee", "title": "Coffee & Tea"}], "review_count": 6, "location": {"city": "Denver", "address1": "1860 Lincoln St", "address3": "", "address2": "", "zip_code": "80203", "country": "US", "display_address": ["1860 Lincoln St", "Denver, CO 80203"], "state": "CO"}, "price": "$", "transactions": [], "display_phone": "(720) 423-4797"}, {"rating": 4.0, "is_closed": false, "distance": 7758.935523939999, "name": "Cozy Cottage", "id": "cozy-cottage-denver-2", "image_url": "https://s3-media1.fl.yelpcdn.com/bphoto/lrutWDLMioYWPGR9zkJsYQ/o.jpg", "url": "https://www.yelp.com/biz/cozy-cottage-denver-2?adjust_creative=gBcvfFpabk3CnzmXKdYe3w&utm_campaign=yelp_api_v3&utm_medium=api_v3_business_search&utm_source=gBcvfFpabk3CnzmXKdYe3w", "phone": "+17208559800", "coordinates": {"longitude": -105.044309, "latitude": 39.775856}, "categories": [{"alias": "breakfast_brunch", "title": "Breakfast & Brunch"}], "review_count": 203, "location": {"city": "Denver", "address1": "4363 Tennyson St", "address3": "", "address2": "", "zip_code": "80212", "country": "US", "display_address": ["4363 Tennyson St", "Denver, CO 80212"], "state": "CO"}, "price": "$$", "transactions": [], "display_phone": "(720) 855-9800"}, {"rating": 4.0, "is_closed": false, "distance": 4976.678598216, "name": "Los Gallitos Taqueria", "id": "los-gallitos-taqueria-denver", "image_url": "https://s3-media3.fl.yelpcdn.com/bphoto/Kq_od3q71l3mkdqNjG80kQ/o.jpg", "url": "https://www.yelp.com/biz/los-gallitos-taqueria-denver?adjust_creative=gBcvfFpabk3CnzmXKdYe3w&utm_campaign=yelp_api_v3&utm_medium=api_v3_business_search&utm_source=gBcvfFpabk3CnzmXKdYe3w", "phone": "+13039550175", "coordinates": {"longitude": -105.018905639648, "latitude": 39.7108383178711}, "categories": [{"alias": "mexican", "title": "Mexican"}, {"alias": "importedfood", "title": "Imported Food"}], "review_count": 40, "location": {"city": "Denver", "address1": "2630 W Alameda", "address3": "", "address2": "", "zip_code": "80209", "country": "US", "display_address": ["2630 W Alameda", "Denver, CO 80209"], "state": "CO"}, "price": "$", "transactions": [], "display_phone": "(303) 955-0175"}, {"rating": 3.5, "is_closed": false, "distance": 6265.090291842, "name": "Salt & Grinder", "id": "salt-and-grinder-denver", "image_url": "https://s3-media2.fl.yelpcdn.com/bphoto/a4G34X9mCp6oy8hYRyIJ7A/o.jpg", "url": "https://www.yelp.com/biz/salt-and-grinder-denver?adjust_creative=gBcvfFpabk3CnzmXKdYe3w&utm_campaign=yelp_api_v3&utm_medium=api_v3_business_search&utm_source=gBcvfFpabk3CnzmXKdYe3w", "phone": "+13039454200", "coordinates": {"longitude": -105.034817531705, "latitude": 39.762174859643}, "categories": [{"alias": "delis", "title": "Delis"}], "review_count": 120, "location": {"city": "Denver", "address1": "3609 W 32nd Ave", "address3": "", "address2": null, "zip_code": "80211", "country": "US", "display_address": ["3609 W 32nd Ave", "Denver, CO 80211"], "state": "CO"}, "price": "$$", "transactions": [], "display_phone": "(303) 945-4200"}, {"rating": 4.0, "is_closed": false, "distance": 7632.529430837999, "name": "La Fogata Mexican Restaurant", "id": "la-fogata-mexican-restaurant-denver-2", "image_url": "https://s3-media4.fl.yelpcdn.com/bphoto/ac7LlFaGL4gmFiQ_CtsDhQ/o.jpg", "url": "https://www.yelp.com/biz/la-fogata-mexican-restaurant-denver-2?adjust_creative=gBcvfFpabk3CnzmXKdYe3w&utm_campaign=yelp_api_v3&utm_medium=api_v3_business_search&utm_source=gBcvfFpabk3CnzmXKdYe3w", "phone": "+13037539458", "coordinates": {"longitude": -104.921188354492, "latitude": 39.6780891418457}, "categories": [{"alias": "mexican", "title": "Mexican"}], "review_count": 181, "location": {"city": "Denver", "address1": "5670 E Evans Ave", "address3": "", "address2": "", "zip_code": "80222", "country": "US", "display_address": ["5670 E Evans Ave", "Denver, CO 80222"], "state": "CO"}, "price": "$$", "transactions": ["delivery", "pickup"], "display_phone": "(303) 753-9458"}, {"rating": 3.5, "is_closed": false, "distance": 1799.133006748, "name": "Duck Soup", "id": "duck-soup-denver", "image_url": "https://s3-media2.fl.yelpcdn.com/bphoto/CV60uM0OQFtzs-9Fu18mAQ/o.jpg", "url": "https://www.yelp.com/biz/duck-soup-denver?adjust_creative=gBcvfFpabk3CnzmXKdYe3w&utm_campaign=yelp_api_v3&utm_medium=api_v3_business_search&utm_source=gBcvfFpabk3CnzmXKdYe3w", "phone": "+13038251440", "coordinates": {"longitude": -104.988694, "latitude": 39.743304}, "categories": [{"alias": "salad", "title": "Salad"}, {"alias": "soup", "title": "Soup"}, {"alias": "sandwiches", "title": "Sandwiches"}], "review_count": 82, "location": {"city": "Denver", "address1": "303 16th St", "address3": "", "address2": "Ste 130", "zip_code": "80202", "country": "US", "display_address": ["303 16th St", "Ste 130", "Denver, CO 80202"], "state": "CO"}, "price": "$", "transactions": [], "display_phone": "(303) 825-1440"}, {"rating": 4.0, "is_closed": false, "distance": 3420.2498349999996, "name": "Zo\u00ebs Kitchen", "id": "zo\u00ebs-kitchen-denver-5", "image_url": "https://s3-media1.fl.yelpcdn.com/bphoto/awKaU_vkC33Gak2bWjMAWw/o.jpg", "url": "https://www.yelp.com/biz/zo%C3%ABs-kitchen-denver-5?adjust_creative=gBcvfFpabk3CnzmXKdYe3w&utm_campaign=yelp_api_v3&utm_medium=api_v3_business_search&utm_source=gBcvfFpabk3CnzmXKdYe3w", "phone": "+17209046949", "coordinates": {"longitude": -105.002227783203, "latitude": 39.7542343139648}, "categories": [{"alias": "mediterranean", "title": "Mediterranean"}, {"alias": "southern", "title": "Southern"}, {"alias": "greek", "title": "Greek"}], "review_count": 21, "location": {"city": "Denver", "address1": "1920 17th St", "address3": "", "address2": "Ste 120", "zip_code": "80202", "country": "US", "display_address": ["1920 17th St", "Ste 120", "Denver, CO 80202"], "state": "CO"}, "price": "$", "transactions": [], "display_phone": "(720) 904-6949"}, {"rating": 3.5, "is_closed": false, "distance": 3881.434536384, "name": "Gomez Burritos", "id": "gomez-burritos-denver-4", "image_url": "https://s3-media2.fl.yelpcdn.com/bphoto/oB0QjSwRsH4Mr2KQdheq9Q/o.jpg", "url": "https://www.yelp.com/biz/gomez-burritos-denver-4?adjust_creative=gBcvfFpabk3CnzmXKdYe3w&utm_campaign=yelp_api_v3&utm_medium=api_v3_business_search&utm_source=gBcvfFpabk3CnzmXKdYe3w", "phone": "+13034554044", "coordinates": {"longitude": -104.993972, "latitude": 39.765285}, "categories": [{"alias": "mexican", "title": "Mexican"}], "review_count": 82, "location": {"city": "Denver", "address1": "3460 Park Ave W", "address3": "", "address2": "", "zip_code": "80216", "country": "US", "display_address": ["3460 Park Ave W", "Denver, CO 80216"], "state": "CO"}, "price": "$", "transactions": [], "display_phone": "(303) 455-4044"}, {"rating": 3.5, "is_closed": false, "distance": 4636.048590627999, "name": "Lincoln's Roadhouse", "id": "lincolns-roadhouse-denver", "image_url": "https://s3-media2.fl.yelpcdn.com/bphoto/P6A-M_T1MscIntNFsNIDSg/o.jpg", "url": "https://www.yelp.com/biz/lincolns-roadhouse-denver?adjust_creative=gBcvfFpabk3CnzmXKdYe3w&utm_campaign=yelp_api_v3&utm_medium=api_v3_business_search&utm_source=gBcvfFpabk3CnzmXKdYe3w", "phone": "+13037773700", "coordinates": {"longitude": -104.980781555176, "latitude": 39.6946144104004}, "categories": [{"alias": "southern", "title": "Southern"}, {"alias": "bars", "title": "Bars"}], "review_count": 83, "location": {"city": "Denver", "address1": "1201 S Pearl St", "address3": "", "address2": "", "zip_code": "80210", "country": "US", "display_address": ["1201 S Pearl St", "Denver, CO 80210"], "state": "CO"}, "price": "$", "transactions": [], "display_phone": "(303) 777-3700"}, {"rating": 3.5, "is_closed": false, "distance": 525.7913820962, "name": "Streets of London Pub", "id": "streets-of-london-pub-denver", "image_url": "https://s3-media4.fl.yelpcdn.com/bphoto/YazvmVQZhCioqG9dpFlSkg/o.jpg", "url": "https://www.yelp.com/biz/streets-of-london-pub-denver?adjust_creative=gBcvfFpabk3CnzmXKdYe3w&utm_campaign=yelp_api_v3&utm_medium=api_v3_business_search&utm_source=gBcvfFpabk3CnzmXKdYe3w", "phone": "+13038619103", "coordinates": {"longitude": -104.9695, "latitude": 39.74018}, "categories": [{"alias": "pubs", "title": "Pubs"}, {"alias": "divebars", "title": "Dive Bars"}, {"alias": "musicvenues", "title": "Music Venues"}], "review_count": 96, "location": {"city": "Denver", "address1": "1501 E Colfax Ave", "address3": "", "address2": "", "zip_code": "80218", "country": "US", "display_address": ["1501 E Colfax Ave", "Denver, CO 80218"], "state": "CO"}, "price": "$", "transactions": [], "display_phone": "(303) 861-9103"}, {"rating": 3.5, "is_closed": false, "distance": 3891.1588124, "name": "Dazbog Coffee", "id": "dazbog-coffee-denver-13", "image_url": "https://s3-media3.fl.yelpcdn.com/bphoto/rRQObImE3V-_fxvmXvqL8A/o.jpg", "url": "https://www.yelp.com/biz/dazbog-coffee-denver-13?adjust_creative=gBcvfFpabk3CnzmXKdYe3w&utm_campaign=yelp_api_v3&utm_medium=api_v3_business_search&utm_source=gBcvfFpabk3CnzmXKdYe3w", "phone": "+13033162728", "coordinates": {"longitude": -104.941770523751, "latitude": 39.7082297305759}, "categories": [{"alias": "coffee", "title": "Coffee & Tea"}, {"alias": "sandwiches", "title": "Sandwiches"}], "review_count": 44, "location": {"city": "Denver", "address1": "3773 Cherry Creek N D", "address3": "", "address2": "", "zip_code": "80209", "country": "US", "display_address": ["3773 Cherry Creek N D", "Denver, CO 80209"], "state": "CO"}, "price": "$", "transactions": [], "display_phone": "(303) 316-2728"}, {"rating": 3.5, "is_closed": false, "distance": 1090.4004795142, "name": "Tony P's Bar & Pizzeria", "id": "tony-ps-bar-and-pizzeria-denver-4", "image_url": "https://s3-media4.fl.yelpcdn.com/bphoto/mpQtOP8DUZzivt3WPXx27g/o.jpg", "url": "https://www.yelp.com/biz/tony-ps-bar-and-pizzeria-denver-4?adjust_creative=gBcvfFpabk3CnzmXKdYe3w&utm_campaign=yelp_api_v3&utm_medium=api_v3_business_search&utm_source=gBcvfFpabk3CnzmXKdYe3w", "phone": "+13038393200", "coordinates": {"longitude": -104.9777517, "latitude": 39.7434488}, "categories": [{"alias": "pizza", "title": "Pizza"}, {"alias": "bars", "title": "Bars"}, {"alias": "italian", "title": "Italian"}], "review_count": 314, "location": {"city": "Denver", "address1": "777 E 17th Ave", "address3": "", "address2": "", "zip_code": "80203", "country": "US", "display_address": ["777 E 17th Ave", "Denver, CO 80203"], "state": "CO"}, "price": "$$", "transactions": ["delivery", "pickup"], "display_phone": "(303) 839-3200"}, {"rating": 3.5, "is_closed": false, "distance": 6133.01127524, "name": "Tacos y Salsas", "id": "tacos-y-salsas-denver-3", "image_url": "https://s3-media1.fl.yelpcdn.com/bphoto/HVWpa9XpWYaYiivaq-NicA/o.jpg", "url": "https://www.yelp.com/biz/tacos-y-salsas-denver-3?adjust_creative=gBcvfFpabk3CnzmXKdYe3w&utm_campaign=yelp_api_v3&utm_medium=api_v3_business_search&utm_source=gBcvfFpabk3CnzmXKdYe3w", "phone": "+13039229400", "coordinates": {"longitude": -105.0249474, "latitude": 39.6998623}, "categories": [{"alias": "mexican", "title": "Mexican"}], "review_count": 115, "location": {"city": "Denver", "address1": "910 S Federal Blvd", "address3": "", "address2": "", "zip_code": "80219", "country": "US", "display_address": ["910 S Federal Blvd", "Denver, CO 80219"], "state": "CO"}, "price": "$", "transactions": [], "display_phone": "(303) 922-9400"}, {"rating": 4.0, "is_closed": false, "distance": 7387.976699381999, "name": "Javier's Diner", "id": "javiers-diner-denver", "image_url": "https://s3-media1.fl.yelpcdn.com/bphoto/4E32AkdpBmTCZGd6z7twig/o.jpg", "url": "https://www.yelp.com/biz/javiers-diner-denver?adjust_creative=gBcvfFpabk3CnzmXKdYe3w&utm_campaign=yelp_api_v3&utm_medium=api_v3_business_search&utm_source=gBcvfFpabk3CnzmXKdYe3w", "phone": "+13034334005", "coordinates": {"longitude": -105.04436, "latitude": 39.769699}, "categories": [{"alias": "diners", "title": "Diners"}, {"alias": "mexican", "title": "Mexican"}], "review_count": 118, "location": {"city": "Denver", "address1": "3801 Tennyson St", "address3": "", "address2": "", "zip_code": "80238", "country": "US", "display_address": ["3801 Tennyson St", "Denver, CO 80238"], "state": "CO"}, "price": "$", "transactions": [], "display_phone": "(303) 433-4005"}, {"rating": 4.0, "is_closed": false, "distance": 7473.738910784, "name": "Royal", "id": "royal-denver", "image_url": "https://s3-media1.fl.yelpcdn.com/bphoto/o_kne62JoLkzPAn0cYvVfA/o.jpg", "url": "https://www.yelp.com/biz/royal-denver?adjust_creative=gBcvfFpabk3CnzmXKdYe3w&utm_campaign=yelp_api_v3&utm_medium=api_v3_business_search&utm_source=gBcvfFpabk3CnzmXKdYe3w", "phone": "+13038629394", "coordinates": {"longitude": -105.043885526579, "latitude": 39.771751623109}, "categories": [{"alias": "burgers", "title": "Burgers"}], "review_count": 159, "location": {"city": "Denver", "address1": "4000 Tennyson St", "address3": "", "address2": "Ste 100", "zip_code": "80212", "country": "US", "display_address": ["4000 Tennyson St", "Ste 100", "Denver, CO 80212"], "state": "CO"}, "price": "$$", "transactions": [], "display_phone": "(303) 862-9394"}, {"rating": 3.5, "is_closed": false, "distance": 2412.059640854, "name": "Little India Restaurant & Bar", "id": "little-india-restaurant-and-bar-denver-4", "image_url": "https://s3-media2.fl.yelpcdn.com/bphoto/kt4qwqpg9zbnP3B7UUwdvQ/o.jpg", "url": "https://www.yelp.com/biz/little-india-restaurant-and-bar-denver-4?adjust_creative=gBcvfFpabk3CnzmXKdYe3w&utm_campaign=yelp_api_v3&utm_medium=api_v3_business_search&utm_source=gBcvfFpabk3CnzmXKdYe3w", "phone": "+13036295777", "coordinates": {"longitude": -104.994749, "latitude": 39.746269}, "categories": [{"alias": "indpak", "title": "Indian"}, {"alias": "bars", "title": "Bars"}], "review_count": 364, "location": {"city": "Denver", "address1": "1533 Champa St", "address3": "", "address2": "", "zip_code": "80202", "country": "US", "display_address": ["1533 Champa St", "Denver, CO 80202"], "state": "CO"}, "price": "$$", "transactions": ["delivery", "pickup"], "display_phone": "(303) 629-5777"}, {"rating": 5.0, "is_closed": false, "distance": 5856.9193422, "name": "Classic Eats", "id": "classic-eats-denver", "image_url": "https://s3-media2.fl.yelpcdn.com/bphoto/Wz1jq_PUBWXe8eg68ypRdg/o.jpg", "url": "https://www.yelp.com/biz/classic-eats-denver?adjust_creative=gBcvfFpabk3CnzmXKdYe3w&utm_campaign=yelp_api_v3&utm_medium=api_v3_business_search&utm_source=gBcvfFpabk3CnzmXKdYe3w", "phone": "+13039990173", "coordinates": {"longitude": -105.0384, "latitude": 39.74009}, "categories": [{"alias": "delis", "title": "Delis"}, {"alias": "coffee", "title": "Coffee & Tea"}, {"alias": "breakfast_brunch", "title": "Breakfast & Brunch"}], "review_count": 22, "location": {"city": "Denver", "address1": "3910 W Colfax Ave", "address3": null, "address2": "", "zip_code": "80204", "country": "US", "display_address": ["3910 W Colfax Ave", "Denver, CO 80204"], "state": "CO"}, "price": "$", "transactions": ["delivery"], "display_phone": "(303) 999-0173"}]}