{"region": {"center": {"latitude": 40.70544486444615, "longitude": -73.99429321289062}}, "businesses": [{"transactions": [], "distance": 7155.174885804, "price": "$", "display_phone": "(718) 484-1555", "phone": "+17184841555", "url": "https://www.yelp.com/biz/covert-coffee-brooklyn?adjust_creative=gBcvfFpabk3CnzmXKdYe3w&utm_campaign=yelp_api_v3&utm_medium=api_v3_business_search&utm_source=gBcvfFpabk3CnzmXKdYe3w", "name": "Covert Coffee", "location": {"display_address": ["1643 Broadway", "Brooklyn, NY 11207"], "country": "US", "state": "NY", "address3": "", "address2": null, "address1": "1643 Broadway", "city": "Brooklyn", "zip_code": "11207"}, "is_closed": false, "review_count": 80, "coordinates": {"latitude": 40.6849857702632, "longitude": -73.9138240426399}, "id": "covert-coffee-brooklyn", "image_url": "https://s3-media2.fl.yelpcdn.com/bphoto/goBCQa9tUaBQZEJS9jwhYA/o.jpg", "categories": [{"alias": "coffee", "title": "Coffee & Tea"}, {"alias": "cafes", "title": "Cafes"}], "rating": 4.5}, {"transactions": [], "distance": 4982.44985239, "price": "$$", "display_phone": "(347) 350-8899", "phone": "+13473508899", "url": "https://www.yelp.com/biz/butter-and-scotch-brooklyn-2?adjust_creative=gBcvfFpabk3CnzmXKdYe3w&utm_campaign=yelp_api_v3&utm_medium=api_v3_business_search&utm_source=gBcvfFpabk3CnzmXKdYe3w", "name": "Butter & Scotch", "location": {"display_address": ["818 Franklin Ave", "Brooklyn, NY 11225"], "country": "US", "state": "NY", "address3": "", "address2": "", "address1": "818 Franklin Ave", "city": "Brooklyn", "zip_code": "11225"}, "is_closed": false, "review_count": 209, "coordinates": {"latitude": 40.669893909327, "longitude": -73.9583220803651}, "id": "butter-and-scotch-brooklyn-2", "image_url": "https://s3-media3.fl.yelpcdn.com/bphoto/-SiTqFF5v-vptpG2YytKDw/o.jpg", "categories": [{"alias": "bakeries", "title": "Bakeries"}, {"alias": "cocktailbars", "title": "Cocktail Bars"}], "rating": 4.0}, {"transactions": [], "distance": 2532.180939388, "price": "$$", "display_phone": "(646) 791-0005", "phone": "+16467910005", "url": "https://www.yelp.com/biz/union-bar-and-kitchen-new-york?adjust_creative=gBcvfFpabk3CnzmXKdYe3w&utm_campaign=yelp_api_v3&utm_medium=api_v3_business_search&utm_source=gBcvfFpabk3CnzmXKdYe3w", "name": "Union Bar & Kitchen", "location": {"display_address": ["300 Spring St", "New York, NY 10013"], "country": "US", "state": "NY", "address3": "", "address2": null, "address1": "300 Spring St", "city": "New York", "zip_code": "10013"}, "is_closed": false, "review_count": 165, "coordinates": {"latitude": 40.72572, "longitude": -74.00798}, "id": "union-bar-and-kitchen-new-york", "image_url": "https://s3-media2.fl.yelpcdn.com/bphoto/_sXdtiHi7qNUIUn0NWyQjQ/o.jpg", "categories": [{"alias": "newamerican", "title": "American (New)"}, {"alias": "bars", "title": "Bars"}, {"alias": "tradamerican", "title": "American (Traditional)"}], "rating": 4.5}, {"transactions": ["pickup"], "distance": 4007.2282756160002, "price": "$$", "display_phone": "(718) 398-3758", "phone": "+17183983758", "url": "https://www.yelp.com/biz/puerto-viejo-brooklyn?adjust_creative=gBcvfFpabk3CnzmXKdYe3w&utm_campaign=yelp_api_v3&utm_medium=api_v3_business_search&utm_source=gBcvfFpabk3CnzmXKdYe3w", "name": "Puerto Viejo", "location": {"display_address": ["564 Grand Ave", "Brooklyn, NY 11238"], "country": "US", "state": "NY", "address3": "", "address2": null, "address1": "564 Grand Ave", "city": "Brooklyn", "zip_code": "11238"}, "is_closed": false, "review_count": 313, "coordinates": {"latitude": 40.6788712, "longitude": -73.9622498}, "id": "puerto-viejo-brooklyn", "image_url": "https://s3-media1.fl.yelpcdn.com/bphoto/faGvKknnXFxShzgThA7-xw/o.jpg", "categories": [{"alias": "dominican", "title": "Dominican"}], "rating": 4.0}, {"transactions": [], "distance": 2731.29781836, "display_phone": "", "phone": "", "url": "https://www.yelp.com/biz/the-cube-astor-place-new-york?adjust_creative=gBcvfFpabk3CnzmXKdYe3w&utm_campaign=yelp_api_v3&utm_medium=api_v3_business_search&utm_source=gBcvfFpabk3CnzmXKdYe3w", "name": "The Cube @ Astor Place", "location": {"display_address": ["Cooper Sq At Lafayette St", "New York, NY 10079"], "country": "US", "state": "NY", "address3": "", "address2": "", "address1": "Cooper Sq At Lafayette St", "city": "New York", "zip_code": "10079"}, "is_closed": false, "review_count": 90, "coordinates": {"latitude": 40.729909, "longitude": -73.991378}, "id": "the-cube-astor-place-new-york", "image_url": "https://s3-media3.fl.yelpcdn.com/bphoto/g0VONjLzF3UneZO7WWtMgA/o.jpg", "categories": [{"alias": "publicart", "title": "Public Art"}], "rating": 4.5}, {"transactions": [], "distance": 5325.920345078, "price": "$$", "display_phone": "(646) 678-3833", "phone": "+16466783833", "url": "https://www.yelp.com/biz/red-eye-coffee-new-york?adjust_creative=gBcvfFpabk3CnzmXKdYe3w&utm_campaign=yelp_api_v3&utm_medium=api_v3_business_search&utm_source=gBcvfFpabk3CnzmXKdYe3w", "name": "Red Eye Coffee", "location": {"display_address": ["423 9th Ave", "New York, NY 10001"], "country": "US", "state": "NY", "address3": null, "address2": "", "address1": "423 9th Ave", "city": "New York", "zip_code": "10001"}, "is_closed": false, "review_count": 32, "coordinates": {"latitude": 40.7533051, "longitude": -73.9968115}, "id": "red-eye-coffee-new-york", "image_url": "https://s3-media4.fl.yelpcdn.com/bphoto/aALlxsRYP8HjxoGlo1xw1A/o.jpg", "categories": [{"alias": "coffee", "title": "Coffee & Tea"}], "rating": 4.5}, {"transactions": [], "distance": 2630.3778772339997, "price": "$$", "display_phone": "(212) 777-9292", "phone": "+12127779292", "url": "https://www.yelp.com/biz/court-street-grocers-laguardia-place-new-york?adjust_creative=gBcvfFpabk3CnzmXKdYe3w&utm_campaign=yelp_api_v3&utm_medium=api_v3_business_search&utm_source=gBcvfFpabk3CnzmXKdYe3w", "name": "Court Street Grocers LaGuardia Place", "location": {"display_address": ["540 Laguardia Pl", "New York, NY 10012"], "country": "US", "state": "NY", "address3": "", "address2": "", "address1": "540 Laguardia Pl", "city": "New York", "zip_code": "10012"}, "is_closed": false, "review_count": 56, "coordinates": {"latitude": 40.728893, "longitude": -73.998603}, "id": "court-street-grocers-laguardia-place-new-york", "image_url": "https://s3-media2.fl.yelpcdn.com/bphoto/T8JxZonJMMDyVSrecwXTPw/o.jpg", "categories": [{"alias": "sandwiches", "title": "Sandwiches"}, {"alias": "newamerican", "title": "American (New)"}, {"alias": "breakfast_brunch", "title": "Breakfast & Brunch"}], "rating": 4.5}, {"transactions": [], "distance": 5055.121531298, "price": "$$$$", "display_phone": "(212) 613-8660", "phone": "+12126138660", "url": "https://www.yelp.com/biz/ai-fiori-new-york?adjust_creative=gBcvfFpabk3CnzmXKdYe3w&utm_campaign=yelp_api_v3&utm_medium=api_v3_business_search&utm_source=gBcvfFpabk3CnzmXKdYe3w", "name": "Ai Fiori", "location": {"display_address": ["400 5th Ave", "2nd level", "New York, NY 10018"], "country": "US", "state": "NY", "address3": "2nd level", "address2": "", "address1": "400 5th Ave", "city": "New York", "zip_code": "10018"}, "is_closed": false, "review_count": 890, "coordinates": {"latitude": 40.7501, "longitude": -73.98381}, "id": "ai-fiori-new-york", "image_url": "https://s3-media4.fl.yelpcdn.com/bphoto/AmsJmvCsiSgoRfVuTVAUGQ/o.jpg", "categories": [{"alias": "italian", "title": "Italian"}, {"alias": "french", "title": "French"}, {"alias": "seafood", "title": "Seafood"}], "rating": 4.0}, {"transactions": [], "distance": 1632.1012174879997, "price": "$$", "display_phone": "(212) 226-9171", "phone": "+12122269171", "url": "https://www.yelp.com/biz/benito-one-new-york?adjust_creative=gBcvfFpabk3CnzmXKdYe3w&utm_campaign=yelp_api_v3&utm_medium=api_v3_business_search&utm_source=gBcvfFpabk3CnzmXKdYe3w", "name": "Benito One", "location": {"display_address": ["174 Mulberry St", "New York, NY 10013"], "country": "US", "state": "NY", "address3": "", "address2": "", "address1": "174 Mulberry St", "city": "New York", "zip_code": "10013"}, "is_closed": false, "review_count": 411, "coordinates": {"latitude": 40.7199876084147, "longitude": -73.9969271421432}, "id": "benito-one-new-york", "image_url": "https://s3-media2.fl.yelpcdn.com/bphoto/CMFbQYlmWMdVu1CteLwKGw/o.jpg", "categories": [{"alias": "italian", "title": "Italian"}], "rating": 4.0}, {"transactions": ["delivery", "pickup"], "distance": 1544.7115931977999, "price": "$$", "display_phone": "(212) 966-2737", "phone": "+12129662737", "url": "https://www.yelp.com/biz/berkli-parc-cafe-new-york?adjust_creative=gBcvfFpabk3CnzmXKdYe3w&utm_campaign=yelp_api_v3&utm_medium=api_v3_business_search&utm_source=gBcvfFpabk3CnzmXKdYe3w", "name": "Berkli Parc Cafe", "location": {"display_address": ["63 Delancey St", "New York, NY 10002"], "country": "US", "state": "NY", "address3": "", "address2": "", "address1": "63 Delancey St", "city": "New York", "zip_code": "10002"}, "is_closed": false, "review_count": 360, "coordinates": {"latitude": 40.7191369, "longitude": -73.9908998}, "id": "berkli-parc-cafe-new-york", "image_url": "https://s3-media4.fl.yelpcdn.com/bphoto/C-rfJ0Y-B5YsXUMC_fIr4g/o.jpg", "categories": [{"alias": "coffee", "title": "Coffee & Tea"}, {"alias": "sandwiches", "title": "Sandwiches"}, {"alias": "salad", "title": "Salad"}], "rating": 4.0}, {"transactions": [], "distance": 3013.970825462, "price": "$$$$", "display_phone": "(212) 777-0303", "phone": "+12127770303", "url": "https://www.yelp.com/biz/babbo-new-york?adjust_creative=gBcvfFpabk3CnzmXKdYe3w&utm_campaign=yelp_api_v3&utm_medium=api_v3_business_search&utm_source=gBcvfFpabk3CnzmXKdYe3w", "name": "Babbo", "location": {"display_address": ["110 Waverly Pl", "New York, NY 10011"], "country": "US", "state": "NY", "address3": "", "address2": "", "address1": "110 Waverly Pl", "city": "New York", "zip_code": "10011"}, "is_closed": false, "review_count": 2041, "coordinates": {"latitude": 40.732283, "longitude": -73.999284}, "id": "babbo-new-york", "image_url": "https://s3-media2.fl.yelpcdn.com/bphoto/TBAbo22beco-TAV3hMGYKA/o.jpg", "categories": [{"alias": "italian", "title": "Italian"}, {"alias": "bars", "title": "Bars"}], "rating": 4.0}, {"transactions": [], "distance": 5584.909821938, "price": "$$", "display_phone": "(718) 392-2033", "phone": "+17183922033", "url": "https://www.yelp.com/biz/jora-restaurant-and-bar-long-island-city?adjust_creative=gBcvfFpabk3CnzmXKdYe3w&utm_campaign=yelp_api_v3&utm_medium=api_v3_business_search&utm_source=gBcvfFpabk3CnzmXKdYe3w", "name": "Jora Restaurant & Bar", "location": {"display_address": ["47-46 11th St", "Long Island City, NY 11101"], "country": "US", "state": "NY", "address3": "", "address2": "", "address1": "47-46 11th St", "city": "Long Island City", "zip_code": "11101"}, "is_closed": false, "review_count": 276, "coordinates": {"latitude": 40.74381, "longitude": -73.95153}, "id": "jora-restaurant-and-bar-long-island-city", "image_url": "https://s3-media3.fl.yelpcdn.com/bphoto/Fzckhw-nQGKVyBUKmsIfMA/o.jpg", "categories": [{"alias": "peruvian", "title": "Peruvian"}], "rating": 4.5}, {"transactions": [], "distance": 5493.328398029999, "price": "$$", "display_phone": "(347) 413-9695", "phone": "+13474139695", "url": "https://www.yelp.com/biz/santa-panza-brooklyn?adjust_creative=gBcvfFpabk3CnzmXKdYe3w&utm_campaign=yelp_api_v3&utm_medium=api_v3_business_search&utm_source=gBcvfFpabk3CnzmXKdYe3w", "name": "Santa Panza", "location": {"display_address": ["1079 Broadway", "Brooklyn, NY 11221"], "country": "US", "state": "NY", "address3": "", "address2": null, "address1": "1079 Broadway", "city": "Brooklyn", "zip_code": "11221"}, "is_closed": false, "review_count": 37, "coordinates": {"latitude": 40.694694, "longitude": -73.930679}, "id": "santa-panza-brooklyn", "image_url": "https://s3-media3.fl.yelpcdn.com/bphoto/9oVqGDA92Q4whCxaQBatDg/o.jpg", "categories": [{"alias": "bars", "title": "Bars"}, {"alias": "pizza", "title": "Pizza"}, {"alias": "italian", "title": "Italian"}], "rating": 5.0}, {"transactions": ["delivery", "pickup"], "distance": 4510.08844564, "price": "$$", "display_phone": "(212) 683-7800", "phone": "+12126837800", "url": "https://www.yelp.com/biz/blank-slate-coffee-kitchen-new-york?adjust_creative=gBcvfFpabk3CnzmXKdYe3w&utm_campaign=yelp_api_v3&utm_medium=api_v3_business_search&utm_source=gBcvfFpabk3CnzmXKdYe3w", "name": "Blank Slate Coffee + Kitchen", "location": {"display_address": ["121 Madison Ave", "New York, NY 10016"], "country": "US", "state": "NY", "address3": "", "address2": "", "address1": "121 Madison Ave", "city": "New York", "zip_code": "10016"}, "is_closed": false, "review_count": 329, "coordinates": {"latitude": 40.7453293, "longitude": -73.9845257}, "id": "blank-slate-coffee-kitchen-new-york", "image_url": "https://s3-media2.fl.yelpcdn.com/bphoto/Uibp2Vlp9mkxTSBobXLzfw/o.jpg", "categories": [{"alias": "coffee", "title": "Coffee & Tea"}, {"alias": "breakfast_brunch", "title": "Breakfast & Brunch"}, {"alias": "bars", "title": "Bars"}], "rating": 4.0}, {"transactions": [], "distance": 2144.8111920479996, "price": "$$$", "display_phone": "(212) 460-5255", "phone": "+12124605255", "url": "https://www.yelp.com/biz/bowery-meat-company-new-york?adjust_creative=gBcvfFpabk3CnzmXKdYe3w&utm_campaign=yelp_api_v3&utm_medium=api_v3_business_search&utm_source=gBcvfFpabk3CnzmXKdYe3w", "name": "Bowery Meat Company", "location": {"display_address": ["9 E 1st St", "New York, NY 10003"], "country": "US", "state": "NY", "address3": "", "address2": "", "address1": "9 E 1st St", "city": "New York", "zip_code": "10003"}, "is_closed": false, "review_count": 252, "coordinates": {"latitude": 40.7246226077592, "longitude": -73.9917780943962}, "id": "bowery-meat-company-new-york", "image_url": "https://s3-media3.fl.yelpcdn.com/bphoto/u2dWpC6yGM1Ia2mfCrahBA/o.jpg", "categories": [{"alias": "steak", "title": "Steakhouses"}, {"alias": "seafood", "title": "Seafood"}, {"alias": "meats", "title": "Meat Shops"}], "rating": 4.0}, {"transactions": [], "distance": 4732.49440562, "price": "$$", "display_phone": "(212) 473-2233", "phone": "+12124732233", "url": "https://www.yelp.com/biz/jongro-bbq-new-york-3?adjust_creative=gBcvfFpabk3CnzmXKdYe3w&utm_campaign=yelp_api_v3&utm_medium=api_v3_business_search&utm_source=gBcvfFpabk3CnzmXKdYe3w", "name": "Jongro BBQ", "location": {"display_address": ["22 W 32nd St", "New York, NY 10001"], "country": "US", "state": "NY", "address3": "", "address2": "", "address1": "22 W 32nd St", "city": "New York", "zip_code": "10001"}, "is_closed": false, "review_count": 765, "coordinates": {"latitude": 40.7476565493869, "longitude": -73.987140232663}, "id": "jongro-bbq-new-york-3", "image_url": "https://s3-media2.fl.yelpcdn.com/bphoto/pRGuCc3DNh7s6bNsSjK7wA/o.jpg", "categories": [{"alias": "korean", "title": "Korean"}, {"alias": "bbq", "title": "Barbeque"}, {"alias": "beerbar", "title": "Beer Bar"}], "rating": 4.0}, {"transactions": [], "distance": 3146.097317594, "price": "$$", "display_phone": "(718) 387-8783", "phone": "+17183878783", "url": "https://www.yelp.com/biz/walter-foods-brooklyn?adjust_creative=gBcvfFpabk3CnzmXKdYe3w&utm_campaign=yelp_api_v3&utm_medium=api_v3_business_search&utm_source=gBcvfFpabk3CnzmXKdYe3w", "name": "Walter Foods", "location": {"display_address": ["253 Grand St", "Brooklyn, NY 11211"], "country": "US", "state": "NY", "address3": "", "address2": "", "address1": "253 Grand St", "city": "Brooklyn", "zip_code": "11211"}, "is_closed": false, "review_count": 450, "coordinates": {"latitude": 40.713588, "longitude": -73.958488}, "id": "walter-foods-brooklyn", "image_url": "https://s3-media4.fl.yelpcdn.com/bphoto/aE_SqYGW-kQ0XAWRR4LNzQ/o.jpg", "categories": [{"alias": "tradamerican", "title": "American (Traditional)"}, {"alias": "cocktailbars", "title": "Cocktail Bars"}], "rating": 4.0}, {"transactions": [], "distance": 1483.8044632776, "price": "$$", "display_phone": "(212) 837-2816", "phone": "+12128372816", "url": "https://www.yelp.com/biz/louie-and-chan-new-york?adjust_creative=gBcvfFpabk3CnzmXKdYe3w&utm_campaign=yelp_api_v3&utm_medium=api_v3_business_search&utm_source=gBcvfFpabk3CnzmXKdYe3w", "name": "Louie and Chan", "location": {"display_address": ["303 Broome St", "New York, NY 10002"], "country": "US", "state": "NY", "address3": "", "address2": "", "address1": "303 Broome St", "city": "New York", "zip_code": "10002"}, "is_closed": false, "review_count": 172, "coordinates": {"latitude": 40.7187118, "longitude": -73.9924058}, "id": "louie-and-chan-new-york", "image_url": "https://s3-media2.fl.yelpcdn.com/bphoto/Z4DZRsQFoQrs8GZm2AtaCA/o.jpg", "categories": [{"alias": "italian", "title": "Italian"}, {"alias": "lounges", "title": "Lounges"}, {"alias": "cocktailbars", "title": "Cocktail Bars"}], "rating": 4.0}, {"transactions": [], "distance": 3322.0817043399998, "price": "$", "display_phone": "(212) 473-5150", "phone": "+12124735150", "url": "https://www.yelp.com/biz/joe-jr-restaurant-new-york?adjust_creative=gBcvfFpabk3CnzmXKdYe3w&utm_campaign=yelp_api_v3&utm_medium=api_v3_business_search&utm_source=gBcvfFpabk3CnzmXKdYe3w", "name": "Joe Jr. Restaurant", "location": {"display_address": ["167 3rd Ave", "New York, NY 10003"], "country": "US", "state": "NY", "address3": "", "address2": "", "address1": "167 3rd Ave", "city": "New York", "zip_code": "10003"}, "is_closed": false, "review_count": 242, "coordinates": {"latitude": 40.734634, "longitude": -73.985877}, "id": "joe-jr-restaurant-new-york", "image_url": "https://s3-media2.fl.yelpcdn.com/bphoto/2UX3xg_FuOZgkTxxLVBCSQ/o.jpg", "categories": [{"alias": "diners", "title": "Diners"}], "rating": 4.0}, {"transactions": [], "distance": 7682.368598495999, "price": "$", "display_phone": "", "phone": "", "url": "https://www.yelp.com/biz/wafels-and-dinges-new-york-4?adjust_creative=gBcvfFpabk3CnzmXKdYe3w&utm_campaign=yelp_api_v3&utm_medium=api_v3_business_search&utm_source=gBcvfFpabk3CnzmXKdYe3w", "name": "Wafels & Dinges", "location": {"display_address": ["Broadway & 66th St", "Goesting Cart", "New York, NY 10023"], "country": "US", "state": "NY", "address3": "Goesting Cart", "address2": "", "address1": "Broadway & 66th St", "city": "New York", "zip_code": "10023"}, "is_closed": false, "review_count": 176, "coordinates": {"latitude": 40.7739239585793, "longitude": -73.9823399402628}, "id": "wafels-and-dinges-new-york-4", "image_url": "https://s3-media3.fl.yelpcdn.com/bphoto/XYe1qn70OuOfJWil7zqAjA/o.jpg", "categories": [{"alias": "foodstands", "title": "Food Stands"}, {"alias": "waffles", "title": "Waffles"}, {"alias": "belgian", "title": "Belgian"}], "rating": 4.5}, {"transactions": [], "distance": 3004.762825718, "price": "$$", "display_phone": "", "phone": "", "url": "https://www.yelp.com/biz/brewklyn-grind-coffee-roasters-brooklyn-2?adjust_creative=gBcvfFpabk3CnzmXKdYe3w&utm_campaign=yelp_api_v3&utm_medium=api_v3_business_search&utm_source=gBcvfFpabk3CnzmXKdYe3w", "name": "Brewklyn Grind Coffee Roasters", "location": {"display_address": ["557 Myrtle Ave", "Brooklyn, NY 11205"], "country": "US", "state": "NY", "address3": "", "address2": null, "address1": "557 Myrtle Ave", "city": "Brooklyn", "zip_code": "11205"}, "is_closed": false, "review_count": 43, "coordinates": {"latitude": 40.69412, "longitude": -73.96195}, "id": "brewklyn-grind-coffee-roasters-brooklyn-2", "image_url": "https://s3-media2.fl.yelpcdn.com/bphoto/5oy7-S7CL7kryLXPsm4Y-w/o.jpg", "categories": [{"alias": "coffee", "title": "Coffee & Tea"}], "rating": 4.5}, {"transactions": [], "distance": 3188.7950390019996, "price": "$", "display_phone": "(929) 228-9008", "phone": "+19292289008", "url": "https://www.yelp.com/biz/321-ice-cream-shop-brooklyn?adjust_creative=gBcvfFpabk3CnzmXKdYe3w&utm_campaign=yelp_api_v3&utm_medium=api_v3_business_search&utm_source=gBcvfFpabk3CnzmXKdYe3w", "name": "-321\u00b0 Ice Cream Shop", "location": {"display_address": ["288 Grand St", "Brooklyn, NY 11211"], "country": "US", "state": "NY", "address3": "", "address2": null, "address1": "288 Grand St", "city": "Brooklyn", "zip_code": "11211"}, "is_closed": false, "review_count": 256, "coordinates": {"latitude": 40.712905, "longitude": -73.957787}, "id": "321-ice-cream-shop-brooklyn", "image_url": "https://s3-media2.fl.yelpcdn.com/bphoto/ZI6KM5vhwkXCg2I_1_76hw/o.jpg", "categories": [{"alias": "desserts", "title": "Desserts"}, {"alias": "icecream", "title": "Ice Cream & Frozen Yogurt"}, {"alias": "coffee", "title": "Coffee & Tea"}], "rating": 4.0}, {"transactions": [], "distance": 2890.276148392, "price": "$", "display_phone": "", "phone": "", "url": "https://www.yelp.com/biz/luckydog-brooklyn?adjust_creative=gBcvfFpabk3CnzmXKdYe3w&utm_campaign=yelp_api_v3&utm_medium=api_v3_business_search&utm_source=gBcvfFpabk3CnzmXKdYe3w", "name": "Luckydog", "location": {"display_address": ["303 Bedford Ave", "Brooklyn, NY 11211"], "country": "US", "state": "NY", "address3": "", "address2": "", "address1": "303 Bedford Ave", "city": "Brooklyn", "zip_code": "11211"}, "is_closed": false, "review_count": 220, "coordinates": {"latitude": 40.7134799, "longitude": -73.96166}, "id": "luckydog-brooklyn", "image_url": "https://s3-media3.fl.yelpcdn.com/bphoto/1pM2Zvmr_MTb-0pHsN68aw/o.jpg", "categories": [{"alias": "bars", "title": "Bars"}], "rating": 4.0}, {"transactions": [], "distance": 8778.710873944, "price": "$$", "display_phone": "(212) 452-0476", "phone": "+12124520476", "url": "https://www.yelp.com/biz/two-little-red-hens-new-york-4?adjust_creative=gBcvfFpabk3CnzmXKdYe3w&utm_campaign=yelp_api_v3&utm_medium=api_v3_business_search&utm_source=gBcvfFpabk3CnzmXKdYe3w", "name": "Two Little Red Hens", "location": {"display_address": ["1652 2nd Ave", "New York, NY 10028"], "country": "US", "state": "NY", "address3": "", "address2": null, "address1": "1652 2nd Ave", "city": "New York", "zip_code": "10028"}, "is_closed": false, "review_count": 1857, "coordinates": {"latitude": 40.777528, "longitude": -73.9517869}, "id": "two-little-red-hens-new-york-4", "image_url": "https://s3-media3.fl.yelpcdn.com/bphoto/gF02Oh2PfE2OS7Nz3MqV4g/o.jpg", "categories": [{"alias": "bakeries", "title": "Bakeries"}, {"alias": "desserts", "title": "Desserts"}, {"alias": "coffee", "title": "Coffee & Tea"}], "rating": 4.5}, {"transactions": ["delivery", "pickup"], "distance": 2059.962281096, "price": "$", "display_phone": "(212) 780-6020", "phone": "+12127806020", "url": "https://www.yelp.com/biz/v-nam-cafe-new-york?adjust_creative=gBcvfFpabk3CnzmXKdYe3w&utm_campaign=yelp_api_v3&utm_medium=api_v3_business_search&utm_source=gBcvfFpabk3CnzmXKdYe3w", "name": "V-Nam Cafe", "location": {"display_address": ["20 1st Ave", "New York, NY 10003"], "country": "US", "state": "NY", "address3": "", "address2": "", "address1": "20 1st Ave", "city": "New York", "zip_code": "10003"}, "is_closed": false, "review_count": 360, "coordinates": {"latitude": 40.7233696141088, "longitude": -73.9881201811982}, "id": "v-nam-cafe-new-york", "image_url": "https://s3-media2.fl.yelpcdn.com/bphoto/HwmGSo7GKQ_n4vo8E1B8ww/o.jpg", "categories": [{"alias": "vietnamese", "title": "Vietnamese"}, {"alias": "sandwiches", "title": "Sandwiches"}, {"alias": "coffee", "title": "Coffee & Tea"}], "rating": 4.0}, {"transactions": [], "distance": 2446.805291454, "price": "$$$", "display_phone": "(212) 674-5870", "phone": "+12126745870", "url": "https://www.yelp.com/biz/the-mermaid-inn-new-york?adjust_creative=gBcvfFpabk3CnzmXKdYe3w&utm_campaign=yelp_api_v3&utm_medium=api_v3_business_search&utm_source=gBcvfFpabk3CnzmXKdYe3w", "name": "The Mermaid Inn", "location": {"display_address": ["96 2nd Ave", "New York, NY 10003"], "country": "US", "state": "NY", "address3": "", "address2": "", "address1": "96 2nd Ave", "city": "New York", "zip_code": "10003"}, "is_closed": false, "review_count": 1079, "coordinates": {"latitude": 40.7269999, "longitude": -73.98844}, "id": "the-mermaid-inn-new-york", "image_url": "https://s3-media2.fl.yelpcdn.com/bphoto/--ewDybgwoMu-aJ9aXqSlw/o.jpg", "categories": [{"alias": "seafood", "title": "Seafood"}], "rating": 4.0}, {"transactions": [], "distance": 1898.2174956039999, "price": "$$", "display_phone": "(212) 777-1577", "phone": "+12127771577", "url": "https://www.yelp.com/biz/le-french-diner-new-york?adjust_creative=gBcvfFpabk3CnzmXKdYe3w&utm_campaign=yelp_api_v3&utm_medium=api_v3_business_search&utm_source=gBcvfFpabk3CnzmXKdYe3w", "name": "Le French Diner", "location": {"display_address": ["188 Orchard St", "New York, NY 10002"], "country": "US", "state": "NY", "address3": "", "address2": "", "address1": "188 Orchard St", "city": "New York", "zip_code": "10002"}, "is_closed": false, "review_count": 63, "coordinates": {"latitude": 40.7218274586187, "longitude": -73.9879689992204}, "id": "le-french-diner-new-york", "image_url": "https://s3-media2.fl.yelpcdn.com/bphoto/5T0l004Gls3IEZmz5t38PQ/o.jpg", "categories": [{"alias": "french", "title": "French"}], "rating": 4.5}, {"transactions": ["delivery", "pickup"], "distance": 3192.51374094, "price": "$$", "display_phone": "(212) 243-7200", "phone": "+12122437200", "url": "https://www.yelp.com/biz/delice-and-sarrasin-new-york?adjust_creative=gBcvfFpabk3CnzmXKdYe3w&utm_campaign=yelp_api_v3&utm_medium=api_v3_business_search&utm_source=gBcvfFpabk3CnzmXKdYe3w", "name": "Delice & Sarrasin", "location": {"display_address": ["20 Christopher St", "New York, NY 10014"], "country": "US", "state": "NY", "address3": "", "address2": null, "address1": "20 Christopher St", "city": "New York", "zip_code": "10014"}, "is_closed": false, "review_count": 121, "coordinates": {"latitude": 40.733764, "longitude": -74.000648}, "id": "delice-and-sarrasin-new-york", "image_url": "https://s3-media2.fl.yelpcdn.com/bphoto/2L_FcfeFfCDKkEeuhLcY4Q/o.jpg", "categories": [{"alias": "vegetarian", "title": "Vegetarian"}, {"alias": "french", "title": "French"}, {"alias": "vegan", "title": "Vegan"}], "rating": 4.5}, {"transactions": [], "distance": 1664.5054393219998, "price": "$$", "display_phone": "(212) 732-5005", "phone": "+12127325005", "url": "https://www.yelp.com/biz/suspenders-new-york?adjust_creative=gBcvfFpabk3CnzmXKdYe3w&utm_campaign=yelp_api_v3&utm_medium=api_v3_business_search&utm_source=gBcvfFpabk3CnzmXKdYe3w", "name": "Suspenders", "location": {"display_address": ["108 Greenwich St", "New York, NY 10006"], "country": "US", "state": "NY", "address3": "", "address2": "", "address1": "108 Greenwich St", "city": "New York", "zip_code": "10006"}, "is_closed": false, "review_count": 62, "coordinates": {"latitude": 40.70861, "longitude": -74.01362}, "id": "suspenders-new-york", "image_url": "https://s3-media4.fl.yelpcdn.com/bphoto/YK6mtvXue90MjNNYrMLgRA/o.jpg", "categories": [{"alias": "gastropubs", "title": "Gastropubs"}, {"alias": "comfortfood", "title": "Comfort Food"}], "rating": 4.5}, {"transactions": [], "distance": 1991.791443366, "price": "$$", "display_phone": "(718) 522-0969", "phone": "+17185220969", "url": "https://www.yelp.com/biz/absolute-coffee-brooklyn?adjust_creative=gBcvfFpabk3CnzmXKdYe3w&utm_campaign=yelp_api_v3&utm_medium=api_v3_business_search&utm_source=gBcvfFpabk3CnzmXKdYe3w", "name": "Absolute Coffee", "location": {"display_address": ["327 Atlantic Ave", "Brooklyn, NY 11201"], "country": "US", "state": "NY", "address3": "", "address2": null, "address1": "327 Atlantic Ave", "city": "Brooklyn", "zip_code": "11201"}, "is_closed": false, "review_count": 97, "coordinates": {"latitude": 40.688267, "longitude": -73.987595}, "id": "absolute-coffee-brooklyn", "image_url": "https://s3-media2.fl.yelpcdn.com/bphoto/lTdTvV3OZsaDhPD71E67Sw/o.jpg", "categories": [{"alias": "coffee", "title": "Coffee & Tea"}], "rating": 4.5}, {"transactions": ["pickup"], "distance": 9415.09122454, "price": "$", "display_phone": "(718) 728-4392", "phone": "+17187284392", "url": "https://www.yelp.com/biz/sorriso-italian-pork-store-astoria?adjust_creative=gBcvfFpabk3CnzmXKdYe3w&utm_campaign=yelp_api_v3&utm_medium=api_v3_business_search&utm_source=gBcvfFpabk3CnzmXKdYe3w", "name": "Sorriso Italian Pork Store", "location": {"display_address": ["4416 30th Ave", "Astoria, NY 11103"], "country": "US", "state": "NY", "address3": "", "address2": "", "address1": "4416 30th Ave", "city": "Astoria", "zip_code": "11103"}, "is_closed": false, "review_count": 256, "coordinates": {"latitude": 40.7621401, "longitude": -73.9116109}, "id": "sorriso-italian-pork-store-astoria", "image_url": "https://s3-media2.fl.yelpcdn.com/bphoto/dvxi-CbExJ0EHogqQbwhrw/o.jpg", "categories": [{"alias": "meats", "title": "Meat Shops"}, {"alias": "delis", "title": "Delis"}, {"alias": "sandwiches", "title": "Sandwiches"}], "rating": 4.5}, {"transactions": [], "distance": 4180.70643718, "price": "$$", "display_phone": "(718) 389-8600", "phone": "+17183898600", "url": "https://www.yelp.com/biz/scalino-brooklyn-2?adjust_creative=gBcvfFpabk3CnzmXKdYe3w&utm_campaign=yelp_api_v3&utm_medium=api_v3_business_search&utm_source=gBcvfFpabk3CnzmXKdYe3w", "name": "Scalino", "location": {"display_address": ["659 Manhattan Ave", "Brooklyn, NY 11222"], "country": "US", "state": "NY", "address3": "", "address2": "", "address1": "659 Manhattan Ave", "city": "Brooklyn", "zip_code": "11222"}, "is_closed": false, "review_count": 147, "coordinates": {"latitude": 40.7244699, "longitude": -73.95151}, "id": "scalino-brooklyn-2", "image_url": "https://s3-media1.fl.yelpcdn.com/bphoto/GGR8dM4mGvhaYdk99F0t1w/o.jpg", "categories": [{"alias": "italian", "title": "Italian"}], "rating": 4.0}, {"transactions": [], "distance": 2489.2627383999998, "price": "$$", "display_phone": "(212) 254-7000", "phone": "+12122547000", "url": "https://www.yelp.com/biz/jane-new-york-2?adjust_creative=gBcvfFpabk3CnzmXKdYe3w&utm_campaign=yelp_api_v3&utm_medium=api_v3_business_search&utm_source=gBcvfFpabk3CnzmXKdYe3w", "name": "Jane", "location": {"display_address": ["100 W Houston St", "New York, NY 10012"], "country": "US", "state": "NY", "address3": "", "address2": "", "address1": "100 W Houston St", "city": "New York", "zip_code": "10012"}, "is_closed": false, "review_count": 2590, "coordinates": {"latitude": 40.727382, "longitude": -74.000205}, "id": "jane-new-york-2", "image_url": "https://s3-media3.fl.yelpcdn.com/bphoto/Uu0Wn-ACBmNGmDjbQu5w-A/o.jpg", "categories": [{"alias": "tradamerican", "title": "American (Traditional)"}, {"alias": "modern_european", "title": "Modern European"}], "rating": 4.0}, {"transactions": [], "distance": 1571.529039502, "price": "$$", "display_phone": "", "phone": "", "url": "https://www.yelp.com/biz/fig-19-new-york?adjust_creative=gBcvfFpabk3CnzmXKdYe3w&utm_campaign=yelp_api_v3&utm_medium=api_v3_business_search&utm_source=gBcvfFpabk3CnzmXKdYe3w", "name": "Fig 19", "location": {"display_address": ["131 1/2 Chrystie St", "New York, NY 10002"], "country": "US", "state": "NY", "address3": "", "address2": "", "address1": "131 1/2 Chrystie St", "city": "New York", "zip_code": "10002"}, "is_closed": false, "review_count": 176, "coordinates": {"latitude": 40.719555215168, "longitude": -73.993238280429}, "id": "fig-19-new-york", "image_url": "https://s3-media1.fl.yelpcdn.com/bphoto/h_wPtb6HzDQbCIVAlCEq6w/o.jpg", "categories": [{"alias": "lounges", "title": "Lounges"}], "rating": 4.0}, {"transactions": ["delivery", "pickup"], "distance": 1982.786703264, "price": "$$", "display_phone": "(718) 858-3880", "phone": "+17188583880", "url": "https://www.yelp.com/biz/luannes-wild-ginger-all-asian-vegan-brooklyn?adjust_creative=gBcvfFpabk3CnzmXKdYe3w&utm_campaign=yelp_api_v3&utm_medium=api_v3_business_search&utm_source=gBcvfFpabk3CnzmXKdYe3w", "name": "LuAnne's Wild Ginger All-Asian Vegan", "location": {"display_address": ["112 Smith St", "Brooklyn, NY 11201"], "country": "US", "state": "NY", "address3": "", "address2": "", "address1": "112 Smith St", "city": "Brooklyn", "zip_code": "11201"}, "is_closed": false, "review_count": 269, "coordinates": {"latitude": 40.687934, "longitude": -73.989921}, "id": "luannes-wild-ginger-all-asian-vegan-brooklyn", "image_url": "https://s3-media2.fl.yelpcdn.com/bphoto/nx_ToYYzJG32Tr6gbrzU2g/o.jpg", "categories": [{"alias": "asianfusion", "title": "Asian Fusion"}, {"alias": "vegetarian", "title": "Vegetarian"}, {"alias": "vegan", "title": "Vegan"}], "rating": 4.0}, {"transactions": [], "distance": 2137.02488326, "display_phone": "", "phone": "", "url": "https://www.yelp.com/biz/elite-event-too-cool-for-school-new-york?adjust_creative=gBcvfFpabk3CnzmXKdYe3w&utm_campaign=yelp_api_v3&utm_medium=api_v3_business_search&utm_source=gBcvfFpabk3CnzmXKdYe3w", "name": "Elite Event: Too Cool For School", "location": {"display_address": ["292 Lafayette St", "New York, NY 10012"], "country": "US", "state": "NY", "address3": null, "address2": "", "address1": "292 Lafayette St", "city": "New York", "zip_code": "10012"}, "is_closed": false, "review_count": 12, "coordinates": {"latitude": 40.72456, "longitude": -73.99595}, "id": "elite-event-too-cool-for-school-new-york", "image_url": "https://s3-media2.fl.yelpcdn.com/bphoto/2m9QUpbm6ZYZAtN_hZ_ohw/o.jpg", "categories": [{"alias": "yelpevents", "title": "Yelp Events"}], "rating": 5.0}, {"transactions": [], "distance": 2795.472986738, "price": "$", "display_phone": "(212) 777-2227", "phone": "+12127772227", "url": "https://www.yelp.com/biz/tu-lus-gluten-free-bakery-new-york?adjust_creative=gBcvfFpabk3CnzmXKdYe3w&utm_campaign=yelp_api_v3&utm_medium=api_v3_business_search&utm_source=gBcvfFpabk3CnzmXKdYe3w", "name": "Tu-Lu's Gluten-Free Bakery", "location": {"display_address": ["338 E 11th St", "New York, NY 10003"], "country": "US", "state": "NY", "address3": "", "address2": "", "address1": "338 E 11th St", "city": "New York", "zip_code": "10003"}, "is_closed": false, "review_count": 430, "coordinates": {"latitude": 40.72945, "longitude": -73.98473}, "id": "tu-lus-gluten-free-bakery-new-york", "image_url": "https://s3-media3.fl.yelpcdn.com/bphoto/8FXeiUii7ZvLjsZ_UwdPDw/o.jpg", "categories": [{"alias": "bakeries", "title": "Bakeries"}, {"alias": "gluten_free", "title": "Gluten-Free"}], "rating": 4.0}, {"transactions": [], "distance": 2185.784344712, "price": "$$", "display_phone": "(212) 941-1781", "phone": "+12129411781", "url": "https://www.yelp.com/biz/soho-cigar-bar-new-york-2?adjust_creative=gBcvfFpabk3CnzmXKdYe3w&utm_campaign=yelp_api_v3&utm_medium=api_v3_business_search&utm_source=gBcvfFpabk3CnzmXKdYe3w", "name": "SoHo Cigar Bar", "location": {"display_address": ["32 Watts St", "New York, NY 10013"], "country": "US", "state": "NY", "address3": "", "address2": "", "address1": "32 Watts St", "city": "New York", "zip_code": "10013"}, "is_closed": false, "review_count": 154, "coordinates": {"latitude": 40.7236164016831, "longitude": -74.004506223247}, "id": "soho-cigar-bar-new-york-2", "image_url": "https://s3-media3.fl.yelpcdn.com/bphoto/wFf0bb9XlrTgTZcj0flr0Q/o.jpg", "categories": [{"alias": "lounges", "title": "Lounges"}, {"alias": "cocktailbars", "title": "Cocktail Bars"}, {"alias": "tobaccoshops", "title": "Tobacco Shops"}], "rating": 4.0}, {"transactions": [], "distance": 1717.0989923899997, "price": "$$", "display_phone": "(212) 614-2494", "phone": "+12126142494", "url": "https://www.yelp.com/biz/verlaine-new-york-2?adjust_creative=gBcvfFpabk3CnzmXKdYe3w&utm_campaign=yelp_api_v3&utm_medium=api_v3_business_search&utm_source=gBcvfFpabk3CnzmXKdYe3w", "name": "Verlaine", "location": {"display_address": ["110 Rivington St", "New York, NY 10002"], "country": "US", "state": "NY", "address3": "", "address2": "", "address1": "110 Rivington St", "city": "New York", "zip_code": "10002"}, "is_closed": false, "review_count": 1207, "coordinates": {"latitude": 40.720079, "longitude": -73.987785}, "id": "verlaine-new-york-2", "image_url": "https://s3-media3.fl.yelpcdn.com/bphoto/vGCwhlu808jSfaN-n03jMg/o.jpg", "categories": [{"alias": "tapasmallplates", "title": "Tapas/Small Plates"}, {"alias": "lounges", "title": "Lounges"}], "rating": 4.0}, {"transactions": ["delivery", "pickup"], "distance": 1285.975152866, "price": "$", "display_phone": "(212) 625-8299", "phone": "+12126258299", "url": "https://www.yelp.com/biz/spicy-village-new-york?adjust_creative=gBcvfFpabk3CnzmXKdYe3w&utm_campaign=yelp_api_v3&utm_medium=api_v3_business_search&utm_source=gBcvfFpabk3CnzmXKdYe3w", "name": "Spicy Village", "location": {"display_address": ["68 Forsyth St", "Ste B", "New York, NY 10002"], "country": "US", "state": "NY", "address3": "", "address2": "Ste B", "address1": "68 Forsyth St", "city": "New York", "zip_code": "10002"}, "is_closed": false, "review_count": 321, "coordinates": {"latitude": 40.71695, "longitude": -73.99327}, "id": "spicy-village-new-york", "image_url": "https://s3-media4.fl.yelpcdn.com/bphoto/TqpDeBr3BFCBFFtnsaMqHw/o.jpg", "categories": [{"alias": "chinese", "title": "Chinese"}], "rating": 4.0}, {"transactions": ["delivery", "pickup"], "distance": 1688.945359364, "price": "$", "display_phone": "(646) 964-5912", "phone": "+16469645912", "url": "https://www.yelp.com/biz/mazeish-grill-new-york-2?adjust_creative=gBcvfFpabk3CnzmXKdYe3w&utm_campaign=yelp_api_v3&utm_medium=api_v3_business_search&utm_source=gBcvfFpabk3CnzmXKdYe3w", "name": "Mazeish Grill", "location": {"display_address": ["137 Rivington St", "New York, NY 10002"], "country": "US", "state": "NY", "address3": "", "address2": "", "address1": "137 Rivington St", "city": "New York", "zip_code": "10002"}, "is_closed": false, "review_count": 141, "coordinates": {"latitude": 40.7194290765592, "longitude": -73.9864698797464}, "id": "mazeish-grill-new-york-2", "image_url": "https://s3-media2.fl.yelpcdn.com/bphoto/IW0NyXTe_7OiDJ1Q_KpR9w/o.jpg", "categories": [{"alias": "mediterranean", "title": "Mediterranean"}, {"alias": "mideastern", "title": "Middle Eastern"}], "rating": 4.5}, {"transactions": [], "distance": 3369.1977077839997, "price": "$$$", "display_phone": "(718) 384-5054", "phone": "+17183845054", "url": "https://www.yelp.com/biz/st-anselm-brooklyn?adjust_creative=gBcvfFpabk3CnzmXKdYe3w&utm_campaign=yelp_api_v3&utm_medium=api_v3_business_search&utm_source=gBcvfFpabk3CnzmXKdYe3w", "name": "St. Anselm", "location": {"display_address": ["355 Metropolitan Ave", "Brooklyn, NY 11211"], "country": "US", "state": "NY", "address3": "", "address2": "", "address1": "355 Metropolitan Ave", "city": "Brooklyn", "zip_code": "11211"}, "is_closed": false, "review_count": 631, "coordinates": {"latitude": 40.7143299, "longitude": -73.95604}, "id": "st-anselm-brooklyn", "image_url": "https://s3-media4.fl.yelpcdn.com/bphoto/GqchBSQ5wqr3aZZwNTqfDQ/o.jpg", "categories": [{"alias": "newamerican", "title": "American (New)"}, {"alias": "wine_bars", "title": "Wine Bars"}, {"alias": "steak", "title": "Steakhouses"}], "rating": 4.0}, {"transactions": [], "distance": 5033.486369008, "price": "$$", "display_phone": "(646) 368-9384", "phone": "+16463689384", "url": "https://www.yelp.com/biz/izakaya-mew-new-york-3?adjust_creative=gBcvfFpabk3CnzmXKdYe3w&utm_campaign=yelp_api_v3&utm_medium=api_v3_business_search&utm_source=gBcvfFpabk3CnzmXKdYe3w", "name": "Izakaya MEW", "location": {"display_address": ["53 W 35th St", "New York, NY 10001"], "country": "US", "state": "NY", "address3": "", "address2": "", "address1": "53 W 35th St", "city": "New York", "zip_code": "10001"}, "is_closed": false, "review_count": 1314, "coordinates": {"latitude": 40.7503134797577, "longitude": -73.9863838167321}, "id": "izakaya-mew-new-york-3", "image_url": "https://s3-media2.fl.yelpcdn.com/bphoto/AdfPEOzWk0bq_dwN3z7CKw/o.jpg", "categories": [{"alias": "sushi", "title": "Sushi Bars"}, {"alias": "izakaya", "title": "Izakaya"}, {"alias": "cocktailbars", "title": "Cocktail Bars"}], "rating": 4.0}, {"transactions": [], "distance": 1669.2185524459999, "price": "$$", "display_phone": "(212) 477-2998", "phone": "+12124772998", "url": "https://www.yelp.com/biz/the-whiskey-ward-new-york?adjust_creative=gBcvfFpabk3CnzmXKdYe3w&utm_campaign=yelp_api_v3&utm_medium=api_v3_business_search&utm_source=gBcvfFpabk3CnzmXKdYe3w", "name": "The Whiskey Ward", "location": {"display_address": ["121 Essex St", "New York, NY 10002"], "country": "US", "state": "NY", "address3": "", "address2": "", "address1": "121 Essex St", "city": "New York", "zip_code": "10002"}, "is_closed": false, "review_count": 260, "coordinates": {"latitude": 40.71966, "longitude": -73.98791}, "id": "the-whiskey-ward-new-york", "image_url": "https://s3-media3.fl.yelpcdn.com/bphoto/irv4jM1TKdu5y7v1ea3-nA/o.jpg", "categories": [{"alias": "whiskeybars", "title": "Whiskey Bars"}, {"alias": "beerbar", "title": "Beer Bar"}, {"alias": "cocktailbars", "title": "Cocktail Bars"}], "rating": 4.0}, {"transactions": ["delivery", "pickup"], "distance": 2395.96205657, "price": "$$", "display_phone": "(212) 941-7119", "phone": "+12129417119", "url": "https://www.yelp.com/biz/il-corallo-trattoria-new-york?adjust_creative=gBcvfFpabk3CnzmXKdYe3w&utm_campaign=yelp_api_v3&utm_medium=api_v3_business_search&utm_source=gBcvfFpabk3CnzmXKdYe3w", "name": "Il Corallo Trattoria", "location": {"display_address": ["176 Prince St", "New York, NY 10012"], "country": "US", "state": "NY", "address3": "", "address2": "", "address1": "176 Prince St", "city": "New York", "zip_code": "10012"}, "is_closed": false, "review_count": 682, "coordinates": {"latitude": 40.7262073, "longitude": -74.0018919}, "id": "il-corallo-trattoria-new-york", "image_url": "https://s3-media2.fl.yelpcdn.com/bphoto/rUR7_A6rCYAHPEb3Vw7OPg/o.jpg", "categories": [{"alias": "italian", "title": "Italian"}, {"alias": "pizza", "title": "Pizza"}], "rating": 4.0}, {"transactions": [], "distance": 4180.19305772, "price": "$$", "display_phone": "(646) 833-7097", "phone": "+16468337097", "url": "https://www.yelp.com/biz/dizengoff-nyc-new-york?adjust_creative=gBcvfFpabk3CnzmXKdYe3w&utm_campaign=yelp_api_v3&utm_medium=api_v3_business_search&utm_source=gBcvfFpabk3CnzmXKdYe3w", "name": "Dizengoff NYC", "location": {"display_address": ["75 9th Ave", "New York, NY 10011"], "country": "US", "state": "NY", "address3": "", "address2": null, "address1": "75 9th Ave", "city": "New York", "zip_code": "10011"}, "is_closed": false, "review_count": 105, "coordinates": {"latitude": 40.742063, "longitude": -74.005521}, "id": "dizengoff-nyc-new-york", "image_url": "https://s3-media1.fl.yelpcdn.com/bphoto/Bnm4TJi1UNOYvW5DOG_8Aw/o.jpg", "categories": [{"alias": "mideastern", "title": "Middle Eastern"}], "rating": 4.5}, {"transactions": ["delivery", "pickup"], "distance": 1913.0626915, "price": "$$", "display_phone": "(212) 966-1234", "phone": "+12129661234", "url": "https://www.yelp.com/biz/emporio-new-york?adjust_creative=gBcvfFpabk3CnzmXKdYe3w&utm_campaign=yelp_api_v3&utm_medium=api_v3_business_search&utm_source=gBcvfFpabk3CnzmXKdYe3w", "name": "Emporio", "location": {"display_address": ["231 Mott St", "New York, NY 10012"], "country": "US", "state": "NY", "address3": "", "address2": "", "address1": "231 Mott St", "city": "New York", "zip_code": "10012"}, "is_closed": false, "review_count": 578, "coordinates": {"latitude": 40.7226371, "longitude": -73.9951331}, "id": "emporio-new-york", "image_url": "https://s3-media1.fl.yelpcdn.com/bphoto/icsqHu5XVKnEwvoP47OAnw/o.jpg", "categories": [{"alias": "italian", "title": "Italian"}, {"alias": "pizza", "title": "Pizza"}], "rating": 4.0}, {"transactions": [], "distance": 3192.0980484179995, "price": "$$", "display_phone": "(646) 429-8383", "phone": "+16464298383", "url": "https://www.yelp.com/biz/joseph-leonard-new-york?adjust_creative=gBcvfFpabk3CnzmXKdYe3w&utm_campaign=yelp_api_v3&utm_medium=api_v3_business_search&utm_source=gBcvfFpabk3CnzmXKdYe3w", "name": "Joseph Leonard", "location": {"display_address": ["170 Waverly Pl", "New York, NY 10014"], "country": "US", "state": "NY", "address3": "", "address2": "", "address1": "170 Waverly Pl", "city": "New York", "zip_code": "10014"}, "is_closed": false, "review_count": 549, "coordinates": {"latitude": 40.7336021670705, "longitude": -74.001675412843}, "id": "joseph-leonard-new-york", "image_url": "https://s3-media1.fl.yelpcdn.com/bphoto/cObv8BDzUAkKW0jiKHO0KQ/o.jpg", "categories": [{"alias": "newamerican", "title": "American (New)"}, {"alias": "french", "title": "French"}], "rating": 4.0}, {"transactions": ["delivery", "pickup"], "distance": 2006.557942536, "price": "$$", "display_phone": "(212) 786-1888", "phone": "+12127861888", "url": "https://www.yelp.com/biz/ningbo-cafe-new-york-2?adjust_creative=gBcvfFpabk3CnzmXKdYe3w&utm_campaign=yelp_api_v3&utm_medium=api_v3_business_search&utm_source=gBcvfFpabk3CnzmXKdYe3w", "name": "Ningbo Cafe", "location": {"display_address": ["21 S End Ave", "New York, NY 10280"], "country": "US", "state": "NY", "address3": "", "address2": "", "address1": "21 S End Ave", "city": "New York", "zip_code": "10280"}, "is_closed": false, "review_count": 57, "coordinates": {"latitude": 40.708141, "longitude": -74.017791}, "id": "ningbo-cafe-new-york-2", "image_url": "https://s3-media1.fl.yelpcdn.com/bphoto/ftTIhHSmP8a6zSiO0wIqCw/o.jpg", "categories": [{"alias": "shanghainese", "title": "Shanghainese"}, {"alias": "szechuan", "title": "Szechuan"}, {"alias": "asianfusion", "title": "Asian Fusion"}], "rating": 4.5}, {"transactions": ["pickup"], "distance": 1293.3672216342, "price": "$$", "display_phone": "(212) 233-3985", "phone": "+12122333985", "url": "https://www.yelp.com/biz/proof-coffee-roasters-new-york?adjust_creative=gBcvfFpabk3CnzmXKdYe3w&utm_campaign=yelp_api_v3&utm_medium=api_v3_business_search&utm_source=gBcvfFpabk3CnzmXKdYe3w", "name": "PROOF Coffee Roasters", "location": {"display_address": ["65 Nassau St", "New York, NY 10038"], "country": "US", "state": "NY", "address3": "", "address2": null, "address1": "65 Nassau St", "city": "New York", "zip_code": "10038"}, "is_closed": false, "review_count": 33, "coordinates": {"latitude": 40.709487, "longitude": -74.008651}, "id": "proof-coffee-roasters-new-york", "image_url": "https://s3-media3.fl.yelpcdn.com/bphoto/r11Yhuyfs9BPuni6lmskUg/o.jpg", "categories": [{"alias": "coffee", "title": "Coffee & Tea"}], "rating": 5.0}], "total": 131352}