{"total": 131350, "region": {"center": {"longitude": -73.99429321289062, "latitude": 40.70544486444615}}, "businesses": [{"rating": 4.0, "is_closed": false, "distance": 2410.704093772, "name": "PMF Pardon My French", "id": "pmf-pardon-my-french-new-york", "image_url": "https://s3-media3.fl.yelpcdn.com/bphoto/jdmRrUkUXVWfDcPRWqdR0w/o.jpg", "url": "https://www.yelp.com/biz/pmf-pardon-my-french-new-york?adjust_creative=gBcvfFpabk3CnzmXKdYe3w&utm_campaign=yelp_api_v3&utm_medium=api_v3_business_search&utm_source=gBcvfFpabk3CnzmXKdYe3w", "phone": "+12123589683", "coordinates": {"longitude": -73.98115, "latitude": 40.72473}, "categories": [{"alias": "french", "title": "French"}, {"alias": "cocktailbars", "title": "Cocktail Bars"}, {"alias": "breakfast_brunch", "title": "Breakfast & Brunch"}], "review_count": 450, "location": {"city": "New York", "address1": "103 Ave B", "address3": "", "address2": "", "zip_code": "10009", "country": "US", "display_address": ["103 Ave B", "New York, NY 10009"], "state": "NY"}, "price": "$$", "transactions": [], "display_phone": "(212) 358-9683"}, {"rating": 4.0, "is_closed": false, "distance": 2858.718278464, "name": "Love Mamak", "id": "love-mamak-new-york-2", "image_url": "https://s3-media1.fl.yelpcdn.com/bphoto/bLlFKTlVuLfmF-lIDGIjZA/o.jpg", "url": "https://www.yelp.com/biz/love-mamak-new-york-2?adjust_creative=gBcvfFpabk3CnzmXKdYe3w&utm_campaign=yelp_api_v3&utm_medium=api_v3_business_search&utm_source=gBcvfFpabk3CnzmXKdYe3w", "phone": "+12122545370", "coordinates": {"longitude": -73.9860613, "latitude": 40.7303859}, "categories": [{"alias": "thai", "title": "Thai"}, {"alias": "malaysian", "title": "Malaysian"}, {"alias": "vietnamese", "title": "Vietnamese"}], "review_count": 2377, "location": {"city": "New York", "address1": "174 2nd Ave", "address3": "", "address2": "", "zip_code": "10003", "country": "US", "display_address": ["174 2nd Ave", "New York, NY 10003"], "state": "NY"}, "price": "$$", "transactions": ["delivery", "pickup"], "display_phone": "(212) 254-5370"}, {"rating": 4.5, "is_closed": false, "distance": 1414.5372787659999, "name": "Yankee Doodle Dandy's", "id": "yankee-doodle-dandys-new-york-2", "image_url": "https://s3-media4.fl.yelpcdn.com/bphoto/BLG5hynjc_qOtrCjhCQ6_A/o.jpg", "url": "https://www.yelp.com/biz/yankee-doodle-dandys-new-york-2?adjust_creative=gBcvfFpabk3CnzmXKdYe3w&utm_campaign=yelp_api_v3&utm_medium=api_v3_business_search&utm_source=gBcvfFpabk3CnzmXKdYe3w", "phone": "+19732023130", "coordinates": {"longitude": -74.00642, "latitude": 40.71424}, "categories": [{"alias": "foodtrucks", "title": "Food Trucks"}, {"alias": "southern", "title": "Southern"}, {"alias": "newamerican", "title": "American (New)"}], "review_count": 77, "location": {"city": "New York", "address1": null, "address3": "", "address2": null, "zip_code": "11121", "country": "US", "display_address": ["New York, NY 11121"], "state": "NY"}, "price": "$", "transactions": ["delivery", "pickup"], "display_phone": "(973) 202-3130"}, {"rating": 4.0, "is_closed": false, "distance": 1849.2428653939999, "name": "Gotan", "id": "gotan-new-york", "image_url": "https://s3-media1.fl.yelpcdn.com/bphoto/ZnQtJ7o0z0lTN4VHfGf2LQ/o.jpg", "url": "https://www.yelp.com/biz/gotan-new-york?adjust_creative=gBcvfFpabk3CnzmXKdYe3w&utm_campaign=yelp_api_v3&utm_medium=api_v3_business_search&utm_source=gBcvfFpabk3CnzmXKdYe3w", "phone": "+12124315200", "coordinates": {"longitude": -74.0066689237196, "latitude": 40.7191772617642}, "categories": [{"alias": "coffee", "title": "Coffee & Tea"}, {"alias": "breakfast_brunch", "title": "Breakfast & Brunch"}, {"alias": "sandwiches", "title": "Sandwiches"}], "review_count": 212, "location": {"city": "New York", "address1": "130 Franklin St", "address3": "", "address2": "", "zip_code": "10013", "country": "US", "display_address": ["130 Franklin St", "New York, NY 10013"], "state": "NY"}, "price": "$$", "transactions": [], "display_phone": "(212) 431-5200"}, {"rating": 4.5, "is_closed": false, "distance": 2265.922073748, "name": "Nelson A. Rockefeller Park", "id": "nelson-a-rockefeller-park-new-york", "image_url": "https://s3-media1.fl.yelpcdn.com/bphoto/1uReK06JVNJcu1zFfeJHBg/o.jpg", "url": "https://www.yelp.com/biz/nelson-a-rockefeller-park-new-york?adjust_creative=gBcvfFpabk3CnzmXKdYe3w&utm_campaign=yelp_api_v3&utm_medium=api_v3_business_search&utm_source=gBcvfFpabk3CnzmXKdYe3w", "phone": "", "coordinates": {"longitude": -74.0158098936081, "latitude": 40.7176803052425}, "categories": [{"alias": "parks", "title": "Parks"}], "review_count": 30, "location": {"city": "New York", "address1": "River Ter & Warren St", "address3": "", "address2": "", "zip_code": "10282", "country": "US", "display_address": ["River Ter & Warren St", "New York, NY 10282"], "state": "NY"}, "transactions": [], "display_phone": ""}, {"rating": 4.5, "is_closed": false, "distance": 2074.322743784, "name": "Il Posto Accanto", "id": "il-posto-accanto-new-york", "image_url": "https://s3-media1.fl.yelpcdn.com/bphoto/t0jshrQh13tGiiLE1Hat-w/o.jpg", "url": "https://www.yelp.com/biz/il-posto-accanto-new-york?adjust_creative=gBcvfFpabk3CnzmXKdYe3w&utm_campaign=yelp_api_v3&utm_medium=api_v3_business_search&utm_source=gBcvfFpabk3CnzmXKdYe3w", "phone": "+12122283562", "coordinates": {"longitude": -73.98403, "latitude": 40.72238}, "categories": [{"alias": "italian", "title": "Italian"}, {"alias": "wine_bars", "title": "Wine Bars"}], "review_count": 116, "location": {"city": "New York", "address1": "190 E 2nd St", "address3": "", "address2": "", "zip_code": "10009", "country": "US", "display_address": ["190 E 2nd St", "New York, NY 10009"], "state": "NY"}, "price": "$$", "transactions": [], "display_phone": "(212) 228-3562"}, {"rating": 4.5, "is_closed": false, "distance": 2766.182837804, "name": "Virginia's", "id": "virginias-new-york", "image_url": "https://s3-media1.fl.yelpcdn.com/bphoto/ZYGDBMX0GzygzmdgX0SJHg/o.jpg", "url": "https://www.yelp.com/biz/virginias-new-york?adjust_creative=gBcvfFpabk3CnzmXKdYe3w&utm_campaign=yelp_api_v3&utm_medium=api_v3_business_search&utm_source=gBcvfFpabk3CnzmXKdYe3w", "phone": "+12126580182", "coordinates": {"longitude": -73.9773, "latitude": 40.72666}, "categories": [{"alias": "newamerican", "title": "American (New)"}], "review_count": 112, "location": {"city": "New York", "address1": "647 E 11th St", "address3": "", "address2": null, "zip_code": "10009", "country": "US", "display_address": ["647 E 11th St", "New York, NY 10009"], "state": "NY"}, "price": "$$$", "transactions": [], "display_phone": "(212) 658-0182"}, {"rating": 4.0, "is_closed": false, "distance": 2727.988693452, "name": "Peter Luger", "id": "peter-luger-brooklyn-2", "image_url": "https://s3-media2.fl.yelpcdn.com/bphoto/vJEiCEO4U0pj7qm5A4uo2A/o.jpg", "url": "https://www.yelp.com/biz/peter-luger-brooklyn-2?adjust_creative=gBcvfFpabk3CnzmXKdYe3w&utm_campaign=yelp_api_v3&utm_medium=api_v3_business_search&utm_source=gBcvfFpabk3CnzmXKdYe3w", "phone": "+17183877400", "coordinates": {"longitude": -73.962478, "latitude": 40.709945}, "categories": [{"alias": "steak", "title": "Steakhouses"}, {"alias": "desserts", "title": "Desserts"}, {"alias": "seafood", "title": "Seafood"}], "review_count": 3915, "location": {"city": "Brooklyn", "address1": "178 Broadway", "address3": "", "address2": "", "zip_code": "11211", "country": "US", "display_address": ["178 Broadway", "Brooklyn, NY 11211"], "state": "NY"}, "price": "$$$$", "transactions": [], "display_phone": "(718) 387-7400"}, {"rating": 4.5, "is_closed": false, "distance": 5418.015631247999, "name": "Whispering Gallery", "id": "whispering-gallery-new-york", "image_url": "https://s3-media1.fl.yelpcdn.com/bphoto/Zm281LTx3Wq4eTh3I4LJqA/o.jpg", "url": "https://www.yelp.com/biz/whispering-gallery-new-york?adjust_creative=gBcvfFpabk3CnzmXKdYe3w&utm_campaign=yelp_api_v3&utm_medium=api_v3_business_search&utm_source=gBcvfFpabk3CnzmXKdYe3w", "phone": "+12123402583", "coordinates": {"longitude": -73.9777266640202, "latitude": 40.7525246144223}, "categories": [{"alias": "landmarks", "title": "Landmarks & Historical Buildings"}], "review_count": 49, "location": {"city": "New York", "address1": "87 E 42nd St", "address3": "Grand Central Terminal", "address2": "", "zip_code": "10017", "country": "US", "display_address": ["87 E 42nd St", "Grand Central Terminal", "New York, NY 10017"], "state": "NY"}, "transactions": [], "display_phone": "(212) 340-2583"}, {"rating": 4.5, "is_closed": false, "distance": 1962.0015943619997, "name": "Bar Goto", "id": "bar-goto-new-york", "image_url": "https://s3-media2.fl.yelpcdn.com/bphoto/L0vsNOl7eMhjeTCyE7pbDA/o.jpg", "url": "https://www.yelp.com/biz/bar-goto-new-york?adjust_creative=gBcvfFpabk3CnzmXKdYe3w&utm_campaign=yelp_api_v3&utm_medium=api_v3_business_search&utm_source=gBcvfFpabk3CnzmXKdYe3w", "phone": "+12124754411", "coordinates": {"longitude": -73.98989, "latitude": 40.72277}, "categories": [{"alias": "cocktailbars", "title": "Cocktail Bars"}, {"alias": "japanese", "title": "Japanese"}], "review_count": 116, "location": {"city": "New York", "address1": "245 Eldridge St", "address3": "", "address2": "", "zip_code": "10002", "country": "US", "display_address": ["245 Eldridge St", "New York, NY 10002"], "state": "NY"}, "price": "$$", "transactions": [], "display_phone": "(212) 475-4411"}, {"rating": 4.5, "is_closed": false, "distance": 1561.918704758, "name": "Halalish", "id": "halalish-brooklyn", "image_url": "https://s3-media3.fl.yelpcdn.com/bphoto/Crl-PHATUDebjL5TE_R29g/o.jpg", "url": "https://www.yelp.com/biz/halalish-brooklyn?adjust_creative=gBcvfFpabk3CnzmXKdYe3w&utm_campaign=yelp_api_v3&utm_medium=api_v3_business_search&utm_source=gBcvfFpabk3CnzmXKdYe3w", "phone": "+13472793325", "coordinates": {"longitude": -73.989669, "latitude": 40.691967}, "categories": [{"alias": "halal", "title": "Halal"}, {"alias": "burgers", "title": "Burgers"}, {"alias": "streetvendors", "title": "Street Vendors"}], "review_count": 44, "location": {"city": "Brooklyn", "address1": "250 Joralemon St", "address3": "", "address2": null, "zip_code": "11201", "country": "US", "display_address": ["250 Joralemon St", "Brooklyn, NY 11201"], "state": "NY"}, "price": "$", "transactions": ["pickup"], "display_phone": "(347) 279-3325"}, {"rating": 4.5, "is_closed": false, "distance": 2614.305559588, "name": "Mace", "id": "mace-new-york-4", "image_url": "https://s3-media2.fl.yelpcdn.com/bphoto/mfPOHJ1eDh-_LblniS_Prg/o.jpg", "url": "https://www.yelp.com/biz/mace-new-york-4?adjust_creative=gBcvfFpabk3CnzmXKdYe3w&utm_campaign=yelp_api_v3&utm_medium=api_v3_business_search&utm_source=gBcvfFpabk3CnzmXKdYe3w", "phone": "+13478667739", "coordinates": {"longitude": -73.97816, "latitude": 40.72546}, "categories": [{"alias": "cocktailbars", "title": "Cocktail Bars"}, {"alias": "tastingclasses", "title": "Tasting Classes"}], "review_count": 99, "location": {"city": "New York", "address1": "649 E 9th St", "address3": "", "address2": "", "zip_code": "10009", "country": "US", "display_address": ["649 E 9th St", "New York, NY 10009"], "state": "NY"}, "price": "$$", "transactions": [], "display_phone": "(347) 866-7739"}, {"rating": 4.5, "is_closed": false, "distance": 5249.134388459999, "name": "51st Bakery and Cafe", "id": "51st-bakery-and-cafe-long-island-city", "image_url": "https://s3-media1.fl.yelpcdn.com/bphoto/nbYSXHJq6Qu9KE30tzun6Q/o.jpg", "url": "https://www.yelp.com/biz/51st-bakery-and-cafe-long-island-city?adjust_creative=gBcvfFpabk3CnzmXKdYe3w&utm_campaign=yelp_api_v3&utm_medium=api_v3_business_search&utm_source=gBcvfFpabk3CnzmXKdYe3w", "phone": "+17187070554", "coordinates": {"longitude": -73.9553309153442, "latitude": 40.7422765542239}, "categories": [{"alias": "bakeries", "title": "Bakeries"}, {"alias": "breakfast_brunch", "title": "Breakfast & Brunch"}, {"alias": "wine_bars", "title": "Wine Bars"}], "review_count": 131, "location": {"city": "Long Island City", "address1": "5-33 51st Ave", "address3": "", "address2": "", "zip_code": "11101", "country": "US", "display_address": ["5-33 51st Ave", "Long Island City, NY 11101"], "state": "NY"}, "price": "$", "transactions": [], "display_phone": "(718) 707-0554"}, {"rating": 4.0, "is_closed": false, "distance": 2562.087143674, "name": "Cafe Mogador", "id": "cafe-mogador-new-york", "image_url": "https://s3-media3.fl.yelpcdn.com/bphoto/Mtf6qE5Q4ira-soC6mts8w/o.jpg", "url": "https://www.yelp.com/biz/cafe-mogador-new-york?adjust_creative=gBcvfFpabk3CnzmXKdYe3w&utm_campaign=yelp_api_v3&utm_medium=api_v3_business_search&utm_source=gBcvfFpabk3CnzmXKdYe3w", "phone": "+12126772226", "coordinates": {"longitude": -73.9845085144043, "latitude": 40.727258767439}, "categories": [{"alias": "moroccan", "title": "Moroccan"}], "review_count": 1538, "location": {"city": "New York", "address1": "101 St Marks Pl", "address3": "", "address2": "", "zip_code": "10009", "country": "US", "display_address": ["101 St Marks Pl", "New York, NY 10009"], "state": "NY"}, "price": "$$", "transactions": [], "display_phone": "(212) 677-2226"}, {"rating": 4.5, "is_closed": false, "distance": 4127.200227398, "name": "Lamazou", "id": "lamazou-new-york", "image_url": "https://s3-media2.fl.yelpcdn.com/bphoto/FuWQYLuKhEkkTz0_SOEuww/o.jpg", "url": "https://www.yelp.com/biz/lamazou-new-york?adjust_creative=gBcvfFpabk3CnzmXKdYe3w&utm_campaign=yelp_api_v3&utm_medium=api_v3_business_search&utm_source=gBcvfFpabk3CnzmXKdYe3w", "phone": "+12125322009", "coordinates": {"longitude": -73.98162, "latitude": 40.74125}, "categories": [{"alias": "cheese", "title": "Cheese Shops"}, {"alias": "sandwiches", "title": "Sandwiches"}, {"alias": "catering", "title": "Caterers"}], "review_count": 250, "location": {"city": "New York", "address1": "370 3rd Ave", "address3": "", "address2": "", "zip_code": "10016", "country": "US", "display_address": ["370 3rd Ave", "New York, NY 10016"], "state": "NY"}, "price": "$", "transactions": ["delivery", "pickup"], "display_phone": "(212) 532-2009"}, {"rating": 4.5, "is_closed": false, "distance": 4832.788957221999, "name": "Rocket Pig", "id": "rocket-pig-new-york", "image_url": "https://s3-media2.fl.yelpcdn.com/bphoto/5HHcM-oqvenpKyK4WURoYw/o.jpg", "url": "https://www.yelp.com/biz/rocket-pig-new-york?adjust_creative=gBcvfFpabk3CnzmXKdYe3w&utm_campaign=yelp_api_v3&utm_medium=api_v3_business_search&utm_source=gBcvfFpabk3CnzmXKdYe3w", "phone": "+12126455660", "coordinates": {"longitude": -74.0025658160448, "latitude": 40.747934281826}, "categories": [{"alias": "newamerican", "title": "American (New)"}], "review_count": 149, "location": {"city": "New York", "address1": "463 W 24th St", "address3": "", "address2": "", "zip_code": "10001", "country": "US", "display_address": ["463 W 24th St", "New York, NY 10001"], "state": "NY"}, "price": "$$", "transactions": ["delivery"], "display_phone": "(212) 645-5660"}, {"rating": 4.5, "is_closed": false, "distance": 3852.7319574840003, "name": "Lunitas", "id": "lunitas-brooklyn", "image_url": "https://s3-media2.fl.yelpcdn.com/bphoto/O1MnEALUI4PZXab0WlG4oQ/o.jpg", "url": "https://www.yelp.com/biz/lunitas-brooklyn?adjust_creative=gBcvfFpabk3CnzmXKdYe3w&utm_campaign=yelp_api_v3&utm_medium=api_v3_business_search&utm_source=gBcvfFpabk3CnzmXKdYe3w", "phone": "+13479873799", "coordinates": {"longitude": -73.9603, "latitude": 40.68232}, "categories": [{"alias": "cafes", "title": "Cafes"}, {"alias": "newamerican", "title": "American (New)"}, {"alias": "breakfast_brunch", "title": "Breakfast & Brunch"}], "review_count": 115, "location": {"city": "Brooklyn", "address1": "1039 A Fulton St", "address3": "", "address2": "", "zip_code": "11238", "country": "US", "display_address": ["1039 A Fulton St", "Brooklyn, NY 11238"], "state": "NY"}, "price": "$", "transactions": [], "display_phone": "(347) 987-3799"}, {"rating": 4.0, "is_closed": false, "distance": 2326.9410045179998, "name": "Clover Club", "id": "clover-club-brooklyn", "image_url": "https://s3-media1.fl.yelpcdn.com/bphoto/rTFP3ikw4UUsST892sav9Q/o.jpg", "url": "https://www.yelp.com/biz/clover-club-brooklyn?adjust_creative=gBcvfFpabk3CnzmXKdYe3w&utm_campaign=yelp_api_v3&utm_medium=api_v3_business_search&utm_source=gBcvfFpabk3CnzmXKdYe3w", "phone": "+17188557939", "coordinates": {"longitude": -73.9921875, "latitude": 40.6846046447754}, "categories": [{"alias": "lounges", "title": "Lounges"}, {"alias": "tradamerican", "title": "American (Traditional)"}], "review_count": 611, "location": {"city": "Brooklyn", "address1": "210 Smith St", "address3": "", "address2": "", "zip_code": "11201", "country": "US", "display_address": ["210 Smith St", "Brooklyn, NY 11201"], "state": "NY"}, "price": "$$", "transactions": [], "display_phone": "(718) 855-7939"}, {"rating": 4.5, "is_closed": false, "distance": 1954.18213317, "name": "Blacktail", "id": "blacktail-new-york", "image_url": "https://s3-media3.fl.yelpcdn.com/bphoto/5DI5HCjuwERDo1bLBOX9gQ/o.jpg", "url": "https://www.yelp.com/biz/blacktail-new-york?adjust_creative=gBcvfFpabk3CnzmXKdYe3w&utm_campaign=yelp_api_v3&utm_medium=api_v3_business_search&utm_source=gBcvfFpabk3CnzmXKdYe3w", "phone": "+12127850153", "coordinates": {"longitude": -74.0174372308775, "latitude": 40.7044769199104}, "categories": [{"alias": "cuban", "title": "Cuban"}, {"alias": "tradamerican", "title": "American (Traditional)"}, {"alias": "cocktailbars", "title": "Cocktail Bars"}], "review_count": 92, "location": {"city": "New York", "address1": "22 Battery Pl", "address3": "Fl 2 Pier A", "address2": null, "zip_code": "10004", "country": "US", "display_address": ["22 Battery Pl", "Fl 2 Pier A", "New York, NY 10004"], "state": "NY"}, "price": "$$$", "transactions": [], "display_phone": "(212) 785-0153"}, {"rating": 4.0, "is_closed": false, "distance": 2852.902445572, "name": "4th Avenue Pub", "id": "4th-avenue-pub-brooklyn", "image_url": "https://s3-media4.fl.yelpcdn.com/bphoto/8_5u1Xxwd1Y-zoB70cszTQ/o.jpg", "url": "https://www.yelp.com/biz/4th-avenue-pub-brooklyn?adjust_creative=gBcvfFpabk3CnzmXKdYe3w&utm_campaign=yelp_api_v3&utm_medium=api_v3_business_search&utm_source=gBcvfFpabk3CnzmXKdYe3w", "phone": "+17186432273", "coordinates": {"longitude": -73.980126, "latitude": 40.682325}, "categories": [{"alias": "pubs", "title": "Pubs"}, {"alias": "beergardens", "title": "Beer Gardens"}, {"alias": "beerbar", "title": "Beer Bar"}], "review_count": 286, "location": {"city": "Brooklyn", "address1": "76 4th Ave", "address3": "", "address2": null, "zip_code": "11217", "country": "US", "display_address": ["76 4th Ave", "Brooklyn, NY 11217"], "state": "NY"}, "price": "$$", "transactions": [], "display_phone": "(718) 643-2273"}, {"rating": 4.5, "is_closed": false, "distance": 6710.72571108, "name": "Ba Xuyen", "id": "ba-xuyen-brooklyn-2", "image_url": "https://s3-media2.fl.yelpcdn.com/bphoto/fJN3Gk81mkAyd7yrsmOtgA/o.jpg", "url": "https://www.yelp.com/biz/ba-xuyen-brooklyn-2?adjust_creative=gBcvfFpabk3CnzmXKdYe3w&utm_campaign=yelp_api_v3&utm_medium=api_v3_business_search&utm_source=gBcvfFpabk3CnzmXKdYe3w", "phone": "+17186336601", "coordinates": {"longitude": -73.9997099, "latitude": 40.64528}, "categories": [{"alias": "vietnamese", "title": "Vietnamese"}, {"alias": "sandwiches", "title": "Sandwiches"}], "review_count": 508, "location": {"city": "Brooklyn", "address1": "4222 8th Ave", "address3": "", "address2": "", "zip_code": "11232", "country": "US", "display_address": ["4222 8th Ave", "Brooklyn, NY 11232"], "state": "NY"}, "price": "$", "transactions": [], "display_phone": "(718) 633-6601"}, {"rating": 4.5, "is_closed": false, "distance": 4283.600233816, "name": "Samurai Papa", "id": "samurai-papa-brooklyn-2", "image_url": "https://s3-media2.fl.yelpcdn.com/bphoto/9zhXHJ1j6hQ-9GltTze6wg/o.jpg", "url": "https://www.yelp.com/biz/samurai-papa-brooklyn-2?adjust_creative=gBcvfFpabk3CnzmXKdYe3w&utm_campaign=yelp_api_v3&utm_medium=api_v3_business_search&utm_source=gBcvfFpabk3CnzmXKdYe3w", "phone": "+17185997171", "coordinates": {"longitude": -73.943588398397, "latitude": 40.702892072912}, "categories": [{"alias": "japanese", "title": "Japanese"}], "review_count": 170, "location": {"city": "Brooklyn", "address1": "32 Varet St", "address3": "", "address2": "", "zip_code": "11206", "country": "US", "display_address": ["32 Varet St", "Brooklyn, NY 11206"], "state": "NY"}, "price": "$$", "transactions": [], "display_phone": "(718) 599-7171"}, {"rating": 4.5, "is_closed": false, "distance": 1880.149596358, "name": "Laughing Man Coffee & Tea", "id": "laughing-man-coffee-and-tea-new-york-3", "image_url": "https://s3-media4.fl.yelpcdn.com/bphoto/ynEe74WNJ2EVtGKWSixULw/o.jpg", "url": "https://www.yelp.com/biz/laughing-man-coffee-and-tea-new-york-3?adjust_creative=gBcvfFpabk3CnzmXKdYe3w&utm_campaign=yelp_api_v3&utm_medium=api_v3_business_search&utm_source=gBcvfFpabk3CnzmXKdYe3w", "phone": "+12126801111", "coordinates": {"longitude": -74.0101471, "latitude": 40.7172089}, "categories": [{"alias": "coffee", "title": "Coffee & Tea"}], "review_count": 144, "location": {"city": "New York", "address1": "184 Duane St", "address3": "", "address2": "", "zip_code": "10013", "country": "US", "display_address": ["184 Duane St", "New York, NY 10013"], "state": "NY"}, "price": "$$", "transactions": [], "display_phone": "(212) 680-1111"}, {"rating": 4.0, "is_closed": false, "distance": 2819.9777631819998, "name": "Market Table", "id": "market-table-new-york", "image_url": "https://s3-media3.fl.yelpcdn.com/bphoto/yC-WCjOSjo0HdCctV_bQ_w/o.jpg", "url": "https://www.yelp.com/biz/market-table-new-york?adjust_creative=gBcvfFpabk3CnzmXKdYe3w&utm_campaign=yelp_api_v3&utm_medium=api_v3_business_search&utm_source=gBcvfFpabk3CnzmXKdYe3w", "phone": "+12122552100", "coordinates": {"longitude": -74.0037665277862, "latitude": 40.7297659255873}, "categories": [{"alias": "newamerican", "title": "American (New)"}], "review_count": 696, "location": {"city": "New York", "address1": "54 Carmine St", "address3": "", "address2": "", "zip_code": "10014", "country": "US", "display_address": ["54 Carmine St", "New York, NY 10014"], "state": "NY"}, "price": "$$$", "transactions": [], "display_phone": "(212) 255-2100"}, {"rating": 4.0, "is_closed": false, "distance": 2937.1895359299997, "name": "Palma", "id": "palma-new-york", "image_url": "https://s3-media3.fl.yelpcdn.com/bphoto/ZuuXvq8ewhF0Rd8OdmWosQ/o.jpg", "url": "https://www.yelp.com/biz/palma-new-york?adjust_creative=gBcvfFpabk3CnzmXKdYe3w&utm_campaign=yelp_api_v3&utm_medium=api_v3_business_search&utm_source=gBcvfFpabk3CnzmXKdYe3w", "phone": "+12126912223", "coordinates": {"longitude": -74.00233, "latitude": 40.73115}, "categories": [{"alias": "italian", "title": "Italian"}], "review_count": 504, "location": {"city": "New York", "address1": "28 Cornelia St", "address3": "", "address2": "", "zip_code": "10014", "country": "US", "display_address": ["28 Cornelia St", "New York, NY 10014"], "state": "NY"}, "price": "$$$", "transactions": [], "display_phone": "(212) 691-2223"}, {"rating": 4.0, "is_closed": false, "distance": 1513.33643164, "name": "Takahachi Bakery", "id": "takahachi-bakery-new-york", "image_url": "https://s3-media4.fl.yelpcdn.com/bphoto/xy1-H0IU18FAprMvIC792g/o.jpg", "url": "https://www.yelp.com/biz/takahachi-bakery-new-york?adjust_creative=gBcvfFpabk3CnzmXKdYe3w&utm_campaign=yelp_api_v3&utm_medium=api_v3_business_search&utm_source=gBcvfFpabk3CnzmXKdYe3w", "phone": "+12127915550", "coordinates": {"longitude": -74.00843, "latitude": 40.71373}, "categories": [{"alias": "bakeries", "title": "Bakeries"}, {"alias": "japanese", "title": "Japanese"}, {"alias": "markets", "title": "Fruits & Veggies"}], "review_count": 615, "location": {"city": "New York", "address1": "25 Murray St", "address3": "", "address2": "", "zip_code": "10007", "country": "US", "display_address": ["25 Murray St", "New York, NY 10007"], "state": "NY"}, "price": "$$", "transactions": [], "display_phone": "(212) 791-5550"}, {"rating": 4.0, "is_closed": false, "distance": 4531.449376394, "name": "Brooklyn Bagel & Coffee Company", "id": "brooklyn-bagel-and-coffee-company-new-york-2", "image_url": "https://s3-media1.fl.yelpcdn.com/bphoto/qunBWwVLOLg4MY6E4SD3sQ/o.jpg", "url": "https://www.yelp.com/biz/brooklyn-bagel-and-coffee-company-new-york-2?adjust_creative=gBcvfFpabk3CnzmXKdYe3w&utm_campaign=yelp_api_v3&utm_medium=api_v3_business_search&utm_source=gBcvfFpabk3CnzmXKdYe3w", "phone": "+12129242824", "coordinates": {"longitude": -73.997482, "latitude": 40.746109}, "categories": [{"alias": "bagels", "title": "Bagels"}, {"alias": "breakfast_brunch", "title": "Breakfast & Brunch"}, {"alias": "cafes", "title": "Cafes"}], "review_count": 968, "location": {"city": "New York", "address1": "286 8th Ave", "address3": "", "address2": "", "zip_code": "10001", "country": "US", "display_address": ["286 8th Ave", "New York, NY 10001"], "state": "NY"}, "price": "$", "transactions": ["delivery", "pickup"], "display_phone": "(212) 924-2824"}, {"rating": 4.5, "is_closed": false, "distance": 5703.04068876, "name": "Snax Spot", "id": "snax-spot-new-york", "image_url": "https://s3-media2.fl.yelpcdn.com/bphoto/umSsGao3h2JW4pWqno6Pew/o.jpg", "url": "https://www.yelp.com/biz/snax-spot-new-york?adjust_creative=gBcvfFpabk3CnzmXKdYe3w&utm_campaign=yelp_api_v3&utm_medium=api_v3_business_search&utm_source=gBcvfFpabk3CnzmXKdYe3w", "phone": "+19174751516", "coordinates": {"longitude": -73.993461, "latitude": 40.75674}, "categories": [{"alias": "burgers", "title": "Burgers"}, {"alias": "hotdogs", "title": "Fast Food"}], "review_count": 103, "location": {"city": "New York", "address1": "534 9th Ave", "address3": "", "address2": "", "zip_code": "10018", "country": "US", "display_address": ["534 9th Ave", "New York, NY 10018"], "state": "NY"}, "price": "$$", "transactions": ["delivery", "pickup"], "display_phone": "(917) 475-1516"}, {"rating": 4.5, "is_closed": false, "distance": 1148.1376924364, "name": "Asian Spicy Curry Pop-up", "id": "asian-spicy-curry-pop-up-new-york", "image_url": "https://s3-media3.fl.yelpcdn.com/bphoto/0zbc4uUqKGDN-TXkfUFKdQ/o.jpg", "url": "https://www.yelp.com/biz/asian-spicy-curry-pop-up-new-york?adjust_creative=gBcvfFpabk3CnzmXKdYe3w&utm_campaign=yelp_api_v3&utm_medium=api_v3_business_search&utm_source=gBcvfFpabk3CnzmXKdYe3w", "phone": "+12126087440", "coordinates": {"longitude": -73.9994125366211, "latitude": 40.7151260375977}, "categories": [{"alias": "asianfusion", "title": "Asian Fusion"}, {"alias": "malaysian", "title": "Malaysian"}, {"alias": "chinese", "title": "Chinese"}], "review_count": 93, "location": {"city": "New York", "address1": "46 Mulberry St", "address3": "", "address2": null, "zip_code": "10013", "country": "US", "display_address": ["46 Mulberry St", "New York, NY 10013"], "state": "NY"}, "price": "$", "transactions": [], "display_phone": "(212) 608-7440"}, {"rating": 4.0, "is_closed": false, "distance": 2957.756740196, "name": "Pouring Ribbons", "id": "pouring-ribbons-new-york", "image_url": "https://s3-media1.fl.yelpcdn.com/bphoto/eENfLc3F2ZQHw2U-4dNTvw/o.jpg", "url": "https://www.yelp.com/biz/pouring-ribbons-new-york?adjust_creative=gBcvfFpabk3CnzmXKdYe3w&utm_campaign=yelp_api_v3&utm_medium=api_v3_business_search&utm_source=gBcvfFpabk3CnzmXKdYe3w", "phone": "+19176566788", "coordinates": {"longitude": -73.9780197143555, "latitude": 40.7290115356445}, "categories": [{"alias": "lounges", "title": "Lounges"}, {"alias": "cocktailbars", "title": "Cocktail Bars"}], "review_count": 316, "location": {"city": "New York", "address1": "225 Ave B", "address3": "", "address2": "Fl 2", "zip_code": "10009", "country": "US", "display_address": ["225 Ave B", "Fl 2", "New York, NY 10009"], "state": "NY"}, "price": "$$$", "transactions": [], "display_phone": "(917) 656-6788"}, {"rating": 4.5, "is_closed": false, "distance": 2879.27904537, "name": "City of Saints Coffee Roasters", "id": "city-of-saints-coffee-roasters-new-york", "image_url": "https://s3-media3.fl.yelpcdn.com/bphoto/8dCGJhhZM7x8gKhLPgtD3A/o.jpg", "url": "https://www.yelp.com/biz/city-of-saints-coffee-roasters-new-york?adjust_creative=gBcvfFpabk3CnzmXKdYe3w&utm_campaign=yelp_api_v3&utm_medium=api_v3_business_search&utm_source=gBcvfFpabk3CnzmXKdYe3w", "phone": "+16465901624", "coordinates": {"longitude": -73.9900766, "latitude": 40.7311385}, "categories": [{"alias": "coffee", "title": "Coffee & Tea"}], "review_count": 117, "location": {"city": "New York", "address1": "79 E 10th St", "address3": "", "address2": "", "zip_code": "10003", "country": "US", "display_address": ["79 E 10th St", "New York, NY 10003"], "state": "NY"}, "price": "$$", "transactions": [], "display_phone": "(646) 590-1624"}, {"rating": 4.5, "is_closed": false, "distance": 4163.408768058, "name": "Penny House Cafe", "id": "penny-house-cafe-brooklyn", "image_url": "https://s3-media3.fl.yelpcdn.com/bphoto/uwzNtlgRulpbwBEQuPl7sA/o.jpg", "url": "https://www.yelp.com/biz/penny-house-cafe-brooklyn?adjust_creative=gBcvfFpabk3CnzmXKdYe3w&utm_campaign=yelp_api_v3&utm_medium=api_v3_business_search&utm_source=gBcvfFpabk3CnzmXKdYe3w", "phone": "+13472407281", "coordinates": {"longitude": -73.963713, "latitude": 40.676044}, "categories": [{"alias": "coffee", "title": "Coffee & Tea"}, {"alias": "breakfast_brunch", "title": "Breakfast & Brunch"}, {"alias": "sandwiches", "title": "Sandwiches"}], "review_count": 176, "location": {"city": "Brooklyn", "address1": "732 Washington Ave", "address3": "", "address2": "", "zip_code": "11238", "country": "US", "display_address": ["732 Washington Ave", "Brooklyn, NY 11238"], "state": "NY"}, "price": "$", "transactions": [], "display_phone": "(347) 240-7281"}, {"rating": 4.0, "is_closed": false, "distance": 1754.2010386179998, "name": "Patacon Pisao", "id": "patacon-pisao-new-york-7", "image_url": "https://s3-media2.fl.yelpcdn.com/bphoto/ZH5OxMXFYn7jOVqZT46FGw/o.jpg", "url": "https://www.yelp.com/biz/patacon-pisao-new-york-7?adjust_creative=gBcvfFpabk3CnzmXKdYe3w&utm_campaign=yelp_api_v3&utm_medium=api_v3_business_search&utm_source=gBcvfFpabk3CnzmXKdYe3w", "phone": "+16466785913", "coordinates": {"longitude": -73.987588, "latitude": 40.720379}, "categories": [{"alias": "venezuelan", "title": "Venezuelan"}, {"alias": "sandwiches", "title": "Sandwiches"}], "review_count": 222, "location": {"city": "New York", "address1": "139 Essex St", "address3": "", "address2": "", "zip_code": "10002", "country": "US", "display_address": ["139 Essex St", "New York, NY 10002"], "state": "NY"}, "price": "$", "transactions": ["pickup", "delivery"], "display_phone": "(646) 678-5913"}, {"rating": 4.5, "is_closed": false, "distance": 2528.4912055699997, "name": "Oiji", "id": "oiji-new-york", "image_url": "https://s3-media3.fl.yelpcdn.com/bphoto/JujLYio03DNRIU1gAkaHhA/o.jpg", "url": "https://www.yelp.com/biz/oiji-new-york?adjust_creative=gBcvfFpabk3CnzmXKdYe3w&utm_campaign=yelp_api_v3&utm_medium=api_v3_business_search&utm_source=gBcvfFpabk3CnzmXKdYe3w", "phone": "+16467679050", "coordinates": {"longitude": -73.98585, "latitude": 40.72727}, "categories": [{"alias": "korean", "title": "Korean"}], "review_count": 289, "location": {"city": "New York", "address1": "119 1st Ave", "address3": "", "address2": "", "zip_code": "10003", "country": "US", "display_address": ["119 1st Ave", "New York, NY 10003"], "state": "NY"}, "price": "$$$", "transactions": [], "display_phone": "(646) 767-9050"}, {"rating": 4.0, "is_closed": false, "distance": 2398.512538602, "name": "Raoul's Restaurant", "id": "raouls-restaurant-new-york", "image_url": "https://s3-media1.fl.yelpcdn.com/bphoto/DBdjYkT7BlmcuZVDd6WYAQ/o.jpg", "url": "https://www.yelp.com/biz/raouls-restaurant-new-york?adjust_creative=gBcvfFpabk3CnzmXKdYe3w&utm_campaign=yelp_api_v3&utm_medium=api_v3_business_search&utm_source=gBcvfFpabk3CnzmXKdYe3w", "phone": "+12129663518", "coordinates": {"longitude": -74.002159, "latitude": 40.726154}, "categories": [{"alias": "french", "title": "French"}], "review_count": 341, "location": {"city": "New York", "address1": "180 Prince St", "address3": "", "address2": "", "zip_code": "10012", "country": "US", "display_address": ["180 Prince St", "New York, NY 10012"], "state": "NY"}, "price": "$$$", "transactions": [], "display_phone": "(212) 966-3518"}, {"rating": 4.0, "is_closed": false, "distance": 1967.1825426239998, "name": "Katz's Delicatessen", "id": "katzs-delicatessen-new-york", "image_url": "https://s3-media3.fl.yelpcdn.com/bphoto/JZbJ_GshCuauVrYP07HE9g/o.jpg", "url": "https://www.yelp.com/biz/katzs-delicatessen-new-york?adjust_creative=gBcvfFpabk3CnzmXKdYe3w&utm_campaign=yelp_api_v3&utm_medium=api_v3_business_search&utm_source=gBcvfFpabk3CnzmXKdYe3w", "phone": "+12122542246", "coordinates": {"longitude": -73.987515, "latitude": 40.722373}, "categories": [{"alias": "delis", "title": "Delis"}, {"alias": "sandwiches", "title": "Sandwiches"}], "review_count": 7399, "location": {"city": "New York", "address1": "205 E Houston St", "address3": "", "address2": "", "zip_code": "10002", "country": "US", "display_address": ["205 E Houston St", "New York, NY 10002"], "state": "NY"}, "price": "$$", "transactions": ["delivery", "pickup"], "display_phone": "(212) 254-2246"}, {"rating": 4.0, "is_closed": false, "distance": 3171.1677770479996, "name": "Rye", "id": "rye-brooklyn", "image_url": "https://s3-media3.fl.yelpcdn.com/bphoto/_WHrwQneQRRKzgxTyQg1Xg/o.jpg", "url": "https://www.yelp.com/biz/rye-brooklyn?adjust_creative=gBcvfFpabk3CnzmXKdYe3w&utm_campaign=yelp_api_v3&utm_medium=api_v3_business_search&utm_source=gBcvfFpabk3CnzmXKdYe3w", "phone": "+17182188047", "coordinates": {"longitude": -73.95782, "latitude": 40.71267}, "categories": [{"alias": "bars", "title": "Bars"}, {"alias": "tradamerican", "title": "American (Traditional)"}, {"alias": "diners", "title": "Diners"}], "review_count": 549, "location": {"city": "Brooklyn", "address1": "247 S 1st St", "address3": "", "address2": "", "zip_code": "11211", "country": "US", "display_address": ["247 S 1st St", "Brooklyn, NY 11211"], "state": "NY"}, "price": "$$$", "transactions": [], "display_phone": "(718) 218-8047"}, {"rating": 4.0, "is_closed": false, "distance": 3296.82311304, "name": "Bogota Latin Bistro", "id": "bogota-latin-bistro-brooklyn", "image_url": "https://s3-media1.fl.yelpcdn.com/bphoto/mPXrOyIbb9e9F8FqAzXkjg/o.jpg", "url": "https://www.yelp.com/biz/bogota-latin-bistro-brooklyn?adjust_creative=gBcvfFpabk3CnzmXKdYe3w&utm_campaign=yelp_api_v3&utm_medium=api_v3_business_search&utm_source=gBcvfFpabk3CnzmXKdYe3w", "phone": "+17182303805", "coordinates": {"longitude": -73.978976, "latitude": 40.678165}, "categories": [{"alias": "gluten_free", "title": "Gluten-Free"}, {"alias": "colombian", "title": "Colombian"}], "review_count": 1716, "location": {"city": "Brooklyn", "address1": "141 5th Ave", "address3": "", "address2": "", "zip_code": "11217", "country": "US", "display_address": ["141 5th Ave", "Brooklyn, NY 11217"], "state": "NY"}, "price": "$$", "transactions": ["delivery", "pickup"], "display_phone": "(718) 230-3805"}, {"rating": 4.5, "is_closed": false, "distance": 1683.5289646599997, "name": "Yopparai", "id": "yopparai-new-york", "image_url": "https://s3-media4.fl.yelpcdn.com/bphoto/U65BnbzcBv8v9c_sQyz8VQ/o.jpg", "url": "https://www.yelp.com/biz/yopparai-new-york?adjust_creative=gBcvfFpabk3CnzmXKdYe3w&utm_campaign=yelp_api_v3&utm_medium=api_v3_business_search&utm_source=gBcvfFpabk3CnzmXKdYe3w", "phone": "+12127777253", "coordinates": {"longitude": -73.98574, "latitude": 40.71914}, "categories": [{"alias": "japanese", "title": "Japanese"}], "review_count": 142, "location": {"city": "New York", "address1": "151 Rivington St", "address3": "", "address2": "Fl 1", "zip_code": "10002", "country": "US", "display_address": ["151 Rivington St", "Fl 1", "New York, NY 10002"], "state": "NY"}, "price": "$$$", "transactions": [], "display_phone": "(212) 777-7253"}, {"rating": 4.5, "is_closed": false, "distance": 2634.938103058, "name": "South 4th Bar & Caf\u00e9", "id": "south-4th-bar-and-caf\u00e9-brooklyn-2", "image_url": "https://s3-media2.fl.yelpcdn.com/bphoto/N_Rp2rILczlvmPTAy0t6hw/o.jpg", "url": "https://www.yelp.com/biz/south-4th-bar-and-caf%C3%A9-brooklyn-2?adjust_creative=gBcvfFpabk3CnzmXKdYe3w&utm_campaign=yelp_api_v3&utm_medium=api_v3_business_search&utm_source=gBcvfFpabk3CnzmXKdYe3w", "phone": "+17182187478", "coordinates": {"longitude": -73.9644, "latitude": 40.71232}, "categories": [{"alias": "coffee", "title": "Coffee & Tea"}, {"alias": "bars", "title": "Bars"}], "review_count": 160, "location": {"city": "Brooklyn", "address1": "90 S 4th St", "address3": "", "address2": "", "zip_code": "11249", "country": "US", "display_address": ["90 S 4th St", "Brooklyn, NY 11249"], "state": "NY"}, "price": "$", "transactions": [], "display_phone": "(718) 218-7478"}, {"rating": 4.5, "is_closed": false, "distance": 5780.093634884, "name": "Mysttik Masaala", "id": "mysttik-masaala-new-york-3", "image_url": "https://s3-media1.fl.yelpcdn.com/bphoto/rcP-YpGxSuiVIP-3yTHs2g/o.jpg", "url": "https://www.yelp.com/biz/mysttik-masaala-new-york-3?adjust_creative=gBcvfFpabk3CnzmXKdYe3w&utm_campaign=yelp_api_v3&utm_medium=api_v3_business_search&utm_source=gBcvfFpabk3CnzmXKdYe3w", "phone": "+19173063128", "coordinates": {"longitude": -73.9754952874108, "latitude": 40.7554366863671}, "categories": [{"alias": "foodtrucks", "title": "Food Trucks"}, {"alias": "indpak", "title": "Indian"}], "review_count": 236, "location": {"city": "New York", "address1": "399 Park Ave 54 St", "address3": "", "address2": "Corner Of 47th Street", "zip_code": "10022", "country": "US", "display_address": ["399 Park Ave 54 St", "Corner Of 47th Street", "New York, NY 10022"], "state": "NY"}, "price": "$", "transactions": [], "display_phone": "(917) 306-3128"}, {"rating": 4.5, "is_closed": false, "distance": 6582.5095932799995, "name": "Beyond Sushi Midtown West", "id": "beyond-sushi-midtown-west-new-york-2", "image_url": "https://s3-media2.fl.yelpcdn.com/bphoto/85KehbgG8WwZFka_z3hPSQ/o.jpg", "url": "https://www.yelp.com/biz/beyond-sushi-midtown-west-new-york-2?adjust_creative=gBcvfFpabk3CnzmXKdYe3w&utm_campaign=yelp_api_v3&utm_medium=api_v3_business_search&utm_source=gBcvfFpabk3CnzmXKdYe3w", "phone": "+16469645097", "coordinates": {"longitude": -73.977242, "latitude": 40.763214}, "categories": [{"alias": "sushi", "title": "Sushi Bars"}, {"alias": "vegan", "title": "Vegan"}, {"alias": "vegetarian", "title": "Vegetarian"}], "review_count": 339, "location": {"city": "New York", "address1": "62 W 56th St", "address3": "", "address2": "", "zip_code": "10019", "country": "US", "display_address": ["62 W 56th St", "New York, NY 10019"], "state": "NY"}, "price": "$$", "transactions": [], "display_phone": "(646) 964-5097"}, {"rating": 4.5, "is_closed": false, "distance": 6402.75919, "name": "Little Collins", "id": "little-collins-new-york", "image_url": "https://s3-media1.fl.yelpcdn.com/bphoto/P2FaXsJX0q3JluYXvfaU5A/o.jpg", "url": "https://www.yelp.com/biz/little-collins-new-york?adjust_creative=gBcvfFpabk3CnzmXKdYe3w&utm_campaign=yelp_api_v3&utm_medium=api_v3_business_search&utm_source=gBcvfFpabk3CnzmXKdYe3w", "phone": "+12123081969", "coordinates": {"longitude": -73.969711, "latitude": 40.75993}, "categories": [{"alias": "cafes", "title": "Cafes"}], "review_count": 531, "location": {"city": "New York", "address1": "667 Lexington Ave", "address3": "", "address2": "", "zip_code": "10022", "country": "US", "display_address": ["667 Lexington Ave", "New York, NY 10022"], "state": "NY"}, "price": "$$", "transactions": [], "display_phone": "(212) 308-1969"}, {"rating": 4.5, "is_closed": false, "distance": 4056.495644772, "name": "Bite", "id": "bite-new-york-6", "image_url": "https://s3-media4.fl.yelpcdn.com/bphoto/zCDuqZCWtbFyuT-4n8B1iA/o.jpg", "url": "https://www.yelp.com/biz/bite-new-york-6?adjust_creative=gBcvfFpabk3CnzmXKdYe3w&utm_campaign=yelp_api_v3&utm_medium=api_v3_business_search&utm_source=gBcvfFpabk3CnzmXKdYe3w", "phone": "+16466492768", "coordinates": {"longitude": -73.993049621582, "latitude": 40.7418899536133}, "categories": [{"alias": "salad", "title": "Salad"}, {"alias": "mediterranean", "title": "Mediterranean"}, {"alias": "sandwiches", "title": "Sandwiches"}], "review_count": 116, "location": {"city": "New York", "address1": "62 W 22nd St", "address3": "", "address2": "", "zip_code": "10010", "country": "US", "display_address": ["62 W 22nd St", "New York, NY 10010"], "state": "NY"}, "price": "$", "transactions": ["delivery", "pickup"], "display_phone": "(646) 649-2768"}, {"rating": 4.0, "is_closed": false, "distance": 3669.2947171979995, "name": "Craft", "id": "craft-new-york", "image_url": "https://s3-media1.fl.yelpcdn.com/bphoto/8Iu38xmwd9qqTPzCFI4uyA/o.jpg", "url": "https://www.yelp.com/biz/craft-new-york?adjust_creative=gBcvfFpabk3CnzmXKdYe3w&utm_campaign=yelp_api_v3&utm_medium=api_v3_business_search&utm_source=gBcvfFpabk3CnzmXKdYe3w", "phone": "+12127800880", "coordinates": {"longitude": -73.988655090332, "latitude": 40.7381744384766}, "categories": [{"alias": "newamerican", "title": "American (New)"}], "review_count": 837, "location": {"city": "New York", "address1": "43 E 19th St", "address3": "", "address2": "", "zip_code": "10003", "country": "US", "display_address": ["43 E 19th St", "New York, NY 10003"], "state": "NY"}, "price": "$$$$", "transactions": [], "display_phone": "(212) 780-0880"}, {"rating": 4.5, "is_closed": false, "distance": 6238.203048462, "name": "Il Falco", "id": "il-falco-long-island-city", "image_url": "https://s3-media4.fl.yelpcdn.com/bphoto/0XiGz1fO2hHTPXSuBr-JbA/o.jpg", "url": "https://www.yelp.com/biz/il-falco-long-island-city?adjust_creative=gBcvfFpabk3CnzmXKdYe3w&utm_campaign=yelp_api_v3&utm_medium=api_v3_business_search&utm_source=gBcvfFpabk3CnzmXKdYe3w", "phone": "+17187070009", "coordinates": {"longitude": -73.9455319123659, "latitude": 40.7476595714373}, "categories": [{"alias": "italian", "title": "Italian"}, {"alias": "venues", "title": "Venues & Event Spaces"}, {"alias": "wine_bars", "title": "Wine Bars"}], "review_count": 186, "location": {"city": "Long Island City", "address1": "21-50 44th Dr", "address3": "", "address2": "", "zip_code": "11101", "country": "US", "display_address": ["21-50 44th Dr", "Long Island City, NY 11101"], "state": "NY"}, "price": "$$$", "transactions": [], "display_phone": "(718) 707-0009"}, {"rating": 4.5, "is_closed": false, "distance": 4185.291768708, "name": "Peppino's Brick Oven Pizza & Restaurant", "id": "peppinos-brick-oven-pizza-and-restaurant-brooklyn-2", "image_url": "https://s3-media1.fl.yelpcdn.com/bphoto/pRdnnBFpQT3LSw12PyCtgg/o.jpg", "url": "https://www.yelp.com/biz/peppinos-brick-oven-pizza-and-restaurant-brooklyn-2?adjust_creative=gBcvfFpabk3CnzmXKdYe3w&utm_campaign=yelp_api_v3&utm_medium=api_v3_business_search&utm_source=gBcvfFpabk3CnzmXKdYe3w", "phone": "+17187687244", "coordinates": {"longitude": -73.986936, "latitude": 40.668221}, "categories": [{"alias": "pizza", "title": "Pizza"}, {"alias": "italian", "title": "Italian"}], "review_count": 312, "location": {"city": "Brooklyn", "address1": "469 5th Ave", "address3": "", "address2": "", "zip_code": "11215", "country": "US", "display_address": ["469 5th Ave", "Brooklyn, NY 11215"], "state": "NY"}, "price": "$$", "transactions": [], "display_phone": "(718) 768-7244"}, {"rating": 4.5, "is_closed": false, "distance": 3932.431624172, "name": "Sushi Yashin", "id": "sushi-yashin-brooklyn", "image_url": "https://s3-media4.fl.yelpcdn.com/bphoto/--Y82cDIATJAhHEY06NUUg/o.jpg", "url": "https://www.yelp.com/biz/sushi-yashin-brooklyn?adjust_creative=gBcvfFpabk3CnzmXKdYe3w&utm_campaign=yelp_api_v3&utm_medium=api_v3_business_search&utm_source=gBcvfFpabk3CnzmXKdYe3w", "phone": "+17187886789", "coordinates": {"longitude": -73.9847132950057, "latitude": 40.6708328473989}, "categories": [{"alias": "japanese", "title": "Japanese"}, {"alias": "sushi", "title": "Sushi Bars"}], "review_count": 93, "location": {"city": "Brooklyn", "address1": "381 5th Ave", "address3": "", "address2": null, "zip_code": "11215", "country": "US", "display_address": ["381 5th Ave", "Brooklyn, NY 11215"], "state": "NY"}, "price": "$$", "transactions": ["delivery", "pickup"], "display_phone": "(718) 788-6789"}, {"rating": 4.0, "is_closed": false, "distance": 1677.370342348, "name": "Wolfnights", "id": "wolfnights-new-york", "image_url": "https://s3-media3.fl.yelpcdn.com/bphoto/QmICQP3io93wIPr7CgaNdA/o.jpg", "url": "https://www.yelp.com/biz/wolfnights-new-york?adjust_creative=gBcvfFpabk3CnzmXKdYe3w&utm_campaign=yelp_api_v3&utm_medium=api_v3_business_search&utm_source=gBcvfFpabk3CnzmXKdYe3w", "phone": "+16466698070", "coordinates": {"longitude": -73.9885666, "latitude": 40.7198896}, "categories": [{"alias": "sandwiches", "title": "Sandwiches"}], "review_count": 366, "location": {"city": "New York", "address1": "99 Rivington St", "address3": "", "address2": null, "zip_code": "10002", "country": "US", "display_address": ["99 Rivington St", "New York, NY 10002"], "state": "NY"}, "price": "$", "transactions": ["delivery", "pickup"], "display_phone": "(646) 669-8070"}, {"rating": 4.5, "is_closed": false, "distance": 3994.556654324, "name": "Tip Top Bar & Grill", "id": "tip-top-bar-and-grill-brooklyn", "image_url": "https://s3-media3.fl.yelpcdn.com/bphoto/cMXexW3nGTYd26ABO_ejLA/o.jpg", "url": "https://www.yelp.com/biz/tip-top-bar-and-grill-brooklyn?adjust_creative=gBcvfFpabk3CnzmXKdYe3w&utm_campaign=yelp_api_v3&utm_medium=api_v3_business_search&utm_source=gBcvfFpabk3CnzmXKdYe3w", "phone": "+17188579744", "coordinates": {"longitude": -73.956474, "latitude": 40.683803}, "categories": [{"alias": "divebars", "title": "Dive Bars"}], "review_count": 74, "location": {"city": "Brooklyn", "address1": "432 Franklin Ave", "address3": "", "address2": "", "zip_code": "11238", "country": "US", "display_address": ["432 Franklin Ave", "Brooklyn, NY 11238"], "state": "NY"}, "price": "$", "transactions": [], "display_phone": "(718) 857-9744"}]}