{"total": 131350, "region": {"center": {"longitude": -73.99429321289062, "latitude": 40.70544486444615}}, "businesses": [{"rating": 4.0, "is_closed": false, "distance": 2303.4081085, "name": "Smith St Bagels", "id": "smith-st-bagels-brooklyn", "image_url": "https://s3-media1.fl.yelpcdn.com/bphoto/74jh9zS4t0Aw7SXgw7Ai4w/o.jpg", "url": "https://www.yelp.com/biz/smith-st-bagels-brooklyn?adjust_creative=gBcvfFpabk3CnzmXKdYe3w&utm_campaign=yelp_api_v3&utm_medium=api_v3_business_search&utm_source=gBcvfFpabk3CnzmXKdYe3w", "phone": "+17188586000", "coordinates": {"longitude": -73.99205, "latitude": 40.68481}, "categories": [{"alias": "bagels", "title": "Bagels"}, {"alias": "delis", "title": "Delis"}], "review_count": 205, "location": {"city": "Brooklyn", "address1": "202 Smith St", "address3": "", "address2": "", "zip_code": "11201", "country": "US", "display_address": ["202 Smith St", "Brooklyn, NY 11201"], "state": "NY"}, "price": "$", "transactions": ["delivery", "pickup"], "display_phone": "(718) 858-6000"}, {"rating": 4.0, "is_closed": false, "distance": 2428.316549798, "name": "Streets", "id": "streets-brooklyn-2", "image_url": "https://s3-media4.fl.yelpcdn.com/bphoto/EAA4v7JFupw0aluToWfVAg/o.jpg", "url": "https://www.yelp.com/biz/streets-brooklyn-2?adjust_creative=gBcvfFpabk3CnzmXKdYe3w&utm_campaign=yelp_api_v3&utm_medium=api_v3_business_search&utm_source=gBcvfFpabk3CnzmXKdYe3w", "phone": "+17183842899", "coordinates": {"longitude": -73.9663265207627, "latitude": 40.7106797977888}, "categories": [{"alias": "newamerican", "title": "American (New)"}, {"alias": "bars", "title": "Bars"}, {"alias": "breakfast_brunch", "title": "Breakfast & Brunch"}], "review_count": 419, "location": {"city": "Brooklyn", "address1": "53 Broadway", "address3": "", "address2": null, "zip_code": "11249", "country": "US", "display_address": ["53 Broadway", "Brooklyn, NY 11249"], "state": "NY"}, "price": "$$", "transactions": [], "display_phone": "(718) 384-2899"}, {"rating": 4.0, "is_closed": false, "distance": 1850.9756417719998, "name": "El Rey Coffee And Luncheonette", "id": "el-rey-coffee-and-luncheonette-new-york", "image_url": "https://s3-media4.fl.yelpcdn.com/bphoto/JYN80F_dmzrpdgWUUw7qYw/o.jpg", "url": "https://www.yelp.com/biz/el-rey-coffee-and-luncheonette-new-york?adjust_creative=gBcvfFpabk3CnzmXKdYe3w&utm_campaign=yelp_api_v3&utm_medium=api_v3_business_search&utm_source=gBcvfFpabk3CnzmXKdYe3w", "phone": "+12122603950", "coordinates": {"longitude": -73.9879345, "latitude": 40.7213779}, "categories": [{"alias": "coffee", "title": "Coffee & Tea"}, {"alias": "newamerican", "title": "American (New)"}], "review_count": 180, "location": {"city": "New York", "address1": "100 Stanton", "address3": "", "address2": "", "zip_code": "10002", "country": "US", "display_address": ["100 Stanton", "New York, NY 10002"], "state": "NY"}, "price": "$$", "transactions": [], "display_phone": "(212) 260-3950"}, {"rating": 4.5, "is_closed": false, "distance": 2755.483945484, "name": "Diamante's Brooklyn Cigar Lounge", "id": "diamantes-brooklyn-cigar-lounge-brooklyn", "image_url": "https://s3-media3.fl.yelpcdn.com/bphoto/fDYkcfKzwM9_banuQ-hE0A/o.jpg", "url": "https://www.yelp.com/biz/diamantes-brooklyn-cigar-lounge-brooklyn?adjust_creative=gBcvfFpabk3CnzmXKdYe3w&utm_campaign=yelp_api_v3&utm_medium=api_v3_business_search&utm_source=gBcvfFpabk3CnzmXKdYe3w", "phone": "+16464623876", "coordinates": {"longitude": -73.9734601, "latitude": 40.6863524}, "categories": [{"alias": "tobaccoshops", "title": "Tobacco Shops"}, {"alias": "lounges", "title": "Lounges"}], "review_count": 61, "location": {"city": "Brooklyn", "address1": "108 S Oxford St", "address3": "", "address2": "", "zip_code": "11217", "country": "US", "display_address": ["108 S Oxford St", "Brooklyn, NY 11217"], "state": "NY"}, "price": "$$", "transactions": [], "display_phone": "(646) 462-3876"}, {"rating": 4.5, "is_closed": false, "distance": 2742.37490558, "name": "Sushi Zo", "id": "sushi-zo-new-york", "image_url": "https://s3-media3.fl.yelpcdn.com/bphoto/VQbh-MD0SNvLS536M1GurQ/o.jpg", "url": "https://www.yelp.com/biz/sushi-zo-new-york?adjust_creative=gBcvfFpabk3CnzmXKdYe3w&utm_campaign=yelp_api_v3&utm_medium=api_v3_business_search&utm_source=gBcvfFpabk3CnzmXKdYe3w", "phone": "+16464054826", "coordinates": {"longitude": -73.9992218017578, "latitude": 40.7297821044922}, "categories": [{"alias": "japanese", "title": "Japanese"}, {"alias": "sushi", "title": "Sushi Bars"}], "review_count": 45, "location": {"city": "New York", "address1": "88 W 3rd St", "address3": "", "address2": "", "zip_code": "10012", "country": "US", "display_address": ["88 W 3rd St", "New York, NY 10012"], "state": "NY"}, "price": "$$$$", "transactions": [], "display_phone": "(646) 405-4826"}, {"rating": 4.5, "is_closed": false, "distance": 2969.38599197, "name": "Anton's Dumplings", "id": "antons-dumplings-new-york", "image_url": "https://s3-media3.fl.yelpcdn.com/bphoto/Hg9-N75sMTMigT_2Ke3UxA/o.jpg", "url": "https://www.yelp.com/biz/antons-dumplings-new-york?adjust_creative=gBcvfFpabk3CnzmXKdYe3w&utm_campaign=yelp_api_v3&utm_medium=api_v3_business_search&utm_source=gBcvfFpabk3CnzmXKdYe3w", "phone": "+16467701387", "coordinates": {"longitude": -74.0009849, "latitude": 40.7316627}, "categories": [{"alias": "foodtrucks", "title": "Food Trucks"}, {"alias": "russian", "title": "Russian"}], "review_count": 48, "location": {"city": "New York", "address1": "338 Ave Of The Americas", "address3": "", "address2": "", "zip_code": "10014", "country": "US", "display_address": ["338 Ave Of The Americas", "New York, NY 10014"], "state": "NY"}, "price": "$", "transactions": ["pickup"], "display_phone": "(646) 770-1387"}, {"rating": 4.0, "is_closed": false, "distance": 3283.461406756, "name": "Westville - West", "id": "westville-west-new-york", "image_url": "https://s3-media3.fl.yelpcdn.com/bphoto/5E2mGTRNFLRwP7auSPNh4Q/o.jpg", "url": "https://www.yelp.com/biz/westville-west-new-york?adjust_creative=gBcvfFpabk3CnzmXKdYe3w&utm_campaign=yelp_api_v3&utm_medium=api_v3_business_search&utm_source=gBcvfFpabk3CnzmXKdYe3w", "phone": "+12127417971", "coordinates": {"longitude": -74.0041863, "latitude": 40.7340046}, "categories": [{"alias": "tradamerican", "title": "American (Traditional)"}, {"alias": "comfortfood", "title": "Comfort Food"}, {"alias": "vegetarian", "title": "Vegetarian"}], "review_count": 847, "location": {"city": "New York", "address1": "210 W 10th St", "address3": "", "address2": "", "zip_code": "10014", "country": "US", "display_address": ["210 W 10th St", "New York, NY 10014"], "state": "NY"}, "price": "$$", "transactions": [], "display_phone": "(212) 741-7971"}, {"rating": 4.5, "is_closed": false, "distance": 2028.011249406, "name": "Drexler's", "id": "drexlers-new-york", "image_url": "https://s3-media4.fl.yelpcdn.com/bphoto/NrObxZbv-jNL3Op7ayJLUQ/o.jpg", "url": "https://www.yelp.com/biz/drexlers-new-york?adjust_creative=gBcvfFpabk3CnzmXKdYe3w&utm_campaign=yelp_api_v3&utm_medium=api_v3_business_search&utm_source=gBcvfFpabk3CnzmXKdYe3w", "phone": "+16465245226", "coordinates": {"longitude": -73.986328, "latitude": 40.722663}, "categories": [{"alias": "bars", "title": "Bars"}], "review_count": 46, "location": {"city": "New York", "address1": "9 Ave A", "address3": "", "address2": "", "zip_code": "10009", "country": "US", "display_address": ["9 Ave A", "New York, NY 10009"], "state": "NY"}, "price": "$$", "transactions": [], "display_phone": "(646) 524-5226"}, {"rating": 4.0, "is_closed": false, "distance": 1639.2745286699999, "name": "Chez Moi", "id": "chez-moi-brooklyn", "image_url": "https://s3-media2.fl.yelpcdn.com/bphoto/ASceuNHpb-69rfAmGnyNVA/o.jpg", "url": "https://www.yelp.com/biz/chez-moi-brooklyn?adjust_creative=gBcvfFpabk3CnzmXKdYe3w&utm_campaign=yelp_api_v3&utm_medium=api_v3_business_search&utm_source=gBcvfFpabk3CnzmXKdYe3w", "phone": "+13472278337", "coordinates": {"longitude": -73.99551244328, "latitude": 40.6907305802403}, "categories": [{"alias": "french", "title": "French"}, {"alias": "desserts", "title": "Desserts"}, {"alias": "cocktailbars", "title": "Cocktail Bars"}], "review_count": 284, "location": {"city": "Brooklyn", "address1": "135 Atlantic Ave", "address3": "", "address2": "", "zip_code": "11201", "country": "US", "display_address": ["135 Atlantic Ave", "Brooklyn, NY 11201"], "state": "NY"}, "price": "$$", "transactions": [], "display_phone": "(347) 227-8337"}, {"rating": 4.0, "is_closed": false, "distance": 3149.6303016959996, "name": "Aita", "id": "aita-brooklyn", "image_url": "https://s3-media4.fl.yelpcdn.com/bphoto/19IhniRCPRnqe-z611nkeQ/o.jpg", "url": "https://www.yelp.com/biz/aita-brooklyn?adjust_creative=gBcvfFpabk3CnzmXKdYe3w&utm_campaign=yelp_api_v3&utm_medium=api_v3_business_search&utm_source=gBcvfFpabk3CnzmXKdYe3w", "phone": "+17185763584", "coordinates": {"longitude": -73.9666214, "latitude": 40.686409}, "categories": [{"alias": "italian", "title": "Italian"}], "review_count": 192, "location": {"city": "Brooklyn", "address1": "132 Greene Ave", "address3": "", "address2": "", "zip_code": "11238", "country": "US", "display_address": ["132 Greene Ave", "Brooklyn, NY 11238"], "state": "NY"}, "price": "$$", "transactions": [], "display_phone": "(718) 576-3584"}, {"rating": 4.0, "is_closed": false, "distance": 2583.2605863179997, "name": "Ninth Street Espresso", "id": "ninth-street-espresso-new-york-3", "image_url": "https://s3-media1.fl.yelpcdn.com/bphoto/_CpE0aQ2L9HlMkXYLmSBAg/o.jpg", "url": "https://www.yelp.com/biz/ninth-street-espresso-new-york-3?adjust_creative=gBcvfFpabk3CnzmXKdYe3w&utm_campaign=yelp_api_v3&utm_medium=api_v3_business_search&utm_source=gBcvfFpabk3CnzmXKdYe3w", "phone": "+12123589225", "coordinates": {"longitude": -73.9778, "latitude": 40.7251}, "categories": [{"alias": "coffee", "title": "Coffee & Tea"}], "review_count": 254, "location": {"city": "New York", "address1": "700 E 9th St", "address3": "", "address2": null, "zip_code": "10009", "country": "US", "display_address": ["700 E 9th St", "New York, NY 10009"], "state": "NY"}, "price": "$", "transactions": [], "display_phone": "(212) 358-9225"}, {"rating": 4.5, "is_closed": false, "distance": 3827.881494808, "name": "Bagel World", "id": "bagel-world-brooklyn-3", "image_url": "https://s3-media4.fl.yelpcdn.com/bphoto/3KM5TNTz1bR_C9cMR9VDqQ/o.jpg", "url": "https://www.yelp.com/biz/bagel-world-brooklyn-3?adjust_creative=gBcvfFpabk3CnzmXKdYe3w&utm_campaign=yelp_api_v3&utm_medium=api_v3_business_search&utm_source=gBcvfFpabk3CnzmXKdYe3w", "phone": "+17184991143", "coordinates": {"longitude": -73.9836120605469, "latitude": 40.6719856262207}, "categories": [{"alias": "bagels", "title": "Bagels"}, {"alias": "salad", "title": "Salad"}, {"alias": "breakfast_brunch", "title": "Breakfast & Brunch"}], "review_count": 142, "location": {"city": "Brooklyn", "address1": "339 5th Ave", "address3": "", "address2": "", "zip_code": "11215", "country": "US", "display_address": ["339 5th Ave", "Brooklyn, NY 11215"], "state": "NY"}, "price": "$", "transactions": [], "display_phone": "(718) 499-1143"}, {"rating": 4.0, "is_closed": false, "distance": 2984.694355918, "name": "Piora", "id": "piora-new-york", "image_url": "https://s3-media2.fl.yelpcdn.com/bphoto/L7r8jCPl6-Gli67H4nyPsg/o.jpg", "url": "https://www.yelp.com/biz/piora-new-york?adjust_creative=gBcvfFpabk3CnzmXKdYe3w&utm_campaign=yelp_api_v3&utm_medium=api_v3_business_search&utm_source=gBcvfFpabk3CnzmXKdYe3w", "phone": "+12129603801", "coordinates": {"longitude": -74.006601, "latitude": 40.7306154}, "categories": [{"alias": "newamerican", "title": "American (New)"}], "review_count": 235, "location": {"city": "New York", "address1": "430 Hudson St", "address3": "", "address2": "", "zip_code": "10014", "country": "US", "display_address": ["430 Hudson St", "New York, NY 10014"], "state": "NY"}, "price": "$$$$", "transactions": [], "display_phone": "(212) 960-3801"}, {"rating": 4.0, "is_closed": false, "distance": 4197.643453208, "name": "La Maison du Macaron", "id": "la-maison-du-macaron-new-york", "image_url": "https://s3-media1.fl.yelpcdn.com/bphoto/lCHoroiPN8I-nmSpvOoKBg/o.jpg", "url": "https://www.yelp.com/biz/la-maison-du-macaron-new-york?adjust_creative=gBcvfFpabk3CnzmXKdYe3w&utm_campaign=yelp_api_v3&utm_medium=api_v3_business_search&utm_source=gBcvfFpabk3CnzmXKdYe3w", "phone": "+12122432757", "coordinates": {"longitude": -73.99419, "latitude": 40.74318}, "categories": [{"alias": "macarons", "title": "Macarons"}, {"alias": "coffee", "title": "Coffee & Tea"}], "review_count": 804, "location": {"city": "New York", "address1": "132 W 23rd St", "address3": "", "address2": "", "zip_code": "10011", "country": "US", "display_address": ["132 W 23rd St", "New York, NY 10011"], "state": "NY"}, "price": "$$", "transactions": [], "display_phone": "(212) 243-2757"}, {"rating": 4.5, "is_closed": false, "distance": 1030.2592988736, "name": "Bocadillo", "id": "bocadillo-new-york", "image_url": "https://s3-media3.fl.yelpcdn.com/bphoto/MshMK-mZMjkD1b96vn_o1Q/o.jpg", "url": "https://www.yelp.com/biz/bocadillo-new-york?adjust_creative=gBcvfFpabk3CnzmXKdYe3w&utm_campaign=yelp_api_v3&utm_medium=api_v3_business_search&utm_source=gBcvfFpabk3CnzmXKdYe3w", "phone": "+12122274777", "coordinates": {"longitude": -74.005737, "latitude": 40.708724}, "categories": [{"alias": "sandwiches", "title": "Sandwiches"}, {"alias": "spanish", "title": "Spanish"}, {"alias": "tapasmallplates", "title": "Tapas/Small Plates"}], "review_count": 55, "location": {"city": "New York", "address1": "40 Gold St", "address3": null, "address2": "", "zip_code": "10038", "country": "US", "display_address": ["40 Gold St", "New York, NY 10038"], "state": "NY"}, "price": "$$", "transactions": [], "display_phone": "(212) 227-4777"}, {"rating": 4.5, "is_closed": false, "distance": 6377.338377227999, "name": "ZuriLee Restaurant", "id": "zurilee-restaurant-brooklyn", "image_url": "https://s3-media3.fl.yelpcdn.com/bphoto/8Jz4Fx_lGkCVzgVAueCl_g/o.jpg", "url": "https://www.yelp.com/biz/zurilee-restaurant-brooklyn?adjust_creative=gBcvfFpabk3CnzmXKdYe3w&utm_campaign=yelp_api_v3&utm_medium=api_v3_business_search&utm_source=gBcvfFpabk3CnzmXKdYe3w", "phone": "+17185136084", "coordinates": {"longitude": -73.959409, "latitude": 40.654557}, "categories": [{"alias": "caribbean", "title": "Caribbean"}, {"alias": "pizza", "title": "Pizza"}, {"alias": "cocktailbars", "title": "Cocktail Bars"}], "review_count": 121, "location": {"city": "Brooklyn", "address1": "755 Flatbush Ave", "address3": "", "address2": "", "zip_code": "11226", "country": "US", "display_address": ["755 Flatbush Ave", "Brooklyn, NY 11226"], "state": "NY"}, "price": "$$", "transactions": ["pickup"], "display_phone": "(718) 513-6084"}, {"rating": 4.5, "is_closed": false, "distance": 2835.6437224779997, "name": "Phil's Crummy Corner", "id": "phils-crummy-corner-brooklyn", "image_url": "https://s3-media4.fl.yelpcdn.com/bphoto/MVsHQyS6ayWQTAV1ToL-kA/o.jpg", "url": "https://www.yelp.com/biz/phils-crummy-corner-brooklyn?adjust_creative=gBcvfFpabk3CnzmXKdYe3w&utm_campaign=yelp_api_v3&utm_medium=api_v3_business_search&utm_source=gBcvfFpabk3CnzmXKdYe3w", "phone": "+17182461252", "coordinates": {"longitude": -74.004261, "latitude": 40.681087}, "categories": [{"alias": "sportsbars", "title": "Sports Bars"}, {"alias": "latin", "title": "Latin American"}, {"alias": "spanish", "title": "Spanish"}], "review_count": 37, "location": {"city": "Brooklyn", "address1": "323 Columbia St", "address3": "", "address2": "", "zip_code": "11231", "country": "US", "display_address": ["323 Columbia St", "Brooklyn, NY 11231"], "state": "NY"}, "price": "$$", "transactions": ["delivery", "pickup"], "display_phone": "(718) 246-1252"}, {"rating": 4.0, "is_closed": false, "distance": 1135.0916421, "name": "Cafe Grumpy", "id": "cafe-grumpy-new-york-6", "image_url": "https://s3-media3.fl.yelpcdn.com/bphoto/V4q-MSgQtROPrVR-oTsGsw/o.jpg", "url": "https://www.yelp.com/biz/cafe-grumpy-new-york-6?adjust_creative=gBcvfFpabk3CnzmXKdYe3w&utm_campaign=yelp_api_v3&utm_medium=api_v3_business_search&utm_source=gBcvfFpabk3CnzmXKdYe3w", "phone": "+12127777515", "coordinates": {"longitude": -73.990257, "latitude": 40.715183}, "categories": [{"alias": "coffee", "title": "Coffee & Tea"}, {"alias": "cafes", "title": "Cafes"}, {"alias": "bakeries", "title": "Bakeries"}], "review_count": 94, "location": {"city": "New York", "address1": "13 Essex St", "address3": "", "address2": "", "zip_code": "10002", "country": "US", "display_address": ["13 Essex St", "New York, NY 10002"], "state": "NY"}, "price": "$", "transactions": [], "display_phone": "(212) 777-7515"}, {"rating": 4.5, "is_closed": false, "distance": 3089.73485118, "name": "Nacho Macho Taco", "id": "nacho-macho-taco-brooklyn", "image_url": "https://s3-media2.fl.yelpcdn.com/bphoto/2ryUEz3YFgQQfpSmiqos7g/o.jpg", "url": "https://www.yelp.com/biz/nacho-macho-taco-brooklyn?adjust_creative=gBcvfFpabk3CnzmXKdYe3w&utm_campaign=yelp_api_v3&utm_medium=api_v3_business_search&utm_source=gBcvfFpabk3CnzmXKdYe3w", "phone": "+17186228282", "coordinates": {"longitude": -73.97788, "latitude": 40.68058}, "categories": [{"alias": "mexican", "title": "Mexican"}], "review_count": 37, "location": {"city": "Brooklyn", "address1": "82 5th Ave", "address3": null, "address2": "", "zip_code": "11217", "country": "US", "display_address": ["82 5th Ave", "Brooklyn, NY 11217"], "state": "NY"}, "price": "$", "transactions": ["delivery", "pickup"], "display_phone": "(718) 622-8282"}, {"rating": 4.5, "is_closed": false, "distance": 2465.834932284, "name": "Local & Vine", "id": "local-and-vine-new-york", "image_url": "https://s3-media1.fl.yelpcdn.com/bphoto/Pg10uMzb-sMs6mNQyAuDSA/o.jpg", "url": "https://www.yelp.com/biz/local-and-vine-new-york?adjust_creative=gBcvfFpabk3CnzmXKdYe3w&utm_campaign=yelp_api_v3&utm_medium=api_v3_business_search&utm_source=gBcvfFpabk3CnzmXKdYe3w", "phone": "+12123373414", "coordinates": {"longitude": -74.0074, "latitude": 40.725276}, "categories": [{"alias": "wine_bars", "title": "Wine Bars"}, {"alias": "tapasmallplates", "title": "Tapas/Small Plates"}], "review_count": 39, "location": {"city": "New York", "address1": "282 Hudson St", "address3": "", "address2": null, "zip_code": "10013", "country": "US", "display_address": ["282 Hudson St", "New York, NY 10013"], "state": "NY"}, "price": "$$", "transactions": [], "display_phone": "(212) 337-3414"}, {"rating": 4.5, "is_closed": false, "distance": 5960.951585952, "name": "Queen of Falafel", "id": "queen-of-falafel-brooklyn", "image_url": "https://s3-media1.fl.yelpcdn.com/bphoto/sr9BmfuEv4tljbDGnJUusg/o.jpg", "url": "https://www.yelp.com/biz/queen-of-falafel-brooklyn?adjust_creative=gBcvfFpabk3CnzmXKdYe3w&utm_campaign=yelp_api_v3&utm_medium=api_v3_business_search&utm_source=gBcvfFpabk3CnzmXKdYe3w", "phone": "+17185048628", "coordinates": {"longitude": -73.92353, "latitude": 40.70686}, "categories": [{"alias": "mideastern", "title": "Middle Eastern"}], "review_count": 91, "location": {"city": "Brooklyn", "address1": "2 Wyckoff Ave", "address3": "", "address2": "", "zip_code": "11237", "country": "US", "display_address": ["2 Wyckoff Ave", "Brooklyn, NY 11237"], "state": "NY"}, "price": "$", "transactions": [], "display_phone": "(718) 504-8628"}, {"rating": 4.5, "is_closed": false, "distance": 3234.7814467, "name": "Outer Borough", "id": "outer-borough-brooklyn", "image_url": "https://s3-media2.fl.yelpcdn.com/bphoto/uyRkwIVwFSlGFeG40XX3Ew/o.jpg", "url": "https://www.yelp.com/biz/outer-borough-brooklyn?adjust_creative=gBcvfFpabk3CnzmXKdYe3w&utm_campaign=yelp_api_v3&utm_medium=api_v3_business_search&utm_source=gBcvfFpabk3CnzmXKdYe3w", "phone": "+19176280180", "coordinates": {"longitude": -73.961742, "latitude": 40.720852}, "categories": [{"alias": "foodstands", "title": "Food Stands"}, {"alias": "chinese", "title": "Chinese"}], "review_count": 35, "location": {"city": "Brooklyn", "address1": "90 Kent Ave", "address3": "", "address2": null, "zip_code": "11249", "country": "US", "display_address": ["90 Kent Ave", "Brooklyn, NY 11249"], "state": "NY"}, "price": "$", "transactions": [], "display_phone": "(917) 628-0180"}, {"rating": 4.0, "is_closed": false, "distance": 2079.4463995419997, "name": "Chefs Club", "id": "chefs-club-new-york", "image_url": "https://s3-media2.fl.yelpcdn.com/bphoto/bqLVub5CbIQtC2dthSbXDg/o.jpg", "url": "https://www.yelp.com/biz/chefs-club-new-york?adjust_creative=gBcvfFpabk3CnzmXKdYe3w&utm_campaign=yelp_api_v3&utm_medium=api_v3_business_search&utm_source=gBcvfFpabk3CnzmXKdYe3w", "phone": "+12129411100", "coordinates": {"longitude": -73.995314463973, "latitude": 40.7242751866579}, "categories": [{"alias": "newamerican", "title": "American (New)"}], "review_count": 276, "location": {"city": "New York", "address1": "275 Mulberry St", "address3": null, "address2": null, "zip_code": "10012", "country": "US", "display_address": ["275 Mulberry St", "New York, NY 10012"], "state": "NY"}, "price": "$$$", "transactions": [], "display_phone": "(212) 941-1100"}, {"rating": 4.5, "is_closed": false, "distance": 3879.4685666399996, "name": "Brooklyn Banh Mi", "id": "brooklyn-banh-mi-brooklyn", "image_url": "https://s3-media3.fl.yelpcdn.com/bphoto/8ozbGb0p341GtHHbYHBGgg/o.jpg", "url": "https://www.yelp.com/biz/brooklyn-banh-mi-brooklyn?adjust_creative=gBcvfFpabk3CnzmXKdYe3w&utm_campaign=yelp_api_v3&utm_medium=api_v3_business_search&utm_source=gBcvfFpabk3CnzmXKdYe3w", "phone": "+13472608231", "coordinates": {"longitude": -73.9495620727539, "latitude": 40.7135543823242}, "categories": [{"alias": "vietnamese", "title": "Vietnamese"}, {"alias": "bubbletea", "title": "Bubble Tea"}], "review_count": 46, "location": {"city": "Brooklyn", "address1": "557 Lorimer St", "address3": "", "address2": null, "zip_code": "11211", "country": "US", "display_address": ["557 Lorimer St", "Brooklyn, NY 11211"], "state": "NY"}, "price": "$", "transactions": [], "display_phone": "(347) 260-8231"}, {"rating": 5.0, "is_closed": false, "distance": 4983.683733368, "name": "Hunters Point South Waterfront Park", "id": "hunters-point-south-waterfront-park-long-island-city", "image_url": "https://s3-media1.fl.yelpcdn.com/bphoto/b_nT81yUmlL6kQ9ESVH8Sg/o.jpg", "url": "https://www.yelp.com/biz/hunters-point-south-waterfront-park-long-island-city?adjust_creative=gBcvfFpabk3CnzmXKdYe3w&utm_campaign=yelp_api_v3&utm_medium=api_v3_business_search&utm_source=gBcvfFpabk3CnzmXKdYe3w", "phone": "", "coordinates": {"longitude": -73.9604523412252, "latitude": 40.7421974800111}, "categories": [{"alias": "playgrounds", "title": "Playgrounds"}, {"alias": "dog_parks", "title": "Dog Parks"}, {"alias": "basketballcourts", "title": "Basketball Courts"}], "review_count": 28, "location": {"city": "Long Island City", "address1": "4-10 Center Blvd", "address3": "", "address2": "", "zip_code": "11109", "country": "US", "display_address": ["4-10 Center Blvd", "Long Island City, NY 11109"], "state": "NY"}, "transactions": [], "display_phone": ""}, {"rating": 4.0, "is_closed": false, "distance": 2920.3038578479996, "name": "Maison Premiere", "id": "maison-premiere-brooklyn", "image_url": "https://s3-media2.fl.yelpcdn.com/bphoto/-HAVdJVYfWsJv4iOOfntJw/o.jpg", "url": "https://www.yelp.com/biz/maison-premiere-brooklyn?adjust_creative=gBcvfFpabk3CnzmXKdYe3w&utm_campaign=yelp_api_v3&utm_medium=api_v3_business_search&utm_source=gBcvfFpabk3CnzmXKdYe3w", "phone": "+13473350446", "coordinates": {"longitude": -73.961630570842, "latitude": 40.714206081841}, "categories": [{"alias": "seafood", "title": "Seafood"}, {"alias": "wine_bars", "title": "Wine Bars"}, {"alias": "cocktailbars", "title": "Cocktail Bars"}], "review_count": 884, "location": {"city": "Brooklyn", "address1": "298 Bedford Ave", "address3": "", "address2": "", "zip_code": "11211", "country": "US", "display_address": ["298 Bedford Ave", "Brooklyn, NY 11211"], "state": "NY"}, "price": "$$$", "transactions": [], "display_phone": "(347) 335-0446"}, {"rating": 4.0, "is_closed": false, "distance": 2382.267538774, "name": "Vic's", "id": "vics-new-york", "image_url": "https://s3-media4.fl.yelpcdn.com/bphoto/TqlZkG5joHzAQfdEd-O98g/o.jpg", "url": "https://www.yelp.com/biz/vics-new-york?adjust_creative=gBcvfFpabk3CnzmXKdYe3w&utm_campaign=yelp_api_v3&utm_medium=api_v3_business_search&utm_source=gBcvfFpabk3CnzmXKdYe3w", "phone": "+12122535700", "coordinates": {"longitude": -73.993278, "latitude": 40.726829}, "categories": [{"alias": "bars", "title": "Bars"}, {"alias": "newamerican", "title": "American (New)"}, {"alias": "italian", "title": "Italian"}], "review_count": 243, "location": {"city": "New York", "address1": "31 Great Jones St", "address3": "", "address2": "", "zip_code": "10012", "country": "US", "display_address": ["31 Great Jones St", "New York, NY 10012"], "state": "NY"}, "price": "$$", "transactions": [], "display_phone": "(212) 253-5700"}, {"rating": 4.5, "is_closed": false, "distance": 4732.448056628, "name": "Dadam", "id": "dadam-new-york", "image_url": "https://s3-media1.fl.yelpcdn.com/bphoto/G2rCbp8Pu8VWfBxOLqDYxg/o.jpg", "url": "https://www.yelp.com/biz/dadam-new-york?adjust_creative=gBcvfFpabk3CnzmXKdYe3w&utm_campaign=yelp_api_v3&utm_medium=api_v3_business_search&utm_source=gBcvfFpabk3CnzmXKdYe3w", "phone": "+19173759226", "coordinates": {"longitude": -73.9862216440252, "latitude": 40.7475613990713}, "categories": [{"alias": "korean", "title": "Korean"}, {"alias": "food_court", "title": "Food Court"}], "review_count": 147, "location": {"city": "New York", "address1": "11 West 32nd St", "address3": "", "address2": "Fl 2", "zip_code": "10001", "country": "US", "display_address": ["11 West 32nd St", "Fl 2", "New York, NY 10001"], "state": "NY"}, "price": "$$", "transactions": [], "display_phone": "(917) 375-9226"}, {"rating": 4.0, "is_closed": false, "distance": 1711.0301712499997, "name": "Happy Bones NYC", "id": "happy-bones-nyc-new-york", "image_url": "https://s3-media2.fl.yelpcdn.com/bphoto/kSOwLZFm7lEnPK4LZFMcwg/o.jpg", "url": "https://www.yelp.com/biz/happy-bones-nyc-new-york?adjust_creative=gBcvfFpabk3CnzmXKdYe3w&utm_campaign=yelp_api_v3&utm_medium=api_v3_business_search&utm_source=gBcvfFpabk3CnzmXKdYe3w", "phone": "+12126733754", "coordinates": {"longitude": -73.997066617012, "latitude": 40.720644146204}, "categories": [{"alias": "coffee", "title": "Coffee & Tea"}], "review_count": 207, "location": {"city": "New York", "address1": "394 Broome St", "address3": "", "address2": "", "zip_code": "10013", "country": "US", "display_address": ["394 Broome St", "New York, NY 10013"], "state": "NY"}, "price": "$$", "transactions": [], "display_phone": "(212) 673-3754"}, {"rating": 4.0, "is_closed": false, "distance": 3266.868145752, "name": "Employees Only", "id": "employees-only-new-york", "image_url": "https://s3-media3.fl.yelpcdn.com/bphoto/bVvonJZ8P25sxAknTIlQdQ/o.jpg", "url": "https://www.yelp.com/biz/employees-only-new-york?adjust_creative=gBcvfFpabk3CnzmXKdYe3w&utm_campaign=yelp_api_v3&utm_medium=api_v3_business_search&utm_source=gBcvfFpabk3CnzmXKdYe3w", "phone": "+12122423021", "coordinates": {"longitude": -74.00607, "latitude": 40.73343}, "categories": [{"alias": "newamerican", "title": "American (New)"}, {"alias": "diners", "title": "Diners"}, {"alias": "cocktailbars", "title": "Cocktail Bars"}], "review_count": 1174, "location": {"city": "New York", "address1": "510 Hudson St", "address3": "", "address2": "", "zip_code": "10014", "country": "US", "display_address": ["510 Hudson St", "New York, NY 10014"], "state": "NY"}, "price": "$$$", "transactions": [], "display_phone": "(212) 242-3021"}, {"rating": 4.0, "is_closed": false, "distance": 3302.930236472, "name": "Home/Made", "id": "home-made-brooklyn", "image_url": "https://s3-media1.fl.yelpcdn.com/bphoto/uVaA0k2weNz3PnQyi70bZA/o.jpg", "url": "https://www.yelp.com/biz/home-made-brooklyn?adjust_creative=gBcvfFpabk3CnzmXKdYe3w&utm_campaign=yelp_api_v3&utm_medium=api_v3_business_search&utm_source=gBcvfFpabk3CnzmXKdYe3w", "phone": "+13472234135", "coordinates": {"longitude": -74.0111904453535, "latitude": 40.6786454900236}, "categories": [{"alias": "bars", "title": "Bars"}, {"alias": "newamerican", "title": "American (New)"}, {"alias": "breakfast_brunch", "title": "Breakfast & Brunch"}], "review_count": 195, "location": {"city": "Brooklyn", "address1": "293 Van Brunt St", "address3": "", "address2": null, "zip_code": "11231", "country": "US", "display_address": ["293 Van Brunt St", "Brooklyn, NY 11231"], "state": "NY"}, "price": "$$", "transactions": [], "display_phone": "(347) 223-4135"}, {"rating": 4.5, "is_closed": false, "distance": 6063.704726272, "name": "Rustic Table", "id": "rustic-table-new-york", "image_url": "https://s3-media3.fl.yelpcdn.com/bphoto/XjUWddeOAWXVl-BVdkRZ-w/o.jpg", "url": "https://www.yelp.com/biz/rustic-table-new-york?adjust_creative=gBcvfFpabk3CnzmXKdYe3w&utm_campaign=yelp_api_v3&utm_medium=api_v3_business_search&utm_source=gBcvfFpabk3CnzmXKdYe3w", "phone": "+12122440744", "coordinates": {"longitude": -73.9957614887371, "latitude": 40.7597000493421}, "categories": [{"alias": "coffee", "title": "Coffee & Tea"}, {"alias": "mediterranean", "title": "Mediterranean"}, {"alias": "breakfast_brunch", "title": "Breakfast & Brunch"}], "review_count": 240, "location": {"city": "New York", "address1": "504 W 42nd St", "address3": "", "address2": null, "zip_code": "10036", "country": "US", "display_address": ["504 W 42nd St", "New York, NY 10036"], "state": "NY"}, "price": "$$", "transactions": ["delivery", "pickup"], "display_phone": "(212) 244-0744"}, {"rating": 4.0, "is_closed": false, "distance": 2488.3948213379995, "name": "Maharlika", "id": "maharlika-new-york", "image_url": "https://s3-media4.fl.yelpcdn.com/bphoto/3Jp1AvqhiC0XmLWcUZd-yg/o.jpg", "url": "https://www.yelp.com/biz/maharlika-new-york?adjust_creative=gBcvfFpabk3CnzmXKdYe3w&utm_campaign=yelp_api_v3&utm_medium=api_v3_business_search&utm_source=gBcvfFpabk3CnzmXKdYe3w", "phone": "+16463927880", "coordinates": {"longitude": -73.986114, "latitude": 40.726951}, "categories": [{"alias": "filipino", "title": "Filipino"}], "review_count": 1159, "location": {"city": "New York", "address1": "111 1st Ave", "address3": "", "address2": "", "zip_code": "10003", "country": "US", "display_address": ["111 1st Ave", "New York, NY 10003"], "state": "NY"}, "price": "$$", "transactions": ["delivery", "pickup"], "display_phone": "(646) 392-7880"}, {"rating": 4.0, "is_closed": false, "distance": 1449.8992100256, "name": "Vanessa's Dumpling House", "id": "vanessas-dumpling-house-new-york-2", "image_url": "https://s3-media4.fl.yelpcdn.com/bphoto/t8MpZFOvPJmvtEggu2hPhg/o.jpg", "url": "https://www.yelp.com/biz/vanessas-dumpling-house-new-york-2?adjust_creative=gBcvfFpabk3CnzmXKdYe3w&utm_campaign=yelp_api_v3&utm_medium=api_v3_business_search&utm_source=gBcvfFpabk3CnzmXKdYe3w", "phone": "+12126258008", "coordinates": {"longitude": -73.9917598664761, "latitude": 40.7184360176325}, "categories": [{"alias": "chinese", "title": "Chinese"}], "review_count": 1964, "location": {"city": "New York", "address1": "118A Eldridge St", "address3": "", "address2": "", "zip_code": "10002", "country": "US", "display_address": ["118A Eldridge St", "New York, NY 10002"], "state": "NY"}, "price": "$", "transactions": ["pickup"], "display_phone": "(212) 625-8008"}, {"rating": 4.5, "is_closed": false, "distance": 5263.264715527999, "name": "Benjamin Prime", "id": "benjamin-prime-new-york-2", "image_url": "https://s3-media4.fl.yelpcdn.com/bphoto/tfarDjkuSd1IMHRqLsw4Kg/o.jpg", "url": "https://www.yelp.com/biz/benjamin-prime-new-york-2?adjust_creative=gBcvfFpabk3CnzmXKdYe3w&utm_campaign=yelp_api_v3&utm_medium=api_v3_business_search&utm_source=gBcvfFpabk3CnzmXKdYe3w", "phone": "+12123380818", "coordinates": {"longitude": -73.9798496845097, "latitude": 40.7514936031}, "categories": [{"alias": "steak", "title": "Steakhouses"}], "review_count": 66, "location": {"city": "New York", "address1": "23 E 40th St", "address3": null, "address2": "", "zip_code": "10016", "country": "US", "display_address": ["23 E 40th St", "New York, NY 10016"], "state": "NY"}, "price": "$$$$", "transactions": [], "display_phone": "(212) 338-0818"}, {"rating": 4.0, "is_closed": false, "distance": 2048.592937732, "name": "Cafe Himalaya", "id": "cafe-himalaya-new-york-2", "image_url": "https://s3-media3.fl.yelpcdn.com/bphoto/lHBhInQlokZPCJXXWAyqQg/o.jpg", "url": "https://www.yelp.com/biz/cafe-himalaya-new-york-2?adjust_creative=gBcvfFpabk3CnzmXKdYe3w&utm_campaign=yelp_api_v3&utm_medium=api_v3_business_search&utm_source=gBcvfFpabk3CnzmXKdYe3w", "phone": "+12123580160", "coordinates": {"longitude": -73.9879441220901, "latitude": 40.7232289034083}, "categories": [{"alias": "asianfusion", "title": "Asian Fusion"}, {"alias": "himalayan", "title": "Himalayan/Nepalese"}, {"alias": "vegetarian", "title": "Vegetarian"}], "review_count": 490, "location": {"city": "New York", "address1": "78 E 1st St", "address3": "", "address2": "", "zip_code": "10009", "country": "US", "display_address": ["78 E 1st St", "New York, NY 10009"], "state": "NY"}, "price": "$", "transactions": ["delivery"], "display_phone": "(212) 358-0160"}, {"rating": 4.0, "is_closed": false, "distance": 1958.1055431559998, "name": "Brandy Library", "id": "brandy-library-new-york", "image_url": "https://s3-media2.fl.yelpcdn.com/bphoto/5YDE8Zu5KTNJe1pSBpip5w/o.jpg", "url": "https://www.yelp.com/biz/brandy-library-new-york?adjust_creative=gBcvfFpabk3CnzmXKdYe3w&utm_campaign=yelp_api_v3&utm_medium=api_v3_business_search&utm_source=gBcvfFpabk3CnzmXKdYe3w", "phone": "+12122265545", "coordinates": {"longitude": -74.007227, "latitude": 40.720073}, "categories": [{"alias": "newamerican", "title": "American (New)"}, {"alias": "lounges", "title": "Lounges"}, {"alias": "wine_bars", "title": "Wine Bars"}], "review_count": 479, "location": {"city": "New York", "address1": "25 N Moore St", "address3": "", "address2": null, "zip_code": "10013", "country": "US", "display_address": ["25 N Moore St", "New York, NY 10013"], "state": "NY"}, "price": "$$$", "transactions": [], "display_phone": "(212) 226-5545"}, {"rating": 4.5, "is_closed": false, "distance": 6579.412096581999, "name": "Bengal Tiger Indian Food", "id": "bengal-tiger-indian-food-new-york", "image_url": "https://s3-media1.fl.yelpcdn.com/bphoto/_Ftj1rAzrl55igE6t3pMgw/o.jpg", "url": "https://www.yelp.com/biz/bengal-tiger-indian-food-new-york?adjust_creative=gBcvfFpabk3CnzmXKdYe3w&utm_campaign=yelp_api_v3&utm_medium=api_v3_business_search&utm_source=gBcvfFpabk3CnzmXKdYe3w", "phone": "+12122652703", "coordinates": {"longitude": -73.977131, "latitude": 40.763167}, "categories": [{"alias": "indpak", "title": "Indian"}], "review_count": 824, "location": {"city": "New York", "address1": "58 W 56th St", "address3": "", "address2": "Fl 2", "zip_code": "10019", "country": "US", "display_address": ["58 W 56th St", "Fl 2", "New York, NY 10019"], "state": "NY"}, "price": "$$", "transactions": ["delivery", "pickup"], "display_phone": "(212) 265-2703"}, {"rating": 4.0, "is_closed": false, "distance": 2745.2438759979996, "name": "Fragole Ristorante", "id": "fragole-ristorante-brooklyn", "image_url": "https://s3-media3.fl.yelpcdn.com/bphoto/qp0g-Fb5Fi1R2pkcXR_UQw/o.jpg", "url": "https://www.yelp.com/biz/fragole-ristorante-brooklyn?adjust_creative=gBcvfFpabk3CnzmXKdYe3w&utm_campaign=yelp_api_v3&utm_medium=api_v3_business_search&utm_source=gBcvfFpabk3CnzmXKdYe3w", "phone": "+17185227133", "coordinates": {"longitude": -73.9968795776367, "latitude": 40.6808662414551}, "categories": [{"alias": "italian", "title": "Italian"}], "review_count": 256, "location": {"city": "Brooklyn", "address1": "394 Court St", "address3": "", "address2": null, "zip_code": "11231", "country": "US", "display_address": ["394 Court St", "Brooklyn, NY 11231"], "state": "NY"}, "price": "$$", "transactions": ["delivery"], "display_phone": "(718) 522-7133"}, {"rating": 4.0, "is_closed": false, "distance": 2706.401489494, "name": "Sake Bar Decibel", "id": "sake-bar-decibel-new-york", "image_url": "https://s3-media4.fl.yelpcdn.com/bphoto/zNC9sku45k9RXEhoc-ittQ/o.jpg", "url": "https://www.yelp.com/biz/sake-bar-decibel-new-york?adjust_creative=gBcvfFpabk3CnzmXKdYe3w&utm_campaign=yelp_api_v3&utm_medium=api_v3_business_search&utm_source=gBcvfFpabk3CnzmXKdYe3w", "phone": "+12129792733", "coordinates": {"longitude": -73.987792, "latitude": 40.729263}, "categories": [{"alias": "bars", "title": "Bars"}, {"alias": "japanese", "title": "Japanese"}], "review_count": 773, "location": {"city": "New York", "address1": "240 E 9th St", "address3": "", "address2": "", "zip_code": "10003", "country": "US", "display_address": ["240 E 9th St", "New York, NY 10003"], "state": "NY"}, "price": "$$", "transactions": [], "display_phone": "(212) 979-2733"}, {"rating": 4.0, "is_closed": false, "distance": 3302.4535499639996, "name": "Ichabod's", "id": "ichabods-new-york", "image_url": "https://s3-media2.fl.yelpcdn.com/bphoto/xFCBuJFqhc01Wu1zHQwztw/o.jpg", "url": "https://www.yelp.com/biz/ichabods-new-york?adjust_creative=gBcvfFpabk3CnzmXKdYe3w&utm_campaign=yelp_api_v3&utm_medium=api_v3_business_search&utm_source=gBcvfFpabk3CnzmXKdYe3w", "phone": "+12127775102", "coordinates": {"longitude": -73.9883648628205, "latitude": 40.7348034779301}, "categories": [{"alias": "newamerican", "title": "American (New)"}, {"alias": "breakfast_brunch", "title": "Breakfast & Brunch"}], "review_count": 462, "location": {"city": "New York", "address1": "15 Irving Pl", "address3": "", "address2": null, "zip_code": "10003", "country": "US", "display_address": ["15 Irving Pl", "New York, NY 10003"], "state": "NY"}, "price": "$$", "transactions": [], "display_phone": "(212) 777-5102"}, {"rating": 4.5, "is_closed": false, "distance": 4086.6089711160002, "name": "Brooklyn Ball Factory", "id": "brooklyn-ball-factory-brooklyn", "image_url": "https://s3-media3.fl.yelpcdn.com/bphoto/s-CrM0hkGye8I1kC9EvQjA/o.jpg", "url": "https://www.yelp.com/biz/brooklyn-ball-factory-brooklyn?adjust_creative=gBcvfFpabk3CnzmXKdYe3w&utm_campaign=yelp_api_v3&utm_medium=api_v3_business_search&utm_source=gBcvfFpabk3CnzmXKdYe3w", "phone": "+17183875296", "coordinates": {"longitude": -73.9458661779097, "latitude": 40.7072338027948}, "categories": [{"alias": "cafes", "title": "Cafes"}, {"alias": "asianfusion", "title": "Asian Fusion"}], "review_count": 81, "location": {"city": "Brooklyn", "address1": "95 Montrose Ave", "address3": "", "address2": "", "zip_code": "11206", "country": "US", "display_address": ["95 Montrose Ave", "Brooklyn, NY 11206"], "state": "NY"}, "price": "$$", "transactions": [], "display_phone": "(718) 387-5296"}, {"rating": 4.0, "is_closed": false, "distance": 3425.9436799200002, "name": "Sweet Chick", "id": "sweet-chick-brooklyn", "image_url": "https://s3-media1.fl.yelpcdn.com/bphoto/S5hIDPKTHpZjZHUz8mdjHw/o.jpg", "url": "https://www.yelp.com/biz/sweet-chick-brooklyn?adjust_creative=gBcvfFpabk3CnzmXKdYe3w&utm_campaign=yelp_api_v3&utm_medium=api_v3_business_search&utm_source=gBcvfFpabk3CnzmXKdYe3w", "phone": "+13477254793", "coordinates": {"longitude": -73.9574279, "latitude": 40.718423}, "categories": [{"alias": "southern", "title": "Southern"}, {"alias": "breakfast_brunch", "title": "Breakfast & Brunch"}, {"alias": "desserts", "title": "Desserts"}], "review_count": 1245, "location": {"city": "Brooklyn", "address1": "164 Bedford Ave", "address3": "", "address2": "", "zip_code": "11211", "country": "US", "display_address": ["164 Bedford Ave", "Brooklyn, NY 11211"], "state": "NY"}, "price": "$$", "transactions": [], "display_phone": "(347) 725-4793"}, {"rating": 4.0, "is_closed": false, "distance": 1701.0028565119999, "name": "Cocoron", "id": "cocoron-new-york-2", "image_url": "https://s3-media1.fl.yelpcdn.com/bphoto/FQ1MqCd8VCEaKtn5VyOYog/o.jpg", "url": "https://www.yelp.com/biz/cocoron-new-york-2?adjust_creative=gBcvfFpabk3CnzmXKdYe3w&utm_campaign=yelp_api_v3&utm_medium=api_v3_business_search&utm_source=gBcvfFpabk3CnzmXKdYe3w", "phone": "+12129660800", "coordinates": {"longitude": -73.9953191, "latitude": 40.7207236}, "categories": [{"alias": "japanese", "title": "Japanese"}, {"alias": "diyfood", "title": "Do-It-Yourself Food"}], "review_count": 466, "location": {"city": "New York", "address1": "37 Kenmare St", "address3": "", "address2": "", "zip_code": "10012", "country": "US", "display_address": ["37 Kenmare St", "New York, NY 10012"], "state": "NY"}, "price": "$$", "transactions": [], "display_phone": "(212) 966-0800"}, {"rating": 4.5, "is_closed": false, "distance": 4251.904926252, "name": "ReConnect Cafe", "id": "reconnect-cafe-brooklyn-2", "image_url": "https://s3-media2.fl.yelpcdn.com/bphoto/6Eac9WSQDWbFur0_xhFrww/o.jpg", "url": "https://www.yelp.com/biz/reconnect-cafe-brooklyn-2?adjust_creative=gBcvfFpabk3CnzmXKdYe3w&utm_campaign=yelp_api_v3&utm_medium=api_v3_business_search&utm_source=gBcvfFpabk3CnzmXKdYe3w", "phone": "+13474069780", "coordinates": {"longitude": -73.945854, "latitude": 40.694637}, "categories": [{"alias": "desserts", "title": "Desserts"}, {"alias": "coffee", "title": "Coffee & Tea"}], "review_count": 66, "location": {"city": "Brooklyn", "address1": "139 Tompkins Ave", "address3": "", "address2": null, "zip_code": "11206", "country": "US", "display_address": ["139 Tompkins Ave", "Brooklyn, NY 11206"], "state": "NY"}, "price": "$", "transactions": [], "display_phone": "(347) 406-9780"}, {"rating": 4.0, "is_closed": false, "distance": 2756.0913104, "name": "Rabbithole Restaurant", "id": "rabbithole-restaurant-brooklyn", "image_url": "https://s3-media2.fl.yelpcdn.com/bphoto/IDs9nOfcEsxFvz-RKRS7wg/o.jpg", "url": "https://www.yelp.com/biz/rabbithole-restaurant-brooklyn?adjust_creative=gBcvfFpabk3CnzmXKdYe3w&utm_campaign=yelp_api_v3&utm_medium=api_v3_business_search&utm_source=gBcvfFpabk3CnzmXKdYe3w", "phone": "+17187820910", "coordinates": {"longitude": -73.9628687873483, "latitude": 40.7122932799856}, "categories": [{"alias": "newamerican", "title": "American (New)"}, {"alias": "breakfast_brunch", "title": "Breakfast & Brunch"}], "review_count": 591, "location": {"city": "Brooklyn", "address1": "352 Bedford Ave", "address3": "", "address2": "", "zip_code": "11211", "country": "US", "display_address": ["352 Bedford Ave", "Brooklyn, NY 11211"], "state": "NY"}, "price": "$$", "transactions": [], "display_phone": "(718) 782-0910"}, {"rating": 4.5, "is_closed": false, "distance": 5204.201937528, "name": "Krupa Grocery", "id": "krupa-grocery-brooklyn", "image_url": "https://s3-media1.fl.yelpcdn.com/bphoto/ON_pz3x1o6ygR4BGJuKqfA/o.jpg", "url": "https://www.yelp.com/biz/krupa-grocery-brooklyn?adjust_creative=gBcvfFpabk3CnzmXKdYe3w&utm_campaign=yelp_api_v3&utm_medium=api_v3_business_search&utm_source=gBcvfFpabk3CnzmXKdYe3w", "phone": "+17187097098", "coordinates": {"longitude": -73.980508, "latitude": 40.6598242}, "categories": [{"alias": "bars", "title": "Bars"}, {"alias": "coffee", "title": "Coffee & Tea"}, {"alias": "newamerican", "title": "American (New)"}], "review_count": 199, "location": {"city": "Brooklyn", "address1": "231 Prospect Park W", "address3": "", "address2": "", "zip_code": "11215", "country": "US", "display_address": ["231 Prospect Park W", "Brooklyn, NY 11215"], "state": "NY"}, "price": "$$", "transactions": [], "display_phone": "(718) 709-7098"}, {"rating": 4.0, "is_closed": false, "distance": 2223.7285585619998, "name": "Turntable 5060", "id": "turntable-5060-new-york-4", "image_url": "https://s3-media2.fl.yelpcdn.com/bphoto/VoWfoVJKk57jz5AAccg48A/o.jpg", "url": "https://www.yelp.com/biz/turntable-5060-new-york-4?adjust_creative=gBcvfFpabk3CnzmXKdYe3w&utm_campaign=yelp_api_v3&utm_medium=api_v3_business_search&utm_source=gBcvfFpabk3CnzmXKdYe3w", "phone": "+12127775060", "coordinates": {"longitude": -73.9825729653239, "latitude": 40.7233613156069}, "categories": [{"alias": "chicken_wings", "title": "Chicken Wings"}, {"alias": "korean", "title": "Korean"}, {"alias": "newamerican", "title": "American (New)"}], "review_count": 182, "location": {"city": "New York", "address1": "235 E 4th St", "address3": null, "address2": null, "zip_code": "10009", "country": "US", "display_address": ["235 E 4th St", "New York, NY 10009"], "state": "NY"}, "price": "$$", "transactions": ["delivery", "pickup"], "display_phone": "(212) 777-5060"}, {"rating": 4.0, "is_closed": false, "distance": 3010.806702088, "name": "John's Of Bleecker Street", "id": "johns-of-bleecker-street-new-york-2", "image_url": "https://s3-media1.fl.yelpcdn.com/bphoto/U9nyLF5ggN4Hh3xDaqxj0g/o.jpg", "url": "https://www.yelp.com/biz/johns-of-bleecker-street-new-york-2?adjust_creative=gBcvfFpabk3CnzmXKdYe3w&utm_campaign=yelp_api_v3&utm_medium=api_v3_business_search&utm_source=gBcvfFpabk3CnzmXKdYe3w", "phone": "+12122431680", "coordinates": {"longitude": -74.00332, "latitude": 40.73158}, "categories": [{"alias": "pizza", "title": "Pizza"}, {"alias": "italian", "title": "Italian"}], "review_count": 1357, "location": {"city": "New York", "address1": "278 Bleecker St", "address3": "", "address2": "", "zip_code": "10014", "country": "US", "display_address": ["278 Bleecker St", "New York, NY 10014"], "state": "NY"}, "price": "$$", "transactions": [], "display_phone": "(212) 243-1680"}, {"rating": 4.5, "is_closed": false, "distance": 5715.6112435, "name": "Royal Halal", "id": "royal-halal-new-york", "image_url": "https://s3-media1.fl.yelpcdn.com/bphoto/ldzcXWiF6eoWSBTuGtUWaw/o.jpg", "url": "https://www.yelp.com/biz/royal-halal-new-york?adjust_creative=gBcvfFpabk3CnzmXKdYe3w&utm_campaign=yelp_api_v3&utm_medium=api_v3_business_search&utm_source=gBcvfFpabk3CnzmXKdYe3w", "phone": "+13477240504", "coordinates": {"longitude": -73.9831594434901, "latitude": 40.7561358114295}, "categories": [{"alias": "halal", "title": "Halal"}, {"alias": "foodtrucks", "title": "Food Trucks"}], "review_count": 74, "location": {"city": "New York", "address1": "44TH St And 6th Ave", "address3": "", "address2": "", "zip_code": "10018", "country": "US", "display_address": ["44TH St And 6th Ave", "New York, NY 10018"], "state": "NY"}, "price": "$", "transactions": ["pickup"], "display_phone": "(347) 724-0504"}]}