{"region": {"center": {"latitude": 40.70544486444615, "longitude": -73.99429321289062}}, "businesses": [{"transactions": ["delivery", "pickup"], "distance": 2066.01356043, "price": "$$$", "display_phone": "(212) 529-2919", "phone": "+12125292919", "url": "https://www.yelp.com/biz/yerba-buena-new-york?adjust_creative=gBcvfFpabk3CnzmXKdYe3w&utm_campaign=yelp_api_v3&utm_medium=api_v3_business_search&utm_source=gBcvfFpabk3CnzmXKdYe3w", "name": "Yerba Buena", "location": {"display_address": ["23 Avenue A", "Ste A", "New York, NY 10009"], "country": "US", "state": "NY", "address3": "", "address2": "Ste A", "address1": "23 Avenue A", "city": "New York", "zip_code": "10009"}, "is_closed": false, "review_count": 847, "coordinates": {"latitude": 40.72292, "longitude": -73.98599}, "id": "yerba-buena-new-york", "image_url": "https://s3-media2.fl.yelpcdn.com/bphoto/kbz8tFSFWv4JRPma8AWdLw/o.jpg", "categories": [{"alias": "latin", "title": "Latin American"}, {"alias": "spanish", "title": "Spanish"}, {"alias": "caribbean", "title": "Caribbean"}], "rating": 4.5}, {"transactions": [], "distance": 4623.500888516, "price": "$$", "display_phone": "(347) 770-7217", "phone": "+13477707217", "url": "https://www.yelp.com/biz/the-topaz-brooklyn-2?adjust_creative=gBcvfFpabk3CnzmXKdYe3w&utm_campaign=yelp_api_v3&utm_medium=api_v3_business_search&utm_source=gBcvfFpabk3CnzmXKdYe3w", "name": "The Topaz", "location": {"display_address": ["251 Bushwick Ave", "Brooklyn, NY 11206"], "country": "US", "state": "NY", "address3": "", "address2": "", "address1": "251 Bushwick Ave", "city": "Brooklyn", "zip_code": "11206"}, "is_closed": false, "review_count": 60, "coordinates": {"latitude": 40.7073402404785, "longitude": -73.9394912719727}, "id": "the-topaz-brooklyn-2", "image_url": "https://s3-media3.fl.yelpcdn.com/bphoto/KgOy9InMTuQgfaYkFo76eg/o.jpg", "categories": [{"alias": "bars", "title": "Bars"}, {"alias": "tapasmallplates", "title": "Tapas/Small Plates"}], "rating": 5.0}, {"transactions": [], "distance": 1668.9427115699998, "price": "$$", "display_phone": "(212) 533-2111", "phone": "+12125332111", "url": "https://www.yelp.com/biz/bowery-ballroom-new-york?adjust_creative=gBcvfFpabk3CnzmXKdYe3w&utm_campaign=yelp_api_v3&utm_medium=api_v3_business_search&utm_source=gBcvfFpabk3CnzmXKdYe3w", "name": "Bowery Ballroom", "location": {"display_address": ["6 Delancey St", "New York, NY 10002"], "country": "US", "state": "NY", "address3": "", "address2": "", "address1": "6 Delancey St", "city": "New York", "zip_code": "10002"}, "is_closed": false, "review_count": 317, "coordinates": {"latitude": 40.72036, "longitude": -73.99338}, "id": "bowery-ballroom-new-york", "image_url": "https://s3-media1.fl.yelpcdn.com/bphoto/43ffuZVoJCfTDO7fFXhYIA/o.jpg", "categories": [{"alias": "musicvenues", "title": "Music Venues"}, {"alias": "theater", "title": "Performing Arts"}, {"alias": "bars", "title": "Bars"}], "rating": 4.5}, {"transactions": ["delivery", "pickup"], "distance": 2149.000304068, "price": "$$", "display_phone": "(212) 226-5775", "phone": "+12122265775", "url": "https://www.yelp.com/biz/siggys-good-food-new-york?adjust_creative=gBcvfFpabk3CnzmXKdYe3w&utm_campaign=yelp_api_v3&utm_medium=api_v3_business_search&utm_source=gBcvfFpabk3CnzmXKdYe3w", "name": "Siggy's Good Food", "location": {"display_address": ["292 Elizabeth St", "New York, NY 10012"], "country": "US", "state": "NY", "address3": "", "address2": "", "address1": "292 Elizabeth St", "city": "New York", "zip_code": "10012"}, "is_closed": false, "review_count": 434, "coordinates": {"latitude": 40.72474, "longitude": -73.99309}, "id": "siggys-good-food-new-york", "image_url": "https://s3-media3.fl.yelpcdn.com/bphoto/RJG9_9DqirNL2ywhRDiPFw/o.jpg", "categories": [{"alias": "mediterranean", "title": "Mediterranean"}, {"alias": "vegan", "title": "Vegan"}, {"alias": "gluten_free", "title": "Gluten-Free"}], "rating": 4.5}, {"transactions": [], "distance": 2613.855588124, "price": "$$", "display_phone": "(646) 755-8088", "phone": "+16467558088", "url": "https://www.yelp.com/biz/thursday-kitchen-new-york?adjust_creative=gBcvfFpabk3CnzmXKdYe3w&utm_campaign=yelp_api_v3&utm_medium=api_v3_business_search&utm_source=gBcvfFpabk3CnzmXKdYe3w", "name": "Thursday Kitchen", "location": {"display_address": ["424 E 9th St", "New York, NY 10009"], "country": "US", "state": "NY", "address3": "", "address2": null, "address1": "424 E 9th St", "city": "New York", "zip_code": "10009"}, "is_closed": false, "review_count": 362, "coordinates": {"latitude": 40.7275047302246, "longitude": -73.9838027954102}, "id": "thursday-kitchen-new-york", "image_url": "https://s3-media1.fl.yelpcdn.com/bphoto/Rrtsi0d4NZ-RR91UPRn7MQ/o.jpg", "categories": [{"alias": "korean", "title": "Korean"}, {"alias": "newamerican", "title": "American (New)"}, {"alias": "tapasmallplates", "title": "Tapas/Small Plates"}], "rating": 4.5}, {"transactions": ["delivery", "pickup"], "distance": 3944.2240630220003, "price": "$", "display_phone": "(718) 389-2691", "phone": "+17183892691", "url": "https://www.yelp.com/biz/lorimer-market-brooklyn?adjust_creative=gBcvfFpabk3CnzmXKdYe3w&utm_campaign=yelp_api_v3&utm_medium=api_v3_business_search&utm_source=gBcvfFpabk3CnzmXKdYe3w", "name": "Lorimer Market", "location": {"display_address": ["620 Lorimer St", "Brooklyn, NY 11211"], "country": "US", "state": "NY", "address3": "", "address2": "", "address1": "620 Lorimer St", "city": "Brooklyn", "zip_code": "11211"}, "is_closed": false, "review_count": 145, "coordinates": {"latitude": 40.7155952453613, "longitude": -73.9494400024414}, "id": "lorimer-market-brooklyn", "image_url": "https://s3-media3.fl.yelpcdn.com/bphoto/TptRA9g02Kr9wYMClJ7fcQ/o.jpg", "categories": [{"alias": "meats", "title": "Meat Shops"}, {"alias": "sandwiches", "title": "Sandwiches"}, {"alias": "burgers", "title": "Burgers"}], "rating": 4.5}, {"transactions": [], "distance": 6122.290978697999, "display_phone": "(212) 698-2000", "phone": "+12126982000", "url": "https://www.yelp.com/biz/top-of-the-rock-new-york?adjust_creative=gBcvfFpabk3CnzmXKdYe3w&utm_campaign=yelp_api_v3&utm_medium=api_v3_business_search&utm_source=gBcvfFpabk3CnzmXKdYe3w", "name": "Top of the Rock", "location": {"display_address": ["30 Rockefeller Ctr", "New York, NY 10112"], "country": "US", "state": "NY", "address3": "", "address2": "", "address1": "30 Rockefeller Ctr", "city": "New York", "zip_code": "10112"}, "is_closed": false, "review_count": 1325, "coordinates": {"latitude": 40.7593342608422, "longitude": -73.9794015884399}, "id": "top-of-the-rock-new-york", "image_url": "https://s3-media3.fl.yelpcdn.com/bphoto/j04toHe0tYWtICmtPNafmg/o.jpg", "categories": [{"alias": "landmarks", "title": "Landmarks & Historical Buildings"}, {"alias": "observatories", "title": "Observatories"}], "rating": 4.5}, {"transactions": ["delivery", "pickup"], "distance": 4314.2726448759995, "price": "$$", "display_phone": "(718) 599-5600", "phone": "+17185995600", "url": "https://www.yelp.com/biz/hummus-market-brooklyn?adjust_creative=gBcvfFpabk3CnzmXKdYe3w&utm_campaign=yelp_api_v3&utm_medium=api_v3_business_search&utm_source=gBcvfFpabk3CnzmXKdYe3w", "name": "Hummus Market", "location": {"display_address": ["361 Graham Ave", "Brooklyn, NY 11211"], "country": "US", "state": "NY", "address3": "", "address2": null, "address1": "361 Graham Ave", "city": "Brooklyn", "zip_code": "11211"}, "is_closed": false, "review_count": 93, "coordinates": {"latitude": 40.715385, "longitude": -73.944839}, "id": "hummus-market-brooklyn", "image_url": "https://s3-media2.fl.yelpcdn.com/bphoto/aA5pMRPLFt7Pssx2uoxkuw/o.jpg", "categories": [{"alias": "vegetarian", "title": "Vegetarian"}, {"alias": "mideastern", "title": "Middle Eastern"}], "rating": 4.5}, {"transactions": [], "distance": 4030.441878578, "price": "$$", "display_phone": "(347) 987-3747", "phone": "+13479873747", "url": "https://www.yelp.com/biz/paulie-gees-brooklyn?adjust_creative=gBcvfFpabk3CnzmXKdYe3w&utm_campaign=yelp_api_v3&utm_medium=api_v3_business_search&utm_source=gBcvfFpabk3CnzmXKdYe3w", "name": "Paulie Gee's", "location": {"display_address": ["60 Greenpoint Ave", "Brooklyn, NY 11222"], "country": "US", "state": "NY", "address3": "", "address2": "", "address1": "60 Greenpoint Ave", "city": "Brooklyn", "zip_code": "11222"}, "is_closed": false, "review_count": 933, "coordinates": {"latitude": 40.7295455932617, "longitude": -73.9585647583008}, "id": "paulie-gees-brooklyn", "image_url": "https://s3-media3.fl.yelpcdn.com/bphoto/rByhMaDW0cZsjS3awHBQFw/o.jpg", "categories": [{"alias": "pizza", "title": "Pizza"}, {"alias": "vegan", "title": "Vegan"}, {"alias": "italian", "title": "Italian"}], "rating": 4.5}, {"transactions": [], "distance": 3797.9497020159997, "price": "$$", "display_phone": "(212) 229-1888", "phone": "+12122291888", "url": "https://www.yelp.com/biz/bar-b-new-york?adjust_creative=gBcvfFpabk3CnzmXKdYe3w&utm_campaign=yelp_api_v3&utm_medium=api_v3_business_search&utm_source=gBcvfFpabk3CnzmXKdYe3w", "name": "Bar B", "location": {"display_address": ["84 7th Ave", "New York, NY 10011"], "country": "US", "state": "NY", "address3": "", "address2": null, "address1": "84 7th Ave", "city": "New York", "zip_code": "10011"}, "is_closed": false, "review_count": 106, "coordinates": {"latitude": 40.7395018010206, "longitude": -73.9990556562659}, "id": "bar-b-new-york", "image_url": "https://s3-media1.fl.yelpcdn.com/bphoto/1bFERxrNJ752A-umVuw2zg/o.jpg", "categories": [{"alias": "italian", "title": "Italian"}, {"alias": "bars", "title": "Bars"}, {"alias": "tapas", "title": "Tapas Bars"}], "rating": 4.5}, {"transactions": ["delivery", "pickup"], "distance": 2394.549216984, "price": "$$", "display_phone": "(212) 228-2972", "phone": "+12122282972", "url": "https://www.yelp.com/biz/bobwhite-counter-new-york-4?adjust_creative=gBcvfFpabk3CnzmXKdYe3w&utm_campaign=yelp_api_v3&utm_medium=api_v3_business_search&utm_source=gBcvfFpabk3CnzmXKdYe3w", "name": "Bobwhite Counter", "location": {"display_address": ["94 Ave C", "New York, NY 10009"], "country": "US", "state": "NY", "address3": "", "address2": "", "address1": "94 Ave C", "city": "New York", "zip_code": "10009"}, "is_closed": false, "review_count": 525, "coordinates": {"latitude": 40.7236015861162, "longitude": -73.9790162460327}, "id": "bobwhite-counter-new-york-4", "image_url": "https://s3-media4.fl.yelpcdn.com/bphoto/WrQEqlqGQpRtqbZdj9BJ8g/o.jpg", "categories": [{"alias": "southern", "title": "Southern"}, {"alias": "comfortfood", "title": "Comfort Food"}], "rating": 4.5}, {"transactions": [], "distance": 4558.939961339999, "price": "$$", "display_phone": "(347) 335-0056", "phone": "+13473350056", "url": "https://www.yelp.com/biz/ringolevio-brooklyn?adjust_creative=gBcvfFpabk3CnzmXKdYe3w&utm_campaign=yelp_api_v3&utm_medium=api_v3_business_search&utm_source=gBcvfFpabk3CnzmXKdYe3w", "name": "Ringolevio", "location": {"display_address": ["490 Humboldt St", "Brooklyn, NY 11222"], "country": "US", "state": "NY", "address3": "", "address2": "", "address1": "490 Humboldt St", "city": "Brooklyn", "zip_code": "11222"}, "is_closed": false, "review_count": 169, "coordinates": {"latitude": 40.7191086, "longitude": -73.9432297}, "id": "ringolevio-brooklyn", "image_url": "https://s3-media2.fl.yelpcdn.com/bphoto/-5W7jqLYFle1Ug_YJyipog/o.jpg", "categories": [{"alias": "mediterranean", "title": "Mediterranean"}, {"alias": "breakfast_brunch", "title": "Breakfast & Brunch"}], "rating": 4.5}, {"transactions": ["pickup"], "distance": 1460.445794408, "price": "$", "display_phone": "(212) 625-2532", "phone": "+12126252532", "url": "https://www.yelp.com/biz/shu-jiao-fu-zhou-cuisine-restaurant-new-york?adjust_creative=gBcvfFpabk3CnzmXKdYe3w&utm_campaign=yelp_api_v3&utm_medium=api_v3_business_search&utm_source=gBcvfFpabk3CnzmXKdYe3w", "name": "Shu Jiao Fu Zhou Cuisine Restaurant", "location": {"display_address": ["118 Eldridge St", "New York, NY 10002"], "country": "US", "state": "NY", "address3": null, "address2": null, "address1": "118 Eldridge St", "city": "New York", "zip_code": "10002"}, "is_closed": false, "review_count": 323, "coordinates": {"latitude": 40.7184290357839, "longitude": -73.9916928979573}, "id": "shu-jiao-fu-zhou-cuisine-restaurant-new-york", "image_url": "https://s3-media3.fl.yelpcdn.com/bphoto/DgVSIlgkBmIpaawRqDcGAg/o.jpg", "categories": [{"alias": "chinese", "title": "Chinese"}, {"alias": "noodles", "title": "Noodles"}], "rating": 4.5}, {"transactions": [], "distance": 2831.934354712, "display_phone": "", "phone": "", "url": "https://www.yelp.com/biz/washington-square-park-new-york?adjust_creative=gBcvfFpabk3CnzmXKdYe3w&utm_campaign=yelp_api_v3&utm_medium=api_v3_business_search&utm_source=gBcvfFpabk3CnzmXKdYe3w", "name": "Washington Square Park", "location": {"display_address": ["1 Washington Sq E", "New York, NY 10011"], "country": "US", "state": "NY", "address3": "", "address2": "", "address1": "1 Washington Sq E", "city": "New York", "zip_code": "10011"}, "is_closed": false, "review_count": 479, "coordinates": {"latitude": 40.7307873410831, "longitude": -73.997597694397}, "id": "washington-square-park-new-york", "image_url": "https://s3-media1.fl.yelpcdn.com/bphoto/zDJPYfHy6Yum2hyexw336g/o.jpg", "categories": [{"alias": "parks", "title": "Parks"}], "rating": 4.5}, {"transactions": [], "distance": 2807.981420954, "price": "$", "display_phone": "(212) 674-8685", "phone": "+12126748685", "url": "https://www.yelp.com/biz/mamouns-falafel-new-york-2?adjust_creative=gBcvfFpabk3CnzmXKdYe3w&utm_campaign=yelp_api_v3&utm_medium=api_v3_business_search&utm_source=gBcvfFpabk3CnzmXKdYe3w", "name": "Mamoun's Falafel", "location": {"display_address": ["119 MacDougal St", "New York, NY 10012"], "country": "US", "state": "NY", "address3": "", "address2": null, "address1": "119 MacDougal St", "city": "New York", "zip_code": "10012"}, "is_closed": false, "review_count": 2036, "coordinates": {"latitude": 40.7302874, "longitude": -74.0004383}, "id": "mamouns-falafel-new-york-2", "image_url": "https://s3-media4.fl.yelpcdn.com/bphoto/RIYpWeCI-lZFY3tNP6MQ3A/o.jpg", "categories": [{"alias": "mideastern", "title": "Middle Eastern"}, {"alias": "falafel", "title": "Falafel"}], "rating": 4.0}, {"transactions": ["pickup"], "distance": 2778.693042294, "price": "$", "display_phone": "(212) 674-1234", "phone": "+12126741234", "url": "https://www.yelp.com/biz/pommes-frites-new-york-2?adjust_creative=gBcvfFpabk3CnzmXKdYe3w&utm_campaign=yelp_api_v3&utm_medium=api_v3_business_search&utm_source=gBcvfFpabk3CnzmXKdYe3w", "name": "Pommes Frites", "location": {"display_address": ["128 Macdougal St", "New York, NY 10012"], "country": "US", "state": "NY", "address3": "", "address2": "", "address1": "128 Macdougal St", "city": "New York", "zip_code": "10012"}, "is_closed": false, "review_count": 286, "coordinates": {"latitude": 40.730022, "longitude": -74.000152}, "id": "pommes-frites-new-york-2", "image_url": "https://s3-media1.fl.yelpcdn.com/bphoto/6UCYist6ceQWCtsoL3D-Dg/o.jpg", "categories": [{"alias": "belgian", "title": "Belgian"}, {"alias": "gourmet", "title": "Specialty Food"}, {"alias": "hotdogs", "title": "Fast Food"}], "rating": 4.5}, {"transactions": [], "distance": 1737.777884852, "price": "$$", "display_phone": "(212) 529-6900", "phone": "+12125296900", "url": "https://www.yelp.com/biz/garfunkels-new-york?adjust_creative=gBcvfFpabk3CnzmXKdYe3w&utm_campaign=yelp_api_v3&utm_medium=api_v3_business_search&utm_source=gBcvfFpabk3CnzmXKdYe3w", "name": "Garfunkel's", "location": {"display_address": ["67 Clinton St", "New York, NY 10002"], "country": "US", "state": "NY", "address3": "", "address2": "", "address1": "67 Clinton St", "city": "New York", "zip_code": "10002"}, "is_closed": false, "review_count": 98, "coordinates": {"latitude": 40.71943, "longitude": -73.98508}, "id": "garfunkels-new-york", "image_url": "https://s3-media1.fl.yelpcdn.com/bphoto/rbFQynq5dUd1VM3OdXeo3g/o.jpg", "categories": [{"alias": "cocktailbars", "title": "Cocktail Bars"}], "rating": 4.5}, {"transactions": [], "distance": 3268.419388578, "price": "$$", "display_phone": "(718) 722-7229", "phone": "+17187227229", "url": "https://www.yelp.com/biz/court-street-grocers-brooklyn?adjust_creative=gBcvfFpabk3CnzmXKdYe3w&utm_campaign=yelp_api_v3&utm_medium=api_v3_business_search&utm_source=gBcvfFpabk3CnzmXKdYe3w", "name": "Court Street Grocers", "location": {"display_address": ["485 Court St", "Brooklyn, NY 11231"], "country": "US", "state": "NY", "address3": "", "address2": "", "address1": "485 Court St", "city": "Brooklyn", "zip_code": "11231"}, "is_closed": false, "review_count": 207, "coordinates": {"latitude": 40.676244, "longitude": -73.998717}, "id": "court-street-grocers-brooklyn", "image_url": "https://s3-media1.fl.yelpcdn.com/bphoto/z676AY-LGPrp8-x4N7vlgA/o.jpg", "categories": [{"alias": "grocery", "title": "Grocery"}, {"alias": "cheese", "title": "Cheese Shops"}, {"alias": "sandwiches", "title": "Sandwiches"}], "rating": 4.5}, {"transactions": [], "distance": 3861.19612028, "price": "$$", "display_phone": "(646) 833-7532", "phone": "+16468337532", "url": "https://www.yelp.com/biz/burger-and-lobster-new-york?adjust_creative=gBcvfFpabk3CnzmXKdYe3w&utm_campaign=yelp_api_v3&utm_medium=api_v3_business_search&utm_source=gBcvfFpabk3CnzmXKdYe3w", "name": "Burger & Lobster", "location": {"display_address": ["39 W 19th St", "New York, NY 10011"], "country": "US", "state": "NY", "address3": "", "address2": "", "address1": "39 W 19th St", "city": "New York", "zip_code": "10011"}, "is_closed": false, "review_count": 3197, "coordinates": {"latitude": 40.74016, "longitude": -73.993372}, "id": "burger-and-lobster-new-york", "image_url": "https://s3-media4.fl.yelpcdn.com/bphoto/ysH4wU0R13y3N3jG7GYFrw/o.jpg", "categories": [{"alias": "seafood", "title": "Seafood"}, {"alias": "burgers", "title": "Burgers"}], "rating": 4.5}, {"transactions": ["delivery", "pickup"], "distance": 4863.302848292, "price": "$", "display_phone": "(212) 695-0628", "phone": "+12126950628", "url": "https://www.yelp.com/biz/juicology-new-york?adjust_creative=gBcvfFpabk3CnzmXKdYe3w&utm_campaign=yelp_api_v3&utm_medium=api_v3_business_search&utm_source=gBcvfFpabk3CnzmXKdYe3w", "name": "Juicology", "location": {"display_address": ["387 8th Ave", "New York, NY 10001"], "country": "US", "state": "NY", "address3": "", "address2": "", "address1": "387 8th Ave", "city": "New York", "zip_code": "10001"}, "is_closed": false, "review_count": 129, "coordinates": {"latitude": 40.7491633037151, "longitude": -73.9958809993587}, "id": "juicology-new-york", "image_url": "https://s3-media2.fl.yelpcdn.com/bphoto/F5vJiShYnwMxfZUZmfTvCg/o.jpg", "categories": [{"alias": "salad", "title": "Salad"}, {"alias": "juicebars", "title": "Juice Bars & Smoothies"}, {"alias": "sandwiches", "title": "Sandwiches"}], "rating": 4.5}, {"transactions": ["delivery", "pickup"], "distance": 4641.47013522, "price": "$$", "display_phone": "(212) 683-9206", "phone": "+12126839206", "url": "https://www.yelp.com/biz/galata-mediterranean-cuisine-new-york?adjust_creative=gBcvfFpabk3CnzmXKdYe3w&utm_campaign=yelp_api_v3&utm_medium=api_v3_business_search&utm_source=gBcvfFpabk3CnzmXKdYe3w", "name": "Galata Mediterranean Cuisine", "location": {"display_address": ["212 E 34th St", "New York, NY 10016"], "country": "US", "state": "NY", "address3": "", "address2": "", "address1": "212 E 34th St", "city": "New York", "zip_code": "10016"}, "is_closed": false, "review_count": 115, "coordinates": {"latitude": 40.74522, "longitude": -73.9776}, "id": "galata-mediterranean-cuisine-new-york", "image_url": "https://s3-media2.fl.yelpcdn.com/bphoto/h4VUsJNser9f-LN-DawMIA/o.jpg", "categories": [{"alias": "turkish", "title": "Turkish"}, {"alias": "mediterranean", "title": "Mediterranean"}, {"alias": "halal", "title": "Halal"}], "rating": 4.5}, {"transactions": [], "distance": 2328.156860888, "price": "$$$", "display_phone": "(212) 228-2222", "phone": "+12122282222", "url": "https://www.yelp.com/biz/taureau-new-york?adjust_creative=gBcvfFpabk3CnzmXKdYe3w&utm_campaign=yelp_api_v3&utm_medium=api_v3_business_search&utm_source=gBcvfFpabk3CnzmXKdYe3w", "name": "Taureau", "location": {"display_address": ["558 Broome St", "New York, NY 10013"], "country": "US", "state": "NY", "address3": "", "address2": "", "address1": "558 Broome St", "city": "New York", "zip_code": "10013"}, "is_closed": false, "review_count": 519, "coordinates": {"latitude": 40.724521, "longitude": -74.005683}, "id": "taureau-new-york", "image_url": "https://s3-media1.fl.yelpcdn.com/bphoto/mwRVqEkCw64zN0QIotayKQ/o.jpg", "categories": [{"alias": "fondue", "title": "Fondue"}, {"alias": "french", "title": "French"}], "rating": 4.5}, {"transactions": [], "distance": 3245.6995311279998, "price": "$", "display_phone": "", "phone": "", "url": "https://www.yelp.com/biz/roll-play-brooklyn-2?adjust_creative=gBcvfFpabk3CnzmXKdYe3w&utm_campaign=yelp_api_v3&utm_medium=api_v3_business_search&utm_source=gBcvfFpabk3CnzmXKdYe3w", "name": "Roll Play", "location": {"display_address": ["90-02 168th St", "Brooklyn, NY 11211"], "country": "US", "state": "NY", "address3": "", "address2": "", "address1": "90-02 168th St", "city": "Brooklyn", "zip_code": "11211"}, "is_closed": false, "review_count": 31, "coordinates": {"latitude": 40.7214853, "longitude": -73.9621174}, "id": "roll-play-brooklyn-2", "image_url": "https://s3-media3.fl.yelpcdn.com/bphoto/j_ujdTjwqRQAQqxpoeZt2w/o.jpg", "categories": [{"alias": "vietnamese", "title": "Vietnamese"}, {"alias": "streetvendors", "title": "Street Vendors"}], "rating": 5.0}, {"transactions": [], "distance": 1186.145137255, "price": "$$", "display_phone": "(917) 362-6662", "phone": "+19173626662", "url": "https://www.yelp.com/biz/suns-organic-garden-new-york?adjust_creative=gBcvfFpabk3CnzmXKdYe3w&utm_campaign=yelp_api_v3&utm_medium=api_v3_business_search&utm_source=gBcvfFpabk3CnzmXKdYe3w", "name": "Sun's Organic Garden", "location": {"display_address": ["79 Bayard St", "New York, NY 10013"], "country": "US", "state": "NY", "address3": "", "address2": null, "address1": "79 Bayard St", "city": "New York", "zip_code": "10013"}, "is_closed": false, "review_count": 97, "coordinates": {"latitude": 40.71563, "longitude": -73.99874}, "id": "suns-organic-garden-new-york", "image_url": "https://s3-media2.fl.yelpcdn.com/bphoto/BOygPAvZLV79cisiZ2KMoA/o.jpg", "categories": [{"alias": "coffee", "title": "Coffee & Tea"}, {"alias": "grocery", "title": "Grocery"}], "rating": 4.5}, {"transactions": [], "distance": 1473.2106930464, "price": "$$", "display_phone": "(646) 781-9222", "phone": "+16467819222", "url": "https://www.yelp.com/biz/kottu-house-new-york?adjust_creative=gBcvfFpabk3CnzmXKdYe3w&utm_campaign=yelp_api_v3&utm_medium=api_v3_business_search&utm_source=gBcvfFpabk3CnzmXKdYe3w", "name": "Kottu House", "location": {"display_address": ["250 Broome St", "New York, NY 10002"], "country": "US", "state": "NY", "address3": "", "address2": "", "address1": "250 Broome St", "city": "New York", "zip_code": "10002"}, "is_closed": false, "review_count": 187, "coordinates": {"latitude": 40.71822, "longitude": -73.989659}, "id": "kottu-house-new-york", "image_url": "https://s3-media2.fl.yelpcdn.com/bphoto/HI1tvmf1IRAsScm3i5to8A/o.jpg", "categories": [{"alias": "srilankan", "title": "Sri Lankan"}], "rating": 4.5}, {"transactions": [], "distance": 5213.7385644999995, "price": "$", "display_phone": "(212) 564-4409", "phone": "+12125644409", "url": "https://www.yelp.com/biz/best-bagel-and-coffee-new-york?adjust_creative=gBcvfFpabk3CnzmXKdYe3w&utm_campaign=yelp_api_v3&utm_medium=api_v3_business_search&utm_source=gBcvfFpabk3CnzmXKdYe3w", "name": "Best Bagel and Coffee", "location": {"display_address": ["225 W 35th St", "New York, NY 10001"], "country": "US", "state": "NY", "address3": "", "address2": "", "address1": "225 W 35th St", "city": "New York", "zip_code": "10001"}, "is_closed": false, "review_count": 1472, "coordinates": {"latitude": 40.7522683, "longitude": -73.9910861}, "id": "best-bagel-and-coffee-new-york", "image_url": "https://s3-media2.fl.yelpcdn.com/bphoto/fZzpV8mvVVTd7uV19cZ7sg/o.jpg", "categories": [{"alias": "bagels", "title": "Bagels"}, {"alias": "coffee", "title": "Coffee & Tea"}, {"alias": "breakfast_brunch", "title": "Breakfast & Brunch"}], "rating": 4.5}, {"transactions": [], "distance": 2457.5651777599996, "price": "$$$", "display_phone": "(646) 922-7948", "phone": "+16469227948", "url": "https://www.yelp.com/biz/avant-garden-new-york?adjust_creative=gBcvfFpabk3CnzmXKdYe3w&utm_campaign=yelp_api_v3&utm_medium=api_v3_business_search&utm_source=gBcvfFpabk3CnzmXKdYe3w", "name": "Avant Garden", "location": {"display_address": ["130 E 7th St", "New York, NY 10009"], "country": "US", "state": "NY", "address3": "", "address2": null, "address1": "130 E 7th St", "city": "New York", "zip_code": "10009"}, "is_closed": false, "review_count": 128, "coordinates": {"latitude": 40.7261499, "longitude": -73.98402}, "id": "avant-garden-new-york", "image_url": "https://s3-media2.fl.yelpcdn.com/bphoto/O75v7I193A26GbaW5ggfYg/o.jpg", "categories": [{"alias": "newamerican", "title": "American (New)"}, {"alias": "vegan", "title": "Vegan"}, {"alias": "vegetarian", "title": "Vegetarian"}], "rating": 4.5}, {"transactions": ["pickup"], "distance": 1071.135343962, "price": "$", "display_phone": "(646) 894-7081", "phone": "+16468947081", "url": "https://www.yelp.com/biz/kopitiam-new-york?adjust_creative=gBcvfFpabk3CnzmXKdYe3w&utm_campaign=yelp_api_v3&utm_medium=api_v3_business_search&utm_source=gBcvfFpabk3CnzmXKdYe3w", "name": "Kopitiam", "location": {"display_address": ["51B Canal St", "New York, NY 10002"], "country": "US", "state": "NY", "address3": "", "address2": "", "address1": "51B Canal St", "city": "New York", "zip_code": "10002"}, "is_closed": false, "review_count": 220, "coordinates": {"latitude": 40.715, "longitude": -73.99172}, "id": "kopitiam-new-york", "image_url": "https://s3-media1.fl.yelpcdn.com/bphoto/my8sXjoEYIwsp3YiHYv64w/o.jpg", "categories": [{"alias": "malaysian", "title": "Malaysian"}, {"alias": "breakfast_brunch", "title": "Breakfast & Brunch"}, {"alias": "singaporean", "title": "Singaporean"}], "rating": 4.5}, {"transactions": [], "distance": 6328.259300852, "price": "$$$$", "display_phone": "(212) 554-1515", "phone": "+12125541515", "url": "https://www.yelp.com/biz/le-bernardin-new-york?adjust_creative=gBcvfFpabk3CnzmXKdYe3w&utm_campaign=yelp_api_v3&utm_medium=api_v3_business_search&utm_source=gBcvfFpabk3CnzmXKdYe3w", "name": "Le Bernardin", "location": {"display_address": ["155 W 51st St", "The Equitable Bldg", "New York, NY 10019"], "country": "US", "state": "NY", "address3": "The Equitable Bldg", "address2": "", "address1": "155 W 51st St", "city": "New York", "zip_code": "10019"}, "is_closed": false, "review_count": 1896, "coordinates": {"latitude": 40.761557, "longitude": -73.981763}, "id": "le-bernardin-new-york", "image_url": "https://s3-media2.fl.yelpcdn.com/bphoto/O2auTfVN7mp7qSMoKQ81hQ/o.jpg", "categories": [{"alias": "french", "title": "French"}, {"alias": "lounges", "title": "Lounges"}], "rating": 4.5}, {"transactions": [], "distance": 2166.245186838, "price": "$$", "display_phone": "(646) 930-2724", "phone": "+16469302724", "url": "https://www.yelp.com/biz/post-new-york-2?adjust_creative=gBcvfFpabk3CnzmXKdYe3w&utm_campaign=yelp_api_v3&utm_medium=api_v3_business_search&utm_source=gBcvfFpabk3CnzmXKdYe3w", "name": "POST", "location": {"display_address": ["42 Ave B", "New York, NY 10009"], "country": "US", "state": "NY", "address3": null, "address2": "", "address1": "42 Ave B", "city": "New York", "zip_code": "10009"}, "is_closed": false, "review_count": 54, "coordinates": {"latitude": 40.722976, "longitude": -73.983016}, "id": "post-new-york-2", "image_url": "https://s3-media1.fl.yelpcdn.com/bphoto/p5E6zQCNuQvQG7apubvsIQ/o.jpg", "categories": [{"alias": "breakfast_brunch", "title": "Breakfast & Brunch"}, {"alias": "tradamerican", "title": "American (Traditional)"}], "rating": 4.5}, {"transactions": [], "distance": 1934.9950988879998, "price": "$$", "display_phone": "(212) 477-4155", "phone": "+12124774155", "url": "https://www.yelp.com/biz/rockwood-music-hall-new-york?adjust_creative=gBcvfFpabk3CnzmXKdYe3w&utm_campaign=yelp_api_v3&utm_medium=api_v3_business_search&utm_source=gBcvfFpabk3CnzmXKdYe3w", "name": "Rockwood Music Hall", "location": {"display_address": ["196 Allen St", "New York, NY 10002"], "country": "US", "state": "NY", "address3": "", "address2": null, "address1": "196 Allen St", "city": "New York", "zip_code": "10002"}, "is_closed": false, "review_count": 361, "coordinates": {"latitude": 40.722332, "longitude": -73.988571}, "id": "rockwood-music-hall-new-york", "image_url": "https://s3-media2.fl.yelpcdn.com/bphoto/8GwMpa259qoslxfUizrBrw/o.jpg", "categories": [{"alias": "musicvenues", "title": "Music Venues"}, {"alias": "bars", "title": "Bars"}], "rating": 4.5}, {"transactions": [], "distance": 3455.455274038, "price": "$$$", "display_phone": "", "phone": "", "url": "https://www.yelp.com/biz/dear-irving-new-york?adjust_creative=gBcvfFpabk3CnzmXKdYe3w&utm_campaign=yelp_api_v3&utm_medium=api_v3_business_search&utm_source=gBcvfFpabk3CnzmXKdYe3w", "name": "Dear Irving", "location": {"display_address": ["55 Irving Pl", "New York, NY 10003"], "country": "US", "state": "NY", "address3": "", "address2": "", "address1": "55 Irving Pl", "city": "New York", "zip_code": "10003"}, "is_closed": false, "review_count": 421, "coordinates": {"latitude": 40.7360568971331, "longitude": -73.9872401005554}, "id": "dear-irving-new-york", "image_url": "https://s3-media3.fl.yelpcdn.com/bphoto/Q9bH0RXHkIW4BMUp92DzUw/o.jpg", "categories": [{"alias": "cocktailbars", "title": "Cocktail Bars"}, {"alias": "lounges", "title": "Lounges"}], "rating": 4.5}, {"transactions": [], "distance": 2055.5121341279996, "price": "$$$", "display_phone": "(212) 219-0764", "phone": "+12122190764", "url": "https://www.yelp.com/biz/the-musket-room-new-york?adjust_creative=gBcvfFpabk3CnzmXKdYe3w&utm_campaign=yelp_api_v3&utm_medium=api_v3_business_search&utm_source=gBcvfFpabk3CnzmXKdYe3w", "name": "The Musket Room", "location": {"display_address": ["265 Elizabeth St", "New York, NY 10012"], "country": "US", "state": "NY", "address3": "", "address2": "", "address1": "265 Elizabeth St", "city": "New York", "zip_code": "10012"}, "is_closed": false, "review_count": 275, "coordinates": {"latitude": 40.72395, "longitude": -73.99391}, "id": "the-musket-room-new-york", "image_url": "https://s3-media3.fl.yelpcdn.com/bphoto/amWqX1QDDiNXF71YhtbRgg/o.jpg", "categories": [{"alias": "newamerican", "title": "American (New)"}, {"alias": "cocktailbars", "title": "Cocktail Bars"}], "rating": 4.5}, {"transactions": [], "distance": 1138.881315932, "price": "$", "display_phone": "", "phone": "", "url": "https://www.yelp.com/biz/black-fox-coffee-new-york?adjust_creative=gBcvfFpabk3CnzmXKdYe3w&utm_campaign=yelp_api_v3&utm_medium=api_v3_business_search&utm_source=gBcvfFpabk3CnzmXKdYe3w", "name": "Black Fox Coffee", "location": {"display_address": ["70 Pine St", "New York, NY 10270"], "country": "US", "state": "NY", "address3": null, "address2": "", "address1": "70 Pine St", "city": "New York", "zip_code": "10270"}, "is_closed": false, "review_count": 54, "coordinates": {"latitude": 40.7063449, "longitude": -74.0076944}, "id": "black-fox-coffee-new-york", "image_url": "https://s3-media4.fl.yelpcdn.com/bphoto/GIffpyC-IA3FwzhFijioXQ/o.jpg", "categories": [{"alias": "cafes", "title": "Cafes"}], "rating": 4.5}, {"transactions": [], "distance": 2627.6415164319997, "price": "$", "display_phone": "(212) 473-9148", "phone": "+12124739148", "url": "https://www.yelp.com/biz/mcsorleys-old-ale-house-new-york?adjust_creative=gBcvfFpabk3CnzmXKdYe3w&utm_campaign=yelp_api_v3&utm_medium=api_v3_business_search&utm_source=gBcvfFpabk3CnzmXKdYe3w", "name": "McSorleys Old Ale House", "location": {"display_address": ["15 E 7th St", "New York, NY 10003"], "country": "US", "state": "NY", "address3": "", "address2": "", "address1": "15 E 7th St", "city": "New York", "zip_code": "10003"}, "is_closed": false, "review_count": 1483, "coordinates": {"latitude": 40.72884, "longitude": -73.98965}, "id": "mcsorleys-old-ale-house-new-york", "image_url": "https://s3-media4.fl.yelpcdn.com/bphoto/l7mTdx23feJSzG0PJAJlAg/o.jpg", "categories": [{"alias": "divebars", "title": "Dive Bars"}, {"alias": "breweries", "title": "Breweries"}], "rating": 4.0}, {"transactions": ["pickup"], "distance": 4548.195524698, "price": "$", "display_phone": "(718) 576-3547", "phone": "+17185763547", "url": "https://www.yelp.com/biz/wafas-brooklyn-6?adjust_creative=gBcvfFpabk3CnzmXKdYe3w&utm_campaign=yelp_api_v3&utm_medium=api_v3_business_search&utm_source=gBcvfFpabk3CnzmXKdYe3w", "name": "Wafa's", "location": {"display_address": ["812 Grand St", "Brooklyn, NY 11211"], "country": "US", "state": "NY", "address3": null, "address2": "", "address1": "812 Grand St", "city": "Brooklyn", "zip_code": "11211"}, "is_closed": false, "review_count": 43, "coordinates": {"latitude": 40.7117118835449, "longitude": -73.9409408569336}, "id": "wafas-brooklyn-6", "image_url": "https://s3-media1.fl.yelpcdn.com/bphoto/aY2p-Hb4a_qKPqQUMrMKag/o.jpg", "categories": [{"alias": "lebanese", "title": "Lebanese"}, {"alias": "mediterranean", "title": "Mediterranean"}], "rating": 5.0}, {"transactions": [], "distance": 3264.593504596, "price": "$$", "display_phone": "(917) 475-1448", "phone": "+19174751448", "url": "https://www.yelp.com/biz/van-leeuwen-artisan-ice-cream-new-york-4?adjust_creative=gBcvfFpabk3CnzmXKdYe3w&utm_campaign=yelp_api_v3&utm_medium=api_v3_business_search&utm_source=gBcvfFpabk3CnzmXKdYe3w", "name": "Van Leeuwen Artisan Ice Cream", "location": {"display_address": ["152 W 10th St", "New York, NY 10014"], "country": "US", "state": "NY", "address3": "", "address2": "", "address1": "152 W 10th St", "city": "New York", "zip_code": "10014"}, "is_closed": false, "review_count": 195, "coordinates": {"latitude": 40.734366, "longitude": -74.0011898}, "id": "van-leeuwen-artisan-ice-cream-new-york-4", "image_url": "https://s3-media2.fl.yelpcdn.com/bphoto/riDnxyw3h0vkrSbNMvWosQ/o.jpg", "categories": [{"alias": "icecream", "title": "Ice Cream & Frozen Yogurt"}, {"alias": "desserts", "title": "Desserts"}, {"alias": "coffee", "title": "Coffee & Tea"}], "rating": 4.5}, {"transactions": ["pickup"], "distance": 4397.427242676, "price": "$", "display_phone": "(718) 783-1737", "phone": "+17187831737", "url": "https://www.yelp.com/biz/natural-blend-brooklyn?adjust_creative=gBcvfFpabk3CnzmXKdYe3w&utm_campaign=yelp_api_v3&utm_medium=api_v3_business_search&utm_source=gBcvfFpabk3CnzmXKdYe3w", "name": "Natural Blend", "location": {"display_address": ["769A Washington Ave", "Brooklyn, NY 11238"], "country": "US", "state": "NY", "address3": "", "address2": "", "address1": "769A Washington Ave", "city": "Brooklyn", "zip_code": "11238"}, "is_closed": false, "review_count": 137, "coordinates": {"latitude": 40.6738776, "longitude": -73.9628763}, "id": "natural-blend-brooklyn", "image_url": "https://s3-media4.fl.yelpcdn.com/bphoto/uAzB5v1RSWxExbzBMwfAyg/o.jpg", "categories": [{"alias": "caribbean", "title": "Caribbean"}, {"alias": "vegetarian", "title": "Vegetarian"}, {"alias": "juicebars", "title": "Juice Bars & Smoothies"}], "rating": 4.5}, {"transactions": ["delivery", "pickup"], "distance": 2404.26464163, "price": "$", "display_phone": "(646) 524-6384", "phone": "+16465246384", "url": "https://www.yelp.com/biz/banh-mi-zon-new-york-4?adjust_creative=gBcvfFpabk3CnzmXKdYe3w&utm_campaign=yelp_api_v3&utm_medium=api_v3_business_search&utm_source=gBcvfFpabk3CnzmXKdYe3w", "name": "Banh Mi Zon", "location": {"display_address": ["443 E 6th St", "New York, NY 10009"], "country": "US", "state": "NY", "address3": "", "address2": "", "address1": "443 E 6th St", "city": "New York", "zip_code": "10009"}, "is_closed": false, "review_count": 254, "coordinates": {"latitude": 40.7256861, "longitude": -73.9842575}, "id": "banh-mi-zon-new-york-4", "image_url": "https://s3-media2.fl.yelpcdn.com/bphoto/MmV22bjypsCf_32llkUTpQ/o.jpg", "categories": [{"alias": "vietnamese", "title": "Vietnamese"}, {"alias": "sandwiches", "title": "Sandwiches"}, {"alias": "salad", "title": "Salad"}], "rating": 4.5}, {"transactions": [], "distance": 1658.233036672, "display_phone": "", "phone": "", "url": "https://www.yelp.com/biz/new-york-city-new-york-14?adjust_creative=gBcvfFpabk3CnzmXKdYe3w&utm_campaign=yelp_api_v3&utm_medium=api_v3_business_search&utm_source=gBcvfFpabk3CnzmXKdYe3w", "name": "New York City", "location": {"display_address": ["New York, NY 10004"], "country": "US", "state": "NY", "address3": "", "address2": "", "address1": "", "city": "New York", "zip_code": "10004"}, "is_closed": false, "review_count": 178, "coordinates": {"latitude": 40.7044715881348, "longitude": -74.0115127563477}, "id": "new-york-city-new-york-14", "image_url": "https://s3-media4.fl.yelpcdn.com/bphoto/4xBXtGN2nTDMACnClvQaSQ/o.jpg", "categories": [{"alias": "localflavor", "title": "Local Flavor"}], "rating": 4.5}, {"transactions": ["pickup"], "distance": 2654.824556504, "price": "$$", "display_phone": "(212) 228-4152", "phone": "+12122284152", "url": "https://www.yelp.com/biz/ise-restaurant-new-york-3?adjust_creative=gBcvfFpabk3CnzmXKdYe3w&utm_campaign=yelp_api_v3&utm_medium=api_v3_business_search&utm_source=gBcvfFpabk3CnzmXKdYe3w", "name": "Ise Restaurant", "location": {"display_address": ["63 Cooper Sq", "New York, NY 10003"], "country": "US", "state": "NY", "address3": "", "address2": "", "address1": "63 Cooper Sq", "city": "New York", "zip_code": "10003"}, "is_closed": false, "review_count": 99, "coordinates": {"latitude": 40.7291024, "longitude": -73.9900618}, "id": "ise-restaurant-new-york-3", "image_url": "https://s3-media2.fl.yelpcdn.com/bphoto/rpCGC7OYAYUdzeD-V1-jkA/o.jpg", "categories": [{"alias": "japanese", "title": "Japanese"}, {"alias": "sushi", "title": "Sushi Bars"}], "rating": 4.5}, {"transactions": [], "distance": 2350.821839844, "price": "$$$", "display_phone": "(212) 274-0505", "phone": "+12122740505", "url": "https://www.yelp.com/biz/aquagrill-new-york?adjust_creative=gBcvfFpabk3CnzmXKdYe3w&utm_campaign=yelp_api_v3&utm_medium=api_v3_business_search&utm_source=gBcvfFpabk3CnzmXKdYe3w", "name": "Aquagrill", "location": {"display_address": ["210 Spring St", "New York, NY 10012"], "country": "US", "state": "NY", "address3": "", "address2": "", "address1": "210 Spring St", "city": "New York", "zip_code": "10012"}, "is_closed": false, "review_count": 1117, "coordinates": {"latitude": 40.7253547757864, "longitude": -74.0037010610104}, "id": "aquagrill-new-york", "image_url": "https://s3-media2.fl.yelpcdn.com/bphoto/g07ZRPxiOwNjq18S5uavyw/o.jpg", "categories": [{"alias": "seafood", "title": "Seafood"}, {"alias": "newamerican", "title": "American (New)"}], "rating": 4.0}, {"transactions": [], "distance": 255.93625310539997, "price": "$$$$", "display_phone": "(718) 522-5200", "phone": "+17185225200", "url": "https://www.yelp.com/biz/the-river-caf%C3%A9-brooklyn-3?adjust_creative=gBcvfFpabk3CnzmXKdYe3w&utm_campaign=yelp_api_v3&utm_medium=api_v3_business_search&utm_source=gBcvfFpabk3CnzmXKdYe3w", "name": "The River Caf\u00e9", "location": {"display_address": ["1 Water St", "Brooklyn, NY 11201"], "country": "US", "state": "NY", "address3": "", "address2": "", "address1": "1 Water St", "city": "Brooklyn", "zip_code": "11201"}, "is_closed": false, "review_count": 776, "coordinates": {"latitude": 40.70318, "longitude": -73.9946499}, "id": "the-river-caf\u00e9-brooklyn-3", "image_url": "https://s3-media4.fl.yelpcdn.com/bphoto/hxFmPlmIkQvyNAf02z2r1Q/o.jpg", "categories": [{"alias": "newamerican", "title": "American (New)"}, {"alias": "wine_bars", "title": "Wine Bars"}, {"alias": "venues", "title": "Venues & Event Spaces"}], "rating": 4.0}, {"transactions": [], "distance": 3918.1300633280002, "price": "$$", "display_phone": "(718) 302-0598", "phone": "+17183020598", "url": "https://www.yelp.com/biz/okonomi-brooklyn?adjust_creative=gBcvfFpabk3CnzmXKdYe3w&utm_campaign=yelp_api_v3&utm_medium=api_v3_business_search&utm_source=gBcvfFpabk3CnzmXKdYe3w", "name": "Okonomi", "location": {"display_address": ["150 Ainslie St", "Brooklyn, NY 11211"], "country": "US", "state": "NY", "address3": "", "address2": "", "address1": "150 Ainslie St", "city": "Brooklyn", "zip_code": "11211"}, "is_closed": false, "review_count": 294, "coordinates": {"latitude": 40.712622, "longitude": -73.9487843}, "id": "okonomi-brooklyn", "image_url": "https://s3-media3.fl.yelpcdn.com/bphoto/l6QBUzwYm4Peqkk4_yJ8xQ/o.jpg", "categories": [{"alias": "japanese", "title": "Japanese"}, {"alias": "breakfast_brunch", "title": "Breakfast & Brunch"}], "rating": 4.5}, {"transactions": [], "distance": 2026.8697445439998, "price": "$", "display_phone": "(212) 533-3356", "phone": "+12125333356", "url": "https://www.yelp.com/biz/punjabi-grocery-and-deli-new-york?adjust_creative=gBcvfFpabk3CnzmXKdYe3w&utm_campaign=yelp_api_v3&utm_medium=api_v3_business_search&utm_source=gBcvfFpabk3CnzmXKdYe3w", "name": "Punjabi Grocery & Deli", "location": {"display_address": ["114 E 1st St", "New York, NY 10009"], "country": "US", "state": "NY", "address3": "", "address2": "", "address1": "114 E 1st St", "city": "New York", "zip_code": "10009"}, "is_closed": false, "review_count": 317, "coordinates": {"latitude": 40.7227225423661, "longitude": -73.9866224576721}, "id": "punjabi-grocery-and-deli-new-york", "image_url": "https://s3-media2.fl.yelpcdn.com/bphoto/pMMiUcE0h5zLqlrvfgRJxw/o.jpg", "categories": [{"alias": "indpak", "title": "Indian"}, {"alias": "grocery", "title": "Grocery"}, {"alias": "vegetarian", "title": "Vegetarian"}], "rating": 4.5}, {"transactions": ["delivery", "pickup"], "distance": 3990.8291010159996, "price": "$$", "display_phone": "(718) 388-0012", "phone": "+17183880012", "url": "https://www.yelp.com/biz/the-saint-austere-brooklyn?adjust_creative=gBcvfFpabk3CnzmXKdYe3w&utm_campaign=yelp_api_v3&utm_medium=api_v3_business_search&utm_source=gBcvfFpabk3CnzmXKdYe3w", "name": "The Saint Austere", "location": {"display_address": ["613 Grand St", "Brooklyn, NY 11211"], "country": "US", "state": "NY", "address3": "", "address2": "", "address1": "613 Grand St", "city": "Brooklyn", "zip_code": "11211"}, "is_closed": false, "review_count": 293, "coordinates": {"latitude": 40.7114604, "longitude": -73.9476182}, "id": "the-saint-austere-brooklyn", "image_url": "https://s3-media2.fl.yelpcdn.com/bphoto/sk0hMQP9Z_t7C0EXI-9q0g/o.jpg", "categories": [{"alias": "tapas", "title": "Tapas Bars"}, {"alias": "italian", "title": "Italian"}], "rating": 4.5}, {"transactions": [], "distance": 2994.6923806679997, "price": "$$$$", "display_phone": "(212) 539-1776", "phone": "+12125391776", "url": "https://www.yelp.com/biz/blue-hill-new-york?adjust_creative=gBcvfFpabk3CnzmXKdYe3w&utm_campaign=yelp_api_v3&utm_medium=api_v3_business_search&utm_source=gBcvfFpabk3CnzmXKdYe3w", "name": "Blue Hill", "location": {"display_address": ["75 Washington Pl", "New York, NY 10011"], "country": "US", "state": "NY", "address3": "", "address2": "", "address1": "75 Washington Pl", "city": "New York", "zip_code": "10011"}, "is_closed": false, "review_count": 796, "coordinates": {"latitude": 40.7320640251595, "longitude": -73.9996931018524}, "id": "blue-hill-new-york", "image_url": "https://s3-media1.fl.yelpcdn.com/bphoto/7Z15qUeg_T8hpJmWhR4qPw/o.jpg", "categories": [{"alias": "newamerican", "title": "American (New)"}], "rating": 4.5}, {"transactions": [], "distance": 2507.309233424, "price": "$$", "display_phone": "(212) 228-5062", "phone": "+12122285062", "url": "https://www.yelp.com/biz/caracas-arepa-bar-new-york?adjust_creative=gBcvfFpabk3CnzmXKdYe3w&utm_campaign=yelp_api_v3&utm_medium=api_v3_business_search&utm_source=gBcvfFpabk3CnzmXKdYe3w", "name": "Caracas Arepa Bar", "location": {"display_address": ["91 E 7th St", "New York, NY 10009"], "country": "US", "state": "NY", "address3": "", "address2": "", "address1": "91 E 7th St", "city": "New York", "zip_code": "10009"}, "is_closed": false, "review_count": 2381, "coordinates": {"latitude": 40.7269655, "longitude": -73.9854223}, "id": "caracas-arepa-bar-new-york", "image_url": "https://s3-media1.fl.yelpcdn.com/bphoto/PQx3e29i358RyDYoHlkaEw/o.jpg", "categories": [{"alias": "venezuelan", "title": "Venezuelan"}], "rating": 4.0}, {"transactions": [], "distance": 4246.022144816, "price": "$", "display_phone": "(718) 369-3211", "phone": "+17183693211", "url": "https://www.yelp.com/biz/reyes-deli-and-grocery-brooklyn?adjust_creative=gBcvfFpabk3CnzmXKdYe3w&utm_campaign=yelp_api_v3&utm_medium=api_v3_business_search&utm_source=gBcvfFpabk3CnzmXKdYe3w", "name": "Reyes Deli & Grocery", "location": {"display_address": ["532 4th Ave", "Brooklyn, NY 11215"], "country": "US", "state": "NY", "address3": "", "address2": "", "address1": "532 4th Ave", "city": "Brooklyn", "zip_code": "11215"}, "is_closed": false, "review_count": 169, "coordinates": {"latitude": 40.667308807373, "longitude": -73.9916152954102}, "id": "reyes-deli-and-grocery-brooklyn", "image_url": "https://s3-media3.fl.yelpcdn.com/bphoto/2mFC4U1G-S20GI2RhdKF-g/o.jpg", "categories": [{"alias": "convenience", "title": "Convenience Stores"}, {"alias": "mexican", "title": "Mexican"}], "rating": 4.5}, {"transactions": [], "distance": 8045.69013915, "price": "$$", "display_phone": "(347) 813-4159", "phone": "+13478134159", "url": "https://www.yelp.com/biz/the-alcove-sunnyside?adjust_creative=gBcvfFpabk3CnzmXKdYe3w&utm_campaign=yelp_api_v3&utm_medium=api_v3_business_search&utm_source=gBcvfFpabk3CnzmXKdYe3w", "name": "The Alcove", "location": {"display_address": ["41-11 49th St", "Sunnyside, NY 11104"], "country": "US", "state": "NY", "address3": "", "address2": "", "address1": "41-11 49th St", "city": "Sunnyside", "zip_code": "11104"}, "is_closed": false, "review_count": 242, "coordinates": {"latitude": 40.7459065, "longitude": -73.915103}, "id": "the-alcove-sunnyside", "image_url": "https://s3-media2.fl.yelpcdn.com/bphoto/yerj0JC1KCT3z5MC02Qfdw/o.jpg", "categories": [{"alias": "gastropubs", "title": "Gastropubs"}, {"alias": "tapas", "title": "Tapas Bars"}, {"alias": "breakfast_brunch", "title": "Breakfast & Brunch"}], "rating": 5.0}], "total": 131349}