{"total": 131352, "region": {"center": {"longitude": -73.99429321289062, "latitude": 40.70544486444615}}, "businesses": [{"rating": 4.0, "is_closed": false, "distance": 3224.7069782999997, "name": "Caracas Arepa Bar", "id": "caracas-arepa-bar-brooklyn", "image_url": "https://s3-media2.fl.yelpcdn.com/bphoto/56TQ696yRHdjUobR2zsO9g/o.jpg", "url": "https://www.yelp.com/biz/caracas-arepa-bar-brooklyn?adjust_creative=gBcvfFpabk3CnzmXKdYe3w&utm_campaign=yelp_api_v3&utm_medium=api_v3_business_search&utm_source=gBcvfFpabk3CnzmXKdYe3w", "phone": "+17182186050", "coordinates": {"longitude": -73.957397, "latitude": 40.713214}, "categories": [{"alias": "venezuelan", "title": "Venezuelan"}], "review_count": 698, "location": {"city": "Brooklyn", "address1": "291 Grand St", "address3": "", "address2": "", "zip_code": "11211", "country": "US", "display_address": ["291 Grand St", "Brooklyn, NY 11211"], "state": "NY"}, "price": "$$", "transactions": ["delivery", "pickup"], "display_phone": "(718) 218-6050"}, {"rating": 4.0, "is_closed": false, "distance": 2709.6058463679997, "name": "MUD", "id": "mud-new-york-3", "image_url": "https://s3-media4.fl.yelpcdn.com/bphoto/WBBc1UnqkFxcNwHSPEi1Uw/o.jpg", "url": "https://www.yelp.com/biz/mud-new-york-3?adjust_creative=gBcvfFpabk3CnzmXKdYe3w&utm_campaign=yelp_api_v3&utm_medium=api_v3_business_search&utm_source=gBcvfFpabk3CnzmXKdYe3w", "phone": "+12122289074", "coordinates": {"longitude": -73.98668, "latitude": 40.72905}, "categories": [{"alias": "coffee", "title": "Coffee & Tea"}, {"alias": "breakfast_brunch", "title": "Breakfast & Brunch"}], "review_count": 897, "location": {"city": "New York", "address1": "307 E 9th St", "address3": "", "address2": "", "zip_code": "10003", "country": "US", "display_address": ["307 E 9th St", "New York, NY 10003"], "state": "NY"}, "price": "$$", "transactions": [], "display_phone": "(212) 228-9074"}, {"rating": 4.0, "is_closed": false, "distance": 1403.7647913278, "name": "Roasting Plant", "id": "roasting-plant-new-york-4", "image_url": "https://s3-media2.fl.yelpcdn.com/bphoto/azn_VW5eAw5jML4yIk6Qxg/o.jpg", "url": "https://www.yelp.com/biz/roasting-plant-new-york-4?adjust_creative=gBcvfFpabk3CnzmXKdYe3w&utm_campaign=yelp_api_v3&utm_medium=api_v3_business_search&utm_source=gBcvfFpabk3CnzmXKdYe3w", "phone": "+12127757755", "coordinates": {"longitude": -73.99051, "latitude": 40.71781}, "categories": [{"alias": "coffee", "title": "Coffee & Tea"}], "review_count": 231, "location": {"city": "New York", "address1": "81 Orchard St", "address3": "Orchard Street Plant", "address2": "", "zip_code": "10002", "country": "US", "display_address": ["81 Orchard St", "Orchard Street Plant", "New York, NY 10002"], "state": "NY"}, "price": "$", "transactions": [], "display_phone": "(212) 775-7755"}, {"rating": 4.0, "is_closed": false, "distance": 2480.1509771879996, "name": "Kafana", "id": "kafana-new-york", "image_url": "https://s3-media3.fl.yelpcdn.com/bphoto/zdnhu4SEN76yhjUGosMbjA/o.jpg", "url": "https://www.yelp.com/biz/kafana-new-york?adjust_creative=gBcvfFpabk3CnzmXKdYe3w&utm_campaign=yelp_api_v3&utm_medium=api_v3_business_search&utm_source=gBcvfFpabk3CnzmXKdYe3w", "phone": "+12123538000", "coordinates": {"longitude": -73.97851, "latitude": 40.72432}, "categories": [{"alias": "modern_european", "title": "Modern European"}], "review_count": 322, "location": {"city": "New York", "address1": "116 Ave C", "address3": "", "address2": "", "zip_code": "10009", "country": "US", "display_address": ["116 Ave C", "New York, NY 10009"], "state": "NY"}, "price": "$$", "transactions": [], "display_phone": "(212) 353-8000"}, {"rating": 4.5, "is_closed": false, "distance": 8756.662915944, "name": "Carl Schurz Park", "id": "carl-schurz-park-new-york", "image_url": "https://s3-media4.fl.yelpcdn.com/bphoto/P6qYdwcW2hGLM0h2UKcYIg/o.jpg", "url": "https://www.yelp.com/biz/carl-schurz-park-new-york?adjust_creative=gBcvfFpabk3CnzmXKdYe3w&utm_campaign=yelp_api_v3&utm_medium=api_v3_business_search&utm_source=gBcvfFpabk3CnzmXKdYe3w", "phone": "+12124594455", "coordinates": {"longitude": -73.9441989189, "latitude": 40.7744442236}, "categories": [{"alias": "dog_parks", "title": "Dog Parks"}], "review_count": 134, "location": {"city": "New York", "address1": "1624 York Ave", "address3": "", "address2": "", "zip_code": "10028", "country": "US", "display_address": ["1624 York Ave", "New York, NY 10028"], "state": "NY"}, "transactions": [], "display_phone": "(212) 459-4455"}, {"rating": 4.0, "is_closed": false, "distance": 969.8018668296, "name": "21 Shanghai House", "id": "21-shanghai-house-new-york-4", "image_url": "https://s3-media4.fl.yelpcdn.com/bphoto/ngQ93gUmSLfrP2HWjAwG9Q/o.jpg", "url": "https://www.yelp.com/biz/21-shanghai-house-new-york-4?adjust_creative=gBcvfFpabk3CnzmXKdYe3w&utm_campaign=yelp_api_v3&utm_medium=api_v3_business_search&utm_source=gBcvfFpabk3CnzmXKdYe3w", "phone": "+12122268998", "coordinates": {"longitude": -73.9964454932541, "latitude": 40.7140138244835}, "categories": [{"alias": "shanghainese", "title": "Shanghainese"}], "review_count": 297, "location": {"city": "New York", "address1": "21 Division St", "address3": "", "address2": "", "zip_code": "10002", "country": "US", "display_address": ["21 Division St", "New York, NY 10002"], "state": "NY"}, "price": "$$", "transactions": ["delivery", "pickup"], "display_phone": "(212) 226-8998"}, {"rating": 4.0, "is_closed": false, "distance": 3338.41811468, "name": "Emmy Squared", "id": "emmy-squared-brooklyn", "image_url": "https://s3-media3.fl.yelpcdn.com/bphoto/hvuSJ7jtri4B61-FXdvP4A/o.jpg", "url": "https://www.yelp.com/biz/emmy-squared-brooklyn?adjust_creative=gBcvfFpabk3CnzmXKdYe3w&utm_campaign=yelp_api_v3&utm_medium=api_v3_business_search&utm_source=gBcvfFpabk3CnzmXKdYe3w", "phone": "+17183604535", "coordinates": {"longitude": -73.955703, "latitude": 40.712165}, "categories": [{"alias": "pizza", "title": "Pizza"}, {"alias": "sandwiches", "title": "Sandwiches"}], "review_count": 259, "location": {"city": "Brooklyn", "address1": "364 Grand St", "address3": "", "address2": "", "zip_code": "11211", "country": "US", "display_address": ["364 Grand St", "Brooklyn, NY 11211"], "state": "NY"}, "price": "$$", "transactions": [], "display_phone": "(718) 360-4535"}, {"rating": 4.0, "is_closed": false, "distance": 1853.3098285079998, "name": "Osteria Morini", "id": "osteria-morini-new-york", "image_url": "https://s3-media4.fl.yelpcdn.com/bphoto/pHt0F5MJrE27XLeYlcAErA/o.jpg", "url": "https://www.yelp.com/biz/osteria-morini-new-york?adjust_creative=gBcvfFpabk3CnzmXKdYe3w&utm_campaign=yelp_api_v3&utm_medium=api_v3_business_search&utm_source=gBcvfFpabk3CnzmXKdYe3w", "phone": "+12129658777", "coordinates": {"longitude": -73.9976472073402, "latitude": 40.7219179851303}, "categories": [{"alias": "italian", "title": "Italian"}, {"alias": "breakfast_brunch", "title": "Breakfast & Brunch"}, {"alias": "sandwiches", "title": "Sandwiches"}], "review_count": 840, "location": {"city": "New York", "address1": "218 Lafayette St", "address3": "", "address2": "", "zip_code": "10012", "country": "US", "display_address": ["218 Lafayette St", "New York, NY 10012"], "state": "NY"}, "price": "$$$", "transactions": [], "display_phone": "(212) 965-8777"}, {"rating": 4.0, "is_closed": false, "distance": 655.4880122292, "name": "Noodle Pudding", "id": "noodle-pudding-brooklyn", "image_url": "https://s3-media4.fl.yelpcdn.com/bphoto/a9hX2-KJ1-hhe5-VRpTbpA/o.jpg", "url": "https://www.yelp.com/biz/noodle-pudding-brooklyn?adjust_creative=gBcvfFpabk3CnzmXKdYe3w&utm_campaign=yelp_api_v3&utm_medium=api_v3_business_search&utm_source=gBcvfFpabk3CnzmXKdYe3w", "phone": "+17186253737", "coordinates": {"longitude": -73.99203, "latitude": 40.69979}, "categories": [{"alias": "italian", "title": "Italian"}], "review_count": 440, "location": {"city": "Brooklyn", "address1": "38 Henry St", "address3": "", "address2": "", "zip_code": "11201", "country": "US", "display_address": ["38 Henry St", "Brooklyn, NY 11201"], "state": "NY"}, "price": "$$", "transactions": [], "display_phone": "(718) 625-3737"}, {"rating": 4.0, "is_closed": false, "distance": 1304.9430594136, "name": "Harry's Cafe & Steak", "id": "harrys-cafe-and-steak-new-york-2", "image_url": "https://s3-media2.fl.yelpcdn.com/bphoto/2DjOYso4CjyU_piI6huR2Q/o.jpg", "url": "https://www.yelp.com/biz/harrys-cafe-and-steak-new-york-2?adjust_creative=gBcvfFpabk3CnzmXKdYe3w&utm_campaign=yelp_api_v3&utm_medium=api_v3_business_search&utm_source=gBcvfFpabk3CnzmXKdYe3w", "phone": "+12127859200", "coordinates": {"longitude": -74.009834, "latitude": 40.704513}, "categories": [{"alias": "steak", "title": "Steakhouses"}, {"alias": "cafes", "title": "Cafes"}], "review_count": 503, "location": {"city": "New York", "address1": "1 Hanover Sq", "address3": "", "address2": null, "zip_code": "10004", "country": "US", "display_address": ["1 Hanover Sq", "New York, NY 10004"], "state": "NY"}, "price": "$$$", "transactions": ["delivery", "pickup"], "display_phone": "(212) 785-9200"}, {"rating": 4.0, "is_closed": false, "distance": 1064.0804319238, "name": "Terri", "id": "terri-new-york-4", "image_url": "https://s3-media3.fl.yelpcdn.com/bphoto/MTP9MMA2BfbknHRZcaODMQ/o.jpg", "url": "https://www.yelp.com/biz/terri-new-york-4?adjust_creative=gBcvfFpabk3CnzmXKdYe3w&utm_campaign=yelp_api_v3&utm_medium=api_v3_business_search&utm_source=gBcvfFpabk3CnzmXKdYe3w", "phone": "+12127427901", "coordinates": {"longitude": -74.0068224907023, "latitude": 40.7066242682904}, "categories": [{"alias": "vegan", "title": "Vegan"}, {"alias": "sandwiches", "title": "Sandwiches"}, {"alias": "juicebars", "title": "Juice Bars & Smoothies"}], "review_count": 310, "location": {"city": "New York", "address1": "100 Maiden Ln", "address3": "", "address2": null, "zip_code": "10038", "country": "US", "display_address": ["100 Maiden Ln", "New York, NY 10038"], "state": "NY"}, "price": "$", "transactions": ["delivery", "pickup"], "display_phone": "(212) 742-7901"}, {"rating": 4.0, "is_closed": false, "distance": 1052.3018816779997, "name": "Cafe Petisco", "id": "cafe-petisco-new-york", "image_url": "https://s3-media3.fl.yelpcdn.com/bphoto/YCJDHLuTpThI3IyIH8KEog/o.jpg", "url": "https://www.yelp.com/biz/cafe-petisco-new-york?adjust_creative=gBcvfFpabk3CnzmXKdYe3w&utm_campaign=yelp_api_v3&utm_medium=api_v3_business_search&utm_source=gBcvfFpabk3CnzmXKdYe3w", "phone": "+12123870366", "coordinates": {"longitude": -73.98882, "latitude": 40.71396}, "categories": [{"alias": "breakfast_brunch", "title": "Breakfast & Brunch"}, {"alias": "coffee", "title": "Coffee & Tea"}, {"alias": "sandwiches", "title": "Sandwiches"}], "review_count": 296, "location": {"city": "New York", "address1": "189 E Broadway", "address3": "", "address2": "", "zip_code": "10002", "country": "US", "display_address": ["189 E Broadway", "New York, NY 10002"], "state": "NY"}, "price": "$$", "transactions": [], "display_phone": "(212) 387-0366"}, {"rating": 4.0, "is_closed": false, "distance": 3888.953694732, "name": "Brooklyn Star", "id": "brooklyn-star-brooklyn", "image_url": "https://s3-media1.fl.yelpcdn.com/bphoto/3ysbiHHQMKcH7oElzb_rEg/o.jpg", "url": "https://www.yelp.com/biz/brooklyn-star-brooklyn?adjust_creative=gBcvfFpabk3CnzmXKdYe3w&utm_campaign=yelp_api_v3&utm_medium=api_v3_business_search&utm_source=gBcvfFpabk3CnzmXKdYe3w", "phone": "+17185999899", "coordinates": {"longitude": -73.949764, "latitude": 40.714592}, "categories": [{"alias": "southern", "title": "Southern"}, {"alias": "bars", "title": "Bars"}], "review_count": 539, "location": {"city": "Brooklyn", "address1": "593 Lorimer St", "address3": "", "address2": "", "zip_code": "11211", "country": "US", "display_address": ["593 Lorimer St", "Brooklyn, NY 11211"], "state": "NY"}, "price": "$$", "transactions": [], "display_phone": "(718) 599-9899"}, {"rating": 4.0, "is_closed": false, "distance": 2559.104392918, "name": "FREEHOLD", "id": "freehold-brooklyn", "image_url": "https://s3-media1.fl.yelpcdn.com/bphoto/_iz4Jo_FfDK-5npVLf-W2w/o.jpg", "url": "https://www.yelp.com/biz/freehold-brooklyn?adjust_creative=gBcvfFpabk3CnzmXKdYe3w&utm_campaign=yelp_api_v3&utm_medium=api_v3_business_search&utm_source=gBcvfFpabk3CnzmXKdYe3w", "phone": "+17183887591", "coordinates": {"longitude": -73.965905, "latitude": 40.7136054}, "categories": [{"alias": "coffee", "title": "Coffee & Tea"}, {"alias": "bars", "title": "Bars"}, {"alias": "newamerican", "title": "American (New)"}], "review_count": 245, "location": {"city": "Brooklyn", "address1": "45 S 3rd St", "address3": "", "address2": "", "zip_code": "11249", "country": "US", "display_address": ["45 S 3rd St", "Brooklyn, NY 11249"], "state": "NY"}, "price": "$$", "transactions": [], "display_phone": "(718) 388-7591"}, {"rating": 4.0, "is_closed": false, "distance": 4226.68769499, "name": "Krolewskie Jadlo", "id": "krolewskie-jadlo-brooklyn", "image_url": "https://s3-media2.fl.yelpcdn.com/bphoto/RaDgHWpTN3rolLtfRz3O6g/o.jpg", "url": "https://www.yelp.com/biz/krolewskie-jadlo-brooklyn?adjust_creative=gBcvfFpabk3CnzmXKdYe3w&utm_campaign=yelp_api_v3&utm_medium=api_v3_business_search&utm_source=gBcvfFpabk3CnzmXKdYe3w", "phone": "+17183838993", "coordinates": {"longitude": -73.95153, "latitude": 40.72532}, "categories": [{"alias": "polish", "title": "Polish"}], "review_count": 334, "location": {"city": "Brooklyn", "address1": "694 Manhattan Ave", "address3": "", "address2": null, "zip_code": "11222", "country": "US", "display_address": ["694 Manhattan Ave", "Brooklyn, NY 11222"], "state": "NY"}, "price": "$$", "transactions": ["delivery", "pickup"], "display_phone": "(718) 383-8993"}, {"rating": 5.0, "is_closed": false, "distance": 8692.712250496, "name": "Elite Event: LNY Saigon Soire\u00e9 at District Saigon", "id": "elite-event-lny-saigon-soire\u00e9-at-district-saigon-astoria", "image_url": "https://s3-media2.fl.yelpcdn.com/bphoto/DN8mNlE0GOa3sXSaHJ6Ggg/o.jpg", "url": "https://www.yelp.com/biz/elite-event-lny-saigon-soire%C3%A9-at-district-saigon-astoria?adjust_creative=gBcvfFpabk3CnzmXKdYe3w&utm_campaign=yelp_api_v3&utm_medium=api_v3_business_search&utm_source=gBcvfFpabk3CnzmXKdYe3w", "phone": "", "coordinates": {"longitude": -73.91991, "latitude": 40.7596599}, "categories": [{"alias": "yelpevents", "title": "Yelp Events"}], "review_count": 38, "location": {"city": "Astoria", "address1": "District Saigon", "address3": "37-15 Broadway", "address2": null, "zip_code": "11103", "country": "US", "display_address": ["District Saigon", "37-15 Broadway", "Astoria, NY 11103"], "state": "NY"}, "transactions": [], "display_phone": ""}, {"rating": 4.0, "is_closed": false, "distance": 1643.1924668999998, "name": "Baby Grand", "id": "baby-grand-new-york", "image_url": "https://s3-media1.fl.yelpcdn.com/bphoto/3htSb-xlG-QgAeLdWE9ZKA/o.jpg", "url": "https://www.yelp.com/biz/baby-grand-new-york?adjust_creative=gBcvfFpabk3CnzmXKdYe3w&utm_campaign=yelp_api_v3&utm_medium=api_v3_business_search&utm_source=gBcvfFpabk3CnzmXKdYe3w", "phone": "+12122198110", "coordinates": {"longitude": -73.999181630097, "latitude": 40.7197504957621}, "categories": [{"alias": "karaoke", "title": "Karaoke"}, {"alias": "lounges", "title": "Lounges"}], "review_count": 155, "location": {"city": "New York", "address1": "161 Lafayette St", "address3": "", "address2": "", "zip_code": "10013", "country": "US", "display_address": ["161 Lafayette St", "New York, NY 10013"], "state": "NY"}, "price": "$$", "transactions": [], "display_phone": "(212) 219-8110"}, {"rating": 4.5, "is_closed": false, "distance": 4622.8677741599995, "name": "La Tarte Flambee", "id": "la-tarte-flambee-new-york-4", "image_url": "https://s3-media2.fl.yelpcdn.com/bphoto/gg94wS7wpbbpM1WnsRl_kw/o.jpg", "url": "https://www.yelp.com/biz/la-tarte-flambee-new-york-4?adjust_creative=gBcvfFpabk3CnzmXKdYe3w&utm_campaign=yelp_api_v3&utm_medium=api_v3_business_search&utm_source=gBcvfFpabk3CnzmXKdYe3w", "phone": "+19172612070", "coordinates": {"longitude": -73.9795761190491, "latitude": 40.7454955900215}, "categories": [{"alias": "french", "title": "French"}, {"alias": "german", "title": "German"}, {"alias": "bars", "title": "Bars"}], "review_count": 209, "location": {"city": "New York", "address1": "153 E 33rd St", "address3": "", "address2": "", "zip_code": "10016", "country": "US", "display_address": ["153 E 33rd St", "New York, NY 10016"], "state": "NY"}, "price": "$$", "transactions": ["delivery", "pickup"], "display_phone": "(917) 261-2070"}, {"rating": 4.0, "is_closed": false, "distance": 3056.351345956, "name": "8th Street Winecellar", "id": "8th-street-winecellar-new-york-2", "image_url": "https://s3-media4.fl.yelpcdn.com/bphoto/qajYxrZ7RTit4VZBfuMy7w/o.jpg", "url": "https://www.yelp.com/biz/8th-street-winecellar-new-york-2?adjust_creative=gBcvfFpabk3CnzmXKdYe3w&utm_campaign=yelp_api_v3&utm_medium=api_v3_business_search&utm_source=gBcvfFpabk3CnzmXKdYe3w", "phone": "+12122609463", "coordinates": {"longitude": -73.9978351, "latitude": 40.7327981}, "categories": [{"alias": "wine_bars", "title": "Wine Bars"}], "review_count": 305, "location": {"city": "New York", "address1": "28 W 8th St", "address3": "", "address2": "", "zip_code": "10011", "country": "US", "display_address": ["28 W 8th St", "New York, NY 10011"], "state": "NY"}, "price": "$$", "transactions": [], "display_phone": "(212) 260-9463"}, {"rating": 4.0, "is_closed": false, "distance": 3328.744050072, "name": "Union Square", "id": "union-square-new-york-4", "image_url": "https://s3-media1.fl.yelpcdn.com/bphoto/5qAFycAu8uCRvwBXMRA7iw/o.jpg", "url": "https://www.yelp.com/biz/union-square-new-york-4?adjust_creative=gBcvfFpabk3CnzmXKdYe3w&utm_campaign=yelp_api_v3&utm_medium=api_v3_business_search&utm_source=gBcvfFpabk3CnzmXKdYe3w", "phone": "", "coordinates": {"longitude": -73.990752696991, "latitude": 40.7352587669863}, "categories": [{"alias": "parks", "title": "Parks"}], "review_count": 370, "location": {"city": "New York", "address1": "E 14th St & Broadway", "address3": "", "address2": "", "zip_code": "10011", "country": "US", "display_address": ["E 14th St & Broadway", "New York, NY 10011"], "state": "NY"}, "transactions": [], "display_phone": ""}, {"rating": 4.0, "is_closed": false, "distance": 2717.18068788, "name": "Cotenna", "id": "cotenna-new-york", "image_url": "https://s3-media4.fl.yelpcdn.com/bphoto/rqASkg1k03wBx2oR5Dowtw/o.jpg", "url": "https://www.yelp.com/biz/cotenna-new-york?adjust_creative=gBcvfFpabk3CnzmXKdYe3w&utm_campaign=yelp_api_v3&utm_medium=api_v3_business_search&utm_source=gBcvfFpabk3CnzmXKdYe3w", "phone": "+16468610175", "coordinates": {"longitude": -74.0034306011874, "latitude": 40.7288766399798}, "categories": [{"alias": "wine_bars", "title": "Wine Bars"}, {"alias": "italian", "title": "Italian"}], "review_count": 218, "location": {"city": "New York", "address1": "21 Bedford St", "address3": "", "address2": "", "zip_code": "10014", "country": "US", "display_address": ["21 Bedford St", "New York, NY 10014"], "state": "NY"}, "price": "$$", "transactions": [], "display_phone": "(646) 861-0175"}, {"rating": 4.0, "is_closed": false, "distance": 2843.23787607, "name": "Avlee Greek Kitchen", "id": "avlee-greek-kitchen-brooklyn-3", "image_url": "https://s3-media3.fl.yelpcdn.com/bphoto/RxPj-lLC5A6GGOLOkjh06g/o.jpg", "url": "https://www.yelp.com/biz/avlee-greek-kitchen-brooklyn-3?adjust_creative=gBcvfFpabk3CnzmXKdYe3w&utm_campaign=yelp_api_v3&utm_medium=api_v3_business_search&utm_source=gBcvfFpabk3CnzmXKdYe3w", "phone": "+17188555125", "coordinates": {"longitude": -73.9948699, "latitude": 40.6798782}, "categories": [{"alias": "greek", "title": "Greek"}, {"alias": "mediterranean", "title": "Mediterranean"}, {"alias": "salad", "title": "Salad"}], "review_count": 191, "location": {"city": "Brooklyn", "address1": "349 Smith St", "address3": "", "address2": "", "zip_code": "11231", "country": "US", "display_address": ["349 Smith St", "Brooklyn, NY 11231"], "state": "NY"}, "price": "$$", "transactions": ["delivery", "pickup"], "display_phone": "(718) 855-5125"}, {"rating": 4.0, "is_closed": false, "distance": 2934.517548728, "name": "Shake Shack", "id": "shake-shack-brooklyn-4", "image_url": "https://s3-media3.fl.yelpcdn.com/bphoto/Wyj-XrfefRp6DmnvIPb19w/o.jpg", "url": "https://www.yelp.com/biz/shake-shack-brooklyn-4?adjust_creative=gBcvfFpabk3CnzmXKdYe3w&utm_campaign=yelp_api_v3&utm_medium=api_v3_business_search&utm_source=gBcvfFpabk3CnzmXKdYe3w", "phone": "+13474427721", "coordinates": {"longitude": -73.97668, "latitude": 40.68269}, "categories": [{"alias": "burgers", "title": "Burgers"}, {"alias": "hotdog", "title": "Hot Dogs"}], "review_count": 245, "location": {"city": "Brooklyn", "address1": "170 Flatbush Ave", "address3": "", "address2": "", "zip_code": "11217", "country": "US", "display_address": ["170 Flatbush Ave", "Brooklyn, NY 11217"], "state": "NY"}, "price": "$$", "transactions": [], "display_phone": "(347) 442-7721"}, {"rating": 5.0, "is_closed": false, "distance": 9271.82455906, "name": "Elite Event: Yelp After Hours at Butcher Bar", "id": "elite-event-yelp-after-hours-at-butcher-bar-astoria", "image_url": "https://s3-media4.fl.yelpcdn.com/bphoto/eW1Txz9C6nAfmE2IDnfuCg/o.jpg", "url": "https://www.yelp.com/biz/elite-event-yelp-after-hours-at-butcher-bar-astoria?adjust_creative=gBcvfFpabk3CnzmXKdYe3w&utm_campaign=yelp_api_v3&utm_medium=api_v3_business_search&utm_source=gBcvfFpabk3CnzmXKdYe3w", "phone": "", "coordinates": {"longitude": -73.9164, "latitude": 40.76431}, "categories": [{"alias": "yelpevents", "title": "Yelp Events"}], "review_count": 36, "location": {"city": "Astoria", "address1": "37-10 30th Ave", "address3": null, "address2": "", "zip_code": "11103", "country": "US", "display_address": ["37-10 30th Ave", "Astoria, NY 11103"], "state": "NY"}, "transactions": [], "display_phone": ""}, {"rating": 4.0, "is_closed": false, "distance": 2101.6630163739997, "name": "Spiegel", "id": "spiegel-new-york-2", "image_url": "https://s3-media1.fl.yelpcdn.com/bphoto/KeIlkj23LxT5WIHx0yXuUA/o.jpg", "url": "https://www.yelp.com/biz/spiegel-new-york-2?adjust_creative=gBcvfFpabk3CnzmXKdYe3w&utm_campaign=yelp_api_v3&utm_medium=api_v3_business_search&utm_source=gBcvfFpabk3CnzmXKdYe3w", "phone": "+12122282894", "coordinates": {"longitude": -73.9877853393555, "latitude": 40.723690032959}, "categories": [{"alias": "newamerican", "title": "American (New)"}, {"alias": "bars", "title": "Bars"}, {"alias": "breakfast_brunch", "title": "Breakfast & Brunch"}], "review_count": 205, "location": {"city": "New York", "address1": "26 1st Ave", "address3": "", "address2": "", "zip_code": "10009", "country": "US", "display_address": ["26 1st Ave", "New York, NY 10009"], "state": "NY"}, "price": "$$", "transactions": ["delivery", "pickup"], "display_phone": "(212) 228-2894"}, {"rating": 4.0, "is_closed": false, "distance": 3031.889056088, "name": "Radegast Hall and Biergarten", "id": "radegast-hall-and-biergarten-brooklyn", "image_url": "https://s3-media1.fl.yelpcdn.com/bphoto/SHeeD3pGiQWgyafea3z2UA/o.jpg", "url": "https://www.yelp.com/biz/radegast-hall-and-biergarten-brooklyn?adjust_creative=gBcvfFpabk3CnzmXKdYe3w&utm_campaign=yelp_api_v3&utm_medium=api_v3_business_search&utm_source=gBcvfFpabk3CnzmXKdYe3w", "phone": "+17189633973", "coordinates": {"longitude": -73.961498, "latitude": 40.716641}, "categories": [{"alias": "pubs", "title": "Pubs"}, {"alias": "german", "title": "German"}, {"alias": "venues", "title": "Venues & Event Spaces"}], "review_count": 1121, "location": {"city": "Brooklyn", "address1": "113 N 3rd St", "address3": "", "address2": "", "zip_code": "11249", "country": "US", "display_address": ["113 N 3rd St", "Brooklyn, NY 11249"], "state": "NY"}, "price": "$$", "transactions": [], "display_phone": "(718) 963-3973"}, {"rating": 4.5, "is_closed": false, "distance": 4457.708291056, "name": "KazuNori  | The Original Hand Roll Bar", "id": "kazunori-the-original-hand-roll-bar-new-york-2", "image_url": "https://s3-media1.fl.yelpcdn.com/bphoto/gPJfEO1sA6efVltSy6f8Pw/o.jpg", "url": "https://www.yelp.com/biz/kazunori-the-original-hand-roll-bar-new-york-2?adjust_creative=gBcvfFpabk3CnzmXKdYe3w&utm_campaign=yelp_api_v3&utm_medium=api_v3_business_search&utm_source=gBcvfFpabk3CnzmXKdYe3w", "phone": "+13475945940", "coordinates": {"longitude": -73.98824, "latitude": 40.74519}, "categories": [{"alias": "sushi", "title": "Sushi Bars"}, {"alias": "japanese", "title": "Japanese"}], "review_count": 89, "location": {"city": "New York", "address1": "15 W 28th St", "address3": null, "address2": null, "zip_code": "10001", "country": "US", "display_address": ["15 W 28th St", "New York, NY 10001"], "state": "NY"}, "price": "$$", "transactions": [], "display_phone": "(347) 594-5940"}, {"rating": 4.5, "is_closed": false, "distance": 6506.140616656, "name": "My Pie", "id": "my-pie-new-york", "image_url": "https://s3-media3.fl.yelpcdn.com/bphoto/vo36uaolTTa5aREAcddJnw/o.jpg", "url": "https://www.yelp.com/biz/my-pie-new-york?adjust_creative=gBcvfFpabk3CnzmXKdYe3w&utm_campaign=yelp_api_v3&utm_medium=api_v3_business_search&utm_source=gBcvfFpabk3CnzmXKdYe3w", "phone": "+12123171850", "coordinates": {"longitude": -73.96941, "latitude": 40.76079}, "categories": [{"alias": "italian", "title": "Italian"}, {"alias": "pizza", "title": "Pizza"}], "review_count": 377, "location": {"city": "New York", "address1": "696 Lexington Ave", "address3": "", "address2": "", "zip_code": "10022", "country": "US", "display_address": ["696 Lexington Ave", "New York, NY 10022"], "state": "NY"}, "price": "$", "transactions": [], "display_phone": "(212) 317-1850"}, {"rating": 4.5, "is_closed": false, "distance": 1184.917452236, "name": "La Colombe Coffee", "id": "la-colombe-coffee-new-york-3", "image_url": "https://s3-media3.fl.yelpcdn.com/bphoto/qyO6WCQABB4zXFPFTJp53w/o.jpg", "url": "https://www.yelp.com/biz/la-colombe-coffee-new-york-3?adjust_creative=gBcvfFpabk3CnzmXKdYe3w&utm_campaign=yelp_api_v3&utm_medium=api_v3_business_search&utm_source=gBcvfFpabk3CnzmXKdYe3w", "phone": "+12122200415", "coordinates": {"longitude": -74.0083486272612, "latitude": 40.7056896627839}, "categories": [{"alias": "coffee", "title": "Coffee & Tea"}], "review_count": 86, "location": {"city": "New York", "address1": "67 Wall St", "address3": "", "address2": "", "zip_code": "10005", "country": "US", "display_address": ["67 Wall St", "New York, NY 10005"], "state": "NY"}, "price": "$$", "transactions": [], "display_phone": "(212) 220-0415"}, {"rating": 4.0, "is_closed": false, "distance": 3264.669948246, "name": "Jack's Stir Brew Coffee", "id": "jacks-stir-brew-coffee-new-york", "image_url": "https://s3-media3.fl.yelpcdn.com/bphoto/Avab9wel_Kp5TLAtEk9Z-w/o.jpg", "url": "https://www.yelp.com/biz/jacks-stir-brew-coffee-new-york?adjust_creative=gBcvfFpabk3CnzmXKdYe3w&utm_campaign=yelp_api_v3&utm_medium=api_v3_business_search&utm_source=gBcvfFpabk3CnzmXKdYe3w", "phone": "+12129290821", "coordinates": {"longitude": -74.00062, "latitude": 40.73451}, "categories": [{"alias": "coffee", "title": "Coffee & Tea"}, {"alias": "bakeries", "title": "Bakeries"}], "review_count": 214, "location": {"city": "New York", "address1": "138 W 10th St", "address3": "", "address2": "", "zip_code": "10014", "country": "US", "display_address": ["138 W 10th St", "New York, NY 10014"], "state": "NY"}, "price": "$$", "transactions": [], "display_phone": "(212) 929-0821"}, {"rating": 4.5, "is_closed": false, "distance": 4862.609866488, "name": "Veggies Natural Juice Bar", "id": "veggies-natural-juice-bar-brooklyn", "image_url": "https://s3-media2.fl.yelpcdn.com/bphoto/mh6Jjf6uk9xI-UGxTyBuzg/o.jpg", "url": "https://www.yelp.com/biz/veggies-natural-juice-bar-brooklyn?adjust_creative=gBcvfFpabk3CnzmXKdYe3w&utm_campaign=yelp_api_v3&utm_medium=api_v3_business_search&utm_source=gBcvfFpabk3CnzmXKdYe3w", "phone": "+13476273247", "coordinates": {"longitude": -73.9571799, "latitude": 40.671975}, "categories": [{"alias": "juicebars", "title": "Juice Bars & Smoothies"}, {"alias": "vegan", "title": "Vegan"}, {"alias": "markets", "title": "Fruits & Veggies"}], "review_count": 98, "location": {"city": "Brooklyn", "address1": "785 Franklin Ave", "address3": "", "address2": "", "zip_code": "11238", "country": "US", "display_address": ["785 Franklin Ave", "Brooklyn, NY 11238"], "state": "NY"}, "price": "$", "transactions": [], "display_phone": "(347) 627-3247"}, {"rating": 4.5, "is_closed": false, "distance": 4331.6271237, "name": "The Bounty", "id": "the-bounty-brooklyn", "image_url": "https://s3-media2.fl.yelpcdn.com/bphoto/A2AX-GOx5afaF4YYKCnj-w/o.jpg", "url": "https://www.yelp.com/biz/the-bounty-brooklyn?adjust_creative=gBcvfFpabk3CnzmXKdYe3w&utm_campaign=yelp_api_v3&utm_medium=api_v3_business_search&utm_source=gBcvfFpabk3CnzmXKdYe3w", "phone": "+13476893325", "coordinates": {"longitude": -73.954811, "latitude": 40.730385}, "categories": [{"alias": "bars", "title": "Bars"}, {"alias": "newamerican", "title": "American (New)"}], "review_count": 159, "location": {"city": "Brooklyn", "address1": "131 Greenpoint Ave", "address3": "", "address2": "", "zip_code": "11222", "country": "US", "display_address": ["131 Greenpoint Ave", "Brooklyn, NY 11222"], "state": "NY"}, "price": "$$", "transactions": [], "display_phone": "(347) 689-3325"}, {"rating": 4.0, "is_closed": false, "distance": 4534.270710348, "name": "Piccoli Trattoria", "id": "piccoli-trattoria-brooklyn", "image_url": "https://s3-media2.fl.yelpcdn.com/bphoto/kD79hjwIqteUlNhFvhSxkg/o.jpg", "url": "https://www.yelp.com/biz/piccoli-trattoria-brooklyn?adjust_creative=gBcvfFpabk3CnzmXKdYe3w&utm_campaign=yelp_api_v3&utm_medium=api_v3_business_search&utm_source=gBcvfFpabk3CnzmXKdYe3w", "phone": "+17187880066", "coordinates": {"longitude": -73.9864727962952, "latitude": 40.6650986895797}, "categories": [{"alias": "italian", "title": "Italian"}], "review_count": 352, "location": {"city": "Brooklyn", "address1": "522 6th Ave", "address3": "", "address2": null, "zip_code": "11215", "country": "US", "display_address": ["522 6th Ave", "Brooklyn, NY 11215"], "state": "NY"}, "price": "$$", "transactions": [], "display_phone": "(718) 788-0066"}, {"rating": 4.0, "is_closed": false, "distance": 3076.1124318159996, "name": "Ramen-Ya", "id": "ramen-ya-new-york-5", "image_url": "https://s3-media3.fl.yelpcdn.com/bphoto/kij8frL3F5X4Rjq2TFPlSA/o.jpg", "url": "https://www.yelp.com/biz/ramen-ya-new-york-5?adjust_creative=gBcvfFpabk3CnzmXKdYe3w&utm_campaign=yelp_api_v3&utm_medium=api_v3_business_search&utm_source=gBcvfFpabk3CnzmXKdYe3w", "phone": "+12129895440", "coordinates": {"longitude": -74.001681, "latitude": 40.732536}, "categories": [{"alias": "ramen", "title": "Ramen"}], "review_count": 683, "location": {"city": "New York", "address1": "181 W 4th St", "address3": "", "address2": null, "zip_code": "10014", "country": "US", "display_address": ["181 W 4th St", "New York, NY 10014"], "state": "NY"}, "price": "$$", "transactions": ["delivery", "pickup"], "display_phone": "(212) 989-5440"}, {"rating": 4.0, "is_closed": false, "distance": 3160.462608302, "name": "Red Hook Lobster Pound", "id": "red-hook-lobster-pound-brooklyn", "image_url": "https://s3-media2.fl.yelpcdn.com/bphoto/ovHh6N5gawVY5-W4snqSXw/o.jpg", "url": "https://www.yelp.com/biz/red-hook-lobster-pound-brooklyn?adjust_creative=gBcvfFpabk3CnzmXKdYe3w&utm_campaign=yelp_api_v3&utm_medium=api_v3_business_search&utm_source=gBcvfFpabk3CnzmXKdYe3w", "phone": "+17188587650", "coordinates": {"longitude": -74.0103686973453, "latitude": 40.6797687107191}, "categories": [{"alias": "seafood", "title": "Seafood"}], "review_count": 737, "location": {"city": "Brooklyn", "address1": "284 Van Brunt St", "address3": "", "address2": "", "zip_code": "11231", "country": "US", "display_address": ["284 Van Brunt St", "Brooklyn, NY 11231"], "state": "NY"}, "price": "$$", "transactions": [], "display_phone": "(718) 858-7650"}, {"rating": 4.0, "is_closed": false, "distance": 1915.54831713, "name": "Kung Fu Tea", "id": "kung-fu-tea-brooklyn-3", "image_url": "https://s3-media2.fl.yelpcdn.com/bphoto/iocunYPrM8qHp8UwEphxFQ/o.jpg", "url": "https://www.yelp.com/biz/kung-fu-tea-brooklyn-3?adjust_creative=gBcvfFpabk3CnzmXKdYe3w&utm_campaign=yelp_api_v3&utm_medium=api_v3_business_search&utm_source=gBcvfFpabk3CnzmXKdYe3w", "phone": "+13472940232", "coordinates": {"longitude": -73.9860078509186, "latitude": 40.6894028198824}, "categories": [{"alias": "coffee", "title": "Coffee & Tea"}, {"alias": "bubbletea", "title": "Bubble Tea"}, {"alias": "juicebars", "title": "Juice Bars & Smoothies"}], "review_count": 71, "location": {"city": "Brooklyn", "address1": "40 Hoyt St", "address3": "", "address2": null, "zip_code": "11201", "country": "US", "display_address": ["40 Hoyt St", "Brooklyn, NY 11201"], "state": "NY"}, "price": "$", "transactions": [], "display_phone": "(347) 294-0232"}, {"rating": 4.5, "is_closed": false, "distance": 3624.9662515679997, "name": "A-Roma Bakery", "id": "a-roma-bakery-brooklyn", "image_url": "https://s3-media4.fl.yelpcdn.com/bphoto/2vsyDhWYw24D5AezzKju0g/o.jpg", "url": "https://www.yelp.com/biz/a-roma-bakery-brooklyn?adjust_creative=gBcvfFpabk3CnzmXKdYe3w&utm_campaign=yelp_api_v3&utm_medium=api_v3_business_search&utm_source=gBcvfFpabk3CnzmXKdYe3w", "phone": "+17183888182", "coordinates": {"longitude": -73.9519596, "latitude": 40.7111761}, "categories": [{"alias": "bakeries", "title": "Bakeries"}, {"alias": "coffee", "title": "Coffee & Tea"}, {"alias": "italian", "title": "Italian"}], "review_count": 90, "location": {"city": "Brooklyn", "address1": "475 Grand St", "address3": "", "address2": "", "zip_code": "11211", "country": "US", "display_address": ["475 Grand St", "Brooklyn, NY 11211"], "state": "NY"}, "price": "$", "transactions": ["delivery", "pickup"], "display_phone": "(718) 388-8182"}, {"rating": 4.0, "is_closed": false, "distance": 2319.8341590779996, "name": "Rucola", "id": "rucola-brooklyn", "image_url": "https://s3-media4.fl.yelpcdn.com/bphoto/QX5Ld2Oq_0wHwcAV7k4U1A/o.jpg", "url": "https://www.yelp.com/biz/rucola-brooklyn?adjust_creative=gBcvfFpabk3CnzmXKdYe3w&utm_campaign=yelp_api_v3&utm_medium=api_v3_business_search&utm_source=gBcvfFpabk3CnzmXKdYe3w", "phone": "+17185763209", "coordinates": {"longitude": -73.985916, "latitude": 40.685546}, "categories": [{"alias": "italian", "title": "Italian"}, {"alias": "desserts", "title": "Desserts"}, {"alias": "diners", "title": "Diners"}], "review_count": 355, "location": {"city": "Brooklyn", "address1": "190 Dean St", "address3": "", "address2": "", "zip_code": "11217", "country": "US", "display_address": ["190 Dean St", "Brooklyn, NY 11217"], "state": "NY"}, "price": "$$", "transactions": [], "display_phone": "(718) 576-3209"}, {"rating": 4.5, "is_closed": false, "distance": 5016.33048274, "name": "Nh\u00e0 Minh", "id": "nh\u00e0-minh-brooklyn", "image_url": "https://s3-media4.fl.yelpcdn.com/bphoto/RgRn8u-sJIdHcBdlm95BVg/o.jpg", "url": "https://www.yelp.com/biz/nh%C3%A0-minh-brooklyn?adjust_creative=gBcvfFpabk3CnzmXKdYe3w&utm_campaign=yelp_api_v3&utm_medium=api_v3_business_search&utm_source=gBcvfFpabk3CnzmXKdYe3w", "phone": "+17183877848", "coordinates": {"longitude": -73.9384158460004, "latitude": 40.7209784931831}, "categories": [{"alias": "vietnamese", "title": "Vietnamese"}, {"alias": "coffee", "title": "Coffee & Tea"}, {"alias": "asianfusion", "title": "Asian Fusion"}], "review_count": 69, "location": {"city": "Brooklyn", "address1": "485 Morgan Ave", "address3": "", "address2": "", "zip_code": "11222", "country": "US", "display_address": ["485 Morgan Ave", "Brooklyn, NY 11222"], "state": "NY"}, "price": "$$", "transactions": [], "display_phone": "(718) 387-7848"}, {"rating": 4.0, "is_closed": false, "distance": 2378.646845642, "name": "Piccola Strada", "id": "piccola-strada-new-york", "image_url": "https://s3-media2.fl.yelpcdn.com/bphoto/7Mi4p0yC1mspXzM862oblQ/o.jpg", "url": "https://www.yelp.com/biz/piccola-strada-new-york?adjust_creative=gBcvfFpabk3CnzmXKdYe3w&utm_campaign=yelp_api_v3&utm_medium=api_v3_business_search&utm_source=gBcvfFpabk3CnzmXKdYe3w", "phone": "", "coordinates": {"longitude": -73.9904360317688, "latitude": 40.726635460956}, "categories": [{"alias": "italian", "title": "Italian"}], "review_count": 138, "location": {"city": "New York", "address1": "77 E 4th St", "address3": "Between 5th Ave", "address2": "", "zip_code": "10003", "country": "US", "display_address": ["77 E 4th St", "Between 5th Ave", "New York, NY 10003"], "state": "NY"}, "price": "$$", "transactions": [], "display_phone": ""}, {"rating": 4.0, "is_closed": false, "distance": 3489.3602054219996, "name": "Vinnie's Pizzeria", "id": "vinnies-pizzeria-brooklyn", "image_url": "https://s3-media2.fl.yelpcdn.com/bphoto/swujjLUz7-QQMxjSVdb5Gw/o.jpg", "url": "https://www.yelp.com/biz/vinnies-pizzeria-brooklyn?adjust_creative=gBcvfFpabk3CnzmXKdYe3w&utm_campaign=yelp_api_v3&utm_medium=api_v3_business_search&utm_source=gBcvfFpabk3CnzmXKdYe3w", "phone": "+17187827078", "coordinates": {"longitude": -73.956878, "latitude": 40.718925}, "categories": [{"alias": "pizza", "title": "Pizza"}, {"alias": "vegan", "title": "Vegan"}, {"alias": "italian", "title": "Italian"}], "review_count": 486, "location": {"city": "Brooklyn", "address1": "148 Bedford Ave", "address3": "", "address2": "", "zip_code": "11211", "country": "US", "display_address": ["148 Bedford Ave", "Brooklyn, NY 11211"], "state": "NY"}, "price": "$", "transactions": ["delivery", "pickup"], "display_phone": "(718) 782-7078"}, {"rating": 4.0, "is_closed": false, "distance": 6351.961499438, "name": "The Modern", "id": "the-modern-new-york-3", "image_url": "https://s3-media3.fl.yelpcdn.com/bphoto/lqmHcy72zW5W3O1GetlPww/o.jpg", "url": "https://www.yelp.com/biz/the-modern-new-york-3?adjust_creative=gBcvfFpabk3CnzmXKdYe3w&utm_campaign=yelp_api_v3&utm_medium=api_v3_business_search&utm_source=gBcvfFpabk3CnzmXKdYe3w", "phone": "+12123331220", "coordinates": {"longitude": -73.9767725608521, "latitude": 40.7610060884932}, "categories": [{"alias": "newamerican", "title": "American (New)"}], "review_count": 701, "location": {"city": "New York", "address1": "9 W 53rd St", "address3": "", "address2": "", "zip_code": "10019", "country": "US", "display_address": ["9 W 53rd St", "New York, NY 10019"], "state": "NY"}, "price": "$$$$", "transactions": [], "display_phone": "(212) 333-1220"}, {"rating": 4.5, "is_closed": false, "distance": 6091.9650585399995, "name": "Rockefeller Center", "id": "rockefeller-center-new-york", "image_url": "https://s3-media1.fl.yelpcdn.com/bphoto/ZNDMBgJKhhKsV54XJ-EkAg/o.jpg", "url": "https://www.yelp.com/biz/rockefeller-center-new-york?adjust_creative=gBcvfFpabk3CnzmXKdYe3w&utm_campaign=yelp_api_v3&utm_medium=api_v3_business_search&utm_source=gBcvfFpabk3CnzmXKdYe3w", "phone": "+12126323975", "coordinates": {"longitude": -73.979138565745, "latitude": 40.7590151633732}, "categories": [{"alias": "landmarks", "title": "Landmarks & Historical Buildings"}], "review_count": 580, "location": {"city": "New York", "address1": "45 Rockefeller Plz", "address3": "", "address2": "", "zip_code": "10111", "country": "US", "display_address": ["45 Rockefeller Plz", "New York, NY 10111"], "state": "NY"}, "transactions": [], "display_phone": "(212) 632-3975"}, {"rating": 4.0, "is_closed": false, "distance": 4575.7924870179995, "name": "Brookvin", "id": "brookvin-brooklyn", "image_url": "https://s3-media1.fl.yelpcdn.com/bphoto/zNMTFNRz0dFRgf6HL7Mi0Q/o.jpg", "url": "https://www.yelp.com/biz/brookvin-brooklyn?adjust_creative=gBcvfFpabk3CnzmXKdYe3w&utm_campaign=yelp_api_v3&utm_medium=api_v3_business_search&utm_source=gBcvfFpabk3CnzmXKdYe3w", "phone": "+17187689463", "coordinates": {"longitude": -73.9825668334961, "latitude": 40.6652526855469}, "categories": [{"alias": "wine_bars", "title": "Wine Bars"}, {"alias": "tapas", "title": "Tapas Bars"}], "review_count": 257, "location": {"city": "Brooklyn", "address1": "381 7th Ave", "address3": "", "address2": "", "zip_code": "11215", "country": "US", "display_address": ["381 7th Ave", "Brooklyn, NY 11215"], "state": "NY"}, "price": "$$", "transactions": [], "display_phone": "(718) 768-9463"}, {"rating": 4.5, "is_closed": false, "distance": 7576.78237604, "name": "The Evergreen", "id": "the-evergreen-brooklyn", "image_url": "https://s3-media4.fl.yelpcdn.com/bphoto/QyVyRm-_7Os6jDhNUKFNVw/o.jpg", "url": "https://www.yelp.com/biz/the-evergreen-brooklyn?adjust_creative=gBcvfFpabk3CnzmXKdYe3w&utm_campaign=yelp_api_v3&utm_medium=api_v3_business_search&utm_source=gBcvfFpabk3CnzmXKdYe3w", "phone": "+17184847399", "coordinates": {"longitude": -73.90813, "latitude": 40.68596}, "categories": [{"alias": "wine_bars", "title": "Wine Bars"}, {"alias": "beerbar", "title": "Beer Bar"}, {"alias": "cocktailbars", "title": "Cocktail Bars"}], "review_count": 30, "location": {"city": "Brooklyn", "address1": "109 Moffat St", "address3": "", "address2": null, "zip_code": "11207", "country": "US", "display_address": ["109 Moffat St", "Brooklyn, NY 11207"], "state": "NY"}, "price": "$$", "transactions": [], "display_phone": "(718) 484-7399"}, {"rating": 4.5, "is_closed": false, "distance": 3470.974300592, "name": "Pizza Moto", "id": "pizza-moto-brooklyn-2", "image_url": "https://s3-media4.fl.yelpcdn.com/bphoto/m9Kk0RIZ7ik2gVZQxHwpKQ/o.jpg", "url": "https://www.yelp.com/biz/pizza-moto-brooklyn-2?adjust_creative=gBcvfFpabk3CnzmXKdYe3w&utm_campaign=yelp_api_v3&utm_medium=api_v3_business_search&utm_source=gBcvfFpabk3CnzmXKdYe3w", "phone": "+17188346686", "coordinates": {"longitude": -74.0007999, "latitude": 40.6746224}, "categories": [{"alias": "pizza", "title": "Pizza"}], "review_count": 130, "location": {"city": "Brooklyn", "address1": "338 Hamilton Ave", "address3": "", "address2": "", "zip_code": "11231", "country": "US", "display_address": ["338 Hamilton Ave", "Brooklyn, NY 11231"], "state": "NY"}, "price": "$$", "transactions": [], "display_phone": "(718) 834-6686"}, {"rating": 4.5, "is_closed": false, "distance": 1607.786825966, "name": "Galerie de Cafe", "id": "galerie-de-cafe-new-york-2", "image_url": "https://s3-media1.fl.yelpcdn.com/bphoto/dyPHNtVwELT_gQE8D30d7w/o.jpg", "url": "https://www.yelp.com/biz/galerie-de-cafe-new-york-2?adjust_creative=gBcvfFpabk3CnzmXKdYe3w&utm_campaign=yelp_api_v3&utm_medium=api_v3_business_search&utm_source=gBcvfFpabk3CnzmXKdYe3w", "phone": "+16464845441", "coordinates": {"longitude": -74.0092, "latitude": 40.71451}, "categories": [{"alias": "coffee", "title": "Coffee & Tea"}, {"alias": "desserts", "title": "Desserts"}], "review_count": 24, "location": {"city": "New York", "address1": "49 Warren St", "address3": "", "address2": null, "zip_code": "10007", "country": "US", "display_address": ["49 Warren St", "New York, NY 10007"], "state": "NY"}, "price": "$", "transactions": [], "display_phone": "(646) 484-5441"}, {"rating": 4.5, "is_closed": false, "distance": 6678.420463656, "name": "Indian Accent", "id": "indian-accent-new-york", "image_url": "https://s3-media1.fl.yelpcdn.com/bphoto/vN9XlphZ1Xy0w3JJrpjr3w/o.jpg", "url": "https://www.yelp.com/biz/indian-accent-new-york?adjust_creative=gBcvfFpabk3CnzmXKdYe3w&utm_campaign=yelp_api_v3&utm_medium=api_v3_business_search&utm_source=gBcvfFpabk3CnzmXKdYe3w", "phone": "+12128428070", "coordinates": {"longitude": -73.9787312885132, "latitude": 40.7643344624229}, "categories": [{"alias": "indpak", "title": "Indian"}], "review_count": 194, "location": {"city": "New York", "address1": "123 W 56th St", "address3": "", "address2": "", "zip_code": "10019", "country": "US", "display_address": ["123 W 56th St", "New York, NY 10019"], "state": "NY"}, "price": "$$$$", "transactions": [], "display_phone": "(212) 842-8070"}, {"rating": 4.0, "is_closed": false, "distance": 3408.3262349399997, "name": "Posto", "id": "posto-new-york", "image_url": "https://s3-media4.fl.yelpcdn.com/bphoto/eZxZfbHpwyuwH_v81i8E_g/o.jpg", "url": "https://www.yelp.com/biz/posto-new-york?adjust_creative=gBcvfFpabk3CnzmXKdYe3w&utm_campaign=yelp_api_v3&utm_medium=api_v3_business_search&utm_source=gBcvfFpabk3CnzmXKdYe3w", "phone": "+12127161200", "coordinates": {"longitude": -73.982818, "latitude": 40.734832}, "categories": [{"alias": "pizza", "title": "Pizza"}, {"alias": "italian", "title": "Italian"}, {"alias": "sandwiches", "title": "Sandwiches"}], "review_count": 505, "location": {"city": "New York", "address1": "310 2nd Ave", "address3": "", "address2": null, "zip_code": "10003", "country": "US", "display_address": ["310 2nd Ave", "New York, NY 10003"], "state": "NY"}, "price": "$$", "transactions": [], "display_phone": "(212) 716-1200"}, {"rating": 4.0, "is_closed": false, "distance": 1754.1226637599998, "name": "Khe-Yo", "id": "khe-yo-new-york", "image_url": "https://s3-media1.fl.yelpcdn.com/bphoto/F_FyRbpboO3FgGn0RLGFCQ/o.jpg", "url": "https://www.yelp.com/biz/khe-yo-new-york?adjust_creative=gBcvfFpabk3CnzmXKdYe3w&utm_campaign=yelp_api_v3&utm_medium=api_v3_business_search&utm_source=gBcvfFpabk3CnzmXKdYe3w", "phone": "+12125871089", "coordinates": {"longitude": -74.008587, "latitude": 40.716906}, "categories": [{"alias": "thai", "title": "Thai"}, {"alias": "laotian", "title": "Laotian"}, {"alias": "vietnamese", "title": "Vietnamese"}], "review_count": 465, "location": {"city": "New York", "address1": "157 Duane St", "address3": "", "address2": "", "zip_code": "10013", "country": "US", "display_address": ["157 Duane St", "New York, NY 10013"], "state": "NY"}, "price": "$$$", "transactions": ["delivery", "pickup"], "display_phone": "(212) 587-1089"}]}