{"total": 131349, "region": {"center": {"longitude": -73.99429321289062, "latitude": 40.70544486444615}}, "businesses": [{"rating": 4.0, "is_closed": false, "distance": 2535.54172411, "name": "Van Leeuwen Artisan Ice Cream", "id": "van-leeuwen-artisan-ice-cream-new-york-3", "image_url": "https://s3-media3.fl.yelpcdn.com/bphoto/zrTslfP3v6UuIGSmWdWVvA/o.jpg", "url": "https://www.yelp.com/biz/van-leeuwen-artisan-ice-cream-new-york-3?adjust_creative=gBcvfFpabk3CnzmXKdYe3w&utm_campaign=yelp_api_v3&utm_medium=api_v3_business_search&utm_source=gBcvfFpabk3CnzmXKdYe3w", "phone": "+16464763865", "coordinates": {"longitude": -73.98768, "latitude": 40.7277}, "categories": [{"alias": "desserts", "title": "Desserts"}, {"alias": "coffee", "title": "Coffee & Tea"}, {"alias": "icecream", "title": "Ice Cream & Frozen Yogurt"}], "review_count": 634, "location": {"city": "New York", "address1": "48 1/2 E 7th St", "address3": "", "address2": "", "zip_code": "10003", "country": "US", "display_address": ["48 1/2 E 7th St", "New York, NY 10003"], "state": "NY"}, "price": "$$", "transactions": [], "display_phone": "(646) 476-3865"}, {"rating": 4.5, "is_closed": false, "distance": 7038.77599069, "name": "Le Botaniste", "id": "le-botaniste-new-york", "image_url": "https://s3-media2.fl.yelpcdn.com/bphoto/QJMdprLpPLI7fly-HvBsdA/o.jpg", "url": "https://www.yelp.com/biz/le-botaniste-new-york?adjust_creative=gBcvfFpabk3CnzmXKdYe3w&utm_campaign=yelp_api_v3&utm_medium=api_v3_business_search&utm_source=gBcvfFpabk3CnzmXKdYe3w", "phone": "+19172620766", "coordinates": {"longitude": -73.9659830279587, "latitude": 40.7649986274526}, "categories": [{"alias": "wine_bars", "title": "Wine Bars"}, {"alias": "vegan", "title": "Vegan"}, {"alias": "organic_stores", "title": "Organic Stores"}], "review_count": 175, "location": {"city": "New York", "address1": "833 Lexington Ave", "address3": "", "address2": "", "zip_code": "10065", "country": "US", "display_address": ["833 Lexington Ave", "New York, NY 10065"], "state": "NY"}, "price": "$$", "transactions": [], "display_phone": "(917) 262-0766"}, {"rating": 4.0, "is_closed": false, "distance": 1800.8855780079998, "name": "SakaMai", "id": "sakamai-new-york", "image_url": "https://s3-media2.fl.yelpcdn.com/bphoto/si_xEkxbPg1iFYuq59gCSQ/o.jpg", "url": "https://www.yelp.com/biz/sakamai-new-york?adjust_creative=gBcvfFpabk3CnzmXKdYe3w&utm_campaign=yelp_api_v3&utm_medium=api_v3_business_search&utm_source=gBcvfFpabk3CnzmXKdYe3w", "phone": "+16465900684", "coordinates": {"longitude": -73.9881407239426, "latitude": 40.7209536656701}, "categories": [{"alias": "japanese", "title": "Japanese"}, {"alias": "cocktailbars", "title": "Cocktail Bars"}, {"alias": "sushi", "title": "Sushi Bars"}], "review_count": 422, "location": {"city": "New York", "address1": "157 Ludlow St", "address3": "", "address2": "", "zip_code": "10002", "country": "US", "display_address": ["157 Ludlow St", "New York, NY 10002"], "state": "NY"}, "price": "$$$", "transactions": [], "display_phone": "(646) 590-0684"}, {"rating": 4.0, "is_closed": false, "distance": 2852.267239074, "name": "La Lanterna di Vittorio", "id": "la-lanterna-di-vittorio-new-york", "image_url": "https://s3-media2.fl.yelpcdn.com/bphoto/NjFHl8jCS0ncbP-LGZmRhA/o.jpg", "url": "https://www.yelp.com/biz/la-lanterna-di-vittorio-new-york?adjust_creative=gBcvfFpabk3CnzmXKdYe3w&utm_campaign=yelp_api_v3&utm_medium=api_v3_business_search&utm_source=gBcvfFpabk3CnzmXKdYe3w", "phone": "+12125295945", "coordinates": {"longitude": -74.0001449584961, "latitude": 40.7306900024414}, "categories": [{"alias": "italian", "title": "Italian"}], "review_count": 1113, "location": {"city": "New York", "address1": "129 MacDougal St", "address3": "", "address2": "", "zip_code": "10012", "country": "US", "display_address": ["129 MacDougal St", "New York, NY 10012"], "state": "NY"}, "price": "$$", "transactions": [], "display_phone": "(212) 529-5945"}, {"rating": 5.0, "is_closed": false, "distance": 4050.36840459, "name": "Crepe Sucre", "id": "crepe-sucre-new-york-2", "image_url": "https://s3-media3.fl.yelpcdn.com/bphoto/-_-iV-3-Z_BUJsv2r8Xvyw/o.jpg", "url": "https://www.yelp.com/biz/crepe-sucre-new-york-2?adjust_creative=gBcvfFpabk3CnzmXKdYe3w&utm_campaign=yelp_api_v3&utm_medium=api_v3_business_search&utm_source=gBcvfFpabk3CnzmXKdYe3w", "phone": "+16466349467", "coordinates": {"longitude": -74.0047136, "latitude": 40.7408261}, "categories": [{"alias": "creperies", "title": "Creperies"}, {"alias": "french", "title": "French"}], "review_count": 30, "location": {"city": "New York", "address1": "353 W 14th St", "address3": "", "address2": "", "zip_code": "10014", "country": "US", "display_address": ["353 W 14th St", "New York, NY 10014"], "state": "NY"}, "price": "$", "transactions": [], "display_phone": "(646) 634-9467"}, {"rating": 4.0, "is_closed": false, "distance": 2732.849383054, "name": "Creperie NYC", "id": "creperie-nyc-new-york-2", "image_url": "https://s3-media1.fl.yelpcdn.com/bphoto/cGdrCBr91PxtGDiKoCgQkQ/o.jpg", "url": "https://www.yelp.com/biz/creperie-nyc-new-york-2?adjust_creative=gBcvfFpabk3CnzmXKdYe3w&utm_campaign=yelp_api_v3&utm_medium=api_v3_business_search&utm_source=gBcvfFpabk3CnzmXKdYe3w", "phone": "+12122536705", "coordinates": {"longitude": -74.00054, "latitude": 40.72956}, "categories": [{"alias": "creperies", "title": "Creperies"}], "review_count": 332, "location": {"city": "New York", "address1": "112 Macdougal St", "address3": "", "address2": "", "zip_code": "10012", "country": "US", "display_address": ["112 Macdougal St", "New York, NY 10012"], "state": "NY"}, "price": "$", "transactions": ["pickup"], "display_phone": "(212) 253-6705"}, {"rating": 4.0, "is_closed": false, "distance": 4522.945141032, "name": "Champs Diner", "id": "champs-diner-brooklyn", "image_url": "https://s3-media2.fl.yelpcdn.com/bphoto/0gY9JEo9RgJxpWMViEEjaA/o.jpg", "url": "https://www.yelp.com/biz/champs-diner-brooklyn?adjust_creative=gBcvfFpabk3CnzmXKdYe3w&utm_campaign=yelp_api_v3&utm_medium=api_v3_business_search&utm_source=gBcvfFpabk3CnzmXKdYe3w", "phone": "+17185992743", "coordinates": {"longitude": -73.9407808520115, "latitude": 40.7084397372605}, "categories": [{"alias": "vegan", "title": "Vegan"}, {"alias": "bakeries", "title": "Bakeries"}, {"alias": "diners", "title": "Diners"}], "review_count": 813, "location": {"city": "Brooklyn", "address1": "197 Meserole St", "address3": "", "address2": "", "zip_code": "11206", "country": "US", "display_address": ["197 Meserole St", "Brooklyn, NY 11206"], "state": "NY"}, "price": "$$", "transactions": [], "display_phone": "(718) 599-2743"}, {"rating": 4.0, "is_closed": false, "distance": 1375.9350057899999, "name": "99 Favor Taste", "id": "99-favor-taste-new-york-3", "image_url": "https://s3-media2.fl.yelpcdn.com/bphoto/HGe8EnkJGLgxaJ4EenZeGw/o.jpg", "url": "https://www.yelp.com/biz/99-favor-taste-new-york-3?adjust_creative=gBcvfFpabk3CnzmXKdYe3w&utm_campaign=yelp_api_v3&utm_medium=api_v3_business_search&utm_source=gBcvfFpabk3CnzmXKdYe3w", "phone": "+16466829162", "coordinates": {"longitude": -73.992537, "latitude": 40.717745}, "categories": [{"alias": "hotpot", "title": "Hot Pot"}, {"alias": "bbq", "title": "Barbeque"}], "review_count": 1026, "location": {"city": "New York", "address1": "285 Grand St", "address3": "", "address2": "", "zip_code": "10002", "country": "US", "display_address": ["285 Grand St", "New York, NY 10002"], "state": "NY"}, "price": "$$", "transactions": [], "display_phone": "(646) 682-9162"}, {"rating": 4.5, "is_closed": false, "distance": 4391.643113782, "name": "Java Joe", "id": "java-joe-brooklyn", "image_url": "https://s3-media3.fl.yelpcdn.com/bphoto/u96G2WTS_-3leCxG2Lc2xA/o.jpg", "url": "https://www.yelp.com/biz/java-joe-brooklyn?adjust_creative=gBcvfFpabk3CnzmXKdYe3w&utm_campaign=yelp_api_v3&utm_medium=api_v3_business_search&utm_source=gBcvfFpabk3CnzmXKdYe3w", "phone": "+17183696026", "coordinates": {"longitude": -73.98091, "latitude": 40.6673199}, "categories": [{"alias": "coffee", "title": "Coffee & Tea"}], "review_count": 58, "location": {"city": "Brooklyn", "address1": "414 8th St", "address3": "", "address2": "", "zip_code": "11215", "country": "US", "display_address": ["414 8th St", "Brooklyn, NY 11215"], "state": "NY"}, "price": "$$", "transactions": [], "display_phone": "(718) 369-6026"}, {"rating": 4.0, "is_closed": false, "distance": 2959.0417981859996, "name": "The Clam", "id": "the-clam-new-york", "image_url": "https://s3-media1.fl.yelpcdn.com/bphoto/M8ifJcGME59Jhbxo0LHC3w/o.jpg", "url": "https://www.yelp.com/biz/the-clam-new-york?adjust_creative=gBcvfFpabk3CnzmXKdYe3w&utm_campaign=yelp_api_v3&utm_medium=api_v3_business_search&utm_source=gBcvfFpabk3CnzmXKdYe3w", "phone": "+12122427420", "coordinates": {"longitude": -74.0068030357639, "latitude": 40.7303076612002}, "categories": [{"alias": "seafood", "title": "Seafood"}], "review_count": 244, "location": {"city": "New York", "address1": "420 Hudson St", "address3": "", "address2": "", "zip_code": "10014", "country": "US", "display_address": ["420 Hudson St", "New York, NY 10014"], "state": "NY"}, "price": "$$$", "transactions": [], "display_phone": "(212) 242-7420"}, {"rating": 4.0, "is_closed": false, "distance": 2813.217086776, "name": "PT Restaurant", "id": "pt-restaurant-brooklyn", "image_url": "https://s3-media1.fl.yelpcdn.com/bphoto/CnYhSyRHS_BJ-2vXaPGvdA/o.jpg", "url": "https://www.yelp.com/biz/pt-restaurant-brooklyn?adjust_creative=gBcvfFpabk3CnzmXKdYe3w&utm_campaign=yelp_api_v3&utm_medium=api_v3_business_search&utm_source=gBcvfFpabk3CnzmXKdYe3w", "phone": "+17183887438", "coordinates": {"longitude": -73.96233, "latitude": 40.7126499}, "categories": [{"alias": "italian", "title": "Italian"}, {"alias": "wine_bars", "title": "Wine Bars"}], "review_count": 278, "location": {"city": "Brooklyn", "address1": "331 Bedford Ave", "address3": "", "address2": null, "zip_code": "11211", "country": "US", "display_address": ["331 Bedford Ave", "Brooklyn, NY 11211"], "state": "NY"}, "price": "$$", "transactions": [], "display_phone": "(718) 388-7438"}, {"rating": 4.5, "is_closed": false, "distance": 4836.347690764, "name": "Barboncino", "id": "barboncino-brooklyn", "image_url": "https://s3-media1.fl.yelpcdn.com/bphoto/kKJJNlJ-ZW2393FZrgT3Hg/o.jpg", "url": "https://www.yelp.com/biz/barboncino-brooklyn?adjust_creative=gBcvfFpabk3CnzmXKdYe3w&utm_campaign=yelp_api_v3&utm_medium=api_v3_business_search&utm_source=gBcvfFpabk3CnzmXKdYe3w", "phone": "+17184838834", "coordinates": {"longitude": -73.95731, "latitude": 40.67209}, "categories": [{"alias": "pizza", "title": "Pizza"}, {"alias": "bars", "title": "Bars"}, {"alias": "italian", "title": "Italian"}], "review_count": 673, "location": {"city": "Brooklyn", "address1": "781 Franklin Ave", "address3": "", "address2": "", "zip_code": "11238", "country": "US", "display_address": ["781 Franklin Ave", "Brooklyn, NY 11238"], "state": "NY"}, "price": "$$", "transactions": [], "display_phone": "(718) 483-8834"}, {"rating": 4.5, "is_closed": false, "distance": 6537.83431488, "name": "Club A Steakhouse", "id": "club-a-steakhouse-new-york", "image_url": "https://s3-media2.fl.yelpcdn.com/bphoto/PyU74k_xCp3FA6p8lw8nMQ/o.jpg", "url": "https://www.yelp.com/biz/club-a-steakhouse-new-york?adjust_creative=gBcvfFpabk3CnzmXKdYe3w&utm_campaign=yelp_api_v3&utm_medium=api_v3_business_search&utm_source=gBcvfFpabk3CnzmXKdYe3w", "phone": "+12126884190", "coordinates": {"longitude": -73.96557, "latitude": 40.76006}, "categories": [{"alias": "steak", "title": "Steakhouses"}], "review_count": 2017, "location": {"city": "New York", "address1": "240 E 58th St", "address3": "", "address2": "", "zip_code": "10022", "country": "US", "display_address": ["240 E 58th St", "New York, NY 10022"], "state": "NY"}, "price": "$$$", "transactions": [], "display_phone": "(212) 688-4190"}, {"rating": 4.0, "is_closed": false, "distance": 2787.2170725379997, "name": "ChikaLicious Dessert Bar", "id": "chikalicious-dessert-bar-new-york-3", "image_url": "https://s3-media1.fl.yelpcdn.com/bphoto/TwkanJLW9oKo7Ue4fs2tkg/o.jpg", "url": "https://www.yelp.com/biz/chikalicious-dessert-bar-new-york-3?adjust_creative=gBcvfFpabk3CnzmXKdYe3w&utm_campaign=yelp_api_v3&utm_medium=api_v3_business_search&utm_source=gBcvfFpabk3CnzmXKdYe3w", "phone": "+12129959511", "coordinates": {"longitude": -73.986357, "latitude": 40.729779}, "categories": [{"alias": "desserts", "title": "Desserts"}, {"alias": "coffee", "title": "Coffee & Tea"}, {"alias": "wine_bars", "title": "Wine Bars"}], "review_count": 1083, "location": {"city": "New York", "address1": "203 E 10th St", "address3": "", "address2": "", "zip_code": "10003", "country": "US", "display_address": ["203 E 10th St", "New York, NY 10003"], "state": "NY"}, "price": "$$", "transactions": [], "display_phone": "(212) 995-9511"}, {"rating": 4.5, "is_closed": false, "distance": 474.8548054922, "name": "DUMBO", "id": "dumbo-brooklyn", "image_url": "https://s3-media4.fl.yelpcdn.com/bphoto/4ERIhrqmms0qjaGwGIciNQ/o.jpg", "url": "https://www.yelp.com/biz/dumbo-brooklyn?adjust_creative=gBcvfFpabk3CnzmXKdYe3w&utm_campaign=yelp_api_v3&utm_medium=api_v3_business_search&utm_source=gBcvfFpabk3CnzmXKdYe3w", "phone": "", "coordinates": {"longitude": -73.9889877202589, "latitude": 40.7040027853252}, "categories": [{"alias": "localflavor", "title": "Local Flavor"}], "review_count": 42, "location": {"city": "Brooklyn", "address1": "", "address3": "", "address2": "", "zip_code": "11201", "country": "US", "display_address": ["Brooklyn, NY 11201"], "state": "NY"}, "transactions": [], "display_phone": ""}, {"rating": 4.0, "is_closed": false, "distance": 4340.115748464, "name": "Johny's Luncheonette", "id": "johnys-luncheonette-new-york", "image_url": "https://s3-media4.fl.yelpcdn.com/bphoto/9hbNwKZ808Vu1hZj93dB6w/o.jpg", "url": "https://www.yelp.com/biz/johnys-luncheonette-new-york?adjust_creative=gBcvfFpabk3CnzmXKdYe3w&utm_campaign=yelp_api_v3&utm_medium=api_v3_business_search&utm_source=gBcvfFpabk3CnzmXKdYe3w", "phone": "+12122436230", "coordinates": {"longitude": -73.99307, "latitude": 40.74445}, "categories": [{"alias": "breakfast_brunch", "title": "Breakfast & Brunch"}, {"alias": "burgers", "title": "Burgers"}, {"alias": "sandwiches", "title": "Sandwiches"}], "review_count": 664, "location": {"city": "New York", "address1": "124 W 25th St", "address3": "", "address2": null, "zip_code": "10001", "country": "US", "display_address": ["124 W 25th St", "New York, NY 10001"], "state": "NY"}, "price": "$", "transactions": ["delivery", "pickup"], "display_phone": "(212) 243-6230"}, {"rating": 4.0, "is_closed": false, "distance": 4367.0976210359995, "name": "Del Posto", "id": "del-posto-new-york", "image_url": "https://s3-media1.fl.yelpcdn.com/bphoto/hRV84Xo91hpwkspPbGGCjw/o.jpg", "url": "https://www.yelp.com/biz/del-posto-new-york?adjust_creative=gBcvfFpabk3CnzmXKdYe3w&utm_campaign=yelp_api_v3&utm_medium=api_v3_business_search&utm_source=gBcvfFpabk3CnzmXKdYe3w", "phone": "+12124978090", "coordinates": {"longitude": -74.007533013261, "latitude": 40.7434155953035}, "categories": [{"alias": "italian", "title": "Italian"}], "review_count": 1157, "location": {"city": "New York", "address1": "85 10th Ave", "address3": "", "address2": null, "zip_code": "10011", "country": "US", "display_address": ["85 10th Ave", "New York, NY 10011"], "state": "NY"}, "price": "$$$$", "transactions": [], "display_phone": "(212) 497-8090"}, {"rating": 4.0, "is_closed": false, "distance": 1754.35843207, "name": "Jadis", "id": "jadis-new-york", "image_url": "https://s3-media2.fl.yelpcdn.com/bphoto/aeo37qGbEBdVLKeypVba8w/o.jpg", "url": "https://www.yelp.com/biz/jadis-new-york?adjust_creative=gBcvfFpabk3CnzmXKdYe3w&utm_campaign=yelp_api_v3&utm_medium=api_v3_business_search&utm_source=gBcvfFpabk3CnzmXKdYe3w", "phone": "+12122541675", "coordinates": {"longitude": -73.9910054106201, "latitude": 40.7210234741789}, "categories": [{"alias": "french", "title": "French"}, {"alias": "wine_bars", "title": "Wine Bars"}], "review_count": 441, "location": {"city": "New York", "address1": "42 Rivington St", "address3": "", "address2": "", "zip_code": "10002", "country": "US", "display_address": ["42 Rivington St", "New York, NY 10002"], "state": "NY"}, "price": "$$", "transactions": [], "display_phone": "(212) 254-1675"}, {"rating": 4.0, "is_closed": false, "distance": 1170.0726747683998, "name": "Macaron Parlour", "id": "macaron-parlour-new-york-3", "image_url": "https://s3-media2.fl.yelpcdn.com/bphoto/nf7C-939Bg6AIr1j5ReqRQ/o.jpg", "url": "https://www.yelp.com/biz/macaron-parlour-new-york-3?adjust_creative=gBcvfFpabk3CnzmXKdYe3w&utm_campaign=yelp_api_v3&utm_medium=api_v3_business_search&utm_source=gBcvfFpabk3CnzmXKdYe3w", "phone": "+12123879169", "coordinates": {"longitude": -73.99022, "latitude": 40.71551}, "categories": [{"alias": "bakeries", "title": "Bakeries"}, {"alias": "macarons", "title": "Macarons"}, {"alias": "coffee", "title": "Coffee & Tea"}], "review_count": 365, "location": {"city": "New York", "address1": "44 Hester St", "address3": "", "address2": "", "zip_code": "10009", "country": "US", "display_address": ["44 Hester St", "New York, NY 10009"], "state": "NY"}, "price": "$$", "transactions": [], "display_phone": "(212) 387-9169"}, {"rating": 4.5, "is_closed": false, "distance": 3061.88602715, "name": "Fifty", "id": "fifty-new-york", "image_url": "https://s3-media4.fl.yelpcdn.com/bphoto/sj3m8vpnV4SgsVcFrqRtZA/o.jpg", "url": "https://www.yelp.com/biz/fifty-new-york?adjust_creative=gBcvfFpabk3CnzmXKdYe3w&utm_campaign=yelp_api_v3&utm_medium=api_v3_business_search&utm_source=gBcvfFpabk3CnzmXKdYe3w", "phone": "+12125244104", "coordinates": {"longitude": -74.0056323525426, "latitude": 40.7316062167239}, "categories": [{"alias": "latin", "title": "Latin American"}, {"alias": "wine_bars", "title": "Wine Bars"}, {"alias": "cocktailbars", "title": "Cocktail Bars"}], "review_count": 69, "location": {"city": "New York", "address1": "50 Commerce St", "address3": null, "address2": "", "zip_code": "10014", "country": "US", "display_address": ["50 Commerce St", "New York, NY 10014"], "state": "NY"}, "price": "$$$", "transactions": [], "display_phone": "(212) 524-4104"}, {"rating": 4.0, "is_closed": false, "distance": 2635.5937481739998, "name": "Caf\u00e9 Orlin", "id": "caf\u00e9-orlin-new-york-2", "image_url": "https://s3-media4.fl.yelpcdn.com/bphoto/kJb72CA2pqHE9ZncHt5yKg/o.jpg", "url": "https://www.yelp.com/biz/caf%C3%A9-orlin-new-york-2?adjust_creative=gBcvfFpabk3CnzmXKdYe3w&utm_campaign=yelp_api_v3&utm_medium=api_v3_business_search&utm_source=gBcvfFpabk3CnzmXKdYe3w", "phone": "+12127771447", "coordinates": {"longitude": -73.98707, "latitude": 40.7284999}, "categories": [{"alias": "mideastern", "title": "Middle Eastern"}, {"alias": "cafes", "title": "Cafes"}], "review_count": 1670, "location": {"city": "New York", "address1": "41 St Marks Pl", "address3": "", "address2": "", "zip_code": "10003", "country": "US", "display_address": ["41 St Marks Pl", "New York, NY 10003"], "state": "NY"}, "price": "$$", "transactions": ["pickup"], "display_phone": "(212) 777-1447"}, {"rating": 4.5, "is_closed": false, "distance": 4418.382136948, "name": "Mariella", "id": "mariella-brooklyn", "image_url": "https://s3-media4.fl.yelpcdn.com/bphoto/8x2azc9SIC17czm8LjgKnA/o.jpg", "url": "https://www.yelp.com/biz/mariella-brooklyn?adjust_creative=gBcvfFpabk3CnzmXKdYe3w&utm_campaign=yelp_api_v3&utm_medium=api_v3_business_search&utm_source=gBcvfFpabk3CnzmXKdYe3w", "phone": "+17184992132", "coordinates": {"longitude": -73.985749, "latitude": 40.6662419}, "categories": [{"alias": "italian", "title": "Italian"}, {"alias": "gluten_free", "title": "Gluten-Free"}, {"alias": "salad", "title": "Salad"}], "review_count": 174, "location": {"city": "Brooklyn", "address1": "492 6th Ave", "address3": "", "address2": "", "zip_code": "11215", "country": "US", "display_address": ["492 6th Ave", "Brooklyn, NY 11215"], "state": "NY"}, "price": "$$", "transactions": [], "display_phone": "(718) 499-2132"}, {"rating": 4.0, "is_closed": false, "distance": 3421.747164936, "name": "Ess-A-Bagel", "id": "ess-a-bagel-new-york-5", "image_url": "https://s3-media1.fl.yelpcdn.com/bphoto/rYPlMxeHt33WaJH1g-_70A/o.jpg", "url": "https://www.yelp.com/biz/ess-a-bagel-new-york-5?adjust_creative=gBcvfFpabk3CnzmXKdYe3w&utm_campaign=yelp_api_v3&utm_medium=api_v3_business_search&utm_source=gBcvfFpabk3CnzmXKdYe3w", "phone": "+12122602252", "coordinates": {"longitude": -73.9800613, "latitude": 40.7341629}, "categories": [{"alias": "bagels", "title": "Bagels"}, {"alias": "breakfast_brunch", "title": "Breakfast & Brunch"}, {"alias": "sandwiches", "title": "Sandwiches"}], "review_count": 647, "location": {"city": "New York", "address1": "324 1st Ave", "address3": "", "address2": "", "zip_code": "10009", "country": "US", "display_address": ["324 1st Ave", "New York, NY 10009"], "state": "NY"}, "price": "$", "transactions": ["pickup"], "display_phone": "(212) 260-2252"}, {"rating": 4.0, "is_closed": false, "distance": 3707.372828136, "name": "Ootoya Chelsea", "id": "ootoya-chelsea-new-york", "image_url": "https://s3-media3.fl.yelpcdn.com/bphoto/POd3xKJfgi500ICQNHod7g/o.jpg", "url": "https://www.yelp.com/biz/ootoya-chelsea-new-york?adjust_creative=gBcvfFpabk3CnzmXKdYe3w&utm_campaign=yelp_api_v3&utm_medium=api_v3_business_search&utm_source=gBcvfFpabk3CnzmXKdYe3w", "phone": "+12122550018", "coordinates": {"longitude": -73.992778, "latitude": 40.738767}, "categories": [{"alias": "japanese", "title": "Japanese"}, {"alias": "sushi", "title": "Sushi Bars"}], "review_count": 1037, "location": {"city": "New York", "address1": "8 W 18th St", "address3": "", "address2": "", "zip_code": "10011", "country": "US", "display_address": ["8 W 18th St", "New York, NY 10011"], "state": "NY"}, "price": "$$", "transactions": [], "display_phone": "(212) 255-0018"}, {"rating": 4.5, "is_closed": false, "distance": 2567.02121918, "name": "Le Petit Parisien", "id": "le-petit-parisien-new-york", "image_url": "https://s3-media1.fl.yelpcdn.com/bphoto/ETDoGBianNIROnacyeUuTQ/o.jpg", "url": "https://www.yelp.com/biz/le-petit-parisien-new-york?adjust_creative=gBcvfFpabk3CnzmXKdYe3w&utm_campaign=yelp_api_v3&utm_medium=api_v3_business_search&utm_source=gBcvfFpabk3CnzmXKdYe3w", "phone": "+19172620406", "coordinates": {"longitude": -73.98921, "latitude": 40.72821}, "categories": [{"alias": "sandwiches", "title": "Sandwiches"}, {"alias": "bakeries", "title": "Bakeries"}, {"alias": "coffee", "title": "Coffee & Tea"}], "review_count": 31, "location": {"city": "New York", "address1": "32 E 7th St", "address3": "", "address2": null, "zip_code": "10003", "country": "US", "display_address": ["32 E 7th St", "New York, NY 10003"], "state": "NY"}, "price": "$$", "transactions": ["pickup"], "display_phone": "(917) 262-0406"}, {"rating": 4.5, "is_closed": false, "distance": 2823.1055154719998, "name": "OatMeals", "id": "oatmeals-new-york-3", "image_url": "https://s3-media2.fl.yelpcdn.com/bphoto/qcg5hs5a6mO312jh0BfhIw/o.jpg", "url": "https://www.yelp.com/biz/oatmeals-new-york-3?adjust_creative=gBcvfFpabk3CnzmXKdYe3w&utm_campaign=yelp_api_v3&utm_medium=api_v3_business_search&utm_source=gBcvfFpabk3CnzmXKdYe3w", "phone": "+16463603570", "coordinates": {"longitude": -74.000533, "latitude": 40.730389}, "categories": [{"alias": "bakeries", "title": "Bakeries"}, {"alias": "coffee", "title": "Coffee & Tea"}, {"alias": "breakfast_brunch", "title": "Breakfast & Brunch"}], "review_count": 278, "location": {"city": "New York", "address1": "120 W 3rd St", "address3": "", "address2": "", "zip_code": "10012", "country": "US", "display_address": ["120 W 3rd St", "New York, NY 10012"], "state": "NY"}, "price": "$", "transactions": ["delivery", "pickup"], "display_phone": "(646) 360-3570"}, {"rating": 4.5, "is_closed": false, "distance": 2973.747464304, "name": "Stuyvesant Organic", "id": "stuyvesant-organic-new-york", "image_url": "https://s3-media3.fl.yelpcdn.com/bphoto/h3aPb8nWczjLa6eIE1rCGw/o.jpg", "url": "https://www.yelp.com/biz/stuyvesant-organic-new-york?adjust_creative=gBcvfFpabk3CnzmXKdYe3w&utm_campaign=yelp_api_v3&utm_medium=api_v3_business_search&utm_source=gBcvfFpabk3CnzmXKdYe3w", "phone": "+12124753280", "coordinates": {"longitude": -73.978805, "latitude": 40.729442}, "categories": [{"alias": "organic_stores", "title": "Organic Stores"}, {"alias": "salad", "title": "Salad"}, {"alias": "catering", "title": "Caterers"}], "review_count": 36, "location": {"city": "New York", "address1": "536 E 14th St", "address3": "", "address2": "", "zip_code": "10009", "country": "US", "display_address": ["536 E 14th St", "New York, NY 10009"], "state": "NY"}, "price": "$", "transactions": ["delivery", "pickup"], "display_phone": "(212) 475-3280"}, {"rating": 4.5, "is_closed": false, "distance": 3811.873711696, "name": "Almayass Restaurant NYC", "id": "almayass-restaurant-nyc-new-york-3", "image_url": "https://s3-media2.fl.yelpcdn.com/bphoto/tGfszJXI2cBvWOvMLW3e7g/o.jpg", "url": "https://www.yelp.com/biz/almayass-restaurant-nyc-new-york-3?adjust_creative=gBcvfFpabk3CnzmXKdYe3w&utm_campaign=yelp_api_v3&utm_medium=api_v3_business_search&utm_source=gBcvfFpabk3CnzmXKdYe3w", "phone": "+12124733100", "coordinates": {"longitude": -73.9887133176, "latitude": 40.7394642504}, "categories": [{"alias": "armenian", "title": "Armenian"}, {"alias": "lebanese", "title": "Lebanese"}, {"alias": "vegetarian", "title": "Vegetarian"}], "review_count": 310, "location": {"city": "New York", "address1": "24 E 21st St", "address3": "", "address2": "", "zip_code": "10010", "country": "US", "display_address": ["24 E 21st St", "New York, NY 10010"], "state": "NY"}, "price": "$$$", "transactions": ["delivery", "pickup"], "display_phone": "(212) 473-3100"}, {"rating": 4.0, "is_closed": false, "distance": 2991.572192276, "name": "Kest\u00e8 - West Village", "id": "kest\u00e8-west-village-new-york-2", "image_url": "https://s3-media3.fl.yelpcdn.com/bphoto/iDSh6ZF9pYOveQuCGWKTQQ/o.jpg", "url": "https://www.yelp.com/biz/kest%C3%A8-west-village-new-york-2?adjust_creative=gBcvfFpabk3CnzmXKdYe3w&utm_campaign=yelp_api_v3&utm_medium=api_v3_business_search&utm_source=gBcvfFpabk3CnzmXKdYe3w", "phone": "+12122431500", "coordinates": {"longitude": -74.00293, "latitude": 40.73154}, "categories": [{"alias": "pizza", "title": "Pizza"}, {"alias": "gluten_free", "title": "Gluten-Free"}, {"alias": "italian", "title": "Italian"}], "review_count": 1141, "location": {"city": "New York", "address1": "271 Bleecker St", "address3": "", "address2": "", "zip_code": "10014", "country": "US", "display_address": ["271 Bleecker St", "New York, NY 10014"], "state": "NY"}, "price": "$$", "transactions": ["delivery", "pickup"], "display_phone": "(212) 243-1500"}, {"rating": 4.0, "is_closed": false, "distance": 3327.4472438999996, "name": "Juniper", "id": "juniper-brooklyn-2", "image_url": "https://s3-media3.fl.yelpcdn.com/bphoto/Aph4zB9GOQwnqGmLwxA8Qg/o.jpg", "url": "https://www.yelp.com/biz/juniper-brooklyn-2?adjust_creative=gBcvfFpabk3CnzmXKdYe3w&utm_campaign=yelp_api_v3&utm_medium=api_v3_business_search&utm_source=gBcvfFpabk3CnzmXKdYe3w", "phone": "+17187828777", "coordinates": {"longitude": -73.9590148925781, "latitude": 40.7189254760742}, "categories": [{"alias": "burgers", "title": "Burgers"}, {"alias": "tradamerican", "title": "American (Traditional)"}, {"alias": "sandwiches", "title": "Sandwiches"}], "review_count": 433, "location": {"city": "Brooklyn", "address1": "112 Berry St", "address3": "", "address2": "", "zip_code": "11211", "country": "US", "display_address": ["112 Berry St", "Brooklyn, NY 11211"], "state": "NY"}, "price": "$$", "transactions": ["pickup"], "display_phone": "(718) 782-8777"}, {"rating": 4.5, "is_closed": false, "distance": 1011.9267597579999, "name": "Les Enfants de Boheme", "id": "les-enfants-de-boheme-new-york", "image_url": "https://s3-media2.fl.yelpcdn.com/bphoto/32cMrc5XlVnj93hGJ2aViw/o.jpg", "url": "https://www.yelp.com/biz/les-enfants-de-boheme-new-york?adjust_creative=gBcvfFpabk3CnzmXKdYe3w&utm_campaign=yelp_api_v3&utm_medium=api_v3_business_search&utm_source=gBcvfFpabk3CnzmXKdYe3w", "phone": "+16464764843", "coordinates": {"longitude": -73.9887866377831, "latitude": 40.7135396450758}, "categories": [{"alias": "french", "title": "French"}, {"alias": "cafes", "title": "Cafes"}, {"alias": "cocktailbars", "title": "Cocktail Bars"}], "review_count": 101, "location": {"city": "New York", "address1": "177 Henry St", "address3": "", "address2": "", "zip_code": "10002", "country": "US", "display_address": ["177 Henry St", "New York, NY 10002"], "state": "NY"}, "price": "$$", "transactions": [], "display_phone": "(646) 476-4843"}, {"rating": 4.5, "is_closed": false, "distance": 6433.5619576, "name": "Bibble & Sip", "id": "bibble-and-sip-new-york-2", "image_url": "https://s3-media3.fl.yelpcdn.com/bphoto/zCUvBD2KTMNEps7TAuuecQ/o.jpg", "url": "https://www.yelp.com/biz/bibble-and-sip-new-york-2?adjust_creative=gBcvfFpabk3CnzmXKdYe3w&utm_campaign=yelp_api_v3&utm_medium=api_v3_business_search&utm_source=gBcvfFpabk3CnzmXKdYe3w", "phone": "+16466495116", "coordinates": {"longitude": -73.98518, "latitude": 40.76283}, "categories": [{"alias": "cafes", "title": "Cafes"}, {"alias": "coffee", "title": "Coffee & Tea"}, {"alias": "bakeries", "title": "Bakeries"}], "review_count": 2149, "location": {"city": "New York", "address1": "253 W 51st St", "address3": "", "address2": "", "zip_code": "10019", "country": "US", "display_address": ["253 W 51st St", "New York, NY 10019"], "state": "NY"}, "price": "$", "transactions": [], "display_phone": "(646) 649-5116"}, {"rating": 4.5, "is_closed": false, "distance": 3277.82807302, "name": "Urban Vintage", "id": "urban-vintage-brooklyn", "image_url": "https://s3-media1.fl.yelpcdn.com/bphoto/vTMHWSaJz2epEHXYPTttHQ/o.jpg", "url": "https://www.yelp.com/biz/urban-vintage-brooklyn?adjust_creative=gBcvfFpabk3CnzmXKdYe3w&utm_campaign=yelp_api_v3&utm_medium=api_v3_business_search&utm_source=gBcvfFpabk3CnzmXKdYe3w", "phone": "+17187836045", "coordinates": {"longitude": -73.96287, "latitude": 40.68801}, "categories": [{"alias": "coffee", "title": "Coffee & Tea"}], "review_count": 216, "location": {"city": "Brooklyn", "address1": "294 Grand Ave", "address3": "", "address2": "", "zip_code": "11238", "country": "US", "display_address": ["294 Grand Ave", "Brooklyn, NY 11238"], "state": "NY"}, "price": "$$", "transactions": [], "display_phone": "(718) 783-6045"}, {"rating": 4.0, "is_closed": false, "distance": 3160.2401975139996, "name": "Buvette", "id": "buvette-new-york", "image_url": "https://s3-media3.fl.yelpcdn.com/bphoto/hkrgfxvjBczxwpplZJel3w/o.jpg", "url": "https://www.yelp.com/biz/buvette-new-york?adjust_creative=gBcvfFpabk3CnzmXKdYe3w&utm_campaign=yelp_api_v3&utm_medium=api_v3_business_search&utm_source=gBcvfFpabk3CnzmXKdYe3w", "phone": "+12122553590", "coordinates": {"longitude": -74.004213, "latitude": 40.732852}, "categories": [{"alias": "french", "title": "French"}, {"alias": "italian", "title": "Italian"}, {"alias": "breakfast_brunch", "title": "Breakfast & Brunch"}], "review_count": 1146, "location": {"city": "New York", "address1": "42 Grove St", "address3": "", "address2": "", "zip_code": "10014", "country": "US", "display_address": ["42 Grove St", "New York, NY 10014"], "state": "NY"}, "price": "$$", "transactions": [], "display_phone": "(212) 255-3590"}, {"rating": 4.0, "is_closed": false, "distance": 4507.47407281, "name": "Blossom", "id": "blossom-new-york-3", "image_url": "https://s3-media2.fl.yelpcdn.com/bphoto/DaE_CXw-E1_m8zGK473jEg/o.jpg", "url": "https://www.yelp.com/biz/blossom-new-york-3?adjust_creative=gBcvfFpabk3CnzmXKdYe3w&utm_campaign=yelp_api_v3&utm_medium=api_v3_business_search&utm_source=gBcvfFpabk3CnzmXKdYe3w", "phone": "+12126271144", "coordinates": {"longitude": -74.002365, "latitude": 40.745513}, "categories": [{"alias": "vegetarian", "title": "Vegetarian"}, {"alias": "vegan", "title": "Vegan"}], "review_count": 801, "location": {"city": "New York", "address1": "187 9th Ave", "address3": "", "address2": "", "zip_code": "10011", "country": "US", "display_address": ["187 9th Ave", "New York, NY 10011"], "state": "NY"}, "price": "$$$", "transactions": ["delivery", "pickup"], "display_phone": "(212) 627-1144"}, {"rating": 4.5, "is_closed": false, "distance": 3762.8162004759997, "name": "Dar 525", "id": "dar-525-brooklyn", "image_url": "https://s3-media3.fl.yelpcdn.com/bphoto/-QgQNYY6iZF6Z9iUQqJ7YQ/o.jpg", "url": "https://www.yelp.com/biz/dar-525-brooklyn?adjust_creative=gBcvfFpabk3CnzmXKdYe3w&utm_campaign=yelp_api_v3&utm_medium=api_v3_business_search&utm_source=gBcvfFpabk3CnzmXKdYe3w", "phone": "+13474220401", "coordinates": {"longitude": -73.950317, "latitude": 40.711266}, "categories": [{"alias": "mediterranean", "title": "Mediterranean"}, {"alias": "mideastern", "title": "Middle Eastern"}], "review_count": 305, "location": {"city": "Brooklyn", "address1": "525 Grand St", "address3": "", "address2": null, "zip_code": "11211", "country": "US", "display_address": ["525 Grand St", "Brooklyn, NY 11211"], "state": "NY"}, "price": "$$", "transactions": ["delivery", "pickup"], "display_phone": "(347) 422-0401"}, {"rating": 5.0, "is_closed": false, "distance": 2766.182837804, "name": "Fiaschetteria Pistoia", "id": "fiaschetteria-pistoia-new-york", "image_url": "https://s3-media4.fl.yelpcdn.com/bphoto/ixacYakhHn-WAyE5K-cvtA/o.jpg", "url": "https://www.yelp.com/biz/fiaschetteria-pistoia-new-york?adjust_creative=gBcvfFpabk3CnzmXKdYe3w&utm_campaign=yelp_api_v3&utm_medium=api_v3_business_search&utm_source=gBcvfFpabk3CnzmXKdYe3w", "phone": "+12127773355", "coordinates": {"longitude": -73.9773, "latitude": 40.72666}, "categories": [{"alias": "wine_bars", "title": "Wine Bars"}, {"alias": "tuscan", "title": "Tuscan"}], "review_count": 23, "location": {"city": "New York", "address1": "647 E 11th St", "address3": null, "address2": "", "zip_code": "10009", "country": "US", "display_address": ["647 E 11th St", "New York, NY 10009"], "state": "NY"}, "price": "$$", "transactions": ["delivery", "pickup"], "display_phone": "(212) 777-3355"}, {"rating": 4.5, "is_closed": false, "distance": 4399.83497625, "name": "PN Wood Fired Pizza", "id": "pn-wood-fired-pizza-new-york", "image_url": "https://s3-media3.fl.yelpcdn.com/bphoto/aihAr203sHKecqsTHjwgUg/o.jpg", "url": "https://www.yelp.com/biz/pn-wood-fired-pizza-new-york?adjust_creative=gBcvfFpabk3CnzmXKdYe3w&utm_campaign=yelp_api_v3&utm_medium=api_v3_business_search&utm_source=gBcvfFpabk3CnzmXKdYe3w", "phone": "+16469644834", "coordinates": {"longitude": -73.98772, "latitude": 40.74475}, "categories": [{"alias": "pizza", "title": "Pizza"}], "review_count": 103, "location": {"city": "New York", "address1": "2 W 28th St", "address3": "", "address2": "", "zip_code": "10001", "country": "US", "display_address": ["2 W 28th St", "New York, NY 10001"], "state": "NY"}, "price": "$$", "transactions": [], "display_phone": "(646) 964-4834"}, {"rating": 4.0, "is_closed": false, "distance": 3263.7452214819996, "name": "Quality Eats", "id": "quality-eats-new-york", "image_url": "https://s3-media2.fl.yelpcdn.com/bphoto/8AuLw9iZegA8AEOG9JJL5Q/o.jpg", "url": "https://www.yelp.com/biz/quality-eats-new-york?adjust_creative=gBcvfFpabk3CnzmXKdYe3w&utm_campaign=yelp_api_v3&utm_medium=api_v3_business_search&utm_source=gBcvfFpabk3CnzmXKdYe3w", "phone": "+12123379988", "coordinates": {"longitude": -74.0001599, "latitude": 40.73446}, "categories": [{"alias": "tradamerican", "title": "American (Traditional)"}, {"alias": "steak", "title": "Steakhouses"}], "review_count": 227, "location": {"city": "New York", "address1": "19 Greenwich Ave", "address3": "", "address2": null, "zip_code": "10014", "country": "US", "display_address": ["19 Greenwich Ave", "New York, NY 10014"], "state": "NY"}, "price": "$$$", "transactions": [], "display_phone": "(212) 337-9988"}, {"rating": 4.5, "is_closed": false, "distance": 4418.365238877999, "name": "The NoMad Bar", "id": "the-nomad-bar-new-york-2", "image_url": "https://s3-media3.fl.yelpcdn.com/bphoto/GIVW6m6WAd1HpFkRRBsq0g/o.jpg", "url": "https://www.yelp.com/biz/the-nomad-bar-new-york-2?adjust_creative=gBcvfFpabk3CnzmXKdYe3w&utm_campaign=yelp_api_v3&utm_medium=api_v3_business_search&utm_source=gBcvfFpabk3CnzmXKdYe3w", "phone": "+12127961500", "coordinates": {"longitude": -73.9885197632294, "latitude": 40.7449365409844}, "categories": [{"alias": "cocktailbars", "title": "Cocktail Bars"}], "review_count": 275, "location": {"city": "New York", "address1": "10 W 28th St", "address3": "The NoMad Hotel", "address2": "", "zip_code": "10001", "country": "US", "display_address": ["10 W 28th St", "The NoMad Hotel", "New York, NY 10001"], "state": "NY"}, "price": "$$$", "transactions": [], "display_phone": "(212) 796-1500"}, {"rating": 4.0, "is_closed": false, "distance": 2903.105485004, "name": "Little Branch", "id": "little-branch-new-york", "image_url": "https://s3-media4.fl.yelpcdn.com/bphoto/cGUZq5NkkRsLKMBvxHFelQ/o.jpg", "url": "https://www.yelp.com/biz/little-branch-new-york?adjust_creative=gBcvfFpabk3CnzmXKdYe3w&utm_campaign=yelp_api_v3&utm_medium=api_v3_business_search&utm_source=gBcvfFpabk3CnzmXKdYe3w", "phone": "+12129294360", "coordinates": {"longitude": -74.0047645568848, "latitude": 40.7303157913817}, "categories": [{"alias": "lounges", "title": "Lounges"}, {"alias": "cocktailbars", "title": "Cocktail Bars"}], "review_count": 944, "location": {"city": "New York", "address1": "22 7th Ave S", "address3": "", "address2": "", "zip_code": "10014", "country": "US", "display_address": ["22 7th Ave S", "New York, NY 10014"], "state": "NY"}, "price": "$$$", "transactions": [], "display_phone": "(212) 929-4360"}, {"rating": 4.0, "is_closed": false, "distance": 3338.40363062, "name": "St. Mazie", "id": "st-mazie-brooklyn-2", "image_url": "https://s3-media2.fl.yelpcdn.com/bphoto/GpqRYRKZQED0Dtl_54r2dA/o.jpg", "url": "https://www.yelp.com/biz/st-mazie-brooklyn-2?adjust_creative=gBcvfFpabk3CnzmXKdYe3w&utm_campaign=yelp_api_v3&utm_medium=api_v3_business_search&utm_source=gBcvfFpabk3CnzmXKdYe3w", "phone": "+17183844807", "coordinates": {"longitude": -73.9558, "latitude": 40.71263}, "categories": [{"alias": "bars", "title": "Bars"}, {"alias": "comfortfood", "title": "Comfort Food"}, {"alias": "musicvenues", "title": "Music Venues"}], "review_count": 130, "location": {"city": "Brooklyn", "address1": "345 Grand St Williamsburg", "address3": "", "address2": "", "zip_code": "11211", "country": "US", "display_address": ["345 Grand St Williamsburg", "Brooklyn, NY 11211"], "state": "NY"}, "price": "$$", "transactions": [], "display_phone": "(718) 384-4807"}, {"rating": 4.5, "is_closed": false, "distance": 6086.363911604, "name": "Del Frisco's Double Eagle Steak House", "id": "del-friscos-double-eagle-steak-house-new-york-2", "image_url": "https://s3-media3.fl.yelpcdn.com/bphoto/FyQ0V-QtndWStk5B8qwjXw/o.jpg", "url": "https://www.yelp.com/biz/del-friscos-double-eagle-steak-house-new-york-2?adjust_creative=gBcvfFpabk3CnzmXKdYe3w&utm_campaign=yelp_api_v3&utm_medium=api_v3_business_search&utm_source=gBcvfFpabk3CnzmXKdYe3w", "phone": "+12125755129", "coordinates": {"longitude": -73.98222, "latitude": 40.7594099}, "categories": [{"alias": "steak", "title": "Steakhouses"}, {"alias": "newamerican", "title": "American (New)"}, {"alias": "seafood", "title": "Seafood"}], "review_count": 2014, "location": {"city": "New York", "address1": "1221 Avenue Of The Americas", "address3": "", "address2": "", "zip_code": "10020", "country": "US", "display_address": ["1221 Avenue Of The Americas", "New York, NY 10020"], "state": "NY"}, "price": "$$$$", "transactions": [], "display_phone": "(212) 575-5129"}, {"rating": 4.5, "is_closed": false, "distance": 1742.894459514, "name": "Speedy Romeo", "id": "speedy-romeo-new-york", "image_url": "https://s3-media4.fl.yelpcdn.com/bphoto/fJgnkrWbs6oMD_X5WHDMyw/o.jpg", "url": "https://www.yelp.com/biz/speedy-romeo-new-york?adjust_creative=gBcvfFpabk3CnzmXKdYe3w&utm_campaign=yelp_api_v3&utm_medium=api_v3_business_search&utm_source=gBcvfFpabk3CnzmXKdYe3w", "phone": "+12125296300", "coordinates": {"longitude": -73.985137, "latitude": 40.719509}, "categories": [{"alias": "pizza", "title": "Pizza"}, {"alias": "steak", "title": "Steakhouses"}, {"alias": "italian", "title": "Italian"}], "review_count": 125, "location": {"city": "New York", "address1": "63 Clinton St", "address3": "", "address2": "", "zip_code": "10002", "country": "US", "display_address": ["63 Clinton St", "New York, NY 10002"], "state": "NY"}, "price": "$$", "transactions": [], "display_phone": "(212) 529-6300"}, {"rating": 4.5, "is_closed": false, "distance": 2714.0136676939997, "name": "Barnyard Cheese", "id": "barnyard-cheese-new-york", "image_url": "https://s3-media1.fl.yelpcdn.com/bphoto/RNTRcxFWBsRN1wGyduweAg/o.jpg", "url": "https://www.yelp.com/biz/barnyard-cheese-new-york?adjust_creative=gBcvfFpabk3CnzmXKdYe3w&utm_campaign=yelp_api_v3&utm_medium=api_v3_business_search&utm_source=gBcvfFpabk3CnzmXKdYe3w", "phone": "+12126742276", "coordinates": {"longitude": -73.97987, "latitude": 40.72727}, "categories": [{"alias": "cheese", "title": "Cheese Shops"}, {"alias": "sandwiches", "title": "Sandwiches"}, {"alias": "breakfast_brunch", "title": "Breakfast & Brunch"}], "review_count": 115, "location": {"city": "New York", "address1": "168 Ave B", "address3": "", "address2": "", "zip_code": "10009", "country": "US", "display_address": ["168 Ave B", "New York, NY 10009"], "state": "NY"}, "price": "$$", "transactions": [], "display_phone": "(212) 674-2276"}, {"rating": 4.5, "is_closed": false, "distance": 6558.44835094, "name": "Love Sculpture", "id": "love-sculpture-new-york", "image_url": "https://s3-media3.fl.yelpcdn.com/bphoto/_NOFIWC-u-z8c6hxstyInw/o.jpg", "url": "https://www.yelp.com/biz/love-sculpture-new-york?adjust_creative=gBcvfFpabk3CnzmXKdYe3w&utm_campaign=yelp_api_v3&utm_medium=api_v3_business_search&utm_source=gBcvfFpabk3CnzmXKdYe3w", "phone": "", "coordinates": {"longitude": -73.9782295443495, "latitude": 40.763158183256}, "categories": [{"alias": "publicart", "title": "Public Art"}], "review_count": 72, "location": {"city": "New York", "address1": "1359 Ave Of The Americas", "address3": "", "address2": "", "zip_code": "10019", "country": "US", "display_address": ["1359 Ave Of The Americas", "New York, NY 10019"], "state": "NY"}, "transactions": [], "display_phone": ""}, {"rating": 4.0, "is_closed": false, "distance": 3092.277930248, "name": "Peacefood Cafe Downtown", "id": "peacefood-cafe-downtown-new-york", "image_url": "https://s3-media3.fl.yelpcdn.com/bphoto/hltMJt_r9TFS7xIf-EDhPA/o.jpg", "url": "https://www.yelp.com/biz/peacefood-cafe-downtown-new-york?adjust_creative=gBcvfFpabk3CnzmXKdYe3w&utm_campaign=yelp_api_v3&utm_medium=api_v3_business_search&utm_source=gBcvfFpabk3CnzmXKdYe3w", "phone": "+12129792288", "coordinates": {"longitude": -73.992919, "latitude": 40.733236}, "categories": [{"alias": "coffee", "title": "Coffee & Tea"}, {"alias": "vegan", "title": "Vegan"}, {"alias": "gluten_free", "title": "Gluten-Free"}], "review_count": 479, "location": {"city": "New York", "address1": "41 E 11th St", "address3": "", "address2": "", "zip_code": "10003", "country": "US", "display_address": ["41 E 11th St", "New York, NY 10003"], "state": "NY"}, "price": "$$", "transactions": ["pickup"], "display_phone": "(212) 979-2288"}, {"rating": 4.5, "is_closed": false, "distance": 8035.97535824, "name": "Bethesda Terrace", "id": "bethesda-terrace-new-york-2", "image_url": "https://s3-media4.fl.yelpcdn.com/bphoto/B8N0-dLEVn1Bqpp60y9LxQ/o.jpg", "url": "https://www.yelp.com/biz/bethesda-terrace-new-york-2?adjust_creative=gBcvfFpabk3CnzmXKdYe3w&utm_campaign=yelp_api_v3&utm_medium=api_v3_business_search&utm_source=gBcvfFpabk3CnzmXKdYe3w", "phone": "", "coordinates": {"longitude": -73.98229, "latitude": 40.7764}, "categories": [{"alias": "parks", "title": "Parks"}, {"alias": "landmarks", "title": "Landmarks & Historical Buildings"}], "review_count": 95, "location": {"city": "New York", "address1": "", "address3": "", "address2": "", "zip_code": "10023", "country": "US", "display_address": ["New York, NY 10023"], "state": "NY"}, "transactions": [], "display_phone": ""}, {"rating": 4.5, "is_closed": false, "distance": 2527.4720105479996, "name": "ZZ's Clam Bar", "id": "zzs-clam-bar-new-york", "image_url": "https://s3-media2.fl.yelpcdn.com/bphoto/hKzfzuqVbRkmdMWQ8vHsng/o.jpg", "url": "https://www.yelp.com/biz/zzs-clam-bar-new-york?adjust_creative=gBcvfFpabk3CnzmXKdYe3w&utm_campaign=yelp_api_v3&utm_medium=api_v3_business_search&utm_source=gBcvfFpabk3CnzmXKdYe3w", "phone": "+12122543000", "coordinates": {"longitude": -74.000466, "latitude": 40.727688}, "categories": [{"alias": "seafood", "title": "Seafood"}], "review_count": 76, "location": {"city": "New York", "address1": "169 Thompson St", "address3": "", "address2": "", "zip_code": "10012", "country": "US", "display_address": ["169 Thompson St", "New York, NY 10012"], "state": "NY"}, "price": "$$$$", "transactions": [], "display_phone": "(212) 254-3000"}, {"rating": 4.5, "is_closed": false, "distance": 870.863441672, "name": "Sushi Gallery", "id": "sushi-gallery-brooklyn", "image_url": "https://s3-media3.fl.yelpcdn.com/bphoto/_QLOU3-yLhew6BlLN8Ylqg/o.jpg", "url": "https://www.yelp.com/biz/sushi-gallery-brooklyn?adjust_creative=gBcvfFpabk3CnzmXKdYe3w&utm_campaign=yelp_api_v3&utm_medium=api_v3_business_search&utm_source=gBcvfFpabk3CnzmXKdYe3w", "phone": "+17182220308", "coordinates": {"longitude": -73.9933658391237, "latitude": 40.6975965946913}, "categories": [{"alias": "japanese", "title": "Japanese"}, {"alias": "sushi", "title": "Sushi Bars"}], "review_count": 91, "location": {"city": "Brooklyn", "address1": "71 Clark St", "address3": "", "address2": "", "zip_code": "11201", "country": "US", "display_address": ["71 Clark St", "Brooklyn, NY 11201"], "state": "NY"}, "price": "$$", "transactions": [], "display_phone": "(718) 222-0308"}]}