{"region": {"center": {"latitude": 40.70544486444615, "longitude": -73.99429321289062}}, "businesses": [{"transactions": [], "distance": 5967.447525928, "price": "$$", "display_phone": "(718) 484-7458", "phone": "+17184847458", "url": "https://www.yelp.com/biz/the-wilky-brooklyn?adjust_creative=gBcvfFpabk3CnzmXKdYe3w&utm_campaign=yelp_api_v3&utm_medium=api_v3_business_search&utm_source=gBcvfFpabk3CnzmXKdYe3w", "name": "The Wilky", "location": {"display_address": ["108 Patchen Ave", "Brooklyn, NY 11221"], "country": "US", "state": "NY", "address3": "", "address2": null, "address1": "108 Patchen Ave", "city": "Brooklyn", "zip_code": "11221"}, "is_closed": false, "review_count": 83, "coordinates": {"latitude": 40.688018, "longitude": -73.927352}, "id": "the-wilky-brooklyn", "image_url": "https://s3-media2.fl.yelpcdn.com/bphoto/3hyaYoAPNXnz7BoqwkZjGw/o.jpg", "categories": [{"alias": "beerbar", "title": "Beer Bar"}, {"alias": "beergardens", "title": "Beer Gardens"}, {"alias": "cocktailbars", "title": "Cocktail Bars"}], "rating": 4.5}, {"transactions": [], "distance": 2476.830104098, "price": "$$$$", "display_phone": "(929) 337-6792", "phone": "+19293376792", "url": "https://www.yelp.com/biz/aska-brooklyn-3?adjust_creative=gBcvfFpabk3CnzmXKdYe3w&utm_campaign=yelp_api_v3&utm_medium=api_v3_business_search&utm_source=gBcvfFpabk3CnzmXKdYe3w", "name": "Aska", "location": {"display_address": ["47 S 5th St", "Brooklyn, NY 11249"], "country": "US", "state": "NY", "address3": null, "address2": "", "address1": "47 S 5th St", "city": "Brooklyn", "zip_code": "11249"}, "is_closed": false, "review_count": 28, "coordinates": {"latitude": 40.7125396728516, "longitude": -73.9664154052734}, "id": "aska-brooklyn-3", "image_url": "https://s3-media4.fl.yelpcdn.com/bphoto/9Sjq2gdTtiy3f_VENMVjZA/o.jpg", "categories": [{"alias": "scandinavian", "title": "Scandinavian"}, {"alias": "bars", "title": "Bars"}], "rating": 5.0}, {"transactions": [], "distance": 1687.519645058, "display_phone": "", "phone": "", "url": "https://www.yelp.com/biz/battery-park-new-york?adjust_creative=gBcvfFpabk3CnzmXKdYe3w&utm_campaign=yelp_api_v3&utm_medium=api_v3_business_search&utm_source=gBcvfFpabk3CnzmXKdYe3w", "name": "Battery Park", "location": {"display_address": ["State St & Battery Pl", "New York, NY 10079"], "country": "US", "state": "NY", "address3": "", "address2": "", "address1": "State St & Battery Pl", "city": "New York", "zip_code": "10079"}, "is_closed": false, "review_count": 306, "coordinates": {"latitude": 40.7044596970081, "longitude": -74.0142300724983}, "id": "battery-park-new-york", "image_url": "https://s3-media2.fl.yelpcdn.com/bphoto/kEHzFgzZHPoO2Qztctn69Q/o.jpg", "categories": [{"alias": "parks", "title": "Parks"}], "rating": 4.5}, {"transactions": [], "distance": 672.5988691639999, "price": "$$", "display_phone": "(718) 855-1000", "phone": "+17188551000", "url": "https://www.yelp.com/biz/brooklyn-roasting-company-brooklyn-2?adjust_creative=gBcvfFpabk3CnzmXKdYe3w&utm_campaign=yelp_api_v3&utm_medium=api_v3_business_search&utm_source=gBcvfFpabk3CnzmXKdYe3w", "name": "Brooklyn Roasting Company", "location": {"display_address": ["25 Jay St", "Brooklyn, NY 11201"], "country": "US", "state": "NY", "address3": "", "address2": "", "address1": "25 Jay St", "city": "Brooklyn", "zip_code": "11201"}, "is_closed": false, "review_count": 359, "coordinates": {"latitude": 40.7042007, "longitude": -73.9861984}, "id": "brooklyn-roasting-company-brooklyn-2", "image_url": "https://s3-media1.fl.yelpcdn.com/bphoto/vWW0qgdrRm3mYPvitDLqIg/o.jpg", "categories": [{"alias": "coffee", "title": "Coffee & Tea"}], "rating": 4.5}, {"transactions": [], "distance": 2343.857099126, "price": "$$$", "display_phone": "(212) 274-0404", "phone": "+12122740404", "url": "https://www.yelp.com/biz/blue-ribbon-brasserie-new-york?adjust_creative=gBcvfFpabk3CnzmXKdYe3w&utm_campaign=yelp_api_v3&utm_medium=api_v3_business_search&utm_source=gBcvfFpabk3CnzmXKdYe3w", "name": "Blue Ribbon Brasserie", "location": {"display_address": ["97 Sullivan St", "New York, NY 10012"], "country": "US", "state": "NY", "address3": "", "address2": "", "address1": "97 Sullivan St", "city": "New York", "zip_code": "10012"}, "is_closed": false, "review_count": 781, "coordinates": {"latitude": 40.725456, "longitude": -74.003027}, "id": "blue-ribbon-brasserie-new-york", "image_url": "https://s3-media1.fl.yelpcdn.com/bphoto/24vg433a3JX8sU4JQbbYBQ/o.jpg", "categories": [{"alias": "seafood", "title": "Seafood"}, {"alias": "tradamerican", "title": "American (Traditional)"}], "rating": 4.5}, {"transactions": [], "distance": 1847.359615726, "price": "$$$", "display_phone": "(212) 533-3348", "phone": "+12125333348", "url": "https://www.yelp.com/biz/balvanera-new-york-3?adjust_creative=gBcvfFpabk3CnzmXKdYe3w&utm_campaign=yelp_api_v3&utm_medium=api_v3_business_search&utm_source=gBcvfFpabk3CnzmXKdYe3w", "name": "Balvanera", "location": {"display_address": ["152 Stanton St", "New York, NY 10002"], "country": "US", "state": "NY", "address3": "", "address2": "", "address1": "152 Stanton St", "city": "New York", "zip_code": "10002"}, "is_closed": false, "review_count": 155, "coordinates": {"latitude": 40.72063, "longitude": -73.98539}, "id": "balvanera-new-york-3", "image_url": "https://s3-media4.fl.yelpcdn.com/bphoto/SxdFnku2XdRRvNSjbn5WOA/o.jpg", "categories": [{"alias": "argentine", "title": "Argentine"}], "rating": 4.5}, {"transactions": [], "distance": 1001.8150190435999, "price": "$", "display_phone": "(212) 566-6933", "phone": "+12125666933", "url": "https://www.yelp.com/biz/lam-zhou-handmade-noodle-new-york-2?adjust_creative=gBcvfFpabk3CnzmXKdYe3w&utm_campaign=yelp_api_v3&utm_medium=api_v3_business_search&utm_source=gBcvfFpabk3CnzmXKdYe3w", "name": "Lam Zhou Handmade Noodle", "location": {"display_address": ["144 E Broadway", "New York, NY 10002"], "country": "US", "state": "NY", "address3": "", "address2": "", "address1": "144 E Broadway", "city": "New York", "zip_code": "10002"}, "is_closed": false, "review_count": 1086, "coordinates": {"latitude": 40.7141499, "longitude": -73.99122}, "id": "lam-zhou-handmade-noodle-new-york-2", "image_url": "https://s3-media1.fl.yelpcdn.com/bphoto/9Zez7KTj4lyxtrwliuo-Fw/o.jpg", "categories": [{"alias": "chinese", "title": "Chinese"}, {"alias": "noodles", "title": "Noodles"}], "rating": 4.0}, {"transactions": ["delivery", "pickup"], "distance": 5594.730175551999, "price": "$$", "display_phone": "(646) 484-5733", "phone": "+16464845733", "url": "https://www.yelp.com/biz/jonnys-panini-and-coffee-bar-new-york-6?adjust_creative=gBcvfFpabk3CnzmXKdYe3w&utm_campaign=yelp_api_v3&utm_medium=api_v3_business_search&utm_source=gBcvfFpabk3CnzmXKdYe3w", "name": "Jonny's Panini & Coffee Bar", "location": {"display_address": ["493A 9th Ave", "New York, NY 10018"], "country": "US", "state": "NY", "address3": "", "address2": null, "address1": "493A 9th Ave", "city": "New York", "zip_code": "10018"}, "is_closed": false, "review_count": 142, "coordinates": {"latitude": 40.7557582, "longitude": -73.9949689}, "id": "jonnys-panini-and-coffee-bar-new-york-6", "image_url": "https://s3-media1.fl.yelpcdn.com/bphoto/WSSsyVzOhuOs_T6u_q6OTA/o.jpg", "categories": [{"alias": "cafes", "title": "Cafes"}, {"alias": "sandwiches", "title": "Sandwiches"}], "rating": 4.5}, {"transactions": [], "distance": 2997.813212796, "price": "$", "display_phone": "(718) 783-2430", "phone": "+17187832430", "url": "https://www.yelp.com/biz/luigis-pizzeria-brooklyn-4?adjust_creative=gBcvfFpabk3CnzmXKdYe3w&utm_campaign=yelp_api_v3&utm_medium=api_v3_business_search&utm_source=gBcvfFpabk3CnzmXKdYe3w", "name": "Luigi's Pizzeria", "location": {"display_address": ["326 Dekalb Ave", "Brooklyn, NY 11205"], "country": "US", "state": "NY", "address3": "", "address2": "", "address1": "326 Dekalb Ave", "city": "Brooklyn", "zip_code": "11205"}, "is_closed": false, "review_count": 194, "coordinates": {"latitude": 40.6896463915881, "longitude": -73.9654789676967}, "id": "luigis-pizzeria-brooklyn-4", "image_url": "https://s3-media2.fl.yelpcdn.com/bphoto/KwCalEGVVndrPMQPjkuHaA/o.jpg", "categories": [{"alias": "pizza", "title": "Pizza"}], "rating": 4.5}, {"transactions": [], "distance": 1601.4346966124, "price": "$", "display_phone": "(212) 933-0478", "phone": "+12129330478", "url": "https://www.yelp.com/biz/juicy-spot-cafe-new-york?adjust_creative=gBcvfFpabk3CnzmXKdYe3w&utm_campaign=yelp_api_v3&utm_medium=api_v3_business_search&utm_source=gBcvfFpabk3CnzmXKdYe3w", "name": "Juicy Spot Cafe", "location": {"display_address": ["109 Ludlow St", "New York, NY 10002"], "country": "US", "state": "NY", "address3": "", "address2": null, "address1": "109 Ludlow St", "city": "New York", "zip_code": "10002"}, "is_closed": false, "review_count": 341, "coordinates": {"latitude": 40.7191902882313, "longitude": -73.9886155020733}, "id": "juicy-spot-cafe-new-york", "image_url": "https://s3-media2.fl.yelpcdn.com/bphoto/tLgYILzI_ktIDtH2lixN9A/o.jpg", "categories": [{"alias": "juicebars", "title": "Juice Bars & Smoothies"}, {"alias": "coffee", "title": "Coffee & Tea"}, {"alias": "icecream", "title": "Ice Cream & Frozen Yogurt"}], "rating": 4.5}, {"transactions": [], "distance": 2763.2284114319996, "price": "$$$", "display_phone": "(212) 691-0404", "phone": "+12126910404", "url": "https://www.yelp.com/biz/blue-ribbon-downing-street-bar-new-york-2?adjust_creative=gBcvfFpabk3CnzmXKdYe3w&utm_campaign=yelp_api_v3&utm_medium=api_v3_business_search&utm_source=gBcvfFpabk3CnzmXKdYe3w", "name": "Blue Ribbon Downing Street Bar", "location": {"display_address": ["34 Downing St", "New York, NY 10014"], "country": "US", "state": "NY", "address3": "", "address2": "", "address1": "34 Downing St", "city": "New York", "zip_code": "10014"}, "is_closed": false, "review_count": 193, "coordinates": {"latitude": 40.7292048796869, "longitude": -74.0038925739262}, "id": "blue-ribbon-downing-street-bar-new-york-2", "image_url": "https://s3-media3.fl.yelpcdn.com/bphoto/jFcOZqHjhn3HDMsAyMIO4w/o.jpg", "categories": [{"alias": "wine_bars", "title": "Wine Bars"}, {"alias": "beerbar", "title": "Beer Bar"}, {"alias": "cocktailbars", "title": "Cocktail Bars"}], "rating": 4.5}, {"transactions": ["delivery", "pickup"], "distance": 3210.660497846, "price": "$$", "display_phone": "(718) 963-0420", "phone": "+17189630420", "url": "https://www.yelp.com/biz/little-choc-apothecary-brooklyn-2?adjust_creative=gBcvfFpabk3CnzmXKdYe3w&utm_campaign=yelp_api_v3&utm_medium=api_v3_business_search&utm_source=gBcvfFpabk3CnzmXKdYe3w", "name": "Little Choc Apothecary", "location": {"display_address": ["141 Havemeyer St", "Brooklyn, NY 11211"], "country": "US", "state": "NY", "address3": "", "address2": "", "address1": "141 Havemeyer St", "city": "Brooklyn", "zip_code": "11211"}, "is_closed": false, "review_count": 179, "coordinates": {"latitude": 40.71192, "longitude": -73.95721}, "id": "little-choc-apothecary-brooklyn-2", "image_url": "https://s3-media4.fl.yelpcdn.com/bphoto/Vsyk2t5CvrtMsc_CoRotAA/o.jpg", "categories": [{"alias": "creperies", "title": "Creperies"}, {"alias": "vegan", "title": "Vegan"}, {"alias": "juicebars", "title": "Juice Bars & Smoothies"}], "rating": 4.5}, {"transactions": [], "distance": 3102.7029129, "price": "$$$$", "display_phone": "(212) 741-6699", "phone": "+12127416699", "url": "https://www.yelp.com/biz/annisa-new-york?adjust_creative=gBcvfFpabk3CnzmXKdYe3w&utm_campaign=yelp_api_v3&utm_medium=api_v3_business_search&utm_source=gBcvfFpabk3CnzmXKdYe3w", "name": "Annisa", "location": {"display_address": ["13 Barrow St", "New York, NY 10014"], "country": "US", "state": "NY", "address3": "", "address2": "", "address1": "13 Barrow St", "city": "New York", "zip_code": "10014"}, "is_closed": false, "review_count": 513, "coordinates": {"latitude": 40.732661, "longitude": -74.0024}, "id": "annisa-new-york", "image_url": "https://s3-media1.fl.yelpcdn.com/bphoto/r2q7__v22KpqR4xiJBNiFA/o.jpg", "categories": [{"alias": "newamerican", "title": "American (New)"}], "rating": 4.5}, {"transactions": ["pickup"], "distance": 2582.550867378, "price": "$", "display_phone": "(212) 388-1688", "phone": "+12123881688", "url": "https://www.yelp.com/biz/xe-may-sandwich-shop-new-york?adjust_creative=gBcvfFpabk3CnzmXKdYe3w&utm_campaign=yelp_api_v3&utm_medium=api_v3_business_search&utm_source=gBcvfFpabk3CnzmXKdYe3w", "name": "Xe May Sandwich Shop", "location": {"display_address": ["96 Saint Marks Pl", "New York, NY 10009"], "country": "US", "state": "NY", "address3": "", "address2": null, "address1": "96 Saint Marks Pl", "city": "New York", "zip_code": "10009"}, "is_closed": false, "review_count": 504, "coordinates": {"latitude": 40.7275325, "longitude": -73.9848195}, "id": "xe-may-sandwich-shop-new-york", "image_url": "https://s3-media2.fl.yelpcdn.com/bphoto/LX6JylcBARe3hXoyCADYFw/o.jpg", "categories": [{"alias": "sandwiches", "title": "Sandwiches"}, {"alias": "vietnamese", "title": "Vietnamese"}], "rating": 4.5}, {"transactions": [], "distance": 3398.0773140839997, "price": "$$", "display_phone": "(718) 622-6644", "phone": "+17186226644", "url": "https://www.yelp.com/biz/blueprint-brooklyn-2?adjust_creative=gBcvfFpabk3CnzmXKdYe3w&utm_campaign=yelp_api_v3&utm_medium=api_v3_business_search&utm_source=gBcvfFpabk3CnzmXKdYe3w", "name": "Blueprint", "location": {"display_address": ["196 5th Ave", "Brooklyn, NY 11217"], "country": "US", "state": "NY", "address3": "", "address2": "", "address1": "196 5th Ave", "city": "Brooklyn", "zip_code": "11217"}, "is_closed": false, "review_count": 231, "coordinates": {"latitude": 40.676898, "longitude": -73.980407}, "id": "blueprint-brooklyn-2", "image_url": "https://s3-media1.fl.yelpcdn.com/bphoto/5DnK726CEzlYy5P-nJlVZw/o.jpg", "categories": [{"alias": "cocktailbars", "title": "Cocktail Bars"}], "rating": 4.5}, {"transactions": [], "distance": 2602.838368352, "price": "$", "display_phone": "(212) 677-7160", "phone": "+12126777160", "url": "https://www.yelp.com/biz/streecha-new-york?adjust_creative=gBcvfFpabk3CnzmXKdYe3w&utm_campaign=yelp_api_v3&utm_medium=api_v3_business_search&utm_source=gBcvfFpabk3CnzmXKdYe3w", "name": "Streecha", "location": {"display_address": ["33 E 7th St", "New York, NY 10003"], "country": "US", "state": "NY", "address3": "", "address2": "", "address1": "33 E 7th St", "city": "New York", "zip_code": "10003"}, "is_closed": false, "review_count": 92, "coordinates": {"latitude": 40.728496, "longitude": -73.9889284}, "id": "streecha-new-york", "image_url": "https://s3-media2.fl.yelpcdn.com/bphoto/YE6CcBydxLUQheS1GhZkGw/o.jpg", "categories": [{"alias": "ukrainian", "title": "Ukrainian"}], "rating": 4.5}, {"transactions": [], "distance": 2279.228257802, "price": "$$", "display_phone": "(347) 889-5338", "phone": "+13478895338", "url": "https://www.yelp.com/biz/red-lantern-bicycles-brooklyn?adjust_creative=gBcvfFpabk3CnzmXKdYe3w&utm_campaign=yelp_api_v3&utm_medium=api_v3_business_search&utm_source=gBcvfFpabk3CnzmXKdYe3w", "name": "Red Lantern Bicycles", "location": {"display_address": ["345 Myrtle Ave", "Brooklyn, NY 11205"], "country": "US", "state": "NY", "address3": "", "address2": null, "address1": "345 Myrtle Ave", "city": "Brooklyn", "zip_code": "11205"}, "is_closed": false, "review_count": 149, "coordinates": {"latitude": 40.6934509, "longitude": -73.9724197}, "id": "red-lantern-bicycles-brooklyn", "image_url": "https://s3-media1.fl.yelpcdn.com/bphoto/cd9anhJdGpMCqKgIwiOVNQ/o.jpg", "categories": [{"alias": "bikes", "title": "Bikes"}, {"alias": "coffee", "title": "Coffee & Tea"}, {"alias": "bars", "title": "Bars"}], "rating": 4.5}, {"transactions": [], "distance": 1930.336864258, "price": "$$", "display_phone": "(212) 965-0500", "phone": "+12129650500", "url": "https://www.yelp.com/biz/rubirosa-new-york-2?adjust_creative=gBcvfFpabk3CnzmXKdYe3w&utm_campaign=yelp_api_v3&utm_medium=api_v3_business_search&utm_source=gBcvfFpabk3CnzmXKdYe3w", "name": "Rubirosa", "location": {"display_address": ["235 Mulberry St", "New York, NY 10012"], "country": "US", "state": "NY", "address3": "", "address2": "", "address1": "235 Mulberry St", "city": "New York", "zip_code": "10012"}, "is_closed": false, "review_count": 1169, "coordinates": {"latitude": 40.7227554321289, "longitude": -73.996223449707}, "id": "rubirosa-new-york-2", "image_url": "https://s3-media3.fl.yelpcdn.com/bphoto/MFfTWVgXceRM1qONQPSXbQ/o.jpg", "categories": [{"alias": "italian", "title": "Italian"}, {"alias": "pizza", "title": "Pizza"}], "rating": 4.0}, {"transactions": ["pickup"], "distance": 6175.04321269, "price": "$$", "display_phone": "(212) 256-0170", "phone": "+12122560170", "url": "https://www.yelp.com/biz/samba-kitchen-and-bar-new-york?adjust_creative=gBcvfFpabk3CnzmXKdYe3w&utm_campaign=yelp_api_v3&utm_medium=api_v3_business_search&utm_source=gBcvfFpabk3CnzmXKdYe3w", "name": "Samba Kitchen & Bar", "location": {"display_address": ["661 9th Ave", "New York, NY 10036"], "country": "US", "state": "NY", "address3": "", "address2": "", "address1": "661 9th Ave", "city": "New York", "zip_code": "10036"}, "is_closed": false, "review_count": 148, "coordinates": {"latitude": 40.760948, "longitude": -73.991149}, "id": "samba-kitchen-and-bar-new-york", "image_url": "https://s3-media2.fl.yelpcdn.com/bphoto/KRWY0TwZ62KthSDqO90FNQ/o.jpg", "categories": [{"alias": "cocktailbars", "title": "Cocktail Bars"}, {"alias": "brazilian", "title": "Brazilian"}, {"alias": "breakfast_brunch", "title": "Breakfast & Brunch"}], "rating": 4.5}, {"transactions": [], "distance": 1782.146744916, "price": "$$$", "display_phone": "(212) 941-9401", "phone": "+12129419401", "url": "https://www.yelp.com/biz/marc-forgione-new-york-2?adjust_creative=gBcvfFpabk3CnzmXKdYe3w&utm_campaign=yelp_api_v3&utm_medium=api_v3_business_search&utm_source=gBcvfFpabk3CnzmXKdYe3w", "name": "Marc Forgione", "location": {"display_address": ["134 Reade St", "New York, NY 10013"], "country": "US", "state": "NY", "address3": "", "address2": "", "address1": "134 Reade St", "city": "New York", "zip_code": "10013"}, "is_closed": false, "review_count": 745, "coordinates": {"latitude": 40.716529, "longitude": -74.009559}, "id": "marc-forgione-new-york-2", "image_url": "https://s3-media2.fl.yelpcdn.com/bphoto/yQox1b4kz8M4fK5chZmQKQ/o.jpg", "categories": [{"alias": "newamerican", "title": "American (New)"}], "rating": 4.0}, {"transactions": [], "distance": 1493.980416658, "price": "$$", "display_phone": "(212) 780-9600", "phone": "+12127809600", "url": "https://www.yelp.com/biz/excuse-my-french-new-york?adjust_creative=gBcvfFpabk3CnzmXKdYe3w&utm_campaign=yelp_api_v3&utm_medium=api_v3_business_search&utm_source=gBcvfFpabk3CnzmXKdYe3w", "name": "Excuse My French", "location": {"display_address": ["96 Orchard St", "New York, NY 10002"], "country": "US", "state": "NY", "address3": "", "address2": "", "address1": "96 Orchard St", "city": "New York", "zip_code": "10002"}, "is_closed": false, "review_count": 143, "coordinates": {"latitude": 40.71844, "longitude": -73.98981}, "id": "excuse-my-french-new-york", "image_url": "https://s3-media4.fl.yelpcdn.com/bphoto/wmaT0GMRL04lzzrgP1ALcw/o.jpg", "categories": [{"alias": "bars", "title": "Bars"}, {"alias": "tapas", "title": "Tapas Bars"}, {"alias": "french", "title": "French"}], "rating": 4.5}, {"transactions": [], "distance": 3706.8464130219995, "price": "$$", "display_phone": "(929) 295-9790", "phone": "+19292959790", "url": "https://www.yelp.com/biz/il-sogno-secondo-brooklyn?adjust_creative=gBcvfFpabk3CnzmXKdYe3w&utm_campaign=yelp_api_v3&utm_medium=api_v3_business_search&utm_source=gBcvfFpabk3CnzmXKdYe3w", "name": "Il Sogno Secondo", "location": {"display_address": ["310 5th Ave", "Brooklyn, NY 11215"], "country": "US", "state": "NY", "address3": null, "address2": "", "address1": "310 5th Ave", "city": "Brooklyn", "zip_code": "11215"}, "is_closed": false, "review_count": 63, "coordinates": {"latitude": 40.67329, "longitude": -73.98307}, "id": "il-sogno-secondo-brooklyn", "image_url": "https://s3-media3.fl.yelpcdn.com/bphoto/HUoL2MySIsTLRyk-US6D7A/o.jpg", "categories": [{"alias": "italian", "title": "Italian"}, {"alias": "peruvian", "title": "Peruvian"}], "rating": 4.5}, {"transactions": [], "distance": 2514.8132639759997, "price": "$$", "display_phone": "(212) 387-8487", "phone": "+12123878487", "url": "https://www.yelp.com/biz/lukes-lobster-east-village-new-york?adjust_creative=gBcvfFpabk3CnzmXKdYe3w&utm_campaign=yelp_api_v3&utm_medium=api_v3_business_search&utm_source=gBcvfFpabk3CnzmXKdYe3w", "name": "Luke's Lobster East Village", "location": {"display_address": ["93 E 7th St", "New York, NY 10009"], "country": "US", "state": "NY", "address3": "", "address2": "", "address1": "93 E 7th St", "city": "New York", "zip_code": "10009"}, "is_closed": false, "review_count": 1416, "coordinates": {"latitude": 40.7269401550293, "longitude": -73.9852600097656}, "id": "lukes-lobster-east-village-new-york", "image_url": "https://s3-media3.fl.yelpcdn.com/bphoto/L3mj2O0-mqmX69oA9pdmMA/o.jpg", "categories": [{"alias": "seafood", "title": "Seafood"}], "rating": 4.0}, {"transactions": ["delivery", "pickup"], "distance": 1532.4635984739998, "price": "$", "display_phone": "(347) 276-5103", "phone": "+13472765103", "url": "https://www.yelp.com/biz/goa-taco-new-york?adjust_creative=gBcvfFpabk3CnzmXKdYe3w&utm_campaign=yelp_api_v3&utm_medium=api_v3_business_search&utm_source=gBcvfFpabk3CnzmXKdYe3w", "name": "goa taco", "location": {"display_address": ["79 Delancey St", "New York, NY 10002"], "country": "US", "state": "NY", "address3": "", "address2": null, "address1": "79 Delancey St", "city": "New York", "zip_code": "10002"}, "is_closed": false, "review_count": 354, "coordinates": {"latitude": 40.71887, "longitude": -73.99003}, "id": "goa-taco-new-york", "image_url": "https://s3-media1.fl.yelpcdn.com/bphoto/e0wfnyBWhd__pXOOzheH3Q/o.jpg", "categories": [{"alias": "hotdogs", "title": "Fast Food"}, {"alias": "tacos", "title": "Tacos"}, {"alias": "indpak", "title": "Indian"}], "rating": 4.5}, {"transactions": ["delivery", "pickup"], "distance": 2288.2581036079996, "price": "$$$$", "display_phone": "(212) 274-0428", "phone": "+12122740428", "url": "https://www.yelp.com/biz/sushi-azabu-new-york?adjust_creative=gBcvfFpabk3CnzmXKdYe3w&utm_campaign=yelp_api_v3&utm_medium=api_v3_business_search&utm_source=gBcvfFpabk3CnzmXKdYe3w", "name": "Sushi Azabu", "location": {"display_address": ["428 Greenwich St", "New York, NY 10013"], "country": "US", "state": "NY", "address3": "", "address2": "", "address1": "428 Greenwich St", "city": "New York", "zip_code": "10013"}, "is_closed": false, "review_count": 355, "coordinates": {"latitude": 40.7222930324682, "longitude": -74.0098838048935}, "id": "sushi-azabu-new-york", "image_url": "https://s3-media2.fl.yelpcdn.com/bphoto/2vfPoY6FTyn44akUMyMUvg/o.jpg", "categories": [{"alias": "sushi", "title": "Sushi Bars"}, {"alias": "japanese", "title": "Japanese"}], "rating": 4.0}, {"transactions": [], "distance": 1854.6961139839998, "price": "$$", "display_phone": "(212) 933-4853", "phone": "+12129334853", "url": "https://www.yelp.com/biz/harney-and-sons-soho-new-york?adjust_creative=gBcvfFpabk3CnzmXKdYe3w&utm_campaign=yelp_api_v3&utm_medium=api_v3_business_search&utm_source=gBcvfFpabk3CnzmXKdYe3w", "name": "Harney & Sons SoHo", "location": {"display_address": ["433 Broome St", "Ground Fl", "New York, NY 10013"], "country": "US", "state": "NY", "address3": "Ground Fl", "address2": "", "address1": "433 Broome St", "city": "New York", "zip_code": "10013"}, "is_closed": false, "review_count": 550, "coordinates": {"latitude": 40.721623475038, "longitude": -73.9996463082596}, "id": "harney-and-sons-soho-new-york", "image_url": "https://s3-media3.fl.yelpcdn.com/bphoto/EsbhPvxmHYfGPKsJtD9szw/o.jpg", "categories": [{"alias": "coffee", "title": "Coffee & Tea"}], "rating": 4.5}, {"transactions": [], "distance": 1040.764684152, "price": "$", "display_phone": "(212) 965-1206", "phone": "+12129651206", "url": "https://www.yelp.com/biz/ling-kee-beef-jerky-new-york?adjust_creative=gBcvfFpabk3CnzmXKdYe3w&utm_campaign=yelp_api_v3&utm_medium=api_v3_business_search&utm_source=gBcvfFpabk3CnzmXKdYe3w", "name": "Ling Kee Beef Jerky", "location": {"display_address": ["42 Canal St", "New York, NY 10002"], "country": "US", "state": "NY", "address3": "", "address2": "", "address1": "42 Canal St", "city": "New York", "zip_code": "10002"}, "is_closed": false, "review_count": 114, "coordinates": {"latitude": 40.71466, "longitude": -73.99148}, "id": "ling-kee-beef-jerky-new-york", "image_url": "https://s3-media4.fl.yelpcdn.com/bphoto/lbY5-3K28GGYTc8LgyY7cA/o.jpg", "categories": [{"alias": "chinese", "title": "Chinese"}, {"alias": "bbq", "title": "Barbeque"}], "rating": 4.5}, {"transactions": [], "distance": 1911.485377366, "price": "$$$$", "display_phone": "(212) 981-8577", "phone": "+12129818577", "url": "https://www.yelp.com/biz/l-appart-new-york?adjust_creative=gBcvfFpabk3CnzmXKdYe3w&utm_campaign=yelp_api_v3&utm_medium=api_v3_business_search&utm_source=gBcvfFpabk3CnzmXKdYe3w", "name": "L'Appart", "location": {"display_address": ["225 Liberty St", "New York, NY 10281"], "country": "US", "state": "NY", "address3": "", "address2": "", "address1": "225 Liberty St", "city": "New York", "zip_code": "10281"}, "is_closed": false, "review_count": 35, "coordinates": {"latitude": 40.71156, "longitude": -74.01533}, "id": "l-appart-new-york", "image_url": "https://s3-media3.fl.yelpcdn.com/bphoto/pIF9lijcHQgLHMU9iQ6HIw/o.jpg", "categories": [{"alias": "french", "title": "French"}], "rating": 5.0}, {"transactions": ["delivery", "pickup"], "distance": 3666.36298252, "price": "$$", "display_phone": "(718) 388-5081", "phone": "+17183885081", "url": "https://www.yelp.com/biz/musashi-asian-cuisine-brooklyn-2?adjust_creative=gBcvfFpabk3CnzmXKdYe3w&utm_campaign=yelp_api_v3&utm_medium=api_v3_business_search&utm_source=gBcvfFpabk3CnzmXKdYe3w", "name": "Musashi Asian Cuisine", "location": {"display_address": ["495 Grand St", "Brooklyn, NY 11211"], "country": "US", "state": "NY", "address3": "", "address2": null, "address1": "495 Grand St", "city": "Brooklyn", "zip_code": "11211"}, "is_closed": false, "review_count": 57, "coordinates": {"latitude": 40.7111358642578, "longitude": -73.9514236450195}, "id": "musashi-asian-cuisine-brooklyn-2", "image_url": "https://s3-media2.fl.yelpcdn.com/bphoto/ugpY6Vn5T5HfwuOW5Pn51g/o.jpg", "categories": [{"alias": "japanese", "title": "Japanese"}, {"alias": "sushi", "title": "Sushi Bars"}, {"alias": "asianfusion", "title": "Asian Fusion"}], "rating": 4.5}, {"transactions": [], "distance": 1922.3910698759998, "price": "$$$", "display_phone": "(212) 966-9983", "phone": "+12129669983", "url": "https://www.yelp.com/biz/pepolino-restaurant-new-york?adjust_creative=gBcvfFpabk3CnzmXKdYe3w&utm_campaign=yelp_api_v3&utm_medium=api_v3_business_search&utm_source=gBcvfFpabk3CnzmXKdYe3w", "name": "Pepolino Restaurant", "location": {"display_address": ["281 W Broadway", "New York, NY 10013"], "country": "US", "state": "NY", "address3": "", "address2": "", "address1": "281 W Broadway", "city": "New York", "zip_code": "10013"}, "is_closed": false, "review_count": 384, "coordinates": {"latitude": 40.72077, "longitude": -74.00489}, "id": "pepolino-restaurant-new-york", "image_url": "https://s3-media2.fl.yelpcdn.com/bphoto/Q7zh-Y-_kmLgeMCejYk-iQ/o.jpg", "categories": [{"alias": "italian", "title": "Italian"}], "rating": 4.5}, {"transactions": ["delivery", "pickup"], "distance": 2339.027469786, "price": "$$", "display_phone": "(718) 218-9272", "phone": "+17182189272", "url": "https://www.yelp.com/biz/patrizias-brooklyn?adjust_creative=gBcvfFpabk3CnzmXKdYe3w&utm_campaign=yelp_api_v3&utm_medium=api_v3_business_search&utm_source=gBcvfFpabk3CnzmXKdYe3w", "name": "Patrizia's", "location": {"display_address": ["35 Broadway", "Brooklyn, NY 11249"], "country": "US", "state": "NY", "address3": "", "address2": "", "address1": "35 Broadway", "city": "Brooklyn", "zip_code": "11249"}, "is_closed": false, "review_count": 393, "coordinates": {"latitude": 40.710939, "longitude": -73.967504}, "id": "patrizias-brooklyn", "image_url": "https://s3-media3.fl.yelpcdn.com/bphoto/dPDO3FFSNd46ylJOPKzVkg/o.jpg", "categories": [{"alias": "pizza", "title": "Pizza"}, {"alias": "italian", "title": "Italian"}, {"alias": "seafood", "title": "Seafood"}], "rating": 4.0}, {"transactions": [], "distance": 2063.1423369359995, "price": "$$", "display_phone": "(917) 909-0850", "phone": "+19179090850", "url": "https://www.yelp.com/biz/bornholm-brooklyn-2?adjust_creative=gBcvfFpabk3CnzmXKdYe3w&utm_campaign=yelp_api_v3&utm_medium=api_v3_business_search&utm_source=gBcvfFpabk3CnzmXKdYe3w", "name": "Bornholm", "location": {"display_address": ["138 Smith St", "Brooklyn, NY 11201"], "country": "US", "state": "NY", "address3": "", "address2": null, "address1": "138 Smith St", "city": "Brooklyn", "zip_code": "11201"}, "is_closed": false, "review_count": 81, "coordinates": {"latitude": 40.68715, "longitude": -73.9905}, "id": "bornholm-brooklyn-2", "image_url": "https://s3-media2.fl.yelpcdn.com/bphoto/JUBbi3INfJ99wUV4T1vFgA/o.jpg", "categories": [{"alias": "breakfast_brunch", "title": "Breakfast & Brunch"}, {"alias": "burgers", "title": "Burgers"}, {"alias": "scandinavian", "title": "Scandinavian"}], "rating": 4.5}, {"transactions": ["delivery", "pickup"], "distance": 1586.2369586959999, "price": "$$", "display_phone": "(212) 219-4080", "phone": "+12122194080", "url": "https://www.yelp.com/biz/piacere-new-york?adjust_creative=gBcvfFpabk3CnzmXKdYe3w&utm_campaign=yelp_api_v3&utm_medium=api_v3_business_search&utm_source=gBcvfFpabk3CnzmXKdYe3w", "name": "Piacere", "location": {"display_address": ["351 Broome St", "New York, NY 10013"], "country": "US", "state": "NY", "address3": "", "address2": "", "address1": "351 Broome St", "city": "New York", "zip_code": "10013"}, "is_closed": false, "review_count": 506, "coordinates": {"latitude": 40.7196979, "longitude": -73.9951175}, "id": "piacere-new-york", "image_url": "https://s3-media2.fl.yelpcdn.com/bphoto/oXj0kNvnYFrl5YX1GAlHfQ/o.jpg", "categories": [{"alias": "pizza", "title": "Pizza"}, {"alias": "italian", "title": "Italian"}], "rating": 4.0}, {"transactions": [], "distance": 3019.334111946, "price": "$$", "display_phone": "(347) 223-4410", "phone": "+13472234410", "url": "https://www.yelp.com/biz/the-royal-palms-shuffleboard-club-brooklyn-2?adjust_creative=gBcvfFpabk3CnzmXKdYe3w&utm_campaign=yelp_api_v3&utm_medium=api_v3_business_search&utm_source=gBcvfFpabk3CnzmXKdYe3w", "name": "The Royal Palms Shuffleboard Club", "location": {"display_address": ["514 Union St", "Brooklyn, NY 11215"], "country": "US", "state": "NY", "address3": "", "address2": "", "address1": "514 Union St", "city": "Brooklyn", "zip_code": "11215"}, "is_closed": false, "review_count": 253, "coordinates": {"latitude": 40.6788624899903, "longitude": -73.9869758019173}, "id": "the-royal-palms-shuffleboard-club-brooklyn-2", "image_url": "https://s3-media2.fl.yelpcdn.com/bphoto/onEbz-VF099IY78IIjPKkw/o.jpg", "categories": [{"alias": "cocktailbars", "title": "Cocktail Bars"}], "rating": 4.5}, {"transactions": [], "distance": 1836.4428187699998, "price": "$$$$", "display_phone": "(212) 528-0400", "phone": "+12125280400", "url": "https://www.yelp.com/biz/scalini-fedeli-new-york?adjust_creative=gBcvfFpabk3CnzmXKdYe3w&utm_campaign=yelp_api_v3&utm_medium=api_v3_business_search&utm_source=gBcvfFpabk3CnzmXKdYe3w", "name": "Scalini Fedeli", "location": {"display_address": ["165 Duane St", "New York, NY 10013"], "country": "US", "state": "NY", "address3": "", "address2": "", "address1": "165 Duane St", "city": "New York", "zip_code": "10013"}, "is_closed": false, "review_count": 248, "coordinates": {"latitude": 40.7173964385114, "longitude": -74.0093277537459}, "id": "scalini-fedeli-new-york", "image_url": "https://s3-media2.fl.yelpcdn.com/bphoto/QY2XgNpHhUFJteTacLoQ1Q/o.jpg", "categories": [{"alias": "italian", "title": "Italian"}], "rating": 4.5}, {"transactions": [], "distance": 2111.88377378, "price": "$", "display_phone": "(212) 505-8183", "phone": "+12125058183", "url": "https://www.yelp.com/biz/nuyorican-poets-cafe-new-york?adjust_creative=gBcvfFpabk3CnzmXKdYe3w&utm_campaign=yelp_api_v3&utm_medium=api_v3_business_search&utm_source=gBcvfFpabk3CnzmXKdYe3w", "name": "Nuyorican Poets Cafe", "location": {"display_address": ["236 E 3rd St", "New York, NY 10009"], "country": "US", "state": "NY", "address3": "", "address2": "", "address1": "236 E 3rd St", "city": "New York", "zip_code": "10009"}, "is_closed": false, "review_count": 224, "coordinates": {"latitude": 40.72194, "longitude": -73.98183}, "id": "nuyorican-poets-cafe-new-york", "image_url": "https://s3-media2.fl.yelpcdn.com/bphoto/zwjtsdJNnb1UAwaO2kGhyA/o.jpg", "categories": [{"alias": "bars", "title": "Bars"}, {"alias": "theater", "title": "Performing Arts"}], "rating": 4.0}, {"transactions": [], "distance": 7180.597146982001, "price": "$$$$", "display_phone": "(212) 288-0033", "phone": "+12122880033", "url": "https://www.yelp.com/biz/daniel-new-york-4?adjust_creative=gBcvfFpabk3CnzmXKdYe3w&utm_campaign=yelp_api_v3&utm_medium=api_v3_business_search&utm_source=gBcvfFpabk3CnzmXKdYe3w", "name": "Daniel", "location": {"display_address": ["60 E 65th St.", "New York, NY 10065"], "country": "US", "state": "NY", "address3": "", "address2": "", "address1": "60 E 65th St.", "city": "New York", "zip_code": "10065"}, "is_closed": false, "review_count": 1244, "coordinates": {"latitude": 40.7667736797858, "longitude": -73.967607}, "id": "daniel-new-york-4", "image_url": "https://s3-media3.fl.yelpcdn.com/bphoto/LasG7T2JB_8FicF0SDbRMA/o.jpg", "categories": [{"alias": "french", "title": "French"}, {"alias": "tradamerican", "title": "American (Traditional)"}, {"alias": "cocktailbars", "title": "Cocktail Bars"}], "rating": 4.5}, {"transactions": [], "distance": 1707.4527693639998, "price": "$$$", "display_phone": "(212) 343-3660", "phone": "+12123433660", "url": "https://www.yelp.com/biz/compagnie-des-vins-surnaturels-new-york-2?adjust_creative=gBcvfFpabk3CnzmXKdYe3w&utm_campaign=yelp_api_v3&utm_medium=api_v3_business_search&utm_source=gBcvfFpabk3CnzmXKdYe3w", "name": "Compagnie des Vins Surnaturels", "location": {"display_address": ["249 Ctr St", "New York, NY 10013"], "country": "US", "state": "NY", "address3": "", "address2": "", "address1": "249 Ctr St", "city": "New York", "zip_code": "10013"}, "is_closed": false, "review_count": 70, "coordinates": {"latitude": 40.7205157, "longitude": -73.9981652}, "id": "compagnie-des-vins-surnaturels-new-york-2", "image_url": "https://s3-media1.fl.yelpcdn.com/bphoto/vaT4LC4TEcbEejAFoNWWOg/o.jpg", "categories": [{"alias": "wine_bars", "title": "Wine Bars"}, {"alias": "french", "title": "French"}, {"alias": "newamerican", "title": "American (New)"}], "rating": 4.5}, {"transactions": [], "distance": 7040.32498044, "price": "$$$$", "display_phone": "(212) 823-9335", "phone": "+12128239335", "url": "https://www.yelp.com/biz/per-se-new-york?adjust_creative=gBcvfFpabk3CnzmXKdYe3w&utm_campaign=yelp_api_v3&utm_medium=api_v3_business_search&utm_source=gBcvfFpabk3CnzmXKdYe3w", "name": "Per Se", "location": {"display_address": ["10 Columbus Cir", "Fl 4", "Time Warner Ctr", "New York, NY 10019"], "country": "US", "state": "NY", "address3": "Time Warner Ctr", "address2": "Fl 4", "address1": "10 Columbus Cir", "city": "New York", "zip_code": "10019"}, "is_closed": false, "review_count": 1241, "coordinates": {"latitude": 40.7681528889558, "longitude": -73.9827629623657}, "id": "per-se-new-york", "image_url": "https://s3-media1.fl.yelpcdn.com/bphoto/ILP6ea-RW8l-kfNBftbqvA/o.jpg", "categories": [{"alias": "french", "title": "French"}], "rating": 4.5}, {"transactions": [], "distance": 2745.4526073959996, "price": "$$", "display_phone": "(212) 777-7018", "phone": "+12127777018", "url": "https://www.yelp.com/biz/hi-collar-new-york-2?adjust_creative=gBcvfFpabk3CnzmXKdYe3w&utm_campaign=yelp_api_v3&utm_medium=api_v3_business_search&utm_source=gBcvfFpabk3CnzmXKdYe3w", "name": "Hi-Collar", "location": {"display_address": ["214 E 10th St", "New York, NY 10003"], "country": "US", "state": "NY", "address3": "", "address2": "", "address1": "214 E 10th St", "city": "New York", "zip_code": "10003"}, "is_closed": false, "review_count": 281, "coordinates": {"latitude": 40.7293077268171, "longitude": -73.9859368048935}, "id": "hi-collar-new-york-2", "image_url": "https://s3-media3.fl.yelpcdn.com/bphoto/rxbBg-e44o8Cfvq__qpM_w/o.jpg", "categories": [{"alias": "japanese", "title": "Japanese"}, {"alias": "coffee", "title": "Coffee & Tea"}, {"alias": "bars", "title": "Bars"}], "rating": 4.5}, {"transactions": [], "distance": 3090.85414715, "price": "$", "display_phone": "(718) 599-2092", "phone": "+17185992092", "url": "https://www.yelp.com/biz/duffs-brooklyn-brooklyn?adjust_creative=gBcvfFpabk3CnzmXKdYe3w&utm_campaign=yelp_api_v3&utm_medium=api_v3_business_search&utm_source=gBcvfFpabk3CnzmXKdYe3w", "name": "Duff's Brooklyn", "location": {"display_address": ["168 Marcy Ave", "Brooklyn, NY 11211"], "country": "US", "state": "NY", "address3": "", "address2": "", "address1": "168 Marcy Ave", "city": "Brooklyn", "zip_code": "11211"}, "is_closed": false, "review_count": 132, "coordinates": {"latitude": 40.70885, "longitude": -73.95787}, "id": "duffs-brooklyn-brooklyn", "image_url": "https://s3-media1.fl.yelpcdn.com/bphoto/I3Y0T_eXqR7lAplOks7BGQ/o.jpg", "categories": [{"alias": "divebars", "title": "Dive Bars"}], "rating": 4.5}, {"transactions": [], "distance": 4101.783759843999, "price": "$$", "display_phone": "(212) 727-7900", "phone": "+12127277900", "url": "https://www.yelp.com/biz/the-wild-son-new-york?adjust_creative=gBcvfFpabk3CnzmXKdYe3w&utm_campaign=yelp_api_v3&utm_medium=api_v3_business_search&utm_source=gBcvfFpabk3CnzmXKdYe3w", "name": "The Wild Son", "location": {"display_address": ["53 Little W 12th St", "New York, NY 10014"], "country": "US", "state": "NY", "address3": null, "address2": "", "address1": "53 Little W 12th St", "city": "New York", "zip_code": "10014"}, "is_closed": false, "review_count": 105, "coordinates": {"latitude": 40.74073, "longitude": -74.00836}, "id": "the-wild-son-new-york", "image_url": "https://s3-media3.fl.yelpcdn.com/bphoto/ItwW_S-JWgWK78L6deZmhg/o.jpg", "categories": [{"alias": "newamerican", "title": "American (New)"}, {"alias": "cocktailbars", "title": "Cocktail Bars"}, {"alias": "breakfast_brunch", "title": "Breakfast & Brunch"}], "rating": 4.5}, {"transactions": ["delivery", "pickup"], "distance": 1463.397323968, "price": "$$", "display_phone": "(646) 649-3374", "phone": "+16466493374", "url": "https://www.yelp.com/biz/aahar-indian-cuisine-new-york?adjust_creative=gBcvfFpabk3CnzmXKdYe3w&utm_campaign=yelp_api_v3&utm_medium=api_v3_business_search&utm_source=gBcvfFpabk3CnzmXKdYe3w", "name": "Aahar Indian Cuisine", "location": {"display_address": ["10 Murray St", "New York, NY 10007"], "country": "US", "state": "NY", "address3": "", "address2": null, "address1": "10 Murray St", "city": "New York", "zip_code": "10007"}, "is_closed": false, "review_count": 128, "coordinates": {"latitude": 40.71334, "longitude": -74.0081}, "id": "aahar-indian-cuisine-new-york", "image_url": "https://s3-media1.fl.yelpcdn.com/bphoto/7xZblDTGGIo11t9G3NZQKQ/o.jpg", "categories": [{"alias": "indpak", "title": "Indian"}], "rating": 4.5}, {"transactions": ["delivery", "pickup"], "distance": 3832.7491045720003, "price": "$$", "display_phone": "(718) 788-2288", "phone": "+17187882288", "url": "https://www.yelp.com/biz/l-albero-dei-gelati-brooklyn-2?adjust_creative=gBcvfFpabk3CnzmXKdYe3w&utm_campaign=yelp_api_v3&utm_medium=api_v3_business_search&utm_source=gBcvfFpabk3CnzmXKdYe3w", "name": "L'Albero dei Gelati", "location": {"display_address": ["341 5th Ave", "Brooklyn, NY 11215"], "country": "US", "state": "NY", "address3": "", "address2": null, "address1": "341 5th Ave", "city": "Brooklyn", "zip_code": "11215"}, "is_closed": false, "review_count": 223, "coordinates": {"latitude": 40.671932, "longitude": -73.9836569}, "id": "l-albero-dei-gelati-brooklyn-2", "image_url": "https://s3-media2.fl.yelpcdn.com/bphoto/utHfbt6YemQ0G7fek30USA/o.jpg", "categories": [{"alias": "bakeries", "title": "Bakeries"}, {"alias": "coffee", "title": "Coffee & Tea"}], "rating": 4.5}, {"transactions": [], "distance": 2368.358495956, "price": "$$$", "display_phone": "(917) 270-1815", "phone": "+19172701815", "url": "https://www.yelp.com/biz/sushi-on-jones-new-york?adjust_creative=gBcvfFpabk3CnzmXKdYe3w&utm_campaign=yelp_api_v3&utm_medium=api_v3_business_search&utm_source=gBcvfFpabk3CnzmXKdYe3w", "name": "Sushi on Jones", "location": {"display_address": ["348 Bowery", "New York, NY 10012"], "country": "US", "state": "NY", "address3": "", "address2": "", "address1": "348 Bowery", "city": "New York", "zip_code": "10012"}, "is_closed": false, "review_count": 158, "coordinates": {"latitude": 40.726677, "longitude": -73.992076}, "id": "sushi-on-jones-new-york", "image_url": "https://s3-media1.fl.yelpcdn.com/bphoto/UfBQvVSALbUQVy8LLmeXCw/o.jpg", "categories": [{"alias": "sushi", "title": "Sushi Bars"}], "rating": 4.5}, {"transactions": [], "distance": 6032.41143184, "display_phone": "(212) 838-0528", "phone": "+12128380528", "url": "https://www.yelp.com/biz/greenacre-park-new-york?adjust_creative=gBcvfFpabk3CnzmXKdYe3w&utm_campaign=yelp_api_v3&utm_medium=api_v3_business_search&utm_source=gBcvfFpabk3CnzmXKdYe3w", "name": "Greenacre Park", "location": {"display_address": ["217 E 51st St", "New York, NY 10022"], "country": "US", "state": "NY", "address3": "", "address2": "", "address1": "217 E 51st St", "city": "New York", "zip_code": "10022"}, "is_closed": false, "review_count": 95, "coordinates": {"latitude": 40.7562713623047, "longitude": -73.9692764282227}, "id": "greenacre-park-new-york", "image_url": "https://s3-media3.fl.yelpcdn.com/bphoto/qvIcW6L41-CgdrjVs5vPZw/o.jpg", "categories": [{"alias": "parks", "title": "Parks"}], "rating": 4.5}, {"transactions": [], "distance": 3091.2133518379997, "price": "$$", "display_phone": "(718) 625-8052", "phone": "+17186258052", "url": "https://www.yelp.com/biz/defontes-brooklyn?adjust_creative=gBcvfFpabk3CnzmXKdYe3w&utm_campaign=yelp_api_v3&utm_medium=api_v3_business_search&utm_source=gBcvfFpabk3CnzmXKdYe3w", "name": "Defontes", "location": {"display_address": ["379 Columbia St", "Brooklyn, NY 11231"], "country": "US", "state": "NY", "address3": "", "address2": "", "address1": "379 Columbia St", "city": "Brooklyn", "zip_code": "11231"}, "is_closed": false, "review_count": 241, "coordinates": {"latitude": 40.6789444357833, "longitude": -74.0053691263199}, "id": "defontes-brooklyn", "image_url": "https://s3-media3.fl.yelpcdn.com/bphoto/5ugsEHkNCFE3Y-EFTV9ypQ/o.jpg", "categories": [{"alias": "sandwiches", "title": "Sandwiches"}], "rating": 4.5}, {"transactions": [], "distance": 1431.143253556, "price": "$$", "display_phone": "(646) 422-7906", "phone": "+16464227906", "url": "https://www.yelp.com/biz/the-dead-rabbit-new-york?adjust_creative=gBcvfFpabk3CnzmXKdYe3w&utm_campaign=yelp_api_v3&utm_medium=api_v3_business_search&utm_source=gBcvfFpabk3CnzmXKdYe3w", "name": "The Dead Rabbit", "location": {"display_address": ["30 Water St", "New York, NY 10004"], "country": "US", "state": "NY", "address3": "", "address2": "", "address1": "30 Water St", "city": "New York", "zip_code": "10004"}, "is_closed": false, "review_count": 979, "coordinates": {"latitude": 40.70329, "longitude": -74.01102}, "id": "the-dead-rabbit-new-york", "image_url": "https://s3-media3.fl.yelpcdn.com/bphoto/sMgLscPWORntrFI7p8bK7w/o.jpg", "categories": [{"alias": "bars", "title": "Bars"}, {"alias": "irish", "title": "Irish"}], "rating": 4.0}, {"transactions": [], "distance": 1559.0789116741998, "price": "$", "display_phone": "(212) 941-1541", "phone": "+12129411541", "url": "https://www.yelp.com/biz/banh-mi-saigon-new-york?adjust_creative=gBcvfFpabk3CnzmXKdYe3w&utm_campaign=yelp_api_v3&utm_medium=api_v3_business_search&utm_source=gBcvfFpabk3CnzmXKdYe3w", "name": "Banh Mi Saigon", "location": {"display_address": ["198 Grand St", "New York, NY 10013"], "country": "US", "state": "NY", "address3": "", "address2": "", "address1": "198 Grand St", "city": "New York", "zip_code": "10013"}, "is_closed": false, "review_count": 1220, "coordinates": {"latitude": 40.71936, "longitude": -73.996673}, "id": "banh-mi-saigon-new-york", "image_url": "https://s3-media3.fl.yelpcdn.com/bphoto/o1bCs1LlqW5yKj54dtSoWg/o.jpg", "categories": [{"alias": "vietnamese", "title": "Vietnamese"}, {"alias": "sandwiches", "title": "Sandwiches"}], "rating": 4.0}, {"transactions": [], "distance": 2408.18177519, "price": "$$", "display_phone": "(212) 614-6818", "phone": "+12126146818", "url": "https://www.yelp.com/biz/amor-y-amargo-new-york?adjust_creative=gBcvfFpabk3CnzmXKdYe3w&utm_campaign=yelp_api_v3&utm_medium=api_v3_business_search&utm_source=gBcvfFpabk3CnzmXKdYe3w", "name": "Amor y Amargo", "location": {"display_address": ["443 E 6th St", "New York, NY 10009"], "country": "US", "state": "NY", "address3": "", "address2": "", "address1": "443 E 6th St", "city": "New York", "zip_code": "10009"}, "is_closed": false, "review_count": 359, "coordinates": {"latitude": 40.725727, "longitude": -73.984283}, "id": "amor-y-amargo-new-york", "image_url": "https://s3-media4.fl.yelpcdn.com/bphoto/V-b0GhrofnjVxw4ahtHvfQ/o.jpg", "categories": [{"alias": "cocktailbars", "title": "Cocktail Bars"}], "rating": 4.5}], "total": 131356}