{"region": {"center": {"latitude": 40.70544486444615, "longitude": -73.99429321289062}}, "businesses": [{"transactions": ["delivery", "pickup"], "distance": 1891.4930293480002, "price": "$", "display_phone": "(212) 460-9383", "phone": "+12124609383", "url": "https://www.yelp.com/biz/cheese-grille-new-york?adjust_creative=gBcvfFpabk3CnzmXKdYe3w&utm_campaign=yelp_api_v3&utm_medium=api_v3_business_search&utm_source=gBcvfFpabk3CnzmXKdYe3w", "name": "Cheese Grille", "location": {"display_address": ["188 Allen St", "New York, NY 10002"], "country": "US", "state": "NY", "address3": "", "address2": "", "address1": "188 Allen St", "city": "New York", "zip_code": "10002"}, "is_closed": false, "review_count": 319, "coordinates": {"latitude": 40.7219115, "longitude": -73.9886709}, "id": "cheese-grille-new-york", "image_url": "https://s3-media3.fl.yelpcdn.com/bphoto/GsPzRIcD5GhmLh6PBFOTFg/o.jpg", "categories": [{"alias": "tradamerican", "title": "American (Traditional)"}, {"alias": "comfortfood", "title": "Comfort Food"}, {"alias": "sandwiches", "title": "Sandwiches"}], "rating": 4.5}, {"transactions": ["delivery", "pickup"], "distance": 2625.687777672, "price": "$$", "display_phone": "(212) 533-7290", "phone": "+12125337290", "url": "https://www.yelp.com/biz/ahimsa-new-york?adjust_creative=gBcvfFpabk3CnzmXKdYe3w&utm_campaign=yelp_api_v3&utm_medium=api_v3_business_search&utm_source=gBcvfFpabk3CnzmXKdYe3w", "name": "Ahimsa", "location": {"display_address": ["210 Thompson St", "New York, NY 10012"], "country": "US", "state": "NY", "address3": "", "address2": null, "address1": "210 Thompson St", "city": "New York", "zip_code": "10012"}, "is_closed": false, "review_count": 131, "coordinates": {"latitude": 40.72878, "longitude": -73.99924}, "id": "ahimsa-new-york", "image_url": "https://s3-media2.fl.yelpcdn.com/bphoto/ZllaFDTKvfOhX6eL8nby4w/o.jpg", "categories": [{"alias": "indpak", "title": "Indian"}, {"alias": "vegetarian", "title": "Vegetarian"}, {"alias": "kosher", "title": "Kosher"}], "rating": 4.5}, {"transactions": [], "distance": 2902.034630168, "price": "$$$", "display_phone": "", "phone": "", "url": "https://www.yelp.com/biz/dinnertable-new-york?adjust_creative=gBcvfFpabk3CnzmXKdYe3w&utm_campaign=yelp_api_v3&utm_medium=api_v3_business_search&utm_source=gBcvfFpabk3CnzmXKdYe3w", "name": "Dinnertable", "location": {"display_address": ["206 Ave A", "New York, NY 10009"], "country": "US", "state": "NY", "address3": "", "address2": "", "address1": "206 Ave A", "city": "New York", "zip_code": "10009"}, "is_closed": false, "review_count": 80, "coordinates": {"latitude": 40.72945, "longitude": -73.9807}, "id": "dinnertable-new-york", "image_url": "https://s3-media3.fl.yelpcdn.com/bphoto/_GqVr4ZnAWqLNcZlyJuNew/o.jpg", "categories": [{"alias": "cocktailbars", "title": "Cocktail Bars"}, {"alias": "japanese", "title": "Japanese"}, {"alias": "asianfusion", "title": "Asian Fusion"}], "rating": 4.5}, {"transactions": [], "distance": 3004.4424061239997, "price": "$$", "display_phone": "(212) 414-8599", "phone": "+12124148599", "url": "https://www.yelp.com/biz/davidstea-new-york-8?adjust_creative=gBcvfFpabk3CnzmXKdYe3w&utm_campaign=yelp_api_v3&utm_medium=api_v3_business_search&utm_source=gBcvfFpabk3CnzmXKdYe3w", "name": "DavidsTea", "location": {"display_address": ["275 Bleecker St", "New York, NY 10014"], "country": "US", "state": "NY", "address3": "", "address2": "", "address1": "275 Bleecker St", "city": "New York", "zip_code": "10014"}, "is_closed": false, "review_count": 171, "coordinates": {"latitude": 40.731647, "longitude": -74.002998}, "id": "davidstea-new-york-8", "image_url": "https://s3-media2.fl.yelpcdn.com/bphoto/WFnfpu-aEQ097QFCD0Bq2Q/o.jpg", "categories": [{"alias": "coffee", "title": "Coffee & Tea"}], "rating": 4.5}, {"transactions": [], "distance": 1876.9318819619998, "price": "$", "display_phone": "", "phone": "", "url": "https://www.yelp.com/biz/boba-guys-new-york?adjust_creative=gBcvfFpabk3CnzmXKdYe3w&utm_campaign=yelp_api_v3&utm_medium=api_v3_business_search&utm_source=gBcvfFpabk3CnzmXKdYe3w", "name": "Boba Guys", "location": {"display_address": ["23 Clinton St", "New York, NY 10002"], "country": "US", "state": "NY", "address3": "", "address2": "", "address1": "23 Clinton St", "city": "New York", "zip_code": "10002"}, "is_closed": false, "review_count": 419, "coordinates": {"latitude": 40.720657, "longitude": -73.984542}, "id": "boba-guys-new-york", "image_url": "https://s3-media2.fl.yelpcdn.com/bphoto/ZqtHQdaAAdkjUzb55QSOLw/o.jpg", "categories": [{"alias": "coffee", "title": "Coffee & Tea"}, {"alias": "bubbletea", "title": "Bubble Tea"}], "rating": 4.0}, {"transactions": [], "distance": 2012.311172102, "price": "$$", "display_phone": "(718) 935-0575", "phone": "+17189350575", "url": "https://www.yelp.com/biz/ki-sushi-brooklyn?adjust_creative=gBcvfFpabk3CnzmXKdYe3w&utm_campaign=yelp_api_v3&utm_medium=api_v3_business_search&utm_source=gBcvfFpabk3CnzmXKdYe3w", "name": "Ki Sushi", "location": {"display_address": ["122 Smith St", "Brooklyn, NY 11201"], "country": "US", "state": "NY", "address3": "", "address2": "", "address1": "122 Smith St", "city": "Brooklyn", "zip_code": "11201"}, "is_closed": false, "review_count": 581, "coordinates": {"latitude": 40.687656, "longitude": -73.990081}, "id": "ki-sushi-brooklyn", "image_url": "https://s3-media4.fl.yelpcdn.com/bphoto/gG-xH4-R0r-PVf8RBaIHQA/o.jpg", "categories": [{"alias": "sushi", "title": "Sushi Bars"}, {"alias": "japanese", "title": "Japanese"}], "rating": 4.0}, {"transactions": ["pickup"], "distance": 3228.9868570959998, "price": "$$", "display_phone": "(347) 763-1463", "phone": "+13477631463", "url": "https://www.yelp.com/biz/zizi-limona-brooklyn?adjust_creative=gBcvfFpabk3CnzmXKdYe3w&utm_campaign=yelp_api_v3&utm_medium=api_v3_business_search&utm_source=gBcvfFpabk3CnzmXKdYe3w", "name": "Zizi Limona", "location": {"display_address": ["129 Havemeyer St", "Brooklyn, NY 11211"], "country": "US", "state": "NY", "address3": "", "address2": "", "address1": "129 Havemeyer St", "city": "Brooklyn", "zip_code": "11211"}, "is_closed": false, "review_count": 311, "coordinates": {"latitude": 40.712256, "longitude": -73.957053}, "id": "zizi-limona-brooklyn", "image_url": "https://s3-media1.fl.yelpcdn.com/bphoto/KOlfr_sbWEJuWWb0jFUZwg/o.jpg", "categories": [{"alias": "mediterranean", "title": "Mediterranean"}, {"alias": "mideastern", "title": "Middle Eastern"}], "rating": 4.0}, {"transactions": [], "distance": 2284.736223952, "price": "$$$", "display_phone": "(646) 833-7811", "phone": "+16468337811", "url": "https://www.yelp.com/biz/tuome-new-york-2?adjust_creative=gBcvfFpabk3CnzmXKdYe3w&utm_campaign=yelp_api_v3&utm_medium=api_v3_business_search&utm_source=gBcvfFpabk3CnzmXKdYe3w", "name": "Tuome", "location": {"display_address": ["536 E 5th St", "New York, NY 10009"], "country": "US", "state": "NY", "address3": "", "address2": "", "address1": "536 E 5th St", "city": "New York", "zip_code": "10009"}, "is_closed": false, "review_count": 261, "coordinates": {"latitude": 40.7240426438107, "longitude": -73.9827658375972}, "id": "tuome-new-york-2", "image_url": "https://s3-media4.fl.yelpcdn.com/bphoto/nxqtbru35SujcMTD_-cRmQ/o.jpg", "categories": [{"alias": "newamerican", "title": "American (New)"}], "rating": 4.0}, {"transactions": ["delivery", "pickup"], "distance": 4320.836499, "price": "$$", "display_phone": "(718) 215-9910", "phone": "+17182159910", "url": "https://www.yelp.com/biz/upright-coffee-brooklyn?adjust_creative=gBcvfFpabk3CnzmXKdYe3w&utm_campaign=yelp_api_v3&utm_medium=api_v3_business_search&utm_source=gBcvfFpabk3CnzmXKdYe3w", "name": "Upright Coffee", "location": {"display_address": ["860 Manhattan Ave", "Brooklyn, NY 11222"], "country": "US", "state": "NY", "address3": "", "address2": "", "address1": "860 Manhattan Ave", "city": "Brooklyn", "zip_code": "11222"}, "is_closed": false, "review_count": 107, "coordinates": {"latitude": 40.7292285, "longitude": -73.9537541}, "id": "upright-coffee-brooklyn", "image_url": "https://s3-media2.fl.yelpcdn.com/bphoto/5d0Cos9JVicnRJanpdC5aw/o.jpg", "categories": [{"alias": "coffee", "title": "Coffee & Tea"}], "rating": 4.5}, {"transactions": ["delivery", "pickup"], "distance": 2477.740990538, "price": "$$", "display_phone": "(718) 858-5641", "phone": "+17188585641", "url": "https://www.yelp.com/biz/la-cigogne-brooklyn?adjust_creative=gBcvfFpabk3CnzmXKdYe3w&utm_campaign=yelp_api_v3&utm_medium=api_v3_business_search&utm_source=gBcvfFpabk3CnzmXKdYe3w", "name": "La Cigogne", "location": {"display_address": ["215 Union St", "Brooklyn, NY 11231"], "country": "US", "state": "NY", "address3": "", "address2": "", "address1": "215 Union St", "city": "Brooklyn", "zip_code": "11231"}, "is_closed": false, "review_count": 251, "coordinates": {"latitude": 40.68348, "longitude": -73.99929}, "id": "la-cigogne-brooklyn", "image_url": "https://s3-media2.fl.yelpcdn.com/bphoto/CuuN3US76eJSJa0jNu9f-Q/o.jpg", "categories": [{"alias": "french", "title": "French"}, {"alias": "german", "title": "German"}, {"alias": "cocktailbars", "title": "Cocktail Bars"}], "rating": 4.0}, {"transactions": [], "distance": 4396.649931456, "price": "$", "display_phone": "(718) 349-1216", "phone": "+17183491216", "url": "https://www.yelp.com/biz/moes-doughs-donut-shop-brooklyn?adjust_creative=gBcvfFpabk3CnzmXKdYe3w&utm_campaign=yelp_api_v3&utm_medium=api_v3_business_search&utm_source=gBcvfFpabk3CnzmXKdYe3w", "name": "Moe's Doughs Donut Shop", "location": {"display_address": ["126 Nassau Ave", "Brooklyn, NY 11222"], "country": "US", "state": "NY", "address3": "", "address2": "", "address1": "126 Nassau Ave", "city": "Brooklyn", "zip_code": "11222"}, "is_closed": false, "review_count": 186, "coordinates": {"latitude": 40.7243431, "longitude": -73.9484718}, "id": "moes-doughs-donut-shop-brooklyn", "image_url": "https://s3-media1.fl.yelpcdn.com/bphoto/KWk9n0JtJf489zCGDsJVJg/o.jpg", "categories": [{"alias": "donuts", "title": "Donuts"}, {"alias": "coffee", "title": "Coffee & Tea"}, {"alias": "breakfast_brunch", "title": "Breakfast & Brunch"}], "rating": 4.5}, {"transactions": [], "distance": 2342.951523508, "display_phone": "(212) 766-1104", "phone": "+12127661104", "url": "https://www.yelp.com/biz/pier-25-new-york?adjust_creative=gBcvfFpabk3CnzmXKdYe3w&utm_campaign=yelp_api_v3&utm_medium=api_v3_business_search&utm_source=gBcvfFpabk3CnzmXKdYe3w", "name": "Pier 25", "location": {"display_address": ["225 W St", "Hudson River Park", "New York, NY 10013"], "country": "US", "state": "NY", "address3": "Hudson River Park", "address2": "", "address1": "225 W St", "city": "New York", "zip_code": "10013"}, "is_closed": false, "review_count": 97, "coordinates": {"latitude": 40.7202661102641, "longitude": -74.0140557289124}, "id": "pier-25-new-york", "image_url": "https://s3-media2.fl.yelpcdn.com/bphoto/QNe59dU_OFJEPJCglNTJeg/o.jpg", "categories": [{"alias": "mini_golf", "title": "Mini Golf"}, {"alias": "playgrounds", "title": "Playgrounds"}, {"alias": "parks", "title": "Parks"}], "rating": 4.5}, {"transactions": [], "distance": 2652.440641162, "price": "$", "display_phone": "(646) 870-5785", "phone": "+16468705785", "url": "https://www.yelp.com/biz/mamouns-falafel-new-york?adjust_creative=gBcvfFpabk3CnzmXKdYe3w&utm_campaign=yelp_api_v3&utm_medium=api_v3_business_search&utm_source=gBcvfFpabk3CnzmXKdYe3w", "name": "Mamoun's Falafel", "location": {"display_address": ["30 St Marks Pl", "New York, NY 10003"], "country": "US", "state": "NY", "address3": "", "address2": null, "address1": "30 St Marks Pl", "city": "New York", "zip_code": "10003"}, "is_closed": false, "review_count": 982, "coordinates": {"latitude": 40.7288849575335, "longitude": -73.988463348408}, "id": "mamouns-falafel-new-york", "image_url": "https://s3-media2.fl.yelpcdn.com/bphoto/ajijvVVt0AxCxEwHMO60Sg/o.jpg", "categories": [{"alias": "mideastern", "title": "Middle Eastern"}, {"alias": "falafel", "title": "Falafel"}], "rating": 4.0}, {"transactions": ["delivery", "pickup"], "distance": 4963.770725812, "price": "$$", "display_phone": "(646) 863-2212", "phone": "+16468632212", "url": "https://www.yelp.com/biz/sons-of-thunder-new-york-4?adjust_creative=gBcvfFpabk3CnzmXKdYe3w&utm_campaign=yelp_api_v3&utm_medium=api_v3_business_search&utm_source=gBcvfFpabk3CnzmXKdYe3w", "name": "Sons of Thunder", "location": {"display_address": ["204 E 38th St", "New York, NY 10016"], "country": "US", "state": "NY", "address3": "", "address2": "", "address1": "204 E 38th St", "city": "New York", "zip_code": "10016"}, "is_closed": false, "review_count": 518, "coordinates": {"latitude": 40.7478561401367, "longitude": -73.9758911132812}, "id": "sons-of-thunder-new-york-4", "image_url": "https://s3-media3.fl.yelpcdn.com/bphoto/KGybxfOfpWuYiJ2vKtO5QQ/o.jpg", "categories": [{"alias": "hotdog", "title": "Hot Dogs"}, {"alias": "poke", "title": "Poke"}, {"alias": "seafood", "title": "Seafood"}], "rating": 4.5}, {"transactions": [], "distance": 4735.719040178, "price": "$", "display_phone": "(615) 419-7877", "phone": "+16154197877", "url": "https://www.yelp.com/biz/roots-caf%C3%A9-brooklyn-2?adjust_creative=gBcvfFpabk3CnzmXKdYe3w&utm_campaign=yelp_api_v3&utm_medium=api_v3_business_search&utm_source=gBcvfFpabk3CnzmXKdYe3w", "name": "Roots Caf\u00e9", "location": {"display_address": ["639A 5th Ave", "Brooklyn, NY 11215"], "country": "US", "state": "NY", "address3": "", "address2": "", "address1": "639A 5th Ave", "city": "Brooklyn", "zip_code": "11215"}, "is_closed": false, "review_count": 229, "coordinates": {"latitude": 40.662904, "longitude": -73.9916337}, "id": "roots-caf\u00e9-brooklyn-2", "image_url": "https://s3-media3.fl.yelpcdn.com/bphoto/r9IKSAvJhZVRDlW4bcKd4Q/o.jpg", "categories": [{"alias": "coffee", "title": "Coffee & Tea"}, {"alias": "breakfast_brunch", "title": "Breakfast & Brunch"}, {"alias": "sandwiches", "title": "Sandwiches"}], "rating": 4.5}, {"transactions": [], "distance": 3075.2329275059997, "price": "$$", "display_phone": "(718) 963-2574", "phone": "+17189632574", "url": "https://www.yelp.com/biz/post-office-brooklyn-6?adjust_creative=gBcvfFpabk3CnzmXKdYe3w&utm_campaign=yelp_api_v3&utm_medium=api_v3_business_search&utm_source=gBcvfFpabk3CnzmXKdYe3w", "name": "Post Office", "location": {"display_address": ["188 Havemeyer St", "Brooklyn, NY 11211"], "country": "US", "state": "NY", "address3": "", "address2": "", "address1": "188 Havemeyer St", "city": "Brooklyn", "zip_code": "11211"}, "is_closed": false, "review_count": 242, "coordinates": {"latitude": 40.710786, "longitude": -73.958495}, "id": "post-office-brooklyn-6", "image_url": "https://s3-media2.fl.yelpcdn.com/bphoto/DxmmMIRPAvQkusXJiuRzUg/o.jpg", "categories": [{"alias": "bars", "title": "Bars"}, {"alias": "tradamerican", "title": "American (Traditional)"}], "rating": 4.5}, {"transactions": ["delivery", "pickup"], "distance": 4432.958733998, "price": "$$", "display_phone": "(718) 384-5000", "phone": "+17183845000", "url": "https://www.yelp.com/biz/masha-and-the-bear-brooklyn?adjust_creative=gBcvfFpabk3CnzmXKdYe3w&utm_campaign=yelp_api_v3&utm_medium=api_v3_business_search&utm_source=gBcvfFpabk3CnzmXKdYe3w", "name": "Masha and The Bear", "location": {"display_address": ["771 Grand St", "Brooklyn, NY 11211"], "country": "US", "state": "NY", "address3": "", "address2": "", "address1": "771 Grand St", "city": "Brooklyn", "zip_code": "11211"}, "is_closed": false, "review_count": 127, "coordinates": {"latitude": 40.7119789123535, "longitude": -73.9423980712891}, "id": "masha-and-the-bear-brooklyn", "image_url": "https://s3-media1.fl.yelpcdn.com/bphoto/bXkUoKgLwtfVsI8FXLvdbA/o.jpg", "categories": [{"alias": "russian", "title": "Russian"}, {"alias": "gastropubs", "title": "Gastropubs"}, {"alias": "beerbar", "title": "Beer Bar"}], "rating": 4.5}, {"transactions": [], "distance": 2954.0692594539996, "price": "$$$", "display_phone": "(212) 242-1999", "phone": "+12122421999", "url": "https://www.yelp.com/biz/rafele-ristorante-new-york?adjust_creative=gBcvfFpabk3CnzmXKdYe3w&utm_campaign=yelp_api_v3&utm_medium=api_v3_business_search&utm_source=gBcvfFpabk3CnzmXKdYe3w", "name": "Rafele Ristorante", "location": {"display_address": ["29 7th Ave S", "New York, NY 10014"], "country": "US", "state": "NY", "address3": "", "address2": "", "address1": "29 7th Ave S", "city": "New York", "zip_code": "10014"}, "is_closed": false, "review_count": 313, "coordinates": {"latitude": 40.7309471231405, "longitude": -74.0041171779098}, "id": "rafele-ristorante-new-york", "image_url": "https://s3-media1.fl.yelpcdn.com/bphoto/FquNhxpBGkiHzas4jm06hg/o.jpg", "categories": [{"alias": "italian", "title": "Italian"}], "rating": 4.5}, {"transactions": [], "distance": 2481.2121759839997, "price": "$", "display_phone": "(212) 982-7893", "phone": "+12129827893", "url": "https://www.yelp.com/biz/polish-g-i-delicatessen-new-york?adjust_creative=gBcvfFpabk3CnzmXKdYe3w&utm_campaign=yelp_api_v3&utm_medium=api_v3_business_search&utm_source=gBcvfFpabk3CnzmXKdYe3w", "name": "Polish G.I. Delicatessen", "location": {"display_address": ["109 First Ave", "New York, NY 10003"], "country": "US", "state": "NY", "address3": "", "address2": "", "address1": "109 First Ave", "city": "New York", "zip_code": "10003"}, "is_closed": false, "review_count": 40, "coordinates": {"latitude": 40.726894, "longitude": -73.98616}, "id": "polish-g-i-delicatessen-new-york", "image_url": "https://s3-media1.fl.yelpcdn.com/bphoto/UkCmg5Sb5pSCXbSLEyWD3w/o.jpg", "categories": [{"alias": "grocery", "title": "Grocery"}, {"alias": "delis", "title": "Delis"}], "rating": 4.5}, {"transactions": [], "distance": 2949.6627255999997, "price": "$$$", "display_phone": "(212) 691-8211", "phone": "+12126918211", "url": "https://www.yelp.com/biz/pearl-oyster-bar-new-york?adjust_creative=gBcvfFpabk3CnzmXKdYe3w&utm_campaign=yelp_api_v3&utm_medium=api_v3_business_search&utm_source=gBcvfFpabk3CnzmXKdYe3w", "name": "Pearl Oyster Bar", "location": {"display_address": ["18 Cornelia St", "New York, NY 10014"], "country": "US", "state": "NY", "address3": "", "address2": "", "address1": "18 Cornelia St", "city": "New York", "zip_code": "10014"}, "is_closed": false, "review_count": 741, "coordinates": {"latitude": 40.7314099, "longitude": -74.00197}, "id": "pearl-oyster-bar-new-york", "image_url": "https://s3-media4.fl.yelpcdn.com/bphoto/Ba7CkEpQOkDuAHYbEWgUJg/o.jpg", "categories": [{"alias": "seafood", "title": "Seafood"}, {"alias": "wine_bars", "title": "Wine Bars"}, {"alias": "tapasmallplates", "title": "Tapas/Small Plates"}], "rating": 4.0}, {"transactions": [], "distance": 1637.4551698, "price": "$$", "display_phone": "(212) 219-0019", "phone": "+12122190019", "url": "https://www.yelp.com/biz/pepe-rosso-social-new-york-2?adjust_creative=gBcvfFpabk3CnzmXKdYe3w&utm_campaign=yelp_api_v3&utm_medium=api_v3_business_search&utm_source=gBcvfFpabk3CnzmXKdYe3w", "name": "Pepe Rosso Social", "location": {"display_address": ["173 Mott St", "New York, NY 10013"], "country": "US", "state": "NY", "address3": "", "address2": null, "address1": "173 Mott St", "city": "New York", "zip_code": "10013"}, "is_closed": false, "review_count": 543, "coordinates": {"latitude": 40.7200621068478, "longitude": -73.9961392432451}, "id": "pepe-rosso-social-new-york-2", "image_url": "https://s3-media1.fl.yelpcdn.com/bphoto/drdh-PXJJ1Qx_ALSuBZJ1w/o.jpg", "categories": [{"alias": "italian", "title": "Italian"}], "rating": 4.0}, {"transactions": [], "distance": 2703.2885431319996, "price": "$$", "display_phone": "(212) 388-0762", "phone": "+12123880762", "url": "https://www.yelp.com/biz/honest-chops-butchery-new-york?adjust_creative=gBcvfFpabk3CnzmXKdYe3w&utm_campaign=yelp_api_v3&utm_medium=api_v3_business_search&utm_source=gBcvfFpabk3CnzmXKdYe3w", "name": "Honest Chops Butchery", "location": {"display_address": ["319 E 9th St", "New York, NY 10003"], "country": "US", "state": "NY", "address3": "", "address2": "", "address1": "319 E 9th St", "city": "New York", "zip_code": "10003"}, "is_closed": false, "review_count": 73, "coordinates": {"latitude": 40.728951, "longitude": -73.986107}, "id": "honest-chops-butchery-new-york", "image_url": "https://s3-media4.fl.yelpcdn.com/bphoto/5xIlb7ZQbBN45iaRlXda4g/o.jpg", "categories": [{"alias": "butcher", "title": "Butcher"}, {"alias": "halal", "title": "Halal"}, {"alias": "organic_stores", "title": "Organic Stores"}], "rating": 4.5}, {"transactions": [], "distance": 3617.052643986, "price": "$$$", "display_phone": "(212) 475-5829", "phone": "+12124755829", "url": "https://www.yelp.com/biz/abc-kitchen-new-york?adjust_creative=gBcvfFpabk3CnzmXKdYe3w&utm_campaign=yelp_api_v3&utm_medium=api_v3_business_search&utm_source=gBcvfFpabk3CnzmXKdYe3w", "name": "ABC Kitchen", "location": {"display_address": ["35 E 18th St", "New York, NY 10003"], "country": "US", "state": "NY", "address3": "", "address2": "", "address1": "35 E 18th St", "city": "New York", "zip_code": "10003"}, "is_closed": false, "review_count": 2393, "coordinates": {"latitude": 40.7377792928906, "longitude": -73.9895899828034}, "id": "abc-kitchen-new-york", "image_url": "https://s3-media4.fl.yelpcdn.com/bphoto/6Jyzgv-PNwMjCoQBr6NJfg/o.jpg", "categories": [{"alias": "newamerican", "title": "American (New)"}, {"alias": "french", "title": "French"}], "rating": 4.0}, {"transactions": ["delivery", "pickup"], "distance": 3744.8381024019995, "price": "$$", "display_phone": "(212) 802-9999", "phone": "+12128029999", "url": "https://www.yelp.com/biz/thai-villa-new-york-2?adjust_creative=gBcvfFpabk3CnzmXKdYe3w&utm_campaign=yelp_api_v3&utm_medium=api_v3_business_search&utm_source=gBcvfFpabk3CnzmXKdYe3w", "name": "Thai Villa", "location": {"display_address": ["5 E 19th St", "G Floor", "New York, NY 10003"], "country": "US", "state": "NY", "address3": "", "address2": "G Floor", "address1": "5 E 19th St", "city": "New York", "zip_code": "10003"}, "is_closed": false, "review_count": 457, "coordinates": {"latitude": 40.7390199, "longitude": -73.99065}, "id": "thai-villa-new-york-2", "image_url": "https://s3-media3.fl.yelpcdn.com/bphoto/LWL2xzCuKZ0h0CBAAI-nig/o.jpg", "categories": [{"alias": "thai", "title": "Thai"}], "rating": 4.5}, {"transactions": [], "distance": 1491.199316204, "price": "$", "display_phone": "", "phone": "", "url": "https://www.yelp.com/biz/sams-falafel-stand-new-york?adjust_creative=gBcvfFpabk3CnzmXKdYe3w&utm_campaign=yelp_api_v3&utm_medium=api_v3_business_search&utm_source=gBcvfFpabk3CnzmXKdYe3w", "name": "Sam's Falafel Stand", "location": {"display_address": ["Cedar St And Broadway", "New York, NY 10006"], "country": "US", "state": "NY", "address3": "", "address2": null, "address1": "Cedar St And Broadway", "city": "New York", "zip_code": "10006"}, "is_closed": false, "review_count": 158, "coordinates": {"latitude": 40.7090396819627, "longitude": -74.0113380915443}, "id": "sams-falafel-stand-new-york", "image_url": "https://s3-media4.fl.yelpcdn.com/bphoto/IEX5Ihk_1ReYvxPxpMNsqw/o.jpg", "categories": [{"alias": "falafel", "title": "Falafel"}, {"alias": "foodtrucks", "title": "Food Trucks"}], "rating": 4.5}, {"transactions": [], "distance": 4026.7756411239993, "price": "$$$", "display_phone": "(212) 691-0555", "phone": "+12126910555", "url": "https://www.yelp.com/biz/scarpetta-new-york?adjust_creative=gBcvfFpabk3CnzmXKdYe3w&utm_campaign=yelp_api_v3&utm_medium=api_v3_business_search&utm_source=gBcvfFpabk3CnzmXKdYe3w", "name": "Scarpetta", "location": {"display_address": ["355 W 14th St", "New York, NY 10014"], "country": "US", "state": "NY", "address3": "", "address2": "", "address1": "355 W 14th St", "city": "New York", "zip_code": "10014"}, "is_closed": false, "review_count": 1461, "coordinates": {"latitude": 40.740786390096, "longitude": -74.004707709295}, "id": "scarpetta-new-york", "image_url": "https://s3-media1.fl.yelpcdn.com/bphoto/XMeU1x-axtbXfOiV-1pZEg/o.jpg", "categories": [{"alias": "italian", "title": "Italian"}], "rating": 4.0}, {"transactions": [], "distance": 5432.244288989999, "price": "$", "display_phone": "(718) 381-3783", "phone": "+17183813783", "url": "https://www.yelp.com/biz/express-yourself-barista-bar-brooklyn?adjust_creative=gBcvfFpabk3CnzmXKdYe3w&utm_campaign=yelp_api_v3&utm_medium=api_v3_business_search&utm_source=gBcvfFpabk3CnzmXKdYe3w", "name": "Express Yourself Barista Bar", "location": {"display_address": ["82 Central Ave", "Brooklyn, NY 11206"], "country": "US", "state": "NY", "address3": "", "address2": "", "address1": "82 Central Ave", "city": "Brooklyn", "zip_code": "11206"}, "is_closed": false, "review_count": 76, "coordinates": {"latitude": 40.7007834810065, "longitude": -73.9301428209931}, "id": "express-yourself-barista-bar-brooklyn", "image_url": "https://s3-media1.fl.yelpcdn.com/bphoto/XHMRNQcSExxfRzfwvM4S8A/o.jpg", "categories": [{"alias": "coffee", "title": "Coffee & Tea"}, {"alias": "internetcafe", "title": "Internet Cafes"}], "rating": 4.5}, {"transactions": [], "distance": 2506.586800698, "price": "$$", "display_phone": "(212) 677-3733", "phone": "+12126773733", "url": "https://www.yelp.com/biz/mighty-quinns-barbeque-new-york?adjust_creative=gBcvfFpabk3CnzmXKdYe3w&utm_campaign=yelp_api_v3&utm_medium=api_v3_business_search&utm_source=gBcvfFpabk3CnzmXKdYe3w", "name": "Mighty Quinn's Barbeque", "location": {"display_address": ["103 2nd Ave", "New York, NY 10003"], "country": "US", "state": "NY", "address3": "", "address2": "", "address1": "103 2nd Ave", "city": "New York", "zip_code": "10003"}, "is_closed": false, "review_count": 1391, "coordinates": {"latitude": 40.727574, "longitude": -73.988623}, "id": "mighty-quinns-barbeque-new-york", "image_url": "https://s3-media4.fl.yelpcdn.com/bphoto/IjciTAXr2u0y87kCFjsUhA/o.jpg", "categories": [{"alias": "bbq", "title": "Barbeque"}], "rating": 4.0}, {"transactions": [], "distance": 2486.082843494, "price": "$$$", "display_phone": "(718) 852-8321", "phone": "+17188528321", "url": "https://www.yelp.com/biz/battersby-brooklyn?adjust_creative=gBcvfFpabk3CnzmXKdYe3w&utm_campaign=yelp_api_v3&utm_medium=api_v3_business_search&utm_source=gBcvfFpabk3CnzmXKdYe3w", "name": "Battersby", "location": {"display_address": ["255 Smith St", "Brooklyn, NY 11231"], "country": "US", "state": "NY", "address3": "", "address2": "", "address1": "255 Smith St", "city": "Brooklyn", "zip_code": "11231"}, "is_closed": false, "review_count": 268, "coordinates": {"latitude": 40.6830711, "longitude": -73.99263}, "id": "battersby-brooklyn", "image_url": "https://s3-media3.fl.yelpcdn.com/bphoto/NaydPjpA7dnsXjCuq5Bp8g/o.jpg", "categories": [{"alias": "newamerican", "title": "American (New)"}], "rating": 4.0}, {"transactions": [], "distance": 5468.102154464, "display_phone": "(212) 627-2020", "phone": "+12126272020", "url": "https://www.yelp.com/biz/hudson-river-park-new-york?adjust_creative=gBcvfFpabk3CnzmXKdYe3w&utm_campaign=yelp_api_v3&utm_medium=api_v3_business_search&utm_source=gBcvfFpabk3CnzmXKdYe3w", "name": "Hudson River Park", "location": {"display_address": ["59TH St", "West Side Hwy", "New York, NY 10001"], "country": "US", "state": "NY", "address3": "West Side Hwy", "address2": "", "address1": "59TH St", "city": "New York", "zip_code": "10001"}, "is_closed": false, "review_count": 148, "coordinates": {"latitude": 40.7535722166564, "longitude": -74.0076291561127}, "id": "hudson-river-park-new-york", "image_url": "https://s3-media1.fl.yelpcdn.com/bphoto/Ocau5opLuAuXHclgPnLurQ/o.jpg", "categories": [{"alias": "parks", "title": "Parks"}], "rating": 4.5}, {"transactions": [], "distance": 3244.93155408, "price": "$", "display_phone": "(718) 222-1865", "phone": "+17182221865", "url": "https://www.yelp.com/biz/brooklyn-ice-house-brooklyn?adjust_creative=gBcvfFpabk3CnzmXKdYe3w&utm_campaign=yelp_api_v3&utm_medium=api_v3_business_search&utm_source=gBcvfFpabk3CnzmXKdYe3w", "name": "Brooklyn Ice House", "location": {"display_address": ["318 Van Brunt St", "Brooklyn, NY 11231"], "country": "US", "state": "NY", "address3": "", "address2": "", "address1": "318 Van Brunt St", "city": "Brooklyn", "zip_code": "11231"}, "is_closed": false, "review_count": 180, "coordinates": {"latitude": 40.67919, "longitude": -74.011099}, "id": "brooklyn-ice-house-brooklyn", "image_url": "https://s3-media4.fl.yelpcdn.com/bphoto/d34Fw5ied70hWGVYu3tUCQ/o.jpg", "categories": [{"alias": "bbq", "title": "Barbeque"}, {"alias": "pubs", "title": "Pubs"}], "rating": 4.5}, {"transactions": [], "distance": 1616.8073376, "price": "$$", "display_phone": "(212) 253-8860", "phone": "+12122538860", "url": "https://www.yelp.com/biz/sunita-bar-new-york?adjust_creative=gBcvfFpabk3CnzmXKdYe3w&utm_campaign=yelp_api_v3&utm_medium=api_v3_business_search&utm_source=gBcvfFpabk3CnzmXKdYe3w", "name": "Sunita Bar", "location": {"display_address": ["106 Norfolk St", "New York, NY 10002"], "country": "US", "state": "NY", "address3": "", "address2": null, "address1": "106 Norfolk St", "city": "New York", "zip_code": "10002"}, "is_closed": false, "review_count": 129, "coordinates": {"latitude": 40.7188938, "longitude": -73.9870096}, "id": "sunita-bar-new-york", "image_url": "https://s3-media3.fl.yelpcdn.com/bphoto/Y1uFcN2VtcvCVocDZAOrqg/o.jpg", "categories": [{"alias": "bars", "title": "Bars"}], "rating": 4.5}, {"transactions": [], "distance": 1696.5964835919997, "price": "$$$", "display_phone": "(212) 406-1200", "phone": "+12124061200", "url": "https://www.yelp.com/biz/schilling-new-york?adjust_creative=gBcvfFpabk3CnzmXKdYe3w&utm_campaign=yelp_api_v3&utm_medium=api_v3_business_search&utm_source=gBcvfFpabk3CnzmXKdYe3w", "name": "Schilling", "location": {"display_address": ["109 Washington St", "New York, NY 10006"], "country": "US", "state": "NY", "address3": "", "address2": "", "address1": "109 Washington St", "city": "New York", "zip_code": "10006"}, "is_closed": false, "review_count": 55, "coordinates": {"latitude": 40.7085723876953, "longitude": -74.0139999389648}, "id": "schilling-new-york", "image_url": "https://s3-media4.fl.yelpcdn.com/bphoto/dWIgVQmexSJgrFa4HvCP_g/o.jpg", "categories": [{"alias": "austrian", "title": "Austrian"}, {"alias": "bars", "title": "Bars"}, {"alias": "newamerican", "title": "American (New)"}], "rating": 4.5}, {"transactions": [], "distance": 2855.3993365819997, "price": "$$", "display_phone": "(212) 388-0088", "phone": "+12123880088", "url": "https://www.yelp.com/biz/ippudo-east-village-new-york?adjust_creative=gBcvfFpabk3CnzmXKdYe3w&utm_campaign=yelp_api_v3&utm_medium=api_v3_business_search&utm_source=gBcvfFpabk3CnzmXKdYe3w", "name": "Ippudo East Village", "location": {"display_address": ["65 4th Ave", "New York, NY 10003"], "country": "US", "state": "NY", "address3": "", "address2": "", "address1": "65 4th Ave", "city": "New York", "zip_code": "10003"}, "is_closed": false, "review_count": 8556, "coordinates": {"latitude": 40.7309226989746, "longitude": -73.9901657104492}, "id": "ippudo-east-village-new-york", "image_url": "https://s3-media2.fl.yelpcdn.com/bphoto/8JAKzrhyRXVIyXaeKT1mbw/o.jpg", "categories": [{"alias": "ramen", "title": "Ramen"}], "rating": 4.0}, {"transactions": [], "distance": 2769.653701382, "price": "$$", "display_phone": "(212) 677-1030", "phone": "+12126771030", "url": "https://www.yelp.com/biz/nai-tapas-bar-new-york?adjust_creative=gBcvfFpabk3CnzmXKdYe3w&utm_campaign=yelp_api_v3&utm_medium=api_v3_business_search&utm_source=gBcvfFpabk3CnzmXKdYe3w", "name": "Nai Tapas Bar", "location": {"display_address": ["174 1st Ave", "New York, NY 10009"], "country": "US", "state": "NY", "address3": "", "address2": "", "address1": "174 1st Ave", "city": "New York", "zip_code": "10009"}, "is_closed": false, "review_count": 707, "coordinates": {"latitude": 40.729074, "longitude": -73.983895}, "id": "nai-tapas-bar-new-york", "image_url": "https://s3-media1.fl.yelpcdn.com/bphoto/STyAj68kasZsAePRhO22zQ/o.jpg", "categories": [{"alias": "tapas", "title": "Tapas Bars"}], "rating": 4.0}, {"transactions": ["delivery", "pickup"], "distance": 3120.387467358, "price": "$", "display_phone": "(212) 614-0200", "phone": "+12126140200", "url": "https://www.yelp.com/biz/t-swirl-cr%C3%AApe-new-york-16?adjust_creative=gBcvfFpabk3CnzmXKdYe3w&utm_campaign=yelp_api_v3&utm_medium=api_v3_business_search&utm_source=gBcvfFpabk3CnzmXKdYe3w", "name": "T-Swirl Cr\u00eape", "location": {"display_address": ["247 E 14th St", "New York, NY 10003"], "country": "US", "state": "NY", "address3": "", "address2": null, "address1": "247 E 14th St", "city": "New York", "zip_code": "10003"}, "is_closed": false, "review_count": 150, "coordinates": {"latitude": 40.7325935, "longitude": -73.9851807}, "id": "t-swirl-cr\u00eape-new-york-16", "image_url": "https://s3-media1.fl.yelpcdn.com/bphoto/hnKX1u9m1T6QlmPqK88d8A/o.jpg", "categories": [{"alias": "desserts", "title": "Desserts"}, {"alias": "creperies", "title": "Creperies"}, {"alias": "gluten_free", "title": "Gluten-Free"}], "rating": 4.5}, {"transactions": [], "distance": 3489.1778671999996, "price": "$$", "display_phone": "(929) 337-6412", "phone": "+19293376412", "url": "https://www.yelp.com/biz/denizen-brooklyn?adjust_creative=gBcvfFpabk3CnzmXKdYe3w&utm_campaign=yelp_api_v3&utm_medium=api_v3_business_search&utm_source=gBcvfFpabk3CnzmXKdYe3w", "name": "Denizen", "location": {"display_address": ["88 Roebling St", "Brooklyn, NY 11211"], "country": "US", "state": "NY", "address3": null, "address2": "", "address1": "88 Roebling St", "city": "Brooklyn", "zip_code": "11211"}, "is_closed": false, "review_count": 30, "coordinates": {"latitude": 40.7162683, "longitude": -73.9554395}, "id": "denizen-brooklyn", "image_url": "https://s3-media2.fl.yelpcdn.com/bphoto/EPhzYjSmf8r_JijPJa6bBA/o.jpg", "categories": [{"alias": "wine_bars", "title": "Wine Bars"}, {"alias": "tapasmallplates", "title": "Tapas/Small Plates"}, {"alias": "gourmet", "title": "Specialty Food"}], "rating": 5.0}, {"transactions": [], "distance": 3208.653168064, "price": "$", "display_phone": "", "phone": "", "url": "https://www.yelp.com/biz/jackbar-brooklyn?adjust_creative=gBcvfFpabk3CnzmXKdYe3w&utm_campaign=yelp_api_v3&utm_medium=api_v3_business_search&utm_source=gBcvfFpabk3CnzmXKdYe3w", "name": "Jackbar", "location": {"display_address": ["143 Havemeyer St", "Brooklyn, NY 11211"], "country": "US", "state": "NY", "address3": "", "address2": null, "address1": "143 Havemeyer St", "city": "Brooklyn", "zip_code": "11211"}, "is_closed": false, "review_count": 66, "coordinates": {"latitude": 40.7118301391602, "longitude": -73.9571762084961}, "id": "jackbar-brooklyn", "image_url": "https://s3-media3.fl.yelpcdn.com/bphoto/0QTErCl7f2CIsf8AiNs-1w/o.jpg", "categories": [{"alias": "bars", "title": "Bars"}, {"alias": "arcades", "title": "Arcades"}], "rating": 4.5}, {"transactions": [], "distance": 1856.780370218, "price": "$", "display_phone": "(212) 219-0600", "phone": "+12122190600", "url": "https://www.yelp.com/biz/taim-falafel-new-york?adjust_creative=gBcvfFpabk3CnzmXKdYe3w&utm_campaign=yelp_api_v3&utm_medium=api_v3_business_search&utm_source=gBcvfFpabk3CnzmXKdYe3w", "name": "Taim Falafel", "location": {"display_address": ["45 Spring St", "New York, NY 10012"], "country": "US", "state": "NY", "address3": "", "address2": "", "address1": "45 Spring St", "city": "New York", "zip_code": "10012"}, "is_closed": false, "review_count": 379, "coordinates": {"latitude": 40.722103, "longitude": -73.996078}, "id": "taim-falafel-new-york", "image_url": "https://s3-media2.fl.yelpcdn.com/bphoto/NlcrJX8kGLGbvhfRMIBVAQ/o.jpg", "categories": [{"alias": "falafel", "title": "Falafel"}], "rating": 4.0}, {"transactions": [], "distance": 1336.309675376, "display_phone": "", "phone": "", "url": "https://www.yelp.com/biz/brooklyn-bridge-park-pier-5-brooklyn?adjust_creative=gBcvfFpabk3CnzmXKdYe3w&utm_campaign=yelp_api_v3&utm_medium=api_v3_business_search&utm_source=gBcvfFpabk3CnzmXKdYe3w", "name": "Brooklyn Bridge Park Pier 5", "location": {"display_address": ["Joralemon St & The Water", "Brooklyn, NY"], "country": "US", "state": "NY", "address3": "", "address2": "", "address1": "Joralemon St & The Water", "city": "Brooklyn", "zip_code": ""}, "is_closed": false, "review_count": 29, "coordinates": {"latitude": 40.6947610809082, "longitude": -74.0015459060669}, "id": "brooklyn-bridge-park-pier-5-brooklyn", "image_url": "https://s3-media1.fl.yelpcdn.com/bphoto/0tqgQsJhXPETj31u_AMGhw/o.jpg", "categories": [{"alias": "parks", "title": "Parks"}, {"alias": "football", "title": "Soccer"}], "rating": 4.5}, {"transactions": ["pickup"], "distance": 2270.8303998139995, "price": "$$$", "display_phone": "(917) 435-3745", "phone": "+19174353745", "url": "https://www.yelp.com/biz/lulu-and-po-brooklyn?adjust_creative=gBcvfFpabk3CnzmXKdYe3w&utm_campaign=yelp_api_v3&utm_medium=api_v3_business_search&utm_source=gBcvfFpabk3CnzmXKdYe3w", "name": "Lulu & Po", "location": {"display_address": ["154 Carlton Ave", "Brooklyn, NY 11205"], "country": "US", "state": "NY", "address3": "", "address2": "", "address1": "154 Carlton Ave", "city": "Brooklyn", "zip_code": "11205"}, "is_closed": false, "review_count": 147, "coordinates": {"latitude": 40.6929658, "longitude": -73.9729661}, "id": "lulu-and-po-brooklyn", "image_url": "https://s3-media1.fl.yelpcdn.com/bphoto/7bdWm-rrdHLJVz_VKXgYMA/o.jpg", "categories": [{"alias": "newamerican", "title": "American (New)"}], "rating": 4.5}, {"transactions": [], "distance": 1616.8744470779998, "price": "$", "display_phone": "(212) 219-8341", "phone": "+12122198341", "url": "https://www.yelp.com/biz/saigon-vietnamese-sandwich-deli-new-york?adjust_creative=gBcvfFpabk3CnzmXKdYe3w&utm_campaign=yelp_api_v3&utm_medium=api_v3_business_search&utm_source=gBcvfFpabk3CnzmXKdYe3w", "name": "Saigon Vietnamese Sandwich Deli", "location": {"display_address": ["369 Broome St", "New York, NY 10013"], "country": "US", "state": "NY", "address3": "", "address2": "", "address1": "369 Broome St", "city": "New York", "zip_code": "10013"}, "is_closed": false, "review_count": 517, "coordinates": {"latitude": 40.7199582, "longitude": -73.9958631}, "id": "saigon-vietnamese-sandwich-deli-new-york", "image_url": "https://s3-media3.fl.yelpcdn.com/bphoto/U7d5Ug_IH6kIJ8t55nC6EQ/o.jpg", "categories": [{"alias": "sandwiches", "title": "Sandwiches"}, {"alias": "vietnamese", "title": "Vietnamese"}], "rating": 4.0}, {"transactions": ["delivery", "pickup"], "distance": 5581.745376696, "price": "$$", "display_phone": "(347) 295-2227", "phone": "+13472952227", "url": "https://www.yelp.com/biz/bunna-cafe-brooklyn?adjust_creative=gBcvfFpabk3CnzmXKdYe3w&utm_campaign=yelp_api_v3&utm_medium=api_v3_business_search&utm_source=gBcvfFpabk3CnzmXKdYe3w", "name": "Bunna Cafe", "location": {"display_address": ["1084 Flushing Ave", "Brooklyn, NY 11237"], "country": "US", "state": "NY", "address3": "", "address2": "", "address1": "1084 Flushing Ave", "city": "Brooklyn", "zip_code": "11237"}, "is_closed": false, "review_count": 323, "coordinates": {"latitude": 40.705042, "longitude": -73.928078}, "id": "bunna-cafe-brooklyn", "image_url": "https://s3-media1.fl.yelpcdn.com/bphoto/bvzqRaLRa2nro-aq5Qe_Sw/o.jpg", "categories": [{"alias": "ethiopian", "title": "Ethiopian"}, {"alias": "vegan", "title": "Vegan"}, {"alias": "african", "title": "African"}], "rating": 4.5}, {"transactions": ["pickup"], "distance": 4140.131113364, "price": "$", "display_phone": "(718) 302-9200", "phone": "+17183029200", "url": "https://www.yelp.com/biz/nam-nam-brooklyn-2?adjust_creative=gBcvfFpabk3CnzmXKdYe3w&utm_campaign=yelp_api_v3&utm_medium=api_v3_business_search&utm_source=gBcvfFpabk3CnzmXKdYe3w", "name": "Nam Nam", "location": {"display_address": ["109 Montrose Ave", "Brooklyn, NY 11206"], "country": "US", "state": "NY", "address3": "", "address2": null, "address1": "109 Montrose Ave", "city": "Brooklyn", "zip_code": "11206"}, "is_closed": false, "review_count": 355, "coordinates": {"latitude": 40.7071559876204, "longitude": -73.9453167468309}, "id": "nam-nam-brooklyn-2", "image_url": "https://s3-media3.fl.yelpcdn.com/bphoto/lsahrB2KBae55CbDVhUrmw/o.jpg", "categories": [{"alias": "vietnamese", "title": "Vietnamese"}, {"alias": "coffee", "title": "Coffee & Tea"}], "rating": 4.5}, {"transactions": [], "distance": 2559.438652836, "price": "$$", "display_phone": "(347) 763-2261", "phone": "+13477632261", "url": "https://www.yelp.com/biz/st-gambrinus-beer-shoppe-brooklyn?adjust_creative=gBcvfFpabk3CnzmXKdYe3w&utm_campaign=yelp_api_v3&utm_medium=api_v3_business_search&utm_source=gBcvfFpabk3CnzmXKdYe3w", "name": "St Gambrinus Beer Shoppe", "location": {"display_address": ["533 Atlantic Ave", "Brooklyn, NY 11217"], "country": "US", "state": "NY", "address3": "", "address2": "", "address1": "533 Atlantic Ave", "city": "Brooklyn", "zip_code": "11217"}, "is_closed": false, "review_count": 87, "coordinates": {"latitude": 40.685226, "longitude": -73.979782}, "id": "st-gambrinus-beer-shoppe-brooklyn", "image_url": "https://s3-media1.fl.yelpcdn.com/bphoto/JjoLjMebC7s7tivU9zFqdA/o.jpg", "categories": [{"alias": "beer_and_wine", "title": "Beer, Wine & Spirits"}, {"alias": "beerbar", "title": "Beer Bar"}], "rating": 4.5}, {"transactions": [], "distance": 4237.39222, "price": "$$$$", "display_phone": "(212) 204-0200", "phone": "+12122040200", "url": "https://www.yelp.com/biz/o-ya-new-york?adjust_creative=gBcvfFpabk3CnzmXKdYe3w&utm_campaign=yelp_api_v3&utm_medium=api_v3_business_search&utm_source=gBcvfFpabk3CnzmXKdYe3w", "name": "O Ya", "location": {"display_address": ["120 E 28th St", "New York, NY 10016"], "country": "US", "state": "NY", "address3": "", "address2": "", "address1": "120 E 28th St", "city": "New York", "zip_code": "10016"}, "is_closed": false, "review_count": 129, "coordinates": {"latitude": 40.74283, "longitude": -73.98319}, "id": "o-ya-new-york", "image_url": "https://s3-media4.fl.yelpcdn.com/bphoto/heKSAhlTxnrfczDi9ZWRhA/o.jpg", "categories": [{"alias": "japanese", "title": "Japanese"}, {"alias": "sushi", "title": "Sushi Bars"}], "rating": 4.5}, {"transactions": [], "distance": 3135.5144586879996, "price": "$$$", "display_phone": "(212) 741-4695", "phone": "+12127414695", "url": "https://www.yelp.com/biz/the-little-owl-new-york?adjust_creative=gBcvfFpabk3CnzmXKdYe3w&utm_campaign=yelp_api_v3&utm_medium=api_v3_business_search&utm_source=gBcvfFpabk3CnzmXKdYe3w", "name": "The Little Owl", "location": {"display_address": ["90 Bedford St", "New York, NY 10014"], "country": "US", "state": "NY", "address3": "", "address2": null, "address1": "90 Bedford St", "city": "New York", "zip_code": "10014"}, "is_closed": false, "review_count": 1134, "coordinates": {"latitude": 40.7323808291402, "longitude": -74.0053009986877}, "id": "the-little-owl-new-york", "image_url": "https://s3-media1.fl.yelpcdn.com/bphoto/r0BpDtMolsUB0xVVv0l67Q/o.jpg", "categories": [{"alias": "desserts", "title": "Desserts"}, {"alias": "wine_bars", "title": "Wine Bars"}, {"alias": "mediterranean", "title": "Mediterranean"}], "rating": 4.0}, {"transactions": [], "distance": 1309.8013350055999, "price": "$", "display_phone": "(212) 226-7687", "phone": "+12122267687", "url": "https://www.yelp.com/biz/teado-tea-shop-new-york-5?adjust_creative=gBcvfFpabk3CnzmXKdYe3w&utm_campaign=yelp_api_v3&utm_medium=api_v3_business_search&utm_source=gBcvfFpabk3CnzmXKdYe3w", "name": "Teado Tea Shop", "location": {"display_address": ["145D Hester St", "New York, NY 10002"], "country": "US", "state": "NY", "address3": "", "address2": "", "address1": "145D Hester St", "city": "New York", "zip_code": "10002"}, "is_closed": false, "review_count": 219, "coordinates": {"latitude": 40.7172143, "longitude": -73.9949616}, "id": "teado-tea-shop-new-york-5", "image_url": "https://s3-media4.fl.yelpcdn.com/bphoto/vDsILhS2ZC75u1HH-MXwyw/o.jpg", "categories": [{"alias": "coffee", "title": "Coffee & Tea"}, {"alias": "juicebars", "title": "Juice Bars & Smoothies"}, {"alias": "bubbletea", "title": "Bubble Tea"}], "rating": 4.0}, {"transactions": [], "distance": 5582.842141906, "price": "$$", "display_phone": "(347) 915-2244", "phone": "+13479152244", "url": "https://www.yelp.com/biz/archies-bar-and-pizza-brooklyn?adjust_creative=gBcvfFpabk3CnzmXKdYe3w&utm_campaign=yelp_api_v3&utm_medium=api_v3_business_search&utm_source=gBcvfFpabk3CnzmXKdYe3w", "name": "Archie's Bar & Pizza", "location": {"display_address": ["128 Central Ave", "Brooklyn, NY 11221"], "country": "US", "state": "NY", "address3": "", "address2": null, "address1": "128 Central Ave", "city": "Brooklyn", "zip_code": "11221"}, "is_closed": false, "review_count": 162, "coordinates": {"latitude": 40.699703, "longitude": -73.928512}, "id": "archies-bar-and-pizza-brooklyn", "image_url": "https://s3-media2.fl.yelpcdn.com/bphoto/3tloCJHXuDXAy_tyQ7xsnA/o.jpg", "categories": [{"alias": "bars", "title": "Bars"}, {"alias": "pizza", "title": "Pizza"}], "rating": 4.5}, {"transactions": [], "distance": 4691.15046102, "price": "$$", "display_phone": "(718) 398-8100", "phone": "+17183988100", "url": "https://www.yelp.com/biz/silver-rice-brooklyn?adjust_creative=gBcvfFpabk3CnzmXKdYe3w&utm_campaign=yelp_api_v3&utm_medium=api_v3_business_search&utm_source=gBcvfFpabk3CnzmXKdYe3w", "name": "Silver Rice", "location": {"display_address": ["638 Park Pl", "Brooklyn, NY 11238"], "country": "US", "state": "NY", "address3": "", "address2": "", "address1": "638 Park Pl", "city": "Brooklyn", "zip_code": "11238"}, "is_closed": false, "review_count": 192, "coordinates": {"latitude": 40.6742123562615, "longitude": -73.9568891376257}, "id": "silver-rice-brooklyn", "image_url": "https://s3-media3.fl.yelpcdn.com/bphoto/BZo3rJxUcgMo-gzTcr7EYQ/o.jpg", "categories": [{"alias": "japanese", "title": "Japanese"}, {"alias": "sushi", "title": "Sushi Bars"}, {"alias": "soup", "title": "Soup"}], "rating": 4.5}], "total": 131359}