{"region": {"center": {"latitude": 40.70544486444615, "longitude": -73.99429321289062}}, "businesses": [{"transactions": [], "distance": 3865.0060717959996, "price": "$", "display_phone": "(718) 388-7771", "phone": "+17183887771", "url": "https://www.yelp.com/biz/gimme-coffee-brooklyn?adjust_creative=gBcvfFpabk3CnzmXKdYe3w&utm_campaign=yelp_api_v3&utm_medium=api_v3_business_search&utm_source=gBcvfFpabk3CnzmXKdYe3w", "name": "Gimme! Coffee", "location": {"display_address": ["495 Lorimer St", "Brooklyn, NY 11211"], "country": "US", "state": "NY", "address3": "", "address2": "", "address1": "495 Lorimer St", "city": "Brooklyn", "zip_code": "11211"}, "is_closed": false, "review_count": 258, "coordinates": {"latitude": 40.711696, "longitude": -73.949249}, "id": "gimme-coffee-brooklyn", "image_url": "https://s3-media2.fl.yelpcdn.com/bphoto/iuN4hXQgHf5ZzRVYMCZACw/o.jpg", "categories": [{"alias": "coffee", "title": "Coffee & Tea"}], "rating": 4.0}, {"transactions": ["delivery", "pickup"], "distance": 3424.7382842599995, "price": "$$", "display_phone": "(212) 367-1979", "phone": "+12123671979", "url": "https://www.yelp.com/biz/da-andrea-new-york?adjust_creative=gBcvfFpabk3CnzmXKdYe3w&utm_campaign=yelp_api_v3&utm_medium=api_v3_business_search&utm_source=gBcvfFpabk3CnzmXKdYe3w", "name": "Da Andrea", "location": {"display_address": ["35 W 13th St", "New York, NY 10011"], "country": "US", "state": "NY", "address3": "", "address2": "", "address1": "35 W 13th St", "city": "New York", "zip_code": "10011"}, "is_closed": false, "review_count": 585, "coordinates": {"latitude": 40.736218, "longitude": -73.99597}, "id": "da-andrea-new-york", "image_url": "https://s3-media3.fl.yelpcdn.com/bphoto/IesapW_Zj-Mp-1KdLbAw9Q/o.jpg", "categories": [{"alias": "italian", "title": "Italian"}], "rating": 4.0}, {"transactions": [], "distance": 7688.13019663, "price": "$$", "display_phone": "(917) 909-1314", "phone": "+19179091314", "url": "https://www.yelp.com/biz/julias-ridgewood?adjust_creative=gBcvfFpabk3CnzmXKdYe3w&utm_campaign=yelp_api_v3&utm_medium=api_v3_business_search&utm_source=gBcvfFpabk3CnzmXKdYe3w", "name": "Julia's", "location": {"display_address": ["818 Woodward Ave", "Ridgewood, NY 11385"], "country": "US", "state": "NY", "address3": "", "address2": "", "address1": "818 Woodward Ave", "city": "Ridgewood", "zip_code": "11385"}, "is_closed": false, "review_count": 105, "coordinates": {"latitude": 40.7032166, "longitude": -73.9031296}, "id": "julias-ridgewood", "image_url": "https://s3-media2.fl.yelpcdn.com/bphoto/py4mj2NUBCehHFntwFHKZA/o.jpg", "categories": [{"alias": "wine_bars", "title": "Wine Bars"}, {"alias": "newamerican", "title": "American (New)"}], "rating": 4.5}, {"transactions": ["delivery", "pickup"], "distance": 5183.6978193899995, "price": "$", "display_phone": "(212) 382-2627", "phone": "+12123822627", "url": "https://www.yelp.com/biz/the-picnic-basket-new-york?adjust_creative=gBcvfFpabk3CnzmXKdYe3w&utm_campaign=yelp_api_v3&utm_medium=api_v3_business_search&utm_source=gBcvfFpabk3CnzmXKdYe3w", "name": "The Picnic Basket", "location": {"display_address": ["65 W 37th St", "New York, NY 10018"], "country": "US", "state": "NY", "address3": "", "address2": "", "address1": "65 W 37th St", "city": "New York", "zip_code": "10018"}, "is_closed": false, "review_count": 336, "coordinates": {"latitude": 40.7516246, "longitude": -73.9858858}, "id": "the-picnic-basket-new-york", "image_url": "https://s3-media2.fl.yelpcdn.com/bphoto/zlkLbOJ_0JwqwHB2DoFXtA/o.jpg", "categories": [{"alias": "cafes", "title": "Cafes"}, {"alias": "sandwiches", "title": "Sandwiches"}, {"alias": "breakfast_brunch", "title": "Breakfast & Brunch"}], "rating": 4.0}, {"transactions": [], "distance": 2483.91248757, "price": "$$$", "display_phone": "(212) 995-5278", "phone": "+12129955278", "url": "https://www.yelp.com/biz/senya-new-york?adjust_creative=gBcvfFpabk3CnzmXKdYe3w&utm_campaign=yelp_api_v3&utm_medium=api_v3_business_search&utm_source=gBcvfFpabk3CnzmXKdYe3w", "name": "SenYa", "location": {"display_address": ["109 1st Ave", "New York, NY 10003"], "country": "US", "state": "NY", "address3": "", "address2": "", "address1": "109 1st Ave", "city": "New York", "zip_code": "10003"}, "is_closed": false, "review_count": 156, "coordinates": {"latitude": 40.7269015463545, "longitude": -73.986101118587}, "id": "senya-new-york", "image_url": "https://s3-media4.fl.yelpcdn.com/bphoto/gqXh9cJA_03eVLcE4-KgAA/o.jpg", "categories": [{"alias": "japanese", "title": "Japanese"}], "rating": 4.0}, {"transactions": ["delivery", "pickup"], "distance": 4089.7893488239997, "price": "$$", "display_phone": "(646) 918-6553", "phone": "+16469186553", "url": "https://www.yelp.com/biz/nicks-pizza-bar-new-york?adjust_creative=gBcvfFpabk3CnzmXKdYe3w&utm_campaign=yelp_api_v3&utm_medium=api_v3_business_search&utm_source=gBcvfFpabk3CnzmXKdYe3w", "name": "Nick's Pizza Bar", "location": {"display_address": ["365 3rd Ave", "New York, NY 10016"], "country": "US", "state": "NY", "address3": "", "address2": "", "address1": "365 3rd Ave", "city": "New York", "zip_code": "10016"}, "is_closed": false, "review_count": 157, "coordinates": {"latitude": 40.740867, "longitude": -73.981231}, "id": "nicks-pizza-bar-new-york", "image_url": "https://s3-media1.fl.yelpcdn.com/bphoto/5KfKdjQQ5kQE8752l_rf2w/o.jpg", "categories": [{"alias": "pizza", "title": "Pizza"}, {"alias": "bars", "title": "Bars"}], "rating": 4.0}, {"transactions": [], "distance": 4222.21775314, "price": "$$", "display_phone": "", "phone": "", "url": "https://www.yelp.com/biz/very-fresh-noodles-new-york?adjust_creative=gBcvfFpabk3CnzmXKdYe3w&utm_campaign=yelp_api_v3&utm_medium=api_v3_business_search&utm_source=gBcvfFpabk3CnzmXKdYe3w", "name": "Very Fresh Noodles", "location": {"display_address": ["425 W 15th St", "New York, NY 10011"], "country": "US", "state": "NY", "address3": "", "address2": null, "address1": "425 W 15th St", "city": "New York", "zip_code": "10011"}, "is_closed": false, "review_count": 135, "coordinates": {"latitude": 40.7423387008486, "longitude": -74.0061374945942}, "id": "very-fresh-noodles-new-york", "image_url": "https://s3-media2.fl.yelpcdn.com/bphoto/v2pkW3snZrTTMN30WuxU1w/o.jpg", "categories": [{"alias": "taiwanese", "title": "Taiwanese"}, {"alias": "chinese", "title": "Chinese"}, {"alias": "noodles", "title": "Noodles"}], "rating": 4.0}, {"transactions": [], "distance": 5020.274975079999, "price": "$$", "display_phone": "(347) 405-9727", "phone": "+13474059727", "url": "https://www.yelp.com/biz/ital-kitchen-brooklyn-2?adjust_creative=gBcvfFpabk3CnzmXKdYe3w&utm_campaign=yelp_api_v3&utm_medium=api_v3_business_search&utm_source=gBcvfFpabk3CnzmXKdYe3w", "name": "Ital Kitchen", "location": {"display_address": ["1032 Union St", "Brooklyn, NY 11225"], "country": "US", "state": "NY", "address3": "", "address2": null, "address1": "1032 Union St", "city": "Brooklyn", "zip_code": "11225"}, "is_closed": false, "review_count": 61, "coordinates": {"latitude": 40.66962, "longitude": -73.95804}, "id": "ital-kitchen-brooklyn-2", "image_url": "https://s3-media1.fl.yelpcdn.com/bphoto/CvLiT1zEs3eZmgsyaAOcyg/o.jpg", "categories": [{"alias": "vegetarian", "title": "Vegetarian"}, {"alias": "vegan", "title": "Vegan"}], "rating": 4.5}, {"transactions": [], "distance": 5611.729473038, "price": "$$$", "display_phone": "(718) 606-1770", "phone": "+17186061770", "url": "https://www.yelp.com/biz/maiella-long-island-city?adjust_creative=gBcvfFpabk3CnzmXKdYe3w&utm_campaign=yelp_api_v3&utm_medium=api_v3_business_search&utm_source=gBcvfFpabk3CnzmXKdYe3w", "name": "Maiella", "location": {"display_address": ["4610 Center Blvd", "Long Island City, NY 11109"], "country": "US", "state": "NY", "address3": "", "address2": "", "address1": "4610 Center Blvd", "city": "Long Island City", "zip_code": "11109"}, "is_closed": false, "review_count": 372, "coordinates": {"latitude": 40.7470416595732, "longitude": -73.956579002435}, "id": "maiella-long-island-city", "image_url": "https://s3-media2.fl.yelpcdn.com/bphoto/FlACiBLR61A9A0gVKUQX4A/o.jpg", "categories": [{"alias": "italian", "title": "Italian"}, {"alias": "seafood", "title": "Seafood"}, {"alias": "breakfast_brunch", "title": "Breakfast & Brunch"}], "rating": 4.5}, {"transactions": [], "distance": 4416.511762, "price": "$$", "display_phone": "(718) 857-2337", "phone": "+17188572337", "url": "https://www.yelp.com/biz/landhaus-at-bergn-brooklyn?adjust_creative=gBcvfFpabk3CnzmXKdYe3w&utm_campaign=yelp_api_v3&utm_medium=api_v3_business_search&utm_source=gBcvfFpabk3CnzmXKdYe3w", "name": "Landhaus At Berg'n", "location": {"display_address": ["899 Bergen St", "Brooklyn, NY 11238"], "country": "US", "state": "NY", "address3": "", "address2": "", "address1": "899 Bergen St", "city": "Brooklyn", "zip_code": "11238"}, "is_closed": false, "review_count": 41, "coordinates": {"latitude": 40.67758, "longitude": -73.95736}, "id": "landhaus-at-bergn-brooklyn", "image_url": "https://s3-media1.fl.yelpcdn.com/bphoto/uRPlnKNa-N9UFf42Q1_ywA/o.jpg", "categories": [{"alias": "sandwiches", "title": "Sandwiches"}, {"alias": "newamerican", "title": "American (New)"}, {"alias": "burgers", "title": "Burgers"}], "rating": 4.5}, {"transactions": [], "distance": 1739.1537096179998, "price": "$$", "display_phone": "(212) 228-4667", "phone": "+12122284667", "url": "https://www.yelp.com/biz/marshall-stack-new-york?adjust_creative=gBcvfFpabk3CnzmXKdYe3w&utm_campaign=yelp_api_v3&utm_medium=api_v3_business_search&utm_source=gBcvfFpabk3CnzmXKdYe3w", "name": "Marshall Stack", "location": {"display_address": ["66 Rivington St", "New York, NY 10002"], "country": "US", "state": "NY", "address3": "", "address2": null, "address1": "66 Rivington St", "city": "New York", "zip_code": "10002"}, "is_closed": false, "review_count": 205, "coordinates": {"latitude": 40.720737, "longitude": -73.989944}, "id": "marshall-stack-new-york", "image_url": "https://s3-media3.fl.yelpcdn.com/bphoto/-yhFvbkKpoxhgU2dbOb8tw/o.jpg", "categories": [{"alias": "bars", "title": "Bars"}], "rating": 4.0}, {"transactions": ["delivery", "pickup"], "distance": 2978.422114202, "price": "$", "display_phone": "(347) 683-2605", "phone": "+13476832605", "url": "https://www.yelp.com/biz/santa-salsa-brooklyn?adjust_creative=gBcvfFpabk3CnzmXKdYe3w&utm_campaign=yelp_api_v3&utm_medium=api_v3_business_search&utm_source=gBcvfFpabk3CnzmXKdYe3w", "name": "Santa Salsa", "location": {"display_address": ["180 Grand St", "Brooklyn, NY 11211"], "country": "US", "state": "NY", "address3": "", "address2": "", "address1": "180 Grand St", "city": "Brooklyn", "zip_code": "11211"}, "is_closed": false, "review_count": 48, "coordinates": {"latitude": 40.71435, "longitude": -73.9609661}, "id": "santa-salsa-brooklyn", "image_url": "https://s3-media3.fl.yelpcdn.com/bphoto/1FfJV1TTtInwvxHGVGWChw/o.jpg", "categories": [{"alias": "venezuelan", "title": "Venezuelan"}, {"alias": "burgers", "title": "Burgers"}, {"alias": "hotdog", "title": "Hot Dogs"}], "rating": 4.5}, {"transactions": [], "distance": 4362.599837604, "price": "$$$", "display_phone": "(718) 389-3757", "phone": "+17183893757", "url": "https://www.yelp.com/biz/amber-steak-house-brooklyn-2?adjust_creative=gBcvfFpabk3CnzmXKdYe3w&utm_campaign=yelp_api_v3&utm_medium=api_v3_business_search&utm_source=gBcvfFpabk3CnzmXKdYe3w", "name": "Amber Steak House", "location": {"display_address": ["119 Nassau Ave", "Brooklyn, NY 11222"], "country": "US", "state": "NY", "address3": "", "address2": null, "address1": "119 Nassau Ave", "city": "Brooklyn", "zip_code": "11222"}, "is_closed": false, "review_count": 214, "coordinates": {"latitude": 40.724464173096, "longitude": -73.949018043155}, "id": "amber-steak-house-brooklyn-2", "image_url": "https://s3-media1.fl.yelpcdn.com/bphoto/jtub6CkWH0pU4iIKGQqMPQ/o.jpg", "categories": [{"alias": "steak", "title": "Steakhouses"}], "rating": 4.5}, {"transactions": ["delivery", "pickup"], "distance": 699.069373951, "price": "$$$", "display_phone": "(212) 766-2344", "phone": "+12127662344", "url": "https://www.yelp.com/biz/suteishi-new-york?adjust_creative=gBcvfFpabk3CnzmXKdYe3w&utm_campaign=yelp_api_v3&utm_medium=api_v3_business_search&utm_source=gBcvfFpabk3CnzmXKdYe3w", "name": "SUteiShi", "location": {"display_address": ["24 Peck Slip", "New York, NY 10038"], "country": "US", "state": "NY", "address3": "", "address2": "", "address1": "24 Peck Slip", "city": "New York", "zip_code": "10038"}, "is_closed": false, "review_count": 343, "coordinates": {"latitude": 40.70787, "longitude": -74.001937}, "id": "suteishi-new-york", "image_url": "https://s3-media3.fl.yelpcdn.com/bphoto/cMW7koGpwbjjrweEj_r-7Q/o.jpg", "categories": [{"alias": "japanese", "title": "Japanese"}, {"alias": "sushi", "title": "Sushi Bars"}], "rating": 4.0}, {"transactions": ["pickup"], "distance": 3805.0407759239997, "price": "$$", "display_phone": "(718) 599-3670", "phone": "+17185993670", "url": "https://www.yelp.com/biz/reunion-brooklyn-2?adjust_creative=gBcvfFpabk3CnzmXKdYe3w&utm_campaign=yelp_api_v3&utm_medium=api_v3_business_search&utm_source=gBcvfFpabk3CnzmXKdYe3w", "name": "Reunion", "location": {"display_address": ["544 Union Ave", "Brooklyn, NY 11211"], "country": "US", "state": "NY", "address3": "", "address2": "", "address1": "544 Union Ave", "city": "Brooklyn", "zip_code": "11211"}, "is_closed": false, "review_count": 168, "coordinates": {"latitude": 40.71704, "longitude": -73.951823}, "id": "reunion-brooklyn-2", "image_url": "https://s3-media2.fl.yelpcdn.com/bphoto/m7M1Hpd1k0hId0hRE9oM1g/o.jpg", "categories": [{"alias": "breakfast_brunch", "title": "Breakfast & Brunch"}, {"alias": "cafes", "title": "Cafes"}, {"alias": "mediterranean", "title": "Mediterranean"}], "rating": 4.0}, {"transactions": [], "distance": 4820.237231759999, "price": "$$", "display_phone": "(347) 789-3833", "phone": "+13477893833", "url": "https://www.yelp.com/biz/drink-brooklyn?adjust_creative=gBcvfFpabk3CnzmXKdYe3w&utm_campaign=yelp_api_v3&utm_medium=api_v3_business_search&utm_source=gBcvfFpabk3CnzmXKdYe3w", "name": "Drink", "location": {"display_address": ["768 Franklin Ave", "Brooklyn, NY 11238"], "country": "US", "state": "NY", "address3": "", "address2": "", "address1": "768 Franklin Ave", "city": "Brooklyn", "zip_code": "11238"}, "is_closed": false, "review_count": 55, "coordinates": {"latitude": 40.67218, "longitude": -73.95768}, "id": "drink-brooklyn", "image_url": "https://s3-media2.fl.yelpcdn.com/bphoto/cm6ngnj78h4-JB9eiNNQOg/o.jpg", "categories": [{"alias": "cocktailbars", "title": "Cocktail Bars"}, {"alias": "lounges", "title": "Lounges"}, {"alias": "tradamerican", "title": "American (Traditional)"}], "rating": 4.5}, {"transactions": [], "distance": 4049.9681617319998, "display_phone": "", "phone": "", "url": "https://www.yelp.com/biz/grand-army-plaza-brooklyn?adjust_creative=gBcvfFpabk3CnzmXKdYe3w&utm_campaign=yelp_api_v3&utm_medium=api_v3_business_search&utm_source=gBcvfFpabk3CnzmXKdYe3w", "name": "Grand Army Plaza", "location": {"display_address": ["Grand Army Plz", "Brooklyn, NY 11238"], "country": "US", "state": "NY", "address3": "", "address2": "", "address1": "Grand Army Plz", "city": "Brooklyn", "zip_code": "11238"}, "is_closed": false, "review_count": 52, "coordinates": {"latitude": 40.6739659558502, "longitude": -73.9701318740845}, "id": "grand-army-plaza-brooklyn", "image_url": "https://s3-media2.fl.yelpcdn.com/bphoto/WfQILt_5JJho3CP_05K8uQ/o.jpg", "categories": [{"alias": "landmarks", "title": "Landmarks & Historical Buildings"}], "rating": 4.5}, {"transactions": ["delivery", "pickup"], "distance": 2125.955199004, "price": "$$", "display_phone": "(646) 682-7080", "phone": "+16466827080", "url": "https://www.yelp.com/biz/root-and-bone-new-york?adjust_creative=gBcvfFpabk3CnzmXKdYe3w&utm_campaign=yelp_api_v3&utm_medium=api_v3_business_search&utm_source=gBcvfFpabk3CnzmXKdYe3w", "name": "Root & Bone", "location": {"display_address": ["200 E 3rd St", "New York, NY 10009"], "country": "US", "state": "NY", "address3": "", "address2": "", "address1": "200 E 3rd St", "city": "New York", "zip_code": "10009"}, "is_closed": false, "review_count": 988, "coordinates": {"latitude": 40.7226711, "longitude": -73.9833545}, "id": "root-and-bone-new-york", "image_url": "https://s3-media3.fl.yelpcdn.com/bphoto/i0T2LAr6CJbWy4IRf1Ojkw/o.jpg", "categories": [{"alias": "southern", "title": "Southern"}, {"alias": "comfortfood", "title": "Comfort Food"}, {"alias": "desserts", "title": "Desserts"}], "rating": 4.0}, {"transactions": [], "distance": 5779.074439862, "price": "$$", "display_phone": "(212) 300-4910", "phone": "+12123004910", "url": "https://www.yelp.com/biz/gotan-new-york-3?adjust_creative=gBcvfFpabk3CnzmXKdYe3w&utm_campaign=yelp_api_v3&utm_medium=api_v3_business_search&utm_source=gBcvfFpabk3CnzmXKdYe3w", "name": "Gotan", "location": {"display_address": ["20 W 46th St", "New York, NY 10036"], "country": "US", "state": "NY", "address3": "", "address2": "", "address1": "20 W 46th St", "city": "New York", "zip_code": "10036"}, "is_closed": false, "review_count": 133, "coordinates": {"latitude": 40.7563301, "longitude": -73.9803317}, "id": "gotan-new-york-3", "image_url": "https://s3-media4.fl.yelpcdn.com/bphoto/tcTQYMuqGdZ0UnXT5roPOg/o.jpg", "categories": [{"alias": "cafes", "title": "Cafes"}, {"alias": "breakfast_brunch", "title": "Breakfast & Brunch"}, {"alias": "coffee", "title": "Coffee & Tea"}], "rating": 4.5}, {"transactions": ["delivery", "pickup"], "distance": 3248.24518514, "price": "$$", "display_phone": "(718) 222-0777", "phone": "+17182220777", "url": "https://www.yelp.com/biz/babas-pierogies-brooklyn?adjust_creative=gBcvfFpabk3CnzmXKdYe3w&utm_campaign=yelp_api_v3&utm_medium=api_v3_business_search&utm_source=gBcvfFpabk3CnzmXKdYe3w", "name": "Baba's Pierogies", "location": {"display_address": ["295 3rd Ave", "Brooklyn, NY 11215"], "country": "US", "state": "NY", "address3": "", "address2": "", "address1": "295 3rd Ave", "city": "Brooklyn", "zip_code": "11215"}, "is_closed": false, "review_count": 198, "coordinates": {"latitude": 40.67687, "longitude": -73.98633}, "id": "babas-pierogies-brooklyn", "image_url": "https://s3-media2.fl.yelpcdn.com/bphoto/AJYADWC35Dg3oph4XWvXFw/o.jpg", "categories": [{"alias": "modern_european", "title": "Modern European"}], "rating": 4.5}, {"transactions": [], "distance": 3096.8922298959997, "price": "$$", "display_phone": "(212) 473-4300", "phone": "+12124734300", "url": "https://www.yelp.com/biz/ootoya-greenwich-village-new-york?adjust_creative=gBcvfFpabk3CnzmXKdYe3w&utm_campaign=yelp_api_v3&utm_medium=api_v3_business_search&utm_source=gBcvfFpabk3CnzmXKdYe3w", "name": "Ootoya Greenwich Village", "location": {"display_address": ["41 E 11th St", "New York, NY 10003"], "country": "US", "state": "NY", "address3": "", "address2": "", "address1": "41 E 11th St", "city": "New York", "zip_code": "10003"}, "is_closed": false, "review_count": 163, "coordinates": {"latitude": 40.7333107, "longitude": -73.9929962}, "id": "ootoya-greenwich-village-new-york", "image_url": "https://s3-media3.fl.yelpcdn.com/bphoto/sd4ikVMFAQyzqj3jCvbehA/o.jpg", "categories": [{"alias": "japanese", "title": "Japanese"}], "rating": 4.0}, {"transactions": [], "distance": 2013.730449048, "price": "$$$", "display_phone": "(212) 334-4043", "phone": "+12123344043", "url": "https://www.yelp.com/biz/tablao-new-york?adjust_creative=gBcvfFpabk3CnzmXKdYe3w&utm_campaign=yelp_api_v3&utm_medium=api_v3_business_search&utm_source=gBcvfFpabk3CnzmXKdYe3w", "name": "Tablao", "location": {"display_address": ["361 Greenwich St", "New York, NY 10013"], "country": "US", "state": "NY", "address3": "", "address2": null, "address1": "361 Greenwich St", "city": "New York", "zip_code": "10013"}, "is_closed": false, "review_count": 194, "coordinates": {"latitude": 40.71904, "longitude": -74.01016}, "id": "tablao-new-york", "image_url": "https://s3-media4.fl.yelpcdn.com/bphoto/zlGGoN_zny6oJInP0HRVQA/o.jpg", "categories": [{"alias": "spanish", "title": "Spanish"}, {"alias": "tapasmallplates", "title": "Tapas/Small Plates"}], "rating": 4.0}, {"transactions": [], "distance": 3559.6412097599996, "price": "$$", "display_phone": "(347) 425-9570", "phone": "+13474259570", "url": "https://www.yelp.com/biz/chuko-brooklyn-2?adjust_creative=gBcvfFpabk3CnzmXKdYe3w&utm_campaign=yelp_api_v3&utm_medium=api_v3_business_search&utm_source=gBcvfFpabk3CnzmXKdYe3w", "name": "Chuko", "location": {"display_address": ["565 Vanderbilt Ave", "Brooklyn, NY 11238"], "country": "US", "state": "NY", "address3": "", "address2": "", "address1": "565 Vanderbilt Ave", "city": "Brooklyn", "zip_code": "11238"}, "is_closed": false, "review_count": 835, "coordinates": {"latitude": 40.680753, "longitude": -73.967422}, "id": "chuko-brooklyn-2", "image_url": "https://s3-media4.fl.yelpcdn.com/bphoto/HsD0rqru8EvPSyNiG6nYTw/o.jpg", "categories": [{"alias": "asianfusion", "title": "Asian Fusion"}, {"alias": "ramen", "title": "Ramen"}], "rating": 4.0}, {"transactions": [], "distance": 6844.5278480199995, "price": "$$", "display_phone": "(347) 240-2813", "phone": "+13472402813", "url": "https://www.yelp.com/biz/wheated-brooklyn?adjust_creative=gBcvfFpabk3CnzmXKdYe3w&utm_campaign=yelp_api_v3&utm_medium=api_v3_business_search&utm_source=gBcvfFpabk3CnzmXKdYe3w", "name": "Wheated", "location": {"display_address": ["905 Church Ave", "Brooklyn, NY 11218"], "country": "US", "state": "NY", "address3": "", "address2": "", "address1": "905 Church Ave", "city": "Brooklyn", "zip_code": "11218"}, "is_closed": false, "review_count": 228, "coordinates": {"latitude": 40.6465968960541, "longitude": -73.9704950265688}, "id": "wheated-brooklyn", "image_url": "https://s3-media2.fl.yelpcdn.com/bphoto/FDt2PT2UzLwecLVkQPjVzg/o.jpg", "categories": [{"alias": "pizza", "title": "Pizza"}, {"alias": "cocktailbars", "title": "Cocktail Bars"}, {"alias": "whiskeybars", "title": "Whiskey Bars"}], "rating": 4.5}, {"transactions": [], "distance": 5137.9289944600005, "price": "$$", "display_phone": "(718) 418-6666", "phone": "+17184186666", "url": "https://www.yelp.com/biz/momo-sushi-shack-brooklyn?adjust_creative=gBcvfFpabk3CnzmXKdYe3w&utm_campaign=yelp_api_v3&utm_medium=api_v3_business_search&utm_source=gBcvfFpabk3CnzmXKdYe3w", "name": "Momo Sushi Shack", "location": {"display_address": ["43 Bogart St", "Brooklyn, NY 11206"], "country": "US", "state": "NY", "address3": "", "address2": "", "address1": "43 Bogart St", "city": "Brooklyn", "zip_code": "11206"}, "is_closed": false, "review_count": 585, "coordinates": {"latitude": 40.7051406133, "longitude": -73.933340055132}, "id": "momo-sushi-shack-brooklyn", "image_url": "https://s3-media2.fl.yelpcdn.com/bphoto/1uRDOKl1bY_mDTwiY165Mg/o.jpg", "categories": [{"alias": "japanese", "title": "Japanese"}, {"alias": "sushi", "title": "Sushi Bars"}, {"alias": "asianfusion", "title": "Asian Fusion"}], "rating": 4.0}, {"transactions": [], "distance": 3137.527743028, "price": "$", "display_phone": "(212) 924-6750", "phone": "+12129246750", "url": "https://www.yelp.com/biz/joe-coffee-new-york-4?adjust_creative=gBcvfFpabk3CnzmXKdYe3w&utm_campaign=yelp_api_v3&utm_medium=api_v3_business_search&utm_source=gBcvfFpabk3CnzmXKdYe3w", "name": "Joe Coffee", "location": {"display_address": ["141 Waverly Pl", "New York, NY 10014"], "country": "US", "state": "NY", "address3": "", "address2": "", "address1": "141 Waverly Pl", "city": "New York", "zip_code": "10014"}, "is_closed": false, "review_count": 319, "coordinates": {"latitude": 40.7332515610874, "longitude": -74.0006269059051}, "id": "joe-coffee-new-york-4", "image_url": "https://s3-media2.fl.yelpcdn.com/bphoto/W0p03glIJlJ0PFFV76aKEg/o.jpg", "categories": [{"alias": "coffee", "title": "Coffee & Tea"}], "rating": 4.0}, {"transactions": [], "distance": 3079.81327008, "price": "$$", "display_phone": "(718) 398-3181", "phone": "+17183983181", "url": "https://www.yelp.com/biz/wolf-and-deer-brooklyn?adjust_creative=gBcvfFpabk3CnzmXKdYe3w&utm_campaign=yelp_api_v3&utm_medium=api_v3_business_search&utm_source=gBcvfFpabk3CnzmXKdYe3w", "name": "Wolf and Deer", "location": {"display_address": ["74 5th Ave", "Brooklyn, NY 11217"], "country": "US", "state": "NY", "address3": "", "address2": "", "address1": "74 5th Ave", "city": "Brooklyn", "zip_code": "11217"}, "is_closed": false, "review_count": 212, "coordinates": {"latitude": 40.680759, "longitude": -73.977752}, "id": "wolf-and-deer-brooklyn", "image_url": "https://s3-media3.fl.yelpcdn.com/bphoto/aRjPiguhGrqH9w5CB92ALw/o.jpg", "categories": [{"alias": "newamerican", "title": "American (New)"}, {"alias": "cocktailbars", "title": "Cocktail Bars"}], "rating": 4.0}, {"transactions": [], "distance": 1970.491345664, "price": "$$", "display_phone": "", "phone": "", "url": "https://www.yelp.com/biz/everyman-espresso-new-york-2?adjust_creative=gBcvfFpabk3CnzmXKdYe3w&utm_campaign=yelp_api_v3&utm_medium=api_v3_business_search&utm_source=gBcvfFpabk3CnzmXKdYe3w", "name": "Everyman Espresso", "location": {"display_address": ["301 W Broadway", "New York, NY 10013"], "country": "US", "state": "NY", "address3": "", "address2": "", "address1": "301 W Broadway", "city": "New York", "zip_code": "10013"}, "is_closed": false, "review_count": 128, "coordinates": {"latitude": 40.7213607, "longitude": -74.0044096}, "id": "everyman-espresso-new-york-2", "image_url": "https://s3-media2.fl.yelpcdn.com/bphoto/_Giu8emLwFkLR3kcxR5k3w/o.jpg", "categories": [{"alias": "coffee", "title": "Coffee & Tea"}], "rating": 4.0}, {"transactions": ["delivery", "pickup"], "distance": 4692.87084548, "price": "$$", "display_phone": "(212) 696-1234", "phone": "+12126961234", "url": "https://www.yelp.com/biz/eons-greek-food-for-life-new-york?adjust_creative=gBcvfFpabk3CnzmXKdYe3w&utm_campaign=yelp_api_v3&utm_medium=api_v3_business_search&utm_source=gBcvfFpabk3CnzmXKdYe3w", "name": "EONS Greek Food for Life", "location": {"display_address": ["633 2nd Ave", "New York, NY 10016"], "country": "US", "state": "NY", "address3": "", "address2": "", "address1": "633 2nd Ave", "city": "New York", "zip_code": "10016"}, "is_closed": false, "review_count": 202, "coordinates": {"latitude": 40.745273, "longitude": -73.975875}, "id": "eons-greek-food-for-life-new-york", "image_url": "https://s3-media1.fl.yelpcdn.com/bphoto/Caq14-51x4J1uh2Ybq-Z4A/o.jpg", "categories": [{"alias": "greek", "title": "Greek"}, {"alias": "mediterranean", "title": "Mediterranean"}], "rating": 4.5}, {"transactions": [], "distance": 3566.004057318, "price": "$$", "display_phone": "(718) 638-8866", "phone": "+17186388866", "url": "https://www.yelp.com/biz/geido-brooklyn?adjust_creative=gBcvfFpabk3CnzmXKdYe3w&utm_campaign=yelp_api_v3&utm_medium=api_v3_business_search&utm_source=gBcvfFpabk3CnzmXKdYe3w", "name": "Geido", "location": {"display_address": ["331 Flatbush Ave", "Brooklyn, NY 11217"], "country": "US", "state": "NY", "address3": "", "address2": "", "address1": "331 Flatbush Ave", "city": "Brooklyn", "zip_code": "11217"}, "is_closed": false, "review_count": 261, "coordinates": {"latitude": 40.6779174804688, "longitude": -73.97265625}, "id": "geido-brooklyn", "image_url": "https://s3-media2.fl.yelpcdn.com/bphoto/iYT9mlXrCJsnYbytmCpm8A/o.jpg", "categories": [{"alias": "japanese", "title": "Japanese"}, {"alias": "sushi", "title": "Sushi Bars"}], "rating": 4.0}, {"transactions": [], "distance": 6668.4129438, "price": "$", "display_phone": "(347) 889-5676", "phone": "+13478895676", "url": "https://www.yelp.com/biz/cypress-inn-ridgewood?adjust_creative=gBcvfFpabk3CnzmXKdYe3w&utm_campaign=yelp_api_v3&utm_medium=api_v3_business_search&utm_source=gBcvfFpabk3CnzmXKdYe3w", "name": "Cypress Inn", "location": {"display_address": ["1702 Stanhope St", "Ridgewood, NY 11385"], "country": "US", "state": "NY", "address3": "", "address2": "", "address1": "1702 Stanhope St", "city": "Ridgewood", "zip_code": "11385"}, "is_closed": false, "review_count": 90, "coordinates": {"latitude": 40.705554, "longitude": -73.915183}, "id": "cypress-inn-ridgewood", "image_url": "https://s3-media2.fl.yelpcdn.com/bphoto/9wdqVx9QTI1xCejiRJxCWg/o.jpg", "categories": [{"alias": "cafes", "title": "Cafes"}, {"alias": "sandwiches", "title": "Sandwiches"}, {"alias": "coffee", "title": "Coffee & Tea"}], "rating": 4.5}, {"transactions": [], "distance": 2847.890156142, "price": "$$", "display_phone": "(212) 966-1060", "phone": "+12129661060", "url": "https://www.yelp.com/biz/the-grey-dog-new-york-6?adjust_creative=gBcvfFpabk3CnzmXKdYe3w&utm_campaign=yelp_api_v3&utm_medium=api_v3_business_search&utm_source=gBcvfFpabk3CnzmXKdYe3w", "name": "The Grey Dog", "location": {"display_address": ["49 Carmine St", "New York, NY 10014"], "country": "US", "state": "NY", "address3": "", "address2": "", "address1": "49 Carmine St", "city": "New York", "zip_code": "10014"}, "is_closed": false, "review_count": 183, "coordinates": {"latitude": 40.729998660113, "longitude": -74.0038951001712}, "id": "the-grey-dog-new-york-6", "image_url": "https://s3-media1.fl.yelpcdn.com/bphoto/dZ11PeGdHgXgX0a87B_Iog/o.jpg", "categories": [{"alias": "coffee", "title": "Coffee & Tea"}, {"alias": "breakfast_brunch", "title": "Breakfast & Brunch"}, {"alias": "tradamerican", "title": "American (Traditional)"}], "rating": 4.0}, {"transactions": ["delivery", "pickup"], "distance": 3733.0966796299995, "price": "$$", "display_phone": "(718) 636-4800", "phone": "+17186364800", "url": "https://www.yelp.com/biz/scottadito-osteria-toscana-brooklyn?adjust_creative=gBcvfFpabk3CnzmXKdYe3w&utm_campaign=yelp_api_v3&utm_medium=api_v3_business_search&utm_source=gBcvfFpabk3CnzmXKdYe3w", "name": "Scottadito Osteria Toscana", "location": {"display_address": ["788A Union St", "Brooklyn, NY 11215"], "country": "US", "state": "NY", "address3": "", "address2": "", "address1": "788A Union St", "city": "Brooklyn", "zip_code": "11215"}, "is_closed": false, "review_count": 656, "coordinates": {"latitude": 40.6746627, "longitude": -73.9766125}, "id": "scottadito-osteria-toscana-brooklyn", "image_url": "https://s3-media1.fl.yelpcdn.com/bphoto/2prK1GlrboaAvBwzQ9J4Yw/o.jpg", "categories": [{"alias": "italian", "title": "Italian"}, {"alias": "venues", "title": "Venues & Event Spaces"}], "rating": 4.0}, {"transactions": [], "distance": 2748.546563546, "price": "$$", "display_phone": "(212) 677-2110", "phone": "+12126772110", "url": "https://www.yelp.com/biz/burgers-by-honest-chops-new-york-4?adjust_creative=gBcvfFpabk3CnzmXKdYe3w&utm_campaign=yelp_api_v3&utm_medium=api_v3_business_search&utm_source=gBcvfFpabk3CnzmXKdYe3w", "name": "Burgers By Honest Chops", "location": {"display_address": ["99 Macdougal St", "New York, NY 10012"], "country": "US", "state": "NY", "address3": "", "address2": "", "address1": "99 Macdougal St", "city": "New York", "zip_code": "10012"}, "is_closed": false, "review_count": 109, "coordinates": {"latitude": 40.7296280240533, "longitude": -74.0010289102793}, "id": "burgers-by-honest-chops-new-york-4", "image_url": "https://s3-media2.fl.yelpcdn.com/bphoto/Ob9Zc1Ea5vqtRwvDjbNFbw/o.jpg", "categories": [{"alias": "halal", "title": "Halal"}, {"alias": "burgers", "title": "Burgers"}, {"alias": "hotdogs", "title": "Fast Food"}], "rating": 4.0}, {"transactions": [], "distance": 6571.7527647199995, "price": "$$$", "display_phone": "(212) 757-9393", "phone": "+12127579393", "url": "https://www.yelp.com/biz/k-rico-new-york?adjust_creative=gBcvfFpabk3CnzmXKdYe3w&utm_campaign=yelp_api_v3&utm_medium=api_v3_business_search&utm_source=gBcvfFpabk3CnzmXKdYe3w", "name": "K Rico", "location": {"display_address": ["772 9th Ave", "New York, NY 10019"], "country": "US", "state": "NY", "address3": "", "address2": "", "address1": "772 9th Ave", "city": "New York", "zip_code": "10019"}, "is_closed": false, "review_count": 329, "coordinates": {"latitude": 40.76438, "longitude": -73.9880699}, "id": "k-rico-new-york", "image_url": "https://s3-media2.fl.yelpcdn.com/bphoto/I367Ht16XkaM94mOeeGLgw/o.jpg", "categories": [{"alias": "bars", "title": "Bars"}, {"alias": "steak", "title": "Steakhouses"}, {"alias": "venues", "title": "Venues & Event Spaces"}], "rating": 4.5}, {"transactions": [], "distance": 1349.7958480155999, "price": "$$", "display_phone": "(212) 349-6779", "phone": "+12123496779", "url": "https://www.yelp.com/biz/forlinis-restaurant-new-york?adjust_creative=gBcvfFpabk3CnzmXKdYe3w&utm_campaign=yelp_api_v3&utm_medium=api_v3_business_search&utm_source=gBcvfFpabk3CnzmXKdYe3w", "name": "Forlini's Restaurant", "location": {"display_address": ["93 Baxter St", "New York, NY 10013"], "country": "US", "state": "NY", "address3": "", "address2": "", "address1": "93 Baxter St", "city": "New York", "zip_code": "10013"}, "is_closed": false, "review_count": 205, "coordinates": {"latitude": 40.7169851, "longitude": -73.9994497}, "id": "forlinis-restaurant-new-york", "image_url": "https://s3-media4.fl.yelpcdn.com/bphoto/maTbUjpZ14pJAX_jtBCumA/o.jpg", "categories": [{"alias": "italian", "title": "Italian"}, {"alias": "bars", "title": "Bars"}], "rating": 4.0}, {"transactions": ["delivery", "pickup"], "distance": 2324.41240951, "price": "$$", "display_phone": "(212) 687-3641", "phone": "+12126873641", "url": "https://www.yelp.com/biz/ggs-new-york-2?adjust_creative=gBcvfFpabk3CnzmXKdYe3w&utm_campaign=yelp_api_v3&utm_medium=api_v3_business_search&utm_source=gBcvfFpabk3CnzmXKdYe3w", "name": "GG's", "location": {"display_address": ["511 E 5th St", "New York, NY 10009"], "country": "US", "state": "NY", "address3": "", "address2": "", "address1": "511 E 5th St", "city": "New York", "zip_code": "10009"}, "is_closed": false, "review_count": 155, "coordinates": {"latitude": 40.7247772216797, "longitude": -73.9836273193359}, "id": "ggs-new-york-2", "image_url": "https://s3-media3.fl.yelpcdn.com/bphoto/BKiM3rBCQsKkQaalipGxoA/o.jpg", "categories": [{"alias": "newamerican", "title": "American (New)"}, {"alias": "pizza", "title": "Pizza"}], "rating": 4.0}, {"transactions": ["delivery", "pickup"], "distance": 3661.414744822, "price": "$$", "display_phone": "(718) 388-4626", "phone": "+17183884626", "url": "https://www.yelp.com/biz/the-regal-brooklyn?adjust_creative=gBcvfFpabk3CnzmXKdYe3w&utm_campaign=yelp_api_v3&utm_medium=api_v3_business_search&utm_source=gBcvfFpabk3CnzmXKdYe3w", "name": "The Regal", "location": {"display_address": ["163 Hope St", "Brooklyn, NY 11211"], "country": "US", "state": "NY", "address3": "", "address2": "", "address1": "163 Hope St", "city": "Brooklyn", "zip_code": "11211"}, "is_closed": false, "review_count": 166, "coordinates": {"latitude": 40.7118147, "longitude": -73.9516837}, "id": "the-regal-brooklyn", "image_url": "https://s3-media2.fl.yelpcdn.com/bphoto/7pRWDK9P0DH9i2SGes3XwA/o.jpg", "categories": [{"alias": "newamerican", "title": "American (New)"}, {"alias": "cocktailbars", "title": "Cocktail Bars"}, {"alias": "diners", "title": "Diners"}], "rating": 4.0}, {"transactions": ["delivery", "pickup"], "distance": 836.073695156, "price": "$$", "display_phone": "(646) 370-3337", "phone": "+16463703337", "url": "https://www.yelp.com/biz/trading-post-new-york?adjust_creative=gBcvfFpabk3CnzmXKdYe3w&utm_campaign=yelp_api_v3&utm_medium=api_v3_business_search&utm_source=gBcvfFpabk3CnzmXKdYe3w", "name": "Trading Post", "location": {"display_address": ["170 John St", "New York, NY 10038"], "country": "US", "state": "NY", "address3": "", "address2": null, "address1": "170 John St", "city": "New York", "zip_code": "10038"}, "is_closed": false, "review_count": 228, "coordinates": {"latitude": 40.7059604, "longitude": -74.0041871}, "id": "trading-post-new-york", "image_url": "https://s3-media2.fl.yelpcdn.com/bphoto/_GFWoK9sBpqCPouVyOAPPw/o.jpg", "categories": [{"alias": "bars", "title": "Bars"}, {"alias": "seafood", "title": "Seafood"}, {"alias": "newamerican", "title": "American (New)"}], "rating": 4.0}, {"transactions": [], "distance": 4387.755431144, "price": "$$", "display_phone": "(718) 389-0839", "phone": "+17183890839", "url": "https://www.yelp.com/biz/the-richardson-brooklyn?adjust_creative=gBcvfFpabk3CnzmXKdYe3w&utm_campaign=yelp_api_v3&utm_medium=api_v3_business_search&utm_source=gBcvfFpabk3CnzmXKdYe3w", "name": "The Richardson", "location": {"display_address": ["451 Graham Ave", "Brooklyn, NY 11222"], "country": "US", "state": "NY", "address3": "", "address2": "", "address1": "451 Graham Ave", "city": "Brooklyn", "zip_code": "11222"}, "is_closed": false, "review_count": 209, "coordinates": {"latitude": 40.7188720703125, "longitude": -73.9453811645508}, "id": "the-richardson-brooklyn", "image_url": "https://s3-media4.fl.yelpcdn.com/bphoto/KAjwMv6k0pNgGItoU1PkWw/o.jpg", "categories": [{"alias": "cocktailbars", "title": "Cocktail Bars"}, {"alias": "whiskeybars", "title": "Whiskey Bars"}, {"alias": "tapasmallplates", "title": "Tapas/Small Plates"}], "rating": 4.0}, {"transactions": [], "distance": 4676.096050923999, "price": "$$", "display_phone": "(212) 695-5533", "phone": "+12126955533", "url": "https://www.yelp.com/biz/cafe-hanamizuki-new-york?adjust_creative=gBcvfFpabk3CnzmXKdYe3w&utm_campaign=yelp_api_v3&utm_medium=api_v3_business_search&utm_source=gBcvfFpabk3CnzmXKdYe3w", "name": "Cafe Hanamizuki", "location": {"display_address": ["143 W 29th St", "New York, NY 10001"], "country": "US", "state": "NY", "address3": "", "address2": "", "address1": "143 W 29th St", "city": "New York", "zip_code": "10001"}, "is_closed": false, "review_count": 345, "coordinates": {"latitude": 40.7474471, "longitude": -73.9915989}, "id": "cafe-hanamizuki-new-york", "image_url": "https://s3-media3.fl.yelpcdn.com/bphoto/YxpJfOl69I85-nc_RMX3Lg/o.jpg", "categories": [{"alias": "cafes", "title": "Cafes"}], "rating": 4.0}, {"transactions": [], "distance": 3739.6843519859995, "price": "$$$", "display_phone": "(212) 777-2410", "phone": "+12127772410", "url": "https://www.yelp.com/biz/maialino-new-york?adjust_creative=gBcvfFpabk3CnzmXKdYe3w&utm_campaign=yelp_api_v3&utm_medium=api_v3_business_search&utm_source=gBcvfFpabk3CnzmXKdYe3w", "name": "Maialino", "location": {"display_address": ["2 Lexington Ave", "New York, NY 10010"], "country": "US", "state": "NY", "address3": "", "address2": "", "address1": "2 Lexington Ave", "city": "New York", "zip_code": "10010"}, "is_closed": false, "review_count": 1095, "coordinates": {"latitude": 40.738437, "longitude": -73.985686}, "id": "maialino-new-york", "image_url": "https://s3-media4.fl.yelpcdn.com/bphoto/1WJjyQo9ue2KcM7YycPTSg/o.jpg", "categories": [{"alias": "italian", "title": "Italian"}, {"alias": "steak", "title": "Steakhouses"}, {"alias": "breakfast_brunch", "title": "Breakfast & Brunch"}], "rating": 4.0}, {"transactions": [], "distance": 4117.060580728, "price": "$$$", "display_phone": "(212) 686-1006", "phone": "+12126861006", "url": "https://www.yelp.com/biz/upland-new-york?adjust_creative=gBcvfFpabk3CnzmXKdYe3w&utm_campaign=yelp_api_v3&utm_medium=api_v3_business_search&utm_source=gBcvfFpabk3CnzmXKdYe3w", "name": "Upland", "location": {"display_address": ["345 Park Ave S", "New York, NY 10010"], "country": "US", "state": "NY", "address3": "", "address2": "", "address1": "345 Park Ave S", "city": "New York", "zip_code": "10010"}, "is_closed": false, "review_count": 552, "coordinates": {"latitude": 40.7417127690953, "longitude": -73.9844768062542}, "id": "upland-new-york", "image_url": "https://s3-media1.fl.yelpcdn.com/bphoto/fqjVO8RT1j-LVRhL3MBtyA/o.jpg", "categories": [{"alias": "newamerican", "title": "American (New)"}], "rating": 4.0}, {"transactions": ["pickup"], "distance": 3762.1554054719995, "price": "$$", "display_phone": "(718) 383-0045", "phone": "+17183830045", "url": "https://www.yelp.com/biz/chimu-bistro-brooklyn?adjust_creative=gBcvfFpabk3CnzmXKdYe3w&utm_campaign=yelp_api_v3&utm_medium=api_v3_business_search&utm_source=gBcvfFpabk3CnzmXKdYe3w", "name": "Chimu Bistro", "location": {"display_address": ["482 Union Ave", "Brooklyn, NY 11211"], "country": "US", "state": "NY", "address3": "", "address2": null, "address1": "482 Union Ave", "city": "Brooklyn", "zip_code": "11211"}, "is_closed": false, "review_count": 662, "coordinates": {"latitude": 40.714903, "longitude": -73.95144}, "id": "chimu-bistro-brooklyn", "image_url": "https://s3-media1.fl.yelpcdn.com/bphoto/NtUomU7r3c-D321a9xGftQ/o.jpg", "categories": [{"alias": "steak", "title": "Steakhouses"}, {"alias": "peruvian", "title": "Peruvian"}, {"alias": "seafood", "title": "Seafood"}], "rating": 4.0}, {"transactions": [], "distance": 6993.85528794, "price": "$$", "display_phone": "(718) 284-5800", "phone": "+17182845800", "url": "https://www.yelp.com/biz/werkstatt-brooklyn-2?adjust_creative=gBcvfFpabk3CnzmXKdYe3w&utm_campaign=yelp_api_v3&utm_medium=api_v3_business_search&utm_source=gBcvfFpabk3CnzmXKdYe3w", "name": "Werkstatt", "location": {"display_address": ["509 Coney Island Ave", "Brooklyn, NY 11218"], "country": "US", "state": "NY", "address3": "", "address2": "", "address1": "509 Coney Island Ave", "city": "Brooklyn", "zip_code": "11218"}, "is_closed": false, "review_count": 126, "coordinates": {"latitude": 40.6452616, "longitude": -73.9702023}, "id": "werkstatt-brooklyn-2", "image_url": "https://s3-media3.fl.yelpcdn.com/bphoto/AogvUCvzuJRbXh3h_nBU3A/o.jpg", "categories": [{"alias": "austrian", "title": "Austrian"}, {"alias": "breakfast_brunch", "title": "Breakfast & Brunch"}, {"alias": "bars", "title": "Bars"}], "rating": 4.5}, {"transactions": [], "distance": 1255.5805943569999, "price": "$", "display_phone": "", "phone": "", "url": "https://www.yelp.com/biz/the-chinese-couple-vendor-aka-the-dollar-cart-new-york?adjust_creative=gBcvfFpabk3CnzmXKdYe3w&utm_campaign=yelp_api_v3&utm_medium=api_v3_business_search&utm_source=gBcvfFpabk3CnzmXKdYe3w", "name": "The Chinese Couple Vendor aka The Dollar Cart!", "location": {"display_address": ["Canal St & Elizabeth St", "New York, NY 10013"], "country": "US", "state": "NY", "address3": "", "address2": "", "address1": "Canal St & Elizabeth St", "city": "New York", "zip_code": "10013"}, "is_closed": false, "review_count": 44, "coordinates": {"latitude": 40.7165422558221, "longitude": -73.9969864385006}, "id": "the-chinese-couple-vendor-aka-the-dollar-cart-new-york", "image_url": "https://s3-media3.fl.yelpcdn.com/bphoto/6w8NOGIzcdLCdYJl7MPh0g/o.jpg", "categories": [{"alias": "foodstands", "title": "Food Stands"}, {"alias": "chinese", "title": "Chinese"}], "rating": 4.5}, {"transactions": ["delivery", "pickup"], "distance": 2939.8570169799996, "price": "$$", "display_phone": "(718) 388-2170", "phone": "+17183882170", "url": "https://www.yelp.com/biz/rosamunde-sausage-grill-brooklyn?adjust_creative=gBcvfFpabk3CnzmXKdYe3w&utm_campaign=yelp_api_v3&utm_medium=api_v3_business_search&utm_source=gBcvfFpabk3CnzmXKdYe3w", "name": "Rosamunde Sausage Grill", "location": {"display_address": ["285 Bedford Ave", "Brooklyn, NY 11211"], "country": "US", "state": "NY", "address3": "", "address2": null, "address1": "285 Bedford Ave", "city": "Brooklyn", "zip_code": "11211"}, "is_closed": false, "review_count": 217, "coordinates": {"latitude": 40.7140289, "longitude": -73.961305}, "id": "rosamunde-sausage-grill-brooklyn", "image_url": "https://s3-media4.fl.yelpcdn.com/bphoto/YjCjBTYxNiqS7Xd_JgPOQA/o.jpg", "categories": [{"alias": "hotdog", "title": "Hot Dogs"}, {"alias": "german", "title": "German"}, {"alias": "bars", "title": "Bars"}], "rating": 4.0}, {"transactions": [], "distance": 1469.1215854139998, "price": "$$", "display_phone": "(646) 828-8996", "phone": "+16468288996", "url": "https://www.yelp.com/biz/hanks-juicy-beef-new-york-4?adjust_creative=gBcvfFpabk3CnzmXKdYe3w&utm_campaign=yelp_api_v3&utm_medium=api_v3_business_search&utm_source=gBcvfFpabk3CnzmXKdYe3w", "name": "Hank's Juicy Beef", "location": {"display_address": ["84 Chambers St", "New York, NY 11101"], "country": "US", "state": "NY", "address3": "", "address2": "", "address1": "84 Chambers St", "city": "New York", "zip_code": "11101"}, "is_closed": false, "review_count": 89, "coordinates": {"latitude": 40.714415810838, "longitude": -74.0070888078064}, "id": "hanks-juicy-beef-new-york-4", "image_url": "https://s3-media4.fl.yelpcdn.com/bphoto/i4OnJ3oLu1r16vGTbNpIWg/o.jpg", "categories": [{"alias": "newamerican", "title": "American (New)"}, {"alias": "italian", "title": "Italian"}, {"alias": "sandwiches", "title": "Sandwiches"}], "rating": 4.5}, {"transactions": [], "distance": 4967.470598472, "price": "$$", "display_phone": "(212) 564-4430", "phone": "+12125644430", "url": "https://www.yelp.com/biz/barn-joo-35-new-york?adjust_creative=gBcvfFpabk3CnzmXKdYe3w&utm_campaign=yelp_api_v3&utm_medium=api_v3_business_search&utm_source=gBcvfFpabk3CnzmXKdYe3w", "name": "Barn Joo 35", "location": {"display_address": ["34 W 35th St", "New York, NY 10001"], "country": "US", "state": "NY", "address3": "", "address2": "", "address1": "34 W 35th St", "city": "New York", "zip_code": "10001"}, "is_closed": false, "review_count": 421, "coordinates": {"latitude": 40.749641418457, "longitude": -73.9858245849609}, "id": "barn-joo-35-new-york", "image_url": "https://s3-media2.fl.yelpcdn.com/bphoto/_l1ZhP22bulR2pkNTowONA/o.jpg", "categories": [{"alias": "korean", "title": "Korean"}, {"alias": "gastropubs", "title": "Gastropubs"}, {"alias": "tapasmallplates", "title": "Tapas/Small Plates"}], "rating": 4.5}, {"transactions": ["delivery", "pickup"], "distance": 2768.357056144, "price": "$$", "display_phone": "(212) 260-2604", "phone": "+12122602604", "url": "https://www.yelp.com/biz/white-oak-tavern-new-york-2?adjust_creative=gBcvfFpabk3CnzmXKdYe3w&utm_campaign=yelp_api_v3&utm_medium=api_v3_business_search&utm_source=gBcvfFpabk3CnzmXKdYe3w", "name": "White Oak Tavern", "location": {"display_address": ["21 Waverly Pl", "New York, NY 10003"], "country": "US", "state": "NY", "address3": "", "address2": "", "address1": "21 Waverly Pl", "city": "New York", "zip_code": "10003"}, "is_closed": false, "review_count": 193, "coordinates": {"latitude": 40.7303379323275, "longitude": -73.9946855663966}, "id": "white-oak-tavern-new-york-2", "image_url": "https://s3-media2.fl.yelpcdn.com/bphoto/W_dXK7KSfJpWVKgPG6iuZw/o.jpg", "categories": [{"alias": "bars", "title": "Bars"}, {"alias": "comfortfood", "title": "Comfort Food"}, {"alias": "tradamerican", "title": "American (Traditional)"}], "rating": 4.0}], "total": 131348}