{"region": {"center": {"latitude": 40.70544486444615, "longitude": -73.99429321289062}}, "businesses": [{"transactions": ["delivery", "pickup"], "distance": 3089.18526157, "price": "$$", "display_phone": "(212) 228-2466", "phone": "+12122282466", "url": "https://www.yelp.com/biz/il-bambino-new-york?adjust_creative=gBcvfFpabk3CnzmXKdYe3w&utm_campaign=yelp_api_v3&utm_medium=api_v3_business_search&utm_source=gBcvfFpabk3CnzmXKdYe3w", "name": "Il Bambino", "location": {"display_address": ["48 W 8th St", "New York, NY 10011"], "country": "US", "state": "NY", "address3": "", "address2": "", "address1": "48 W 8th St", "city": "New York", "zip_code": "10011"}, "is_closed": false, "review_count": 96, "coordinates": {"latitude": 40.73313, "longitude": -73.99867}, "id": "il-bambino-new-york", "image_url": "https://s3-media2.fl.yelpcdn.com/bphoto/aYkBRv3-vRhZmcw02UVVxA/o.jpg", "categories": [{"alias": "italian", "title": "Italian"}, {"alias": "sandwiches", "title": "Sandwiches"}, {"alias": "wine_bars", "title": "Wine Bars"}], "rating": 4.5}, {"transactions": [], "distance": 4269.87272455, "price": "$$", "display_phone": "(718) 389-3904", "phone": "+17183893904", "url": "https://www.yelp.com/biz/the-moonlight-mile-brooklyn?adjust_creative=gBcvfFpabk3CnzmXKdYe3w&utm_campaign=yelp_api_v3&utm_medium=api_v3_business_search&utm_source=gBcvfFpabk3CnzmXKdYe3w", "name": "The Moonlight Mile", "location": {"display_address": ["200 Franklin St", "Brooklyn, NY 11222"], "country": "US", "state": "NY", "address3": "", "address2": "", "address1": "200 Franklin St", "city": "Brooklyn", "zip_code": "11222"}, "is_closed": false, "review_count": 49, "coordinates": {"latitude": 40.7321141, "longitude": -73.9578424}, "id": "the-moonlight-mile-brooklyn", "image_url": "https://s3-media3.fl.yelpcdn.com/bphoto/ERzk-SfC6g388_nDsjRVgQ/o.jpg", "categories": [{"alias": "cocktailbars", "title": "Cocktail Bars"}, {"alias": "whiskeybars", "title": "Whiskey Bars"}], "rating": 5.0}, {"transactions": ["delivery", "pickup"], "distance": 2271.80147557, "price": "$", "display_phone": "(212) 353-0800", "phone": "+12123530800", "url": "https://www.yelp.com/biz/tac-n-roll-new-york-3?adjust_creative=gBcvfFpabk3CnzmXKdYe3w&utm_campaign=yelp_api_v3&utm_medium=api_v3_business_search&utm_source=gBcvfFpabk3CnzmXKdYe3w", "name": "Tac N Roll", "location": {"display_address": ["124 E 4th St", "New York, NY 10003"], "country": "US", "state": "NY", "address3": "", "address2": null, "address1": "124 E 4th St", "city": "New York", "zip_code": "10003"}, "is_closed": false, "review_count": 100, "coordinates": {"latitude": 40.7252676, "longitude": -73.9877743}, "id": "tac-n-roll-new-york-3", "image_url": "https://s3-media2.fl.yelpcdn.com/bphoto/mxTRLTwgI1DgG3IOOO5FTQ/o.jpg", "categories": [{"alias": "tacos", "title": "Tacos"}, {"alias": "hotdogs", "title": "Fast Food"}, {"alias": "sandwiches", "title": "Sandwiches"}], "rating": 4.5}, {"transactions": [], "distance": 1591.136433392, "price": "$$$$", "display_phone": "(212) 226-1444", "phone": "+12122261444", "url": "https://www.yelp.com/biz/atera-new-york?adjust_creative=gBcvfFpabk3CnzmXKdYe3w&utm_campaign=yelp_api_v3&utm_medium=api_v3_business_search&utm_source=gBcvfFpabk3CnzmXKdYe3w", "name": "Atera", "location": {"display_address": ["77 Worth St", "New York, NY 10013"], "country": "US", "state": "NY", "address3": "", "address2": "", "address1": "77 Worth St", "city": "New York", "zip_code": "10013"}, "is_closed": false, "review_count": 179, "coordinates": {"latitude": 40.71694, "longitude": -74.0057}, "id": "atera-new-york", "image_url": "https://s3-media1.fl.yelpcdn.com/bphoto/Ny2dh14GIi8m1bD-Xef4bA/o.jpg", "categories": [{"alias": "tradamerican", "title": "American (Traditional)"}], "rating": 4.5}, {"transactions": [], "distance": 2448.1655056219997, "price": "$$$", "display_phone": "(212) 473-0220", "phone": "+12124730220", "url": "https://www.yelp.com/biz/pylos-new-york?adjust_creative=gBcvfFpabk3CnzmXKdYe3w&utm_campaign=yelp_api_v3&utm_medium=api_v3_business_search&utm_source=gBcvfFpabk3CnzmXKdYe3w", "name": "Pylos", "location": {"display_address": ["128 E 7th St", "New York, NY 10009"], "country": "US", "state": "NY", "address3": "", "address2": null, "address1": "128 E 7th St", "city": "New York", "zip_code": "10009"}, "is_closed": false, "review_count": 956, "coordinates": {"latitude": 40.72608, "longitude": -73.98415}, "id": "pylos-new-york", "image_url": "https://s3-media1.fl.yelpcdn.com/bphoto/gQdXP4qPNl1IVCWRcH6M4Q/o.jpg", "categories": [{"alias": "greek", "title": "Greek"}], "rating": 4.5}, {"transactions": [], "distance": 993.7678523349999, "price": "$", "display_phone": "(646) 726-4166", "phone": "+16467264166", "url": "https://www.yelp.com/biz/t-swirl-cr%C3%AApe-new-york-15?adjust_creative=gBcvfFpabk3CnzmXKdYe3w&utm_campaign=yelp_api_v3&utm_medium=api_v3_business_search&utm_source=gBcvfFpabk3CnzmXKdYe3w", "name": "T-Swirl Cr\u00eape", "location": {"display_address": ["2 Mott St", "New York, NY 10013"], "country": "US", "state": "NY", "address3": "", "address2": "", "address1": "2 Mott St", "city": "New York", "zip_code": "10013"}, "is_closed": false, "review_count": 113, "coordinates": {"latitude": 40.71393, "longitude": -73.9985899}, "id": "t-swirl-cr\u00eape-new-york-15", "image_url": "https://s3-media4.fl.yelpcdn.com/bphoto/Fqyq9hvHPJ8Z7hgYShMg_A/o.jpg", "categories": [{"alias": "desserts", "title": "Desserts"}, {"alias": "gluten_free", "title": "Gluten-Free"}, {"alias": "creperies", "title": "Creperies"}], "rating": 4.5}, {"transactions": [], "distance": 4513.80602104, "price": "$", "display_phone": "(347) 223-4865", "phone": "+13472234865", "url": "https://www.yelp.com/biz/bread-and-joe-brooklyn-2?adjust_creative=gBcvfFpabk3CnzmXKdYe3w&utm_campaign=yelp_api_v3&utm_medium=api_v3_business_search&utm_source=gBcvfFpabk3CnzmXKdYe3w", "name": "Bread & Joe", "location": {"display_address": ["618 4th Ave", "Brooklyn, NY 11215"], "country": "US", "state": "NY", "address3": "", "address2": "", "address1": "618 4th Ave", "city": "Brooklyn", "zip_code": "11215"}, "is_closed": false, "review_count": 59, "coordinates": {"latitude": 40.66485, "longitude": -73.99383}, "id": "bread-and-joe-brooklyn-2", "image_url": "https://s3-media2.fl.yelpcdn.com/bphoto/FB2DmltGry5d9wzJFWdfrw/o.jpg", "categories": [{"alias": "coffee", "title": "Coffee & Tea"}, {"alias": "bakeries", "title": "Bakeries"}, {"alias": "bubbletea", "title": "Bubble Tea"}], "rating": 5.0}, {"transactions": [], "distance": 1876.149098986, "price": "$$", "display_phone": "(646) 370-5699", "phone": "+16463705699", "url": "https://www.yelp.com/biz/koneko-new-york-3?adjust_creative=gBcvfFpabk3CnzmXKdYe3w&utm_campaign=yelp_api_v3&utm_medium=api_v3_business_search&utm_source=gBcvfFpabk3CnzmXKdYe3w", "name": "Koneko", "location": {"display_address": ["26 Clinton St", "New York, NY 10002"], "country": "US", "state": "NY", "address3": "", "address2": "", "address1": "26 Clinton St", "city": "New York", "zip_code": "10002"}, "is_closed": false, "review_count": 152, "coordinates": {"latitude": 40.720455, "longitude": -73.98413}, "id": "koneko-new-york-3", "image_url": "https://s3-media3.fl.yelpcdn.com/bphoto/SyW-r8doEvu6IgqRS3sMzA/o.jpg", "categories": [{"alias": "cafes", "title": "Cafes"}, {"alias": "venues", "title": "Venues & Event Spaces"}, {"alias": "breakfast_brunch", "title": "Breakfast & Brunch"}], "rating": 4.5}, {"transactions": [], "distance": 199.588335125, "display_phone": "(718) 858-4708", "phone": "+17188584708", "url": "https://www.yelp.com/biz/empire-fulton-ferry-state-park-brooklyn?adjust_creative=gBcvfFpabk3CnzmXKdYe3w&utm_campaign=yelp_api_v3&utm_medium=api_v3_business_search&utm_source=gBcvfFpabk3CnzmXKdYe3w", "name": "Empire-Fulton Ferry State Park", "location": {"display_address": ["26 New Dock St", "Brooklyn, NY 11201"], "country": "US", "state": "NY", "address3": "", "address2": null, "address1": "26 New Dock St", "city": "Brooklyn", "zip_code": "11201"}, "is_closed": false, "review_count": 49, "coordinates": {"latitude": 40.7040419, "longitude": -73.9935651}, "id": "empire-fulton-ferry-state-park-brooklyn", "image_url": "https://s3-media3.fl.yelpcdn.com/bphoto/OBBlf9Oyhha5hPTOaf6FUg/o.jpg", "categories": [{"alias": "parks", "title": "Parks"}], "rating": 4.5}, {"transactions": [], "distance": 4207.739164896, "price": "$$", "display_phone": "(718) 389-3828", "phone": "+17183893828", "url": "https://www.yelp.com/biz/cherry-point-brooklyn?adjust_creative=gBcvfFpabk3CnzmXKdYe3w&utm_campaign=yelp_api_v3&utm_medium=api_v3_business_search&utm_source=gBcvfFpabk3CnzmXKdYe3w", "name": "Cherry Point", "location": {"display_address": ["664 Manhattan Ave", "Brooklyn, NY 11222"], "country": "US", "state": "NY", "address3": "", "address2": "", "address1": "664 Manhattan Ave", "city": "Brooklyn", "zip_code": "11222"}, "is_closed": false, "review_count": 51, "coordinates": {"latitude": 40.7244954175426, "longitude": -73.9511575076571}, "id": "cherry-point-brooklyn", "image_url": "https://s3-media1.fl.yelpcdn.com/bphoto/nWSrRX26CZHot7APmAzrBg/o.jpg", "categories": [{"alias": "newamerican", "title": "American (New)"}, {"alias": "seafood", "title": "Seafood"}, {"alias": "cocktailbars", "title": "Cocktail Bars"}], "rating": 4.5}, {"transactions": [], "distance": 1952.771868528, "price": "$", "display_phone": "(212) 677-5415", "phone": "+12126775415", "url": "https://www.yelp.com/biz/pause-cafe-new-york?adjust_creative=gBcvfFpabk3CnzmXKdYe3w&utm_campaign=yelp_api_v3&utm_medium=api_v3_business_search&utm_source=gBcvfFpabk3CnzmXKdYe3w", "name": "Pause Cafe", "location": {"display_address": ["3 Clinton St", "New York, NY 10002"], "country": "US", "state": "NY", "address3": "", "address2": "", "address1": "3 Clinton St", "city": "New York", "zip_code": "10002"}, "is_closed": false, "review_count": 224, "coordinates": {"latitude": 40.7212448, "longitude": -73.9841461}, "id": "pause-cafe-new-york", "image_url": "https://s3-media2.fl.yelpcdn.com/bphoto/4VFzqDKBkr0fOtRVKYT_5g/o.jpg", "categories": [{"alias": "moroccan", "title": "Moroccan"}, {"alias": "cafes", "title": "Cafes"}, {"alias": "juicebars", "title": "Juice Bars & Smoothies"}], "rating": 4.5}, {"transactions": [], "distance": 3047.401806216, "price": "$$", "display_phone": "(646) 678-5263", "phone": "+16466785263", "url": "https://www.yelp.com/biz/arts-and-crafts-beer-parlor-new-york?adjust_creative=gBcvfFpabk3CnzmXKdYe3w&utm_campaign=yelp_api_v3&utm_medium=api_v3_business_search&utm_source=gBcvfFpabk3CnzmXKdYe3w", "name": "Arts and Crafts Beer Parlor", "location": {"display_address": ["26 W 8th St", "New York, NY 10011"], "country": "US", "state": "NY", "address3": "", "address2": "", "address1": "26 W 8th St", "city": "New York", "zip_code": "10011"}, "is_closed": false, "review_count": 177, "coordinates": {"latitude": 40.7327283010334, "longitude": -73.9977158235951}, "id": "arts-and-crafts-beer-parlor-new-york", "image_url": "https://s3-media4.fl.yelpcdn.com/bphoto/DpHSqM156AjFn7BKTlBXaQ/o.jpg", "categories": [{"alias": "pubs", "title": "Pubs"}, {"alias": "galleries", "title": "Art Galleries"}], "rating": 4.5}, {"transactions": [], "distance": 1585.6485839919999, "price": "$$", "display_phone": "(212) 925-8815", "phone": "+12129258815", "url": "https://www.yelp.com/biz/the-boil-new-york-3?adjust_creative=gBcvfFpabk3CnzmXKdYe3w&utm_campaign=yelp_api_v3&utm_medium=api_v3_business_search&utm_source=gBcvfFpabk3CnzmXKdYe3w", "name": "The Boil", "location": {"display_address": ["139 Chrystie St", "New York, NY 10002"], "country": "US", "state": "NY", "address3": "", "address2": null, "address1": "139 Chrystie St", "city": "New York", "zip_code": "10002"}, "is_closed": false, "review_count": 1371, "coordinates": {"latitude": 40.719683, "longitude": -73.993304}, "id": "the-boil-new-york-3", "image_url": "https://s3-media4.fl.yelpcdn.com/bphoto/sKmNzP8Fu24JmuZKh9xNUw/o.jpg", "categories": [{"alias": "cajun", "title": "Cajun/Creole"}, {"alias": "seafood", "title": "Seafood"}, {"alias": "wine_bars", "title": "Wine Bars"}], "rating": 4.5}, {"transactions": [], "distance": 2847.332519832, "price": "$", "display_phone": "(917) 710-2092", "phone": "+19177102092", "url": "https://www.yelp.com/biz/ny-dosas-new-york?adjust_creative=gBcvfFpabk3CnzmXKdYe3w&utm_campaign=yelp_api_v3&utm_medium=api_v3_business_search&utm_source=gBcvfFpabk3CnzmXKdYe3w", "name": "NY Dosas", "location": {"display_address": ["50 Washington Sq S", "New York, NY 10014"], "country": "US", "state": "NY", "address3": "", "address2": "", "address1": "50 Washington Sq S", "city": "New York", "zip_code": "10014"}, "is_closed": false, "review_count": 319, "coordinates": {"latitude": 40.7308386079893, "longitude": -73.99863779767}, "id": "ny-dosas-new-york", "image_url": "https://s3-media1.fl.yelpcdn.com/bphoto/lCXyVKX-uqyPezcqjB4vVw/o.jpg", "categories": [{"alias": "indpak", "title": "Indian"}, {"alias": "foodstands", "title": "Food Stands"}, {"alias": "vegetarian", "title": "Vegetarian"}], "rating": 4.5}, {"transactions": [], "distance": 2732.75668507, "price": "$$", "display_phone": "(212) 777-5415", "phone": "+12127775415", "url": "https://www.yelp.com/biz/angels-share-new-york?adjust_creative=gBcvfFpabk3CnzmXKdYe3w&utm_campaign=yelp_api_v3&utm_medium=api_v3_business_search&utm_source=gBcvfFpabk3CnzmXKdYe3w", "name": "Angel's Share", "location": {"display_address": ["8 Stuyvesant St", "New York, NY 10003"], "country": "US", "state": "NY", "address3": "", "address2": "", "address1": "8 Stuyvesant St", "city": "New York", "zip_code": "10003"}, "is_closed": false, "review_count": 1682, "coordinates": {"latitude": 40.7297097529882, "longitude": -73.9891492245369}, "id": "angels-share-new-york", "image_url": "https://s3-media1.fl.yelpcdn.com/bphoto/H9nPjXpl3hxK_aRngh5zyg/o.jpg", "categories": [{"alias": "cocktailbars", "title": "Cocktail Bars"}], "rating": 4.5}, {"transactions": [], "distance": 2471.67748022, "price": "$$$$", "display_phone": "(212) 982-4140", "phone": "+12129824140", "url": "https://www.yelp.com/biz/kyo-ya-new-york?adjust_creative=gBcvfFpabk3CnzmXKdYe3w&utm_campaign=yelp_api_v3&utm_medium=api_v3_business_search&utm_source=gBcvfFpabk3CnzmXKdYe3w", "name": "Kyo Ya", "location": {"display_address": ["94 E 7th St", "New York, NY 10009"], "country": "US", "state": "NY", "address3": "", "address2": "", "address1": "94 E 7th St", "city": "New York", "zip_code": "10009"}, "is_closed": false, "review_count": 393, "coordinates": {"latitude": 40.7266082763672, "longitude": -73.9854049682617}, "id": "kyo-ya-new-york", "image_url": "https://s3-media2.fl.yelpcdn.com/bphoto/AlUcwIIwKu_udXFovVbGZg/o.jpg", "categories": [{"alias": "japanese", "title": "Japanese"}], "rating": 4.5}, {"transactions": [], "distance": 4310.43855326, "price": "$$", "display_phone": "(646) 257-0946", "phone": "+16462570946", "url": "https://www.yelp.com/biz/featherweight-brooklyn?adjust_creative=gBcvfFpabk3CnzmXKdYe3w&utm_campaign=yelp_api_v3&utm_medium=api_v3_business_search&utm_source=gBcvfFpabk3CnzmXKdYe3w", "name": "Featherweight", "location": {"display_address": ["135 Graham Ave", "Brooklyn, NY 11206"], "country": "US", "state": "NY", "address3": "", "address2": null, "address1": "135 Graham Ave", "city": "Brooklyn", "zip_code": "11206"}, "is_closed": false, "review_count": 95, "coordinates": {"latitude": 40.7063841819763, "longitude": -73.9431119710207}, "id": "featherweight-brooklyn", "image_url": "https://s3-media3.fl.yelpcdn.com/bphoto/mbK9aro_6VKky_HdKJKYUg/o.jpg", "categories": [{"alias": "bars", "title": "Bars"}], "rating": 4.5}, {"transactions": [], "distance": 3196.1241342959997, "price": "$$$$", "display_phone": "(212) 620-4020", "phone": "+12126204020", "url": "https://www.yelp.com/biz/gotham-bar-and-grill-new-york?adjust_creative=gBcvfFpabk3CnzmXKdYe3w&utm_campaign=yelp_api_v3&utm_medium=api_v3_business_search&utm_source=gBcvfFpabk3CnzmXKdYe3w", "name": "Gotham Bar and Grill", "location": {"display_address": ["12 E 12th St", "New York, NY 10003"], "country": "US", "state": "NY", "address3": "", "address2": "", "address1": "12 E 12th St", "city": "New York", "zip_code": "10003"}, "is_closed": false, "review_count": 1291, "coordinates": {"latitude": 40.734186, "longitude": -73.993696}, "id": "gotham-bar-and-grill-new-york", "image_url": "https://s3-media1.fl.yelpcdn.com/bphoto/kgDFvSYxIYQnRxzt14-GAg/o.jpg", "categories": [{"alias": "newamerican", "title": "American (New)"}, {"alias": "bars", "title": "Bars"}], "rating": 4.5}, {"transactions": [], "distance": 2411.0389974259997, "price": "$$", "display_phone": "(212) 475-1400", "phone": "+12124751400", "url": "https://www.yelp.com/biz/lois-new-york?adjust_creative=gBcvfFpabk3CnzmXKdYe3w&utm_campaign=yelp_api_v3&utm_medium=api_v3_business_search&utm_source=gBcvfFpabk3CnzmXKdYe3w", "name": "Lois", "location": {"display_address": ["98 Loisaida Ave", "New York, NY 10009"], "country": "US", "state": "NY", "address3": "", "address2": "", "address1": "98 Loisaida Ave", "city": "New York", "zip_code": "10009"}, "is_closed": false, "review_count": 51, "coordinates": {"latitude": 40.7237175, "longitude": -73.9789176}, "id": "lois-new-york", "image_url": "https://s3-media4.fl.yelpcdn.com/bphoto/eQF5ns8ParHeeaoe1h8V_g/o.jpg", "categories": [{"alias": "wine_bars", "title": "Wine Bars"}], "rating": 4.5}, {"transactions": [], "distance": 5151.850268262, "display_phone": "", "phone": "", "url": "https://www.yelp.com/biz/elite-week-at-ichiran-brooklyn?adjust_creative=gBcvfFpabk3CnzmXKdYe3w&utm_campaign=yelp_api_v3&utm_medium=api_v3_business_search&utm_source=gBcvfFpabk3CnzmXKdYe3w", "name": "Elite Week at Ichiran", "location": {"display_address": ["374 Johnson Ave", "Brooklyn, NY 11206"], "country": "US", "state": "NY", "address3": null, "address2": "", "address1": "374 Johnson Ave", "city": "Brooklyn", "zip_code": "11206"}, "is_closed": false, "review_count": 59, "coordinates": {"latitude": 40.7073757, "longitude": -73.933228}, "id": "elite-week-at-ichiran-brooklyn", "image_url": "https://s3-media4.fl.yelpcdn.com/bphoto/XXCW0QD86zUxUxUC1nqm2Q/o.jpg", "categories": [{"alias": "yelpevents", "title": "Yelp Events"}], "rating": 5.0}, {"transactions": ["delivery", "pickup"], "distance": 3470.5296399500003, "price": "$$", "display_phone": "(212) 633-2253", "phone": "+12126332253", "url": "https://www.yelp.com/biz/breads-bakery-new-york?adjust_creative=gBcvfFpabk3CnzmXKdYe3w&utm_campaign=yelp_api_v3&utm_medium=api_v3_business_search&utm_source=gBcvfFpabk3CnzmXKdYe3w", "name": "Breads Bakery", "location": {"display_address": ["18 E 16th St", "New York, NY 10003"], "country": "US", "state": "NY", "address3": "", "address2": null, "address1": "18 E 16th St", "city": "New York", "zip_code": "10003"}, "is_closed": false, "review_count": 667, "coordinates": {"latitude": 40.7366, "longitude": -73.991814}, "id": "breads-bakery-new-york", "image_url": "https://s3-media4.fl.yelpcdn.com/bphoto/mDaSWYX8hEV0eNGXJSDhVg/o.jpg", "categories": [{"alias": "bakeries", "title": "Bakeries"}, {"alias": "cafes", "title": "Cafes"}], "rating": 4.5}, {"transactions": [], "distance": 2995.788180274, "price": "$", "display_phone": "(646) 864-1090", "phone": "+16468641090", "url": "https://www.yelp.com/biz/hawa-smoothies-and-bubble-tea-new-york?adjust_creative=gBcvfFpabk3CnzmXKdYe3w&utm_campaign=yelp_api_v3&utm_medium=api_v3_business_search&utm_source=gBcvfFpabk3CnzmXKdYe3w", "name": "Hawa Smoothies & Bubble Tea", "location": {"display_address": ["422 E 14th St", "New York, NY 10009"], "country": "US", "state": "NY", "address3": "", "address2": "", "address1": "422 E 14th St", "city": "New York", "zip_code": "10009"}, "is_closed": false, "review_count": 78, "coordinates": {"latitude": 40.7306327819824, "longitude": -73.9816284179688}, "id": "hawa-smoothies-and-bubble-tea-new-york", "image_url": "https://s3-media2.fl.yelpcdn.com/bphoto/IgrdJ98IjXVVvaeyE7PWdg/o.jpg", "categories": [{"alias": "coffee", "title": "Coffee & Tea"}, {"alias": "bubbletea", "title": "Bubble Tea"}, {"alias": "juicebars", "title": "Juice Bars & Smoothies"}], "rating": 4.5}, {"transactions": ["delivery", "pickup"], "distance": 2600.254572982, "price": "$$", "display_phone": "(212) 533-1242", "phone": "+12125331242", "url": "https://www.yelp.com/biz/song-e-napule-new-york?adjust_creative=gBcvfFpabk3CnzmXKdYe3w&utm_campaign=yelp_api_v3&utm_medium=api_v3_business_search&utm_source=gBcvfFpabk3CnzmXKdYe3w", "name": "Song E Napule", "location": {"display_address": ["146 W Houston St", "New York, NY 10012"], "country": "US", "state": "NY", "address3": "", "address2": null, "address1": "146 W Houston St", "city": "New York", "zip_code": "10012"}, "is_closed": false, "review_count": 206, "coordinates": {"latitude": 40.7280296, "longitude": -74.0018334}, "id": "song-e-napule-new-york", "image_url": "https://s3-media1.fl.yelpcdn.com/bphoto/BV0_YOn48DdTeKQckGsXdg/o.jpg", "categories": [{"alias": "pizza", "title": "Pizza"}, {"alias": "italian", "title": "Italian"}], "rating": 4.5}, {"transactions": [], "distance": 5367.797785887999, "price": "$$", "display_phone": "(929) 424-5616", "phone": "+19294245616", "url": "https://www.yelp.com/biz/sugarcube-long-island-city-2?adjust_creative=gBcvfFpabk3CnzmXKdYe3w&utm_campaign=yelp_api_v3&utm_medium=api_v3_business_search&utm_source=gBcvfFpabk3CnzmXKdYe3w", "name": "SugarCube", "location": {"display_address": ["10-16 50th Ave", "Long Island City, NY 11101"], "country": "US", "state": "NY", "address3": "", "address2": "", "address1": "10-16 50th Ave", "city": "Long Island City", "zip_code": "11101"}, "is_closed": false, "review_count": 119, "coordinates": {"latitude": 40.7424111532716, "longitude": -73.9533295109868}, "id": "sugarcube-long-island-city-2", "image_url": "https://s3-media2.fl.yelpcdn.com/bphoto/nrYWR-3S9PHs3MFKa7c61A/o.jpg", "categories": [{"alias": "desserts", "title": "Desserts"}, {"alias": "coffee", "title": "Coffee & Tea"}, {"alias": "icecream", "title": "Ice Cream & Frozen Yogurt"}], "rating": 4.5}, {"transactions": [], "distance": 3223.673460152, "price": "$$", "display_phone": "(718) 369-7444", "phone": "+17183697444", "url": "https://www.yelp.com/biz/everybody-eats-brooklyn?adjust_creative=gBcvfFpabk3CnzmXKdYe3w&utm_campaign=yelp_api_v3&utm_medium=api_v3_business_search&utm_source=gBcvfFpabk3CnzmXKdYe3w", "name": "Everybody Eats", "location": {"display_address": ["294 3rd Ave", "Brooklyn, NY 11215"], "country": "US", "state": "NY", "address3": "", "address2": "", "address1": "294 3rd Ave", "city": "Brooklyn", "zip_code": "11215"}, "is_closed": false, "review_count": 33, "coordinates": {"latitude": 40.67703, "longitude": -73.98658}, "id": "everybody-eats-brooklyn", "image_url": "https://s3-media2.fl.yelpcdn.com/bphoto/tQyte3EIDsuyX_005FEuMg/o.jpg", "categories": [{"alias": "bakeries", "title": "Bakeries"}, {"alias": "gluten_free", "title": "Gluten-Free"}, {"alias": "cakeshop", "title": "Patisserie/Cake Shop"}], "rating": 4.5}, {"transactions": [], "distance": 2967.38558235, "display_phone": "", "phone": "", "url": "https://www.yelp.com/biz/brooklyn-brooklyn-13?adjust_creative=gBcvfFpabk3CnzmXKdYe3w&utm_campaign=yelp_api_v3&utm_medium=api_v3_business_search&utm_source=gBcvfFpabk3CnzmXKdYe3w", "name": "Brooklyn", "location": {"display_address": ["Brooklyn, NY 11217"], "country": "US", "state": "NY", "address3": "", "address2": "", "address1": "", "city": "Brooklyn", "zip_code": "11217"}, "is_closed": false, "review_count": 75, "coordinates": {"latitude": 40.6823120117188, "longitude": -73.9795303344727}, "id": "brooklyn-brooklyn-13", "image_url": "https://s3-media1.fl.yelpcdn.com/bphoto/MAJZHuqeYXt_oUYXa3pARw/o.jpg", "categories": [{"alias": "localflavor", "title": "Local Flavor"}], "rating": 4.5}, {"transactions": ["delivery", "pickup"], "distance": 1903.2141744359997, "price": "$$", "display_phone": "(646) 454-1262", "phone": "+16464541262", "url": "https://www.yelp.com/biz/rizzos-fine-pizza-new-york-4?adjust_creative=gBcvfFpabk3CnzmXKdYe3w&utm_campaign=yelp_api_v3&utm_medium=api_v3_business_search&utm_source=gBcvfFpabk3CnzmXKdYe3w", "name": "Rizzo's Fine Pizza", "location": {"display_address": ["17 Clinton St", "New York, NY 10002"], "country": "US", "state": "NY", "address3": "", "address2": "", "address1": "17 Clinton St", "city": "New York", "zip_code": "10002"}, "is_closed": false, "review_count": 416, "coordinates": {"latitude": 40.720852, "longitude": -73.984456}, "id": "rizzos-fine-pizza-new-york-4", "image_url": "https://s3-media3.fl.yelpcdn.com/bphoto/bHWQTWSbmhD6f4URKwiGlA/o.jpg", "categories": [{"alias": "pizza", "title": "Pizza"}], "rating": 4.5}, {"transactions": [], "distance": 3035.998344844, "price": "$$", "display_phone": "(212) 533-2962", "phone": "+12125332962", "url": "https://www.yelp.com/biz/am%C3%A9lie-new-york?adjust_creative=gBcvfFpabk3CnzmXKdYe3w&utm_campaign=yelp_api_v3&utm_medium=api_v3_business_search&utm_source=gBcvfFpabk3CnzmXKdYe3w", "name": "Am\u00e9lie", "location": {"display_address": ["22 W 8th St", "New York, NY 10011"], "country": "US", "state": "NY", "address3": "", "address2": "", "address1": "22 W 8th St", "city": "New York", "zip_code": "10011"}, "is_closed": false, "review_count": 1586, "coordinates": {"latitude": 40.7327, "longitude": -73.99766}, "id": "am\u00e9lie-new-york", "image_url": "https://s3-media4.fl.yelpcdn.com/bphoto/cSDgVuPMnJgMLTrTNSEXug/o.jpg", "categories": [{"alias": "french", "title": "French"}, {"alias": "wine_bars", "title": "Wine Bars"}], "rating": 4.5}, {"transactions": ["delivery", "pickup"], "distance": 1787.6712872679998, "price": "$", "display_phone": "(212) 228-1233", "phone": "+12122281233", "url": "https://www.yelp.com/biz/la-margarita-pizza-new-york?adjust_creative=gBcvfFpabk3CnzmXKdYe3w&utm_campaign=yelp_api_v3&utm_medium=api_v3_business_search&utm_source=gBcvfFpabk3CnzmXKdYe3w", "name": "La Margarita Pizza", "location": {"display_address": ["151 Ludlow St", "New York, NY 10002"], "country": "US", "state": "NY", "address3": "", "address2": "", "address1": "151 Ludlow St", "city": "New York", "zip_code": "10002"}, "is_closed": false, "review_count": 202, "coordinates": {"latitude": 40.72088, "longitude": -73.98821}, "id": "la-margarita-pizza-new-york", "image_url": "https://s3-media1.fl.yelpcdn.com/bphoto/Zt0lVnhnJrNlshZBNi9bUw/o.jpg", "categories": [{"alias": "pizza", "title": "Pizza"}], "rating": 4.5}, {"transactions": [], "distance": 3049.682080062, "price": "$$$$", "display_phone": "(212) 924-2212", "phone": "+12129242212", "url": "https://www.yelp.com/biz/sushi-nakazawa-new-york?adjust_creative=gBcvfFpabk3CnzmXKdYe3w&utm_campaign=yelp_api_v3&utm_medium=api_v3_business_search&utm_source=gBcvfFpabk3CnzmXKdYe3w", "name": "Sushi Nakazawa", "location": {"display_address": ["23 Commerce St", "New York, NY 10014"], "country": "US", "state": "NY", "address3": "", "address2": "", "address1": "23 Commerce St", "city": "New York", "zip_code": "10014"}, "is_closed": false, "review_count": 871, "coordinates": {"latitude": 40.7317465228689, "longitude": -74.0045493828034}, "id": "sushi-nakazawa-new-york", "image_url": "https://s3-media1.fl.yelpcdn.com/bphoto/4WXb58KwXanTxiAI3V0vtA/o.jpg", "categories": [{"alias": "japanese", "title": "Japanese"}, {"alias": "sushi", "title": "Sushi Bars"}, {"alias": "seafood", "title": "Seafood"}], "rating": 4.5}, {"transactions": ["delivery", "pickup"], "distance": 1522.226264866, "price": "$", "display_phone": "(917) 475-1423", "phone": "+19174751423", "url": "https://www.yelp.com/biz/round-k-new-york?adjust_creative=gBcvfFpabk3CnzmXKdYe3w&utm_campaign=yelp_api_v3&utm_medium=api_v3_business_search&utm_source=gBcvfFpabk3CnzmXKdYe3w", "name": "Round K", "location": {"display_address": ["99 Allen St", "New York, NY 10002"], "country": "US", "state": "NY", "address3": "", "address2": null, "address1": "99 Allen St", "city": "New York", "zip_code": "10002"}, "is_closed": false, "review_count": 148, "coordinates": {"latitude": 40.718906, "longitude": -73.990966}, "id": "round-k-new-york", "image_url": "https://s3-media4.fl.yelpcdn.com/bphoto/azRwOLV1f9NIcGZZMjJ2cw/o.jpg", "categories": [{"alias": "coffee", "title": "Coffee & Tea"}, {"alias": "breakfast_brunch", "title": "Breakfast & Brunch"}, {"alias": "bagels", "title": "Bagels"}], "rating": 4.5}, {"transactions": ["delivery", "pickup"], "distance": 2607.1327312079998, "price": "$$", "display_phone": "(212) 858-9935", "phone": "+12128589935", "url": "https://www.yelp.com/biz/dan-and-johns-wings-new-york-3?adjust_creative=gBcvfFpabk3CnzmXKdYe3w&utm_campaign=yelp_api_v3&utm_medium=api_v3_business_search&utm_source=gBcvfFpabk3CnzmXKdYe3w", "name": "Dan and John's Wings", "location": {"display_address": ["135 1st Ave", "New York, NY 10003"], "country": "US", "state": "NY", "address3": "", "address2": "", "address1": "135 1st Ave", "city": "New York", "zip_code": "10003"}, "is_closed": false, "review_count": 158, "coordinates": {"latitude": 40.7278557, "longitude": -73.9853134}, "id": "dan-and-johns-wings-new-york-3", "image_url": "https://s3-media1.fl.yelpcdn.com/bphoto/hyprEU07EtnVAMbVqdrETw/o.jpg", "categories": [{"alias": "chicken_wings", "title": "Chicken Wings"}], "rating": 4.5}, {"transactions": [], "distance": 2313.391005454, "price": "$$$", "display_phone": "(212) 925-3061", "phone": "+12129253061", "url": "https://www.yelp.com/biz/la-sirene-new-york?adjust_creative=gBcvfFpabk3CnzmXKdYe3w&utm_campaign=yelp_api_v3&utm_medium=api_v3_business_search&utm_source=gBcvfFpabk3CnzmXKdYe3w", "name": "La Sirene", "location": {"display_address": ["558 Broome St", "New York, NY 10013"], "country": "US", "state": "NY", "address3": "", "address2": "", "address1": "558 Broome St", "city": "New York", "zip_code": "10013"}, "is_closed": false, "review_count": 1348, "coordinates": {"latitude": 40.7243642217227, "longitude": -74.005708694458}, "id": "la-sirene-new-york", "image_url": "https://s3-media2.fl.yelpcdn.com/bphoto/cJI9If-bg-Z9ZjDhckZPsQ/o.jpg", "categories": [{"alias": "french", "title": "French"}], "rating": 4.5}, {"transactions": [], "distance": 3642.409083158, "price": "$", "display_phone": "(718) 398-1111", "phone": "+17183981111", "url": "https://www.yelp.com/biz/brooklyn-kolache-brooklyn?adjust_creative=gBcvfFpabk3CnzmXKdYe3w&utm_campaign=yelp_api_v3&utm_medium=api_v3_business_search&utm_source=gBcvfFpabk3CnzmXKdYe3w", "name": "Brooklyn Kolache", "location": {"display_address": ["520 Dekalb Ave", "Brooklyn, NY 11205"], "country": "US", "state": "NY", "address3": "", "address2": "", "address1": "520 Dekalb Ave", "city": "Brooklyn", "zip_code": "11205"}, "is_closed": false, "review_count": 225, "coordinates": {"latitude": 40.6907913077698, "longitude": -73.9556479454041}, "id": "brooklyn-kolache-brooklyn", "image_url": "https://s3-media1.fl.yelpcdn.com/bphoto/hQgcZHhaV1mRD7joy2VeaQ/o.jpg", "categories": [{"alias": "coffee", "title": "Coffee & Tea"}, {"alias": "bakeries", "title": "Bakeries"}, {"alias": "cafes", "title": "Cafes"}], "rating": 4.5}, {"transactions": [], "distance": 2606.313738082, "price": "$$", "display_phone": "(646) 869-0133", "phone": "+16468690133", "url": "https://www.yelp.com/biz/confectionery-new-york?adjust_creative=gBcvfFpabk3CnzmXKdYe3w&utm_campaign=yelp_api_v3&utm_medium=api_v3_business_search&utm_source=gBcvfFpabk3CnzmXKdYe3w", "name": "Confectionery", "location": {"display_address": ["440 E 9th St", "New York, NY 10009"], "country": "US", "state": "NY", "address3": "", "address2": "", "address1": "440 E 9th St", "city": "New York", "zip_code": "10009"}, "is_closed": false, "review_count": 27, "coordinates": {"latitude": 40.72732, "longitude": -73.98305}, "id": "confectionery-new-york", "image_url": "https://s3-media1.fl.yelpcdn.com/bphoto/l2V6GKiuiAHLt8rGzemv3g/o.jpg", "categories": [{"alias": "chocolate", "title": "Chocolatiers & Shops"}, {"alias": "vegan", "title": "Vegan"}], "rating": 5.0}, {"transactions": ["delivery", "pickup"], "distance": 4740.16773874, "price": "$", "display_phone": "(866) 429-7329", "phone": "+18664297329", "url": "https://www.yelp.com/biz/wafels-and-dinges-new-york?adjust_creative=gBcvfFpabk3CnzmXKdYe3w&utm_campaign=yelp_api_v3&utm_medium=api_v3_business_search&utm_source=gBcvfFpabk3CnzmXKdYe3w", "name": "Wafels & Dinges", "location": {"display_address": ["New York, NY 10011"], "country": "US", "state": "NY", "address3": "", "address2": "", "address1": "", "city": "New York", "zip_code": "10011"}, "is_closed": false, "review_count": 1469, "coordinates": {"latitude": 40.7441062927246, "longitude": -74.0053863525391}, "id": "wafels-and-dinges-new-york", "image_url": "https://s3-media2.fl.yelpcdn.com/bphoto/7WA-iKGaExKZmMT-GJ7Qkg/o.jpg", "categories": [{"alias": "desserts", "title": "Desserts"}, {"alias": "foodstands", "title": "Food Stands"}, {"alias": "belgian", "title": "Belgian"}], "rating": 4.5}, {"transactions": [], "distance": 3764.465291174, "price": "$$", "display_phone": "(347) 799-2877", "phone": "+13477992877", "url": "https://www.yelp.com/biz/hartleys-brooklyn?adjust_creative=gBcvfFpabk3CnzmXKdYe3w&utm_campaign=yelp_api_v3&utm_medium=api_v3_business_search&utm_source=gBcvfFpabk3CnzmXKdYe3w", "name": "Hartley's", "location": {"display_address": ["14 Putnam Ave", "Brooklyn, NY 11238"], "country": "US", "state": "NY", "address3": "", "address2": "", "address1": "14 Putnam Ave", "city": "Brooklyn", "zip_code": "11238"}, "is_closed": false, "review_count": 34, "coordinates": {"latitude": 40.6825984, "longitude": -73.9613433}, "id": "hartleys-brooklyn", "image_url": "https://s3-media2.fl.yelpcdn.com/bphoto/smHDCU8ZuF3D2R_bni8Lhg/o.jpg", "categories": [{"alias": "irish_pubs", "title": "Irish Pub"}], "rating": 5.0}, {"transactions": [], "distance": 2541.747982886, "price": "$$", "display_phone": "(212) 677-5834", "phone": "+12126775834", "url": "https://www.yelp.com/biz/la-colombe-coffee-new-york-4?adjust_creative=gBcvfFpabk3CnzmXKdYe3w&utm_campaign=yelp_api_v3&utm_medium=api_v3_business_search&utm_source=gBcvfFpabk3CnzmXKdYe3w", "name": "La Colombe Coffee", "location": {"display_address": ["400 Lafayette St", "New York, NY 10003"], "country": "US", "state": "NY", "address3": "", "address2": "", "address1": "400 Lafayette St", "city": "New York", "zip_code": "10003"}, "is_closed": false, "review_count": 473, "coordinates": {"latitude": 40.7282508909702, "longitude": -73.9928917586803}, "id": "la-colombe-coffee-new-york-4", "image_url": "https://s3-media2.fl.yelpcdn.com/bphoto/JPi0OhAWziDTWL2O43nyRg/o.jpg", "categories": [{"alias": "coffee", "title": "Coffee & Tea"}], "rating": 4.5}, {"transactions": [], "distance": 1584.688612682, "price": "$", "display_phone": "(917) 601-9776", "phone": "+19176019776", "url": "https://www.yelp.com/biz/peasant-stock-new-york?adjust_creative=gBcvfFpabk3CnzmXKdYe3w&utm_campaign=yelp_api_v3&utm_medium=api_v3_business_search&utm_source=gBcvfFpabk3CnzmXKdYe3w", "name": "Peasant Stock", "location": {"display_address": ["120 Essex St", "New York, NY 10002"], "country": "US", "state": "NY", "address3": "", "address2": "", "address1": "120 Essex St", "city": "New York", "zip_code": "10002"}, "is_closed": false, "review_count": 40, "coordinates": {"latitude": 40.7188335, "longitude": -73.9878529}, "id": "peasant-stock-new-york", "image_url": "https://s3-media2.fl.yelpcdn.com/bphoto/bP322M_WZP0fkhBbdvB-3g/o.jpg", "categories": [{"alias": "soup", "title": "Soup"}], "rating": 5.0}, {"transactions": [], "distance": 1244.1175713116, "price": "$", "display_phone": "(212) 253-7747", "phone": "+12122537747", "url": "https://www.yelp.com/biz/old-man-hustle-new-york-2?adjust_creative=gBcvfFpabk3CnzmXKdYe3w&utm_campaign=yelp_api_v3&utm_medium=api_v3_business_search&utm_source=gBcvfFpabk3CnzmXKdYe3w", "name": "Old Man Hustle", "location": {"display_address": ["39 Essex St", "New York, NY 10002"], "country": "US", "state": "NY", "address3": "", "address2": "", "address1": "39 Essex St", "city": "New York", "zip_code": "10002"}, "is_closed": false, "review_count": 121, "coordinates": {"latitude": 40.7159819101673, "longitude": -73.9893277618757}, "id": "old-man-hustle-new-york-2", "image_url": "https://s3-media3.fl.yelpcdn.com/bphoto/IupRc44chO6w_xr1EAXJyQ/o.jpg", "categories": [{"alias": "cocktailbars", "title": "Cocktail Bars"}, {"alias": "divebars", "title": "Dive Bars"}, {"alias": "comedyclubs", "title": "Comedy Clubs"}], "rating": 4.5}, {"transactions": [], "distance": 1027.385596996, "price": "$$", "display_phone": "(646) 882-7052", "phone": "+16468827052", "url": "https://www.yelp.com/biz/kikis-new-york?adjust_creative=gBcvfFpabk3CnzmXKdYe3w&utm_campaign=yelp_api_v3&utm_medium=api_v3_business_search&utm_source=gBcvfFpabk3CnzmXKdYe3w", "name": "Kiki's", "location": {"display_address": ["130 Division St", "New York, NY 10002"], "country": "US", "state": "NY", "address3": "", "address2": "", "address1": "130 Division St", "city": "New York", "zip_code": "10002"}, "is_closed": false, "review_count": 278, "coordinates": {"latitude": 40.7144971858255, "longitude": -73.9918553931336}, "id": "kikis-new-york", "image_url": "https://s3-media2.fl.yelpcdn.com/bphoto/EEdG9No3eY6WJePxCe9ezA/o.jpg", "categories": [{"alias": "greek", "title": "Greek"}, {"alias": "salad", "title": "Salad"}], "rating": 4.5}, {"transactions": [], "distance": 1985.1849417319997, "price": "$$", "display_phone": "(212) 978-1698", "phone": "+12129781698", "url": "https://www.yelp.com/biz/hudson-eats-at-brookfield-place-new-york?adjust_creative=gBcvfFpabk3CnzmXKdYe3w&utm_campaign=yelp_api_v3&utm_medium=api_v3_business_search&utm_source=gBcvfFpabk3CnzmXKdYe3w", "name": "Hudson Eats At Brookfield Place", "location": {"display_address": ["225 Liberty St", "2nd Level", "New York, NY 10281"], "country": "US", "state": "NY", "address3": "2nd Level", "address2": "", "address1": "225 Liberty St", "city": "New York", "zip_code": "10281"}, "is_closed": false, "review_count": 263, "coordinates": {"latitude": 40.7128852965794, "longitude": -74.0157020331352}, "id": "hudson-eats-at-brookfield-place-new-york", "image_url": "https://s3-media2.fl.yelpcdn.com/bphoto/vTtHHUhk8pPVjarNIKAM_w/o.jpg", "categories": [{"alias": "food_court", "title": "Food Court"}], "rating": 4.5}, {"transactions": [], "distance": 3073.5408674299997, "price": "$$$", "display_phone": "(718) 388-8860", "phone": "+17183888860", "url": "https://www.yelp.com/biz/xixa-brooklyn?adjust_creative=gBcvfFpabk3CnzmXKdYe3w&utm_campaign=yelp_api_v3&utm_medium=api_v3_business_search&utm_source=gBcvfFpabk3CnzmXKdYe3w", "name": "Xixa", "location": {"display_address": ["241 S 4th St", "Brooklyn, NY 11211"], "country": "US", "state": "NY", "address3": "", "address2": "", "address1": "241 S 4th St", "city": "Brooklyn", "zip_code": "11211"}, "is_closed": false, "review_count": 423, "coordinates": {"latitude": 40.710505, "longitude": -73.958466}, "id": "xixa-brooklyn", "image_url": "https://s3-media1.fl.yelpcdn.com/bphoto/hd0vYDgBjujxbdNToXaeEQ/o.jpg", "categories": [{"alias": "mexican", "title": "Mexican"}, {"alias": "tapasmallplates", "title": "Tapas/Small Plates"}], "rating": 4.5}, {"transactions": [], "distance": 1704.997721194, "price": "$$", "display_phone": "(718) 834-9533", "phone": "+17188349533", "url": "https://www.yelp.com/biz/yemen-cafe-brooklyn-3?adjust_creative=gBcvfFpabk3CnzmXKdYe3w&utm_campaign=yelp_api_v3&utm_medium=api_v3_business_search&utm_source=gBcvfFpabk3CnzmXKdYe3w", "name": "Yemen Cafe", "location": {"display_address": ["176 Atlantic Ave", "Brooklyn, NY 11201"], "country": "US", "state": "NY", "address3": "", "address2": "", "address1": "176 Atlantic Ave", "city": "Brooklyn", "zip_code": "11201"}, "is_closed": false, "review_count": 296, "coordinates": {"latitude": 40.690116, "longitude": -73.993726}, "id": "yemen-cafe-brooklyn-3", "image_url": "https://s3-media3.fl.yelpcdn.com/bphoto/D3TpeawycyJghdT_s9OgHg/o.jpg", "categories": [{"alias": "mideastern", "title": "Middle Eastern"}, {"alias": "cafes", "title": "Cafes"}], "rating": 4.5}, {"transactions": [], "distance": 6174.397706416, "price": "$", "display_phone": "(646) 850-3928", "phone": "+16468503928", "url": "https://www.yelp.com/biz/frisson-espresso-new-york?adjust_creative=gBcvfFpabk3CnzmXKdYe3w&utm_campaign=yelp_api_v3&utm_medium=api_v3_business_search&utm_source=gBcvfFpabk3CnzmXKdYe3w", "name": "Frisson Espresso", "location": {"display_address": ["326 W 47th St", "New York, NY 10036"], "country": "US", "state": "NY", "address3": "", "address2": null, "address1": "326 W 47th St", "city": "New York", "zip_code": "10036"}, "is_closed": false, "review_count": 398, "coordinates": {"latitude": 40.7608108520508, "longitude": -73.9889984130859}, "id": "frisson-espresso-new-york", "image_url": "https://s3-media1.fl.yelpcdn.com/bphoto/vRN2ZhMTpi9CH9PBQobvxA/o.jpg", "categories": [{"alias": "coffee", "title": "Coffee & Tea"}, {"alias": "cafes", "title": "Cafes"}], "rating": 4.5}, {"transactions": [], "distance": 2383.6464212859996, "price": "$", "display_phone": "(212) 677-3131", "phone": "+12126773131", "url": "https://www.yelp.com/biz/sunny-and-annies-new-york?adjust_creative=gBcvfFpabk3CnzmXKdYe3w&utm_campaign=yelp_api_v3&utm_medium=api_v3_business_search&utm_source=gBcvfFpabk3CnzmXKdYe3w", "name": "Sunny and Annie's", "location": {"display_address": ["94 Ave B", "New York, NY 10003"], "country": "US", "state": "NY", "address3": "", "address2": null, "address1": "94 Ave B", "city": "New York", "zip_code": "10003"}, "is_closed": false, "review_count": 383, "coordinates": {"latitude": 40.7245959526307, "longitude": -73.9815849065781}, "id": "sunny-and-annies-new-york", "image_url": "https://s3-media4.fl.yelpcdn.com/bphoto/R2onHYbQdBM1oVjWRZ900w/o.jpg", "categories": [{"alias": "sandwiches", "title": "Sandwiches"}, {"alias": "delis", "title": "Delis"}, {"alias": "grocery", "title": "Grocery"}], "rating": 4.5}, {"transactions": [], "distance": 1830.9094250479998, "price": "$$", "display_phone": "(212) 777-6028", "phone": "+12127776028", "url": "https://www.yelp.com/biz/bluestockings-new-york?adjust_creative=gBcvfFpabk3CnzmXKdYe3w&utm_campaign=yelp_api_v3&utm_medium=api_v3_business_search&utm_source=gBcvfFpabk3CnzmXKdYe3w", "name": "Bluestockings", "location": {"display_address": ["172 Allen St", "New York, NY 10002"], "country": "US", "state": "NY", "address3": "", "address2": "", "address1": "172 Allen St", "city": "New York", "zip_code": "10002"}, "is_closed": false, "review_count": 139, "coordinates": {"latitude": 40.72139, "longitude": -73.9889199}, "id": "bluestockings-new-york", "image_url": "https://s3-media1.fl.yelpcdn.com/bphoto/dNuCeJlH5UIRo3hc5dAQQg/o.jpg", "categories": [{"alias": "coffee", "title": "Coffee & Tea"}, {"alias": "bookstores", "title": "Bookstores"}], "rating": 4.5}, {"transactions": [], "distance": 4429.508469971999, "price": "$$", "display_phone": "(718) 928-7702", "phone": "+17189287702", "url": "https://www.yelp.com/biz/riverdel-brooklyn?adjust_creative=gBcvfFpabk3CnzmXKdYe3w&utm_campaign=yelp_api_v3&utm_medium=api_v3_business_search&utm_source=gBcvfFpabk3CnzmXKdYe3w", "name": "Riverdel", "location": {"display_address": ["820 Washington Ave", "Brooklyn, NY 11238"], "country": "US", "state": "NY", "address3": "", "address2": null, "address1": "820 Washington Ave", "city": "Brooklyn", "zip_code": "11238"}, "is_closed": false, "review_count": 50, "coordinates": {"latitude": 40.67335, "longitude": -73.96324}, "id": "riverdel-brooklyn", "image_url": "https://s3-media3.fl.yelpcdn.com/bphoto/L7HSjsTYdXi4ImLuISJJsA/o.jpg", "categories": [{"alias": "cheese", "title": "Cheese Shops"}, {"alias": "vegan", "title": "Vegan"}, {"alias": "sandwiches", "title": "Sandwiches"}], "rating": 5.0}, {"transactions": [], "distance": 2595.887467958, "price": "$$", "display_phone": "(212) 777-7022", "phone": "+12127777022", "url": "https://www.yelp.com/biz/the-wayland-new-york?adjust_creative=gBcvfFpabk3CnzmXKdYe3w&utm_campaign=yelp_api_v3&utm_medium=api_v3_business_search&utm_source=gBcvfFpabk3CnzmXKdYe3w", "name": "The Wayland", "location": {"display_address": ["700 E 9th St", "New York, NY 10009"], "country": "US", "state": "NY", "address3": "", "address2": "", "address1": "700 E 9th St", "city": "New York", "zip_code": "10009"}, "is_closed": false, "review_count": 405, "coordinates": {"latitude": 40.7251837849617, "longitude": -73.9778512716293}, "id": "the-wayland-new-york", "image_url": "https://s3-media3.fl.yelpcdn.com/bphoto/2aTSPms35qvgPw2g5P8i6Q/o.jpg", "categories": [{"alias": "bars", "title": "Bars"}], "rating": 4.5}, {"transactions": [], "distance": 6442.42620232, "price": "$$", "display_phone": "(646) 682-9062", "phone": "+16466829062", "url": "https://www.yelp.com/biz/pocket-bar-nyc-new-york?adjust_creative=gBcvfFpabk3CnzmXKdYe3w&utm_campaign=yelp_api_v3&utm_medium=api_v3_business_search&utm_source=gBcvfFpabk3CnzmXKdYe3w", "name": "Pocket Bar NYC", "location": {"display_address": ["455 W 48th St", "New York, NY 10019"], "country": "US", "state": "NY", "address3": "", "address2": "", "address1": "455 W 48th St", "city": "New York", "zip_code": "10019"}, "is_closed": false, "review_count": 193, "coordinates": {"latitude": 40.7633645, "longitude": -73.9922985}, "id": "pocket-bar-nyc-new-york", "image_url": "https://s3-media3.fl.yelpcdn.com/bphoto/QfIn8pnTR2h5mWCyS4ChCQ/o.jpg", "categories": [{"alias": "wine_bars", "title": "Wine Bars"}], "rating": 4.5}], "total": 131351}