{"total": 131351, "region": {"center": {"longitude": -73.99429321289062, "latitude": 40.70544486444615}}, "businesses": [{"rating": 4.0, "is_closed": false, "distance": 1754.40188425, "name": "sweetgreen", "id": "sweetgreen-new-york-4", "image_url": "https://s3-media2.fl.yelpcdn.com/bphoto/fF1MdB4b5W3p0yJj54UTmg/o.jpg", "url": "https://www.yelp.com/biz/sweetgreen-new-york-4?adjust_creative=gBcvfFpabk3CnzmXKdYe3w&utm_campaign=yelp_api_v3&utm_medium=api_v3_business_search&utm_source=gBcvfFpabk3CnzmXKdYe3w", "phone": "+16469645012", "coordinates": {"longitude": -73.9972511652099, "latitude": 40.7210635428336}, "categories": [{"alias": "salad", "title": "Salad"}, {"alias": "vegetarian", "title": "Vegetarian"}], "review_count": 165, "location": {"city": "New York", "address1": "100 Kenmare St", "address3": "", "address2": "", "zip_code": "10012", "country": "US", "display_address": ["100 Kenmare St", "New York, NY 10012"], "state": "NY"}, "price": "$$", "transactions": [], "display_phone": "(646) 964-5012"}, {"rating": 4.5, "is_closed": false, "distance": 2328.345958338, "name": "Farmer In the Deli", "id": "farmer-in-the-deli-brooklyn", "image_url": "https://s3-media1.fl.yelpcdn.com/bphoto/aarhWfxDvTTEEx6X-82VZA/o.jpg", "url": "https://www.yelp.com/biz/farmer-in-the-deli-brooklyn?adjust_creative=gBcvfFpabk3CnzmXKdYe3w&utm_campaign=yelp_api_v3&utm_medium=api_v3_business_search&utm_source=gBcvfFpabk3CnzmXKdYe3w", "phone": "+17188759067", "coordinates": {"longitude": -73.97172, "latitude": 40.69333}, "categories": [{"alias": "grocery", "title": "Grocery"}, {"alias": "delis", "title": "Delis"}, {"alias": "convenience", "title": "Convenience Stores"}], "review_count": 105, "location": {"city": "Brooklyn", "address1": "357 Myrtle Ave", "address3": "", "address2": "", "zip_code": "11205", "country": "US", "display_address": ["357 Myrtle Ave", "Brooklyn, NY 11205"], "state": "NY"}, "price": "$", "transactions": ["delivery", "pickup"], "display_phone": "(718) 875-9067"}, {"rating": 4.5, "is_closed": false, "distance": 6980.027838659999, "name": "Tony Dragon's Grille", "id": "tony-dragons-grille-new-york", "image_url": "https://s3-media2.fl.yelpcdn.com/bphoto/256_zRnslchauyQqKkBwSw/o.jpg", "url": "https://www.yelp.com/biz/tony-dragons-grille-new-york?adjust_creative=gBcvfFpabk3CnzmXKdYe3w&utm_campaign=yelp_api_v3&utm_medium=api_v3_business_search&utm_source=gBcvfFpabk3CnzmXKdYe3w", "phone": "+19172991550", "coordinates": {"longitude": -73.9700398593682, "latitude": 40.7654688096164}, "categories": [{"alias": "foodtrucks", "title": "Food Trucks"}, {"alias": "mediterranean", "title": "Mediterranean"}, {"alias": "burgers", "title": "Burgers"}], "review_count": 159, "location": {"city": "New York", "address1": "62ND St And Madison Ave", "address3": "", "address2": "", "zip_code": "10065", "country": "US", "display_address": ["62ND St And Madison Ave", "New York, NY 10065"], "state": "NY"}, "price": "$", "transactions": [], "display_phone": "(917) 299-1550"}, {"rating": 4.0, "is_closed": false, "distance": 1952.0782429879998, "name": "Cafe Habana", "id": "cafe-habana-new-york-4", "image_url": "https://s3-media3.fl.yelpcdn.com/bphoto/WmGrPmAnVMN3CJ56Q7mL5A/o.jpg", "url": "https://www.yelp.com/biz/cafe-habana-new-york-4?adjust_creative=gBcvfFpabk3CnzmXKdYe3w&utm_campaign=yelp_api_v3&utm_medium=api_v3_business_search&utm_source=gBcvfFpabk3CnzmXKdYe3w", "phone": "+12126252001", "coordinates": {"longitude": -73.994171, "latitude": 40.722998}, "categories": [{"alias": "cuban", "title": "Cuban"}, {"alias": "mexican", "title": "Mexican"}], "review_count": 2845, "location": {"city": "New York", "address1": "17 Prince St", "address3": "", "address2": "", "zip_code": "10012", "country": "US", "display_address": ["17 Prince St", "New York, NY 10012"], "state": "NY"}, "price": "$$", "transactions": ["delivery", "pickup"], "display_phone": "(212) 625-2001"}, {"rating": 4.0, "is_closed": false, "distance": 2609.528072864, "name": "B&H Dairy", "id": "b-and-h-dairy-new-york-2", "image_url": "https://s3-media1.fl.yelpcdn.com/bphoto/tZSrJB1GYMvpbVN0M_gHYQ/o.jpg", "url": "https://www.yelp.com/biz/b-and-h-dairy-new-york-2?adjust_creative=gBcvfFpabk3CnzmXKdYe3w&utm_campaign=yelp_api_v3&utm_medium=api_v3_business_search&utm_source=gBcvfFpabk3CnzmXKdYe3w", "phone": "+12125058065", "coordinates": {"longitude": -73.9881668, "latitude": 40.7284584}, "categories": [{"alias": "vegetarian", "title": "Vegetarian"}, {"alias": "delis", "title": "Delis"}], "review_count": 390, "location": {"city": "New York", "address1": "127 2nd Ave", "address3": "", "address2": "", "zip_code": "10003", "country": "US", "display_address": ["127 2nd Ave", "New York, NY 10003"], "state": "NY"}, "price": "$", "transactions": ["pickup"], "display_phone": "(212) 505-8065"}, {"rating": 4.0, "is_closed": false, "distance": 2767.3750368759997, "name": "Third Rail Coffee", "id": "third-rail-coffee-new-york", "image_url": "https://s3-media3.fl.yelpcdn.com/bphoto/gqAmnRMyn18zqbEcuTb1PA/o.jpg", "url": "https://www.yelp.com/biz/third-rail-coffee-new-york?adjust_creative=gBcvfFpabk3CnzmXKdYe3w&utm_campaign=yelp_api_v3&utm_medium=api_v3_business_search&utm_source=gBcvfFpabk3CnzmXKdYe3w", "phone": "", "coordinates": {"longitude": -73.99959, "latitude": 40.72994}, "categories": [{"alias": "coffee", "title": "Coffee & Tea"}], "review_count": 399, "location": {"city": "New York", "address1": "240 Sullivan St", "address3": "", "address2": "", "zip_code": "10012", "country": "US", "display_address": ["240 Sullivan St", "New York, NY 10012"], "state": "NY"}, "price": "$", "transactions": [], "display_phone": ""}, {"rating": 4.0, "is_closed": false, "distance": 2759.6883462339997, "name": "The Boil", "id": "the-boil-new-york-5", "image_url": "https://s3-media1.fl.yelpcdn.com/bphoto/uY_IwQx0H_RFLGrqEdnKqg/o.jpg", "url": "https://www.yelp.com/biz/the-boil-new-york-5?adjust_creative=gBcvfFpabk3CnzmXKdYe3w&utm_campaign=yelp_api_v3&utm_medium=api_v3_business_search&utm_source=gBcvfFpabk3CnzmXKdYe3w", "phone": "+16468337110", "coordinates": {"longitude": -73.9943788112708, "latitude": 40.7302644713689}, "categories": [{"alias": "cajun", "title": "Cajun/Creole"}, {"alias": "seafood", "title": "Seafood"}], "review_count": 262, "location": {"city": "New York", "address1": "17 Waverly Pl", "address3": "", "address2": "", "zip_code": "10003", "country": "US", "display_address": ["17 Waverly Pl", "New York, NY 10003"], "state": "NY"}, "price": "$$", "transactions": [], "display_phone": "(646) 833-7110"}, {"rating": 4.0, "is_closed": false, "distance": 2710.528641924, "name": "Cha-An", "id": "cha-an-new-york", "image_url": "https://s3-media2.fl.yelpcdn.com/bphoto/Ys7T89vqmX8hstg-Q6SijA/o.jpg", "url": "https://www.yelp.com/biz/cha-an-new-york?adjust_creative=gBcvfFpabk3CnzmXKdYe3w&utm_campaign=yelp_api_v3&utm_medium=api_v3_business_search&utm_source=gBcvfFpabk3CnzmXKdYe3w", "phone": "+12122288030", "coordinates": {"longitude": -73.98813, "latitude": 40.72947}, "categories": [{"alias": "japanese", "title": "Japanese"}, {"alias": "tea", "title": "Tea Rooms"}], "review_count": 1331, "location": {"city": "New York", "address1": "230 E 9th St", "address3": "", "address2": "Fl 2", "zip_code": "10003", "country": "US", "display_address": ["230 E 9th St", "Fl 2", "New York, NY 10003"], "state": "NY"}, "price": "$$", "transactions": [], "display_phone": "(212) 228-8030"}, {"rating": 4.5, "is_closed": false, "distance": 6357.850074497999, "name": "Nerai", "id": "nerai-new-york", "image_url": "https://s3-media3.fl.yelpcdn.com/bphoto/64by4dJZGoP7ZVl5vKr9tQ/o.jpg", "url": "https://www.yelp.com/biz/nerai-new-york?adjust_creative=gBcvfFpabk3CnzmXKdYe3w&utm_campaign=yelp_api_v3&utm_medium=api_v3_business_search&utm_source=gBcvfFpabk3CnzmXKdYe3w", "phone": "+12127595554", "coordinates": {"longitude": -73.97301, "latitude": 40.76029}, "categories": [{"alias": "greek", "title": "Greek"}, {"alias": "mediterranean", "title": "Mediterranean"}], "review_count": 300, "location": {"city": "New York", "address1": "55 E 54th St", "address3": "", "address2": null, "zip_code": "10022", "country": "US", "display_address": ["55 E 54th St", "New York, NY 10022"], "state": "NY"}, "price": "$$$", "transactions": [], "display_phone": "(212) 759-5554"}, {"rating": 4.0, "is_closed": false, "distance": 3212.5815670039997, "name": "Bozu", "id": "bozu-brooklyn", "image_url": "https://s3-media3.fl.yelpcdn.com/bphoto/iFHeu93U4wIwk0Zg6wHrqQ/o.jpg", "url": "https://www.yelp.com/biz/bozu-brooklyn?adjust_creative=gBcvfFpabk3CnzmXKdYe3w&utm_campaign=yelp_api_v3&utm_medium=api_v3_business_search&utm_source=gBcvfFpabk3CnzmXKdYe3w", "phone": "+17183847770", "coordinates": {"longitude": -73.95755, "latitude": 40.7128}, "categories": [{"alias": "japanese", "title": "Japanese"}, {"alias": "sushi", "title": "Sushi Bars"}, {"alias": "asianfusion", "title": "Asian Fusion"}], "review_count": 687, "location": {"city": "Brooklyn", "address1": "296 Grand St", "address3": "", "address2": "", "zip_code": "11211", "country": "US", "display_address": ["296 Grand St", "Brooklyn, NY 11211"], "state": "NY"}, "price": "$$", "transactions": [], "display_phone": "(718) 384-7770"}, {"rating": 4.5, "is_closed": false, "distance": 4208.717965483999, "name": "Pearl Gate", "id": "pearl-gate-new-york", "image_url": "https://s3-media1.fl.yelpcdn.com/bphoto/rRzOGexyKYKvkCQpJ8wriQ/o.jpg", "url": "https://www.yelp.com/biz/pearl-gate-new-york?adjust_creative=gBcvfFpabk3CnzmXKdYe3w&utm_campaign=yelp_api_v3&utm_medium=api_v3_business_search&utm_source=gBcvfFpabk3CnzmXKdYe3w", "phone": "+17187689898", "coordinates": {"longitude": -73.9876175, "latitude": 40.6679382}, "categories": [{"alias": "icecream", "title": "Ice Cream & Frozen Yogurt"}, {"alias": "cafes", "title": "Cafes"}, {"alias": "juicebars", "title": "Juice Bars & Smoothies"}], "review_count": 68, "location": {"city": "New York", "address1": "482 5th Ave", "address3": "", "address2": "", "zip_code": "11215", "country": "US", "display_address": ["482 5th Ave", "New York, NY 11215"], "state": "NY"}, "price": "$", "transactions": [], "display_phone": "(718) 768-9898"}, {"rating": 4.5, "is_closed": false, "distance": 4755.580066052, "name": "David's Brisket House", "id": "davids-brisket-house-brooklyn", "image_url": "https://s3-media2.fl.yelpcdn.com/bphoto/7Aow-04AmMEeFvs6A6jGSA/o.jpg", "url": "https://www.yelp.com/biz/davids-brisket-house-brooklyn?adjust_creative=gBcvfFpabk3CnzmXKdYe3w&utm_campaign=yelp_api_v3&utm_medium=api_v3_business_search&utm_source=gBcvfFpabk3CnzmXKdYe3w", "phone": "+17187891155", "coordinates": {"longitude": -73.949515, "latitude": 40.679434}, "categories": [{"alias": "delis", "title": "Delis"}, {"alias": "cheesesteaks", "title": "Cheesesteaks"}, {"alias": "burgers", "title": "Burgers"}], "review_count": 308, "location": {"city": "Brooklyn", "address1": "533 Nostrand Ave", "address3": "", "address2": "", "zip_code": "11216", "country": "US", "display_address": ["533 Nostrand Ave", "Brooklyn, NY 11216"], "state": "NY"}, "price": "$$", "transactions": [], "display_phone": "(718) 789-1155"}, {"rating": 4.5, "is_closed": false, "distance": 2417.7241957859997, "name": "Risotteria Melotti", "id": "risotteria-melotti-new-york-5", "image_url": "https://s3-media4.fl.yelpcdn.com/bphoto/Owp7tVO6AJ_YvvaBXcegqg/o.jpg", "url": "https://www.yelp.com/biz/risotteria-melotti-new-york-5?adjust_creative=gBcvfFpabk3CnzmXKdYe3w&utm_campaign=yelp_api_v3&utm_medium=api_v3_business_search&utm_source=gBcvfFpabk3CnzmXKdYe3w", "phone": "+16467558939", "coordinates": {"longitude": -73.9880919456482, "latitude": 40.726673363853}, "categories": [{"alias": "italian", "title": "Italian"}, {"alias": "gluten_free", "title": "Gluten-Free"}, {"alias": "wine_bars", "title": "Wine Bars"}], "review_count": 176, "location": {"city": "New York", "address1": "309 E 5th St", "address3": "", "address2": "", "zip_code": "10003", "country": "US", "display_address": ["309 E 5th St", "New York, NY 10003"], "state": "NY"}, "price": "$$", "transactions": [], "display_phone": "(646) 755-8939"}, {"rating": 4.0, "is_closed": false, "distance": 1350.588222658, "name": "Vintry Wine and Whiskey", "id": "vintry-wine-and-whiskey-new-york", "image_url": "https://s3-media4.fl.yelpcdn.com/bphoto/7EWnHzpPhSlh5BsXKdrGIQ/o.jpg", "url": "https://www.yelp.com/biz/vintry-wine-and-whiskey-new-york?adjust_creative=gBcvfFpabk3CnzmXKdYe3w&utm_campaign=yelp_api_v3&utm_medium=api_v3_business_search&utm_source=gBcvfFpabk3CnzmXKdYe3w", "phone": "+12124809800", "coordinates": {"longitude": -74.01027, "latitude": 40.70445}, "categories": [{"alias": "whiskeybars", "title": "Whiskey Bars"}], "review_count": 212, "location": {"city": "New York", "address1": "57 Stone St", "address3": "", "address2": "", "zip_code": "10004", "country": "US", "display_address": ["57 Stone St", "New York, NY 10004"], "state": "NY"}, "price": "$$$", "transactions": [], "display_phone": "(212) 480-9800"}, {"rating": 4.0, "is_closed": false, "distance": 4182.9884813, "name": "Buddakan", "id": "buddakan-new-york", "image_url": "https://s3-media4.fl.yelpcdn.com/bphoto/Avw19VU35-FZLen3nl9gYw/o.jpg", "url": "https://www.yelp.com/biz/buddakan-new-york?adjust_creative=gBcvfFpabk3CnzmXKdYe3w&utm_campaign=yelp_api_v3&utm_medium=api_v3_business_search&utm_source=gBcvfFpabk3CnzmXKdYe3w", "phone": "+12129896699", "coordinates": {"longitude": -74.0047066478157, "latitude": 40.7422275387194}, "categories": [{"alias": "chinese", "title": "Chinese"}, {"alias": "asianfusion", "title": "Asian Fusion"}], "review_count": 3077, "location": {"city": "New York", "address1": "75 9th Ave", "address3": "", "address2": null, "zip_code": "10011", "country": "US", "display_address": ["75 9th Ave", "New York, NY 10011"], "state": "NY"}, "price": "$$$", "transactions": [], "display_phone": "(212) 989-6699"}, {"rating": 4.5, "is_closed": false, "distance": 1629.874534664, "name": "Ni Japanese Delicacies", "id": "ni-japanese-delicacies-new-york", "image_url": "https://s3-media1.fl.yelpcdn.com/bphoto/fm4U601sk9WCUtIDQStqBw/o.jpg", "url": "https://www.yelp.com/biz/ni-japanese-delicacies-new-york?adjust_creative=gBcvfFpabk3CnzmXKdYe3w&utm_campaign=yelp_api_v3&utm_medium=api_v3_business_search&utm_source=gBcvfFpabk3CnzmXKdYe3w", "phone": "+16466754324", "coordinates": {"longitude": -73.9876003, "latitude": 40.7193413}, "categories": [{"alias": "japanese", "title": "Japanese"}, {"alias": "delis", "title": "Delis"}], "review_count": 35, "location": {"city": "New York", "address1": "120 Essex St", "address3": "", "address2": "", "zip_code": "10002", "country": "US", "display_address": ["120 Essex St", "New York, NY 10002"], "state": "NY"}, "price": "$", "transactions": [], "display_phone": "(646) 675-4324"}, {"rating": 4.0, "is_closed": false, "distance": 2554.287960166, "name": "The Summit Bar", "id": "the-summit-bar-new-york", "image_url": "https://s3-media3.fl.yelpcdn.com/bphoto/uRRGWes_iOhtzJVLQIlHaA/o.jpg", "url": "https://www.yelp.com/biz/the-summit-bar-new-york?adjust_creative=gBcvfFpabk3CnzmXKdYe3w&utm_campaign=yelp_api_v3&utm_medium=api_v3_business_search&utm_source=gBcvfFpabk3CnzmXKdYe3w", "phone": "+13474657911", "coordinates": {"longitude": -73.9784584, "latitude": 40.72503}, "categories": [{"alias": "cocktailbars", "title": "Cocktail Bars"}, {"alias": "newamerican", "title": "American (New)"}], "review_count": 361, "location": {"city": "New York", "address1": "133 Avenue C", "address3": "", "address2": "", "zip_code": "10009", "country": "US", "display_address": ["133 Avenue C", "New York, NY 10009"], "state": "NY"}, "price": "$$", "transactions": [], "display_phone": "(347) 465-7911"}, {"rating": 4.0, "is_closed": false, "distance": 2610.390357236, "name": "Porto Rico Importing Co", "id": "porto-rico-importing-co-new-york-3", "image_url": "https://s3-media4.fl.yelpcdn.com/bphoto/i2BwHjBX5rCFEPDS11JgrA/o.jpg", "url": "https://www.yelp.com/biz/porto-rico-importing-co-new-york-3?adjust_creative=gBcvfFpabk3CnzmXKdYe3w&utm_campaign=yelp_api_v3&utm_medium=api_v3_business_search&utm_source=gBcvfFpabk3CnzmXKdYe3w", "phone": "+12125331982", "coordinates": {"longitude": -73.9872996775373, "latitude": 40.7283122638023}, "categories": [{"alias": "coffee", "title": "Coffee & Tea"}], "review_count": 164, "location": {"city": "New York", "address1": "40 1/2 St Marks Pl", "address3": "", "address2": "", "zip_code": "10003", "country": "US", "display_address": ["40 1/2 St Marks Pl", "New York, NY 10003"], "state": "NY"}, "price": "$", "transactions": [], "display_phone": "(212) 533-1982"}, {"rating": 4.5, "is_closed": false, "distance": 3467.16853336, "name": "Midwinter Kitchen", "id": "midwinter-kitchen-new-york", "image_url": "https://s3-media4.fl.yelpcdn.com/bphoto/dWiqgOkoDNOiiInSQSbp5Q/o.jpg", "url": "https://www.yelp.com/biz/midwinter-kitchen-new-york?adjust_creative=gBcvfFpabk3CnzmXKdYe3w&utm_campaign=yelp_api_v3&utm_medium=api_v3_business_search&utm_source=gBcvfFpabk3CnzmXKdYe3w", "phone": "+12125058500", "coordinates": {"longitude": -73.98293, "latitude": 40.73542}, "categories": [{"alias": "comfortfood", "title": "Comfort Food"}, {"alias": "breakfast_brunch", "title": "Breakfast & Brunch"}], "review_count": 189, "location": {"city": "New York", "address1": "327 2nd Ave", "address3": "", "address2": null, "zip_code": "10003", "country": "US", "display_address": ["327 2nd Ave", "New York, NY 10003"], "state": "NY"}, "price": "$$", "transactions": [], "display_phone": "(212) 505-8500"}, {"rating": 4.5, "is_closed": false, "distance": 2580.952953692, "name": "William Barnacle Tavern", "id": "william-barnacle-tavern-new-york", "image_url": "https://s3-media2.fl.yelpcdn.com/bphoto/FHa1pVL5SWalxZOtQB2D0g/o.jpg", "url": "https://www.yelp.com/biz/william-barnacle-tavern-new-york?adjust_creative=gBcvfFpabk3CnzmXKdYe3w&utm_campaign=yelp_api_v3&utm_medium=api_v3_business_search&utm_source=gBcvfFpabk3CnzmXKdYe3w", "phone": "+12123880388", "coordinates": {"longitude": -73.9855673164129, "latitude": 40.7276567816734}, "categories": [{"alias": "bars", "title": "Bars"}], "review_count": 67, "location": {"city": "New York", "address1": "80 St Mark's Pl", "address3": "", "address2": "", "zip_code": "10009", "country": "US", "display_address": ["80 St Mark's Pl", "New York, NY 10009"], "state": "NY"}, "price": "$$", "transactions": [], "display_phone": "(212) 388-0388"}, {"rating": 4.0, "is_closed": false, "distance": 2462.426511098, "name": "Desnuda", "id": "desnuda-new-york-2", "image_url": "https://s3-media2.fl.yelpcdn.com/bphoto/pJENrgM0bkRbjjgH9AVODA/o.jpg", "url": "https://www.yelp.com/biz/desnuda-new-york-2?adjust_creative=gBcvfFpabk3CnzmXKdYe3w&utm_campaign=yelp_api_v3&utm_medium=api_v3_business_search&utm_source=gBcvfFpabk3CnzmXKdYe3w", "phone": "+12122543515", "coordinates": {"longitude": -73.9843, "latitude": 40.726255}, "categories": [{"alias": "seafood", "title": "Seafood"}, {"alias": "latin", "title": "Latin American"}, {"alias": "wine_bars", "title": "Wine Bars"}], "review_count": 353, "location": {"city": "New York", "address1": "122 E 7th St", "address3": null, "address2": "", "zip_code": "10009", "country": "US", "display_address": ["122 E 7th St", "New York, NY 10009"], "state": "NY"}, "price": "$$$", "transactions": [], "display_phone": "(212) 254-3515"}, {"rating": 4.5, "is_closed": false, "distance": 3246.684447208, "name": "Caprices By Sophie", "id": "caprices-by-sophie-brooklyn", "image_url": "https://s3-media3.fl.yelpcdn.com/bphoto/RAeruBI5OX3ppP1aX_zv0w/o.jpg", "url": "https://www.yelp.com/biz/caprices-by-sophie-brooklyn?adjust_creative=gBcvfFpabk3CnzmXKdYe3w&utm_campaign=yelp_api_v3&utm_medium=api_v3_business_search&utm_source=gBcvfFpabk3CnzmXKdYe3w", "phone": "+13476894532", "coordinates": {"longitude": -73.959267, "latitude": 40.717594}, "categories": [{"alias": "bakeries", "title": "Bakeries"}, {"alias": "cafes", "title": "Cafes"}, {"alias": "coffee", "title": "Coffee & Tea"}], "review_count": 130, "location": {"city": "Brooklyn", "address1": "138 N 6th St", "address3": "", "address2": null, "zip_code": "11211", "country": "US", "display_address": ["138 N 6th St", "Brooklyn, NY 11211"], "state": "NY"}, "price": "$", "transactions": [], "display_phone": "(347) 689-4532"}, {"rating": 4.5, "is_closed": false, "distance": 5517.880650004, "name": "The Standing Room", "id": "the-standing-room-long-island-city", "image_url": "https://s3-media1.fl.yelpcdn.com/bphoto/fZsE-l21G_pdYxTTQGwFng/o.jpg", "url": "https://www.yelp.com/biz/the-standing-room-long-island-city?adjust_creative=gBcvfFpabk3CnzmXKdYe3w&utm_campaign=yelp_api_v3&utm_medium=api_v3_business_search&utm_source=gBcvfFpabk3CnzmXKdYe3w", "phone": "+13473097666", "coordinates": {"longitude": -73.9538199, "latitude": 40.74445}, "categories": [{"alias": "comedyclubs", "title": "Comedy Clubs"}, {"alias": "cocktailbars", "title": "Cocktail Bars"}], "review_count": 77, "location": {"city": "Long Island City", "address1": "4738 Vernon Blvd", "address3": "", "address2": "", "zip_code": "11101", "country": "US", "display_address": ["4738 Vernon Blvd", "Long Island City, NY 11101"], "state": "NY"}, "price": "$$", "transactions": [], "display_phone": "(347) 309-7666"}, {"rating": 4.5, "is_closed": false, "distance": 1602.532813668, "name": "Table 87 Coal Oven Pizza", "id": "table-87-coal-oven-pizza-brooklyn-3", "image_url": "https://s3-media2.fl.yelpcdn.com/bphoto/YGqSBwJ1m9Nbv1n2gqRV1g/o.jpg", "url": "https://www.yelp.com/biz/table-87-coal-oven-pizza-brooklyn-3?adjust_creative=gBcvfFpabk3CnzmXKdYe3w&utm_campaign=yelp_api_v3&utm_medium=api_v3_business_search&utm_source=gBcvfFpabk3CnzmXKdYe3w", "phone": "+17187979300", "coordinates": {"longitude": -73.9973449707031, "latitude": 40.691219329834}, "categories": [{"alias": "pizza", "title": "Pizza"}, {"alias": "italian", "title": "Italian"}], "review_count": 156, "location": {"city": "Brooklyn", "address1": "87 Atlantic Ave", "address3": "", "address2": "", "zip_code": "11201", "country": "US", "display_address": ["87 Atlantic Ave", "Brooklyn, NY 11201"], "state": "NY"}, "price": "$$", "transactions": ["delivery", "pickup"], "display_phone": "(718) 797-9300"}, {"rating": 4.5, "is_closed": false, "distance": 4336.128447679999, "name": "Brooklyn Blend", "id": "brooklyn-blend-brooklyn", "image_url": "https://s3-media4.fl.yelpcdn.com/bphoto/OSdbpcOpVULaNXIpL38K1A/o.jpg", "url": "https://www.yelp.com/biz/brooklyn-blend-brooklyn?adjust_creative=gBcvfFpabk3CnzmXKdYe3w&utm_campaign=yelp_api_v3&utm_medium=api_v3_business_search&utm_source=gBcvfFpabk3CnzmXKdYe3w", "phone": "+17184842247", "coordinates": {"longitude": -73.9458492169658, "latitude": 40.6923440819487}, "categories": [{"alias": "newamerican", "title": "American (New)"}, {"alias": "juicebars", "title": "Juice Bars & Smoothies"}, {"alias": "coffee", "title": "Coffee & Tea"}], "review_count": 73, "location": {"city": "Brooklyn", "address1": "194 Tompkins Ave", "address3": "", "address2": "", "zip_code": "11206", "country": "US", "display_address": ["194 Tompkins Ave", "Brooklyn, NY 11206"], "state": "NY"}, "price": "$$", "transactions": ["delivery", "pickup"], "display_phone": "(718) 484-2247"}, {"rating": 4.5, "is_closed": false, "distance": 2576.781705346, "name": "Timna", "id": "timna-new-york-4", "image_url": "https://s3-media2.fl.yelpcdn.com/bphoto/_5GEt9w5Q7d1iqrYOsQ85A/o.jpg", "url": "https://www.yelp.com/biz/timna-new-york-4?adjust_creative=gBcvfFpabk3CnzmXKdYe3w&utm_campaign=yelp_api_v3&utm_medium=api_v3_business_search&utm_source=gBcvfFpabk3CnzmXKdYe3w", "phone": "+16469645181", "coordinates": {"longitude": -73.983879, "latitude": 40.727222}, "categories": [{"alias": "mediterranean", "title": "Mediterranean"}, {"alias": "mideastern", "title": "Middle Eastern"}, {"alias": "bars", "title": "Bars"}], "review_count": 187, "location": {"city": "New York", "address1": "109 St Marks Pl", "address3": "", "address2": null, "zip_code": "10009", "country": "US", "display_address": ["109 St Marks Pl", "New York, NY 10009"], "state": "NY"}, "price": "$$$", "transactions": [], "display_phone": "(646) 964-5181"}, {"rating": 4.5, "is_closed": false, "distance": 3887.336147098, "name": "Ellis Island Immigration Museum", "id": "ellis-island-immigration-museum-new-york", "image_url": "https://s3-media1.fl.yelpcdn.com/bphoto/rrwmTWvaYh4Hsq6tklga3Q/o.jpg", "url": "https://www.yelp.com/biz/ellis-island-immigration-museum-new-york?adjust_creative=gBcvfFpabk3CnzmXKdYe3w&utm_campaign=yelp_api_v3&utm_medium=api_v3_business_search&utm_source=gBcvfFpabk3CnzmXKdYe3w", "phone": "+12123633200", "coordinates": {"longitude": -74.0395416540388, "latitude": 40.6987072970291}, "categories": [{"alias": "museums", "title": "Museums"}, {"alias": "landmarks", "title": "Landmarks & Historical Buildings"}], "review_count": 262, "location": {"city": "New York", "address1": "Ellis Island", "address3": "", "address2": null, "zip_code": "10004", "country": "US", "display_address": ["Ellis Island", "New York, NY 10004"], "state": "NY"}, "transactions": [], "display_phone": "(212) 363-3200"}, {"rating": 4.0, "is_closed": false, "distance": 3095.1172888099995, "name": "Tabar\u00e9", "id": "tabar\u00e9-brooklyn-2", "image_url": "https://s3-media1.fl.yelpcdn.com/bphoto/rVjouEA51oGHk6VGwltjOg/o.jpg", "url": "https://www.yelp.com/biz/tabar%C3%A9-brooklyn-2?adjust_creative=gBcvfFpabk3CnzmXKdYe3w&utm_campaign=yelp_api_v3&utm_medium=api_v3_business_search&utm_source=gBcvfFpabk3CnzmXKdYe3w", "phone": "+13473350187", "coordinates": {"longitude": -73.958968, "latitude": 40.713046}, "categories": [{"alias": "latin", "title": "Latin American"}], "review_count": 506, "location": {"city": "Brooklyn", "address1": "221 S 1st St", "address3": "", "address2": "", "zip_code": "11211", "country": "US", "display_address": ["221 S 1st St", "Brooklyn, NY 11211"], "state": "NY"}, "price": "$$", "transactions": [], "display_phone": "(347) 335-0187"}, {"rating": 4.5, "is_closed": false, "distance": 4245.8586358719995, "name": "Beyond Sushi Chelsea Market", "id": "beyond-sushi-chelsea-market-new-york", "image_url": "https://s3-media4.fl.yelpcdn.com/bphoto/ylq_rhyPEXeXeLJOGWFp3g/o.jpg", "url": "https://www.yelp.com/biz/beyond-sushi-chelsea-market-new-york?adjust_creative=gBcvfFpabk3CnzmXKdYe3w&utm_campaign=yelp_api_v3&utm_medium=api_v3_business_search&utm_source=gBcvfFpabk3CnzmXKdYe3w", "phone": "+12129292889", "coordinates": {"longitude": -74.0066324867859, "latitude": 40.7424675258773}, "categories": [{"alias": "sushi", "title": "Sushi Bars"}, {"alias": "vegan", "title": "Vegan"}, {"alias": "vegetarian", "title": "Vegetarian"}], "review_count": 147, "location": {"city": "New York", "address1": "75 9th Ave", "address3": "", "address2": "", "zip_code": "10011", "country": "US", "display_address": ["75 9th Ave", "New York, NY 10011"], "state": "NY"}, "price": "$$", "transactions": [], "display_phone": "(212) 929-2889"}, {"rating": 4.5, "is_closed": false, "distance": 4870.943350876, "name": "Luigi's Pizza", "id": "luigis-pizza-brooklyn", "image_url": "https://s3-media3.fl.yelpcdn.com/bphoto/13Sy-QKtFjMBIJjXmayJDw/o.jpg", "url": "https://www.yelp.com/biz/luigis-pizza-brooklyn?adjust_creative=gBcvfFpabk3CnzmXKdYe3w&utm_campaign=yelp_api_v3&utm_medium=api_v3_business_search&utm_source=gBcvfFpabk3CnzmXKdYe3w", "phone": "+17184993857", "coordinates": {"longitude": -73.99334, "latitude": 40.66163}, "categories": [{"alias": "pizza", "title": "Pizza"}], "review_count": 236, "location": {"city": "Brooklyn", "address1": "686 5th Ave", "address3": "", "address2": "", "zip_code": "11215", "country": "US", "display_address": ["686 5th Ave", "Brooklyn, NY 11215"], "state": "NY"}, "price": "$", "transactions": [], "display_phone": "(718) 499-3857"}, {"rating": 4.5, "is_closed": false, "distance": 1504.6565529104, "name": "Gran Morsi", "id": "gran-morsi-new-york", "image_url": "https://s3-media1.fl.yelpcdn.com/bphoto/BChjkbnfKJNTKq_pwyB6cA/o.jpg", "url": "https://www.yelp.com/biz/gran-morsi-new-york?adjust_creative=gBcvfFpabk3CnzmXKdYe3w&utm_campaign=yelp_api_v3&utm_medium=api_v3_business_search&utm_source=gBcvfFpabk3CnzmXKdYe3w", "phone": "+12125772725", "coordinates": {"longitude": -74.007751, "latitude": 40.714328}, "categories": [{"alias": "italian", "title": "Italian"}], "review_count": 188, "location": {"city": "New York", "address1": "22 Warren St", "address3": "", "address2": "", "zip_code": "10007", "country": "US", "display_address": ["22 Warren St", "New York, NY 10007"], "state": "NY"}, "price": "$$$", "transactions": [], "display_phone": "(212) 577-2725"}, {"rating": 4.5, "is_closed": false, "distance": 4925.186155576, "name": "Perk Kafe", "id": "perk-kafe-new-york", "image_url": "https://s3-media4.fl.yelpcdn.com/bphoto/WZ907LApvHYgT1aKh50WuQ/o.jpg", "url": "https://www.yelp.com/biz/perk-kafe-new-york?adjust_creative=gBcvfFpabk3CnzmXKdYe3w&utm_campaign=yelp_api_v3&utm_medium=api_v3_business_search&utm_source=gBcvfFpabk3CnzmXKdYe3w", "phone": "+12126867375", "coordinates": {"longitude": -73.9770407671092, "latitude": 40.747764735907}, "categories": [{"alias": "coffee", "title": "Coffee & Tea"}, {"alias": "bakeries", "title": "Bakeries"}], "review_count": 292, "location": {"city": "New York", "address1": "162 E 37th St", "address3": "", "address2": "", "zip_code": "10016", "country": "US", "display_address": ["162 E 37th St", "New York, NY 10016"], "state": "NY"}, "price": "$", "transactions": [], "display_phone": "(212) 686-7375"}, {"rating": 4.5, "is_closed": false, "distance": 4286.797670528, "name": "Win Son", "id": "win-son-brooklyn-4", "image_url": "https://s3-media2.fl.yelpcdn.com/bphoto/BVAjgvnMboFfwpJcVUCfLg/o.jpg", "url": "https://www.yelp.com/biz/win-son-brooklyn-4?adjust_creative=gBcvfFpabk3CnzmXKdYe3w&utm_campaign=yelp_api_v3&utm_medium=api_v3_business_search&utm_source=gBcvfFpabk3CnzmXKdYe3w", "phone": "+13474576010", "coordinates": {"longitude": -73.943489, "latitude": 40.707447}, "categories": [{"alias": "taiwanese", "title": "Taiwanese"}, {"alias": "newamerican", "title": "American (New)"}], "review_count": 115, "location": {"city": "Brooklyn", "address1": "159 Graham Ave", "address3": "", "address2": null, "zip_code": "11206", "country": "US", "display_address": ["159 Graham Ave", "Brooklyn, NY 11206"], "state": "NY"}, "price": "$$", "transactions": [], "display_phone": "(347) 457-6010"}, {"rating": 4.0, "is_closed": false, "distance": 1732.2995305579998, "name": "Creperie", "id": "creperie-new-york", "image_url": "https://s3-media2.fl.yelpcdn.com/bphoto/qPJsBznq4pVH5AD2m-gKKQ/o.jpg", "url": "https://www.yelp.com/biz/creperie-new-york?adjust_creative=gBcvfFpabk3CnzmXKdYe3w&utm_campaign=yelp_api_v3&utm_medium=api_v3_business_search&utm_source=gBcvfFpabk3CnzmXKdYe3w", "phone": "+12129795521", "coordinates": {"longitude": -73.9883391, "latitude": 40.7203575}, "categories": [{"alias": "creperies", "title": "Creperies"}], "review_count": 421, "location": {"city": "New York", "address1": "135 Ludlow St", "address3": "", "address2": "", "zip_code": "10002", "country": "US", "display_address": ["135 Ludlow St", "New York, NY 10002"], "state": "NY"}, "price": "$", "transactions": ["delivery", "pickup"], "display_phone": "(212) 979-5521"}, {"rating": 4.0, "is_closed": false, "distance": 1138.80841283, "name": "L.E.S kitchen", "id": "l-e-s-kitchen-new-york", "image_url": "https://s3-media2.fl.yelpcdn.com/bphoto/Kj6eOfFDlrgTvlRltrSLDw/o.jpg", "url": "https://www.yelp.com/biz/l-e-s-kitchen-new-york?adjust_creative=gBcvfFpabk3CnzmXKdYe3w&utm_campaign=yelp_api_v3&utm_medium=api_v3_business_search&utm_source=gBcvfFpabk3CnzmXKdYe3w", "phone": "+16469522313", "coordinates": {"longitude": -73.9900949, "latitude": 40.715178}, "categories": [{"alias": "burgers", "title": "Burgers"}, {"alias": "sandwiches", "title": "Sandwiches"}], "review_count": 258, "location": {"city": "New York", "address1": "15 Essex St", "address3": "", "address2": "", "zip_code": "10002", "country": "US", "display_address": ["15 Essex St", "New York, NY 10002"], "state": "NY"}, "price": "$", "transactions": ["delivery", "pickup"], "display_phone": "(646) 952-2313"}, {"rating": 4.0, "is_closed": false, "distance": 1845.2929012979998, "name": "The Meatball Shop", "id": "the-meatball-shop-new-york", "image_url": "https://s3-media4.fl.yelpcdn.com/bphoto/tJVWQ2FY5TTT8Ks5NVCzwg/o.jpg", "url": "https://www.yelp.com/biz/the-meatball-shop-new-york?adjust_creative=gBcvfFpabk3CnzmXKdYe3w&utm_campaign=yelp_api_v3&utm_medium=api_v3_business_search&utm_source=gBcvfFpabk3CnzmXKdYe3w", "phone": "+12129828895", "coordinates": {"longitude": -73.9887357, "latitude": 40.7214961}, "categories": [{"alias": "italian", "title": "Italian"}, {"alias": "tradamerican", "title": "American (Traditional)"}], "review_count": 2515, "location": {"city": "New York", "address1": "84 Stanton St", "address3": "", "address2": "", "zip_code": "10002", "country": "US", "display_address": ["84 Stanton St", "New York, NY 10002"], "state": "NY"}, "price": "$$", "transactions": ["delivery", "pickup"], "display_phone": "(212) 982-8895"}, {"rating": 4.0, "is_closed": false, "distance": 5372.304742558, "name": "Sushi Yasuda", "id": "sushi-yasuda-new-york", "image_url": "https://s3-media2.fl.yelpcdn.com/bphoto/QXiWRA-Kahs18igBX7H6Iw/o.jpg", "url": "https://www.yelp.com/biz/sushi-yasuda-new-york?adjust_creative=gBcvfFpabk3CnzmXKdYe3w&utm_campaign=yelp_api_v3&utm_medium=api_v3_business_search&utm_source=gBcvfFpabk3CnzmXKdYe3w", "phone": "+12129721001", "coordinates": {"longitude": -73.97347, "latitude": 40.75113}, "categories": [{"alias": "japanese", "title": "Japanese"}], "review_count": 1807, "location": {"city": "New York", "address1": "204 E 43rd St", "address3": "", "address2": "", "zip_code": "10017", "country": "US", "display_address": ["204 E 43rd St", "New York, NY 10017"], "state": "NY"}, "price": "$$$$", "transactions": [], "display_phone": "(212) 972-1001"}, {"rating": 4.5, "is_closed": false, "distance": 4535.99157761, "name": "Crema BK", "id": "crema-bk-brooklyn", "image_url": "https://s3-media2.fl.yelpcdn.com/bphoto/UuuMBebQT0vCP9Kitm9zaw/o.jpg", "url": "https://www.yelp.com/biz/crema-bk-brooklyn?adjust_creative=gBcvfFpabk3CnzmXKdYe3w&utm_campaign=yelp_api_v3&utm_medium=api_v3_business_search&utm_source=gBcvfFpabk3CnzmXKdYe3w", "phone": "+13474575363", "coordinates": {"longitude": -73.945777, "latitude": 40.723121}, "categories": [{"alias": "coffee", "title": "Coffee & Tea"}], "review_count": 68, "location": {"city": "Brooklyn", "address1": "182 Driggs Ave", "address3": "", "address2": null, "zip_code": "11222", "country": "US", "display_address": ["182 Driggs Ave", "Brooklyn, NY 11222"], "state": "NY"}, "price": "$$", "transactions": [], "display_phone": "(347) 457-5363"}, {"rating": 4.0, "is_closed": false, "distance": 2782.248879024, "name": "Minetta Tavern", "id": "minetta-tavern-new-york", "image_url": "https://s3-media4.fl.yelpcdn.com/bphoto/J5VE0w-yFfRbaJWE7evXXA/o.jpg", "url": "https://www.yelp.com/biz/minetta-tavern-new-york?adjust_creative=gBcvfFpabk3CnzmXKdYe3w&utm_campaign=yelp_api_v3&utm_medium=api_v3_business_search&utm_source=gBcvfFpabk3CnzmXKdYe3w", "phone": "+12124753850", "coordinates": {"longitude": -74.0006073834151, "latitude": 40.7300047976758}, "categories": [{"alias": "french", "title": "French"}, {"alias": "newamerican", "title": "American (New)"}, {"alias": "breakfast_brunch", "title": "Breakfast & Brunch"}], "review_count": 1777, "location": {"city": "New York", "address1": "113 Macdougal St", "address3": "", "address2": "", "zip_code": "10012", "country": "US", "display_address": ["113 Macdougal St", "New York, NY 10012"], "state": "NY"}, "price": "$$$", "transactions": [], "display_phone": "(212) 475-3850"}, {"rating": 4.0, "is_closed": false, "distance": 1122.3168621139998, "name": "Cup & Saucer", "id": "cup-and-saucer-new-york", "image_url": "https://s3-media3.fl.yelpcdn.com/bphoto/3qg33kXPDME1NlxAVbb1wA/o.jpg", "url": "https://www.yelp.com/biz/cup-and-saucer-new-york?adjust_creative=gBcvfFpabk3CnzmXKdYe3w&utm_campaign=yelp_api_v3&utm_medium=api_v3_business_search&utm_source=gBcvfFpabk3CnzmXKdYe3w", "phone": "+12129253298", "coordinates": {"longitude": -73.99347, "latitude": 40.7155}, "categories": [{"alias": "diners", "title": "Diners"}, {"alias": "chinese", "title": "Chinese"}], "review_count": 193, "location": {"city": "New York", "address1": "89 Canal St", "address3": "", "address2": "", "zip_code": "10002", "country": "US", "display_address": ["89 Canal St", "New York, NY 10002"], "state": "NY"}, "price": "$", "transactions": [], "display_phone": "(212) 925-3298"}, {"rating": 4.5, "is_closed": false, "distance": 833.8622045016, "name": "Sun Hing Lung Co", "id": "sun-hing-lung-co-new-york-3", "image_url": "https://s3-media3.fl.yelpcdn.com/bphoto/l07KZELAnbW1l7YNP_L2Tg/o.jpg", "url": "https://www.yelp.com/biz/sun-hing-lung-co-new-york-3?adjust_creative=gBcvfFpabk3CnzmXKdYe3w&utm_campaign=yelp_api_v3&utm_medium=api_v3_business_search&utm_source=gBcvfFpabk3CnzmXKdYe3w", "phone": "", "coordinates": {"longitude": -73.9949862286448, "latitude": 40.7129253167705}, "categories": [{"alias": "chinese", "title": "Chinese"}], "review_count": 85, "location": {"city": "New York", "address1": "58 Henry St", "address3": "", "address2": "", "zip_code": "10002", "country": "US", "display_address": ["58 Henry St", "New York, NY 10002"], "state": "NY"}, "price": "$", "transactions": [], "display_phone": ""}, {"rating": 5.0, "is_closed": false, "distance": 4490.633778116, "name": "Archestratus", "id": "archestratus-brooklyn", "image_url": "https://s3-media2.fl.yelpcdn.com/bphoto/6UdUZ2H0fBTSqZvHTbXxww/o.jpg", "url": "https://www.yelp.com/biz/archestratus-brooklyn?adjust_creative=gBcvfFpabk3CnzmXKdYe3w&utm_campaign=yelp_api_v3&utm_medium=api_v3_business_search&utm_source=gBcvfFpabk3CnzmXKdYe3w", "phone": "+17183497711", "coordinates": {"longitude": -73.9551518, "latitude": 40.7328481}, "categories": [{"alias": "bookstores", "title": "Bookstores"}, {"alias": "venues", "title": "Venues & Event Spaces"}, {"alias": "cafes", "title": "Cafes"}], "review_count": 18, "location": {"city": "Brooklyn", "address1": "160 Huron St", "address3": "", "address2": "", "zip_code": "11222", "country": "US", "display_address": ["160 Huron St", "Brooklyn, NY 11222"], "state": "NY"}, "price": "$", "transactions": [], "display_phone": "(718) 349-7711"}, {"rating": 4.5, "is_closed": false, "distance": 6388.951696536, "name": "The Halal Guys", "id": "the-halal-guys-new-york-2", "image_url": "https://s3-media2.fl.yelpcdn.com/bphoto/i6QRVRliZ42stZUp7795jQ/o.jpg", "url": "https://www.yelp.com/biz/the-halal-guys-new-york-2?adjust_creative=gBcvfFpabk3CnzmXKdYe3w&utm_campaign=yelp_api_v3&utm_medium=api_v3_business_search&utm_source=gBcvfFpabk3CnzmXKdYe3w", "phone": "", "coordinates": {"longitude": -73.979229927063, "latitude": 40.7617559582706}, "categories": [{"alias": "foodstands", "title": "Food Stands"}, {"alias": "mideastern", "title": "Middle Eastern"}, {"alias": "halal", "title": "Halal"}], "review_count": 8212, "location": {"city": "New York", "address1": "W 53rd St 6th Ave", "address3": "", "address2": null, "zip_code": "10019", "country": "US", "display_address": ["W 53rd St 6th Ave", "New York, NY 10019"], "state": "NY"}, "price": "$", "transactions": [], "display_phone": ""}, {"rating": 4.0, "is_closed": false, "distance": 2440.9434314379996, "name": "Degustation", "id": "degustation-new-york", "image_url": "https://s3-media2.fl.yelpcdn.com/bphoto/FshTGqMzJMdaGEXZkDGHwA/o.jpg", "url": "https://www.yelp.com/biz/degustation-new-york?adjust_creative=gBcvfFpabk3CnzmXKdYe3w&utm_campaign=yelp_api_v3&utm_medium=api_v3_business_search&utm_source=gBcvfFpabk3CnzmXKdYe3w", "phone": "+12129791012", "coordinates": {"longitude": -73.98922, "latitude": 40.72699}, "categories": [{"alias": "french", "title": "French"}, {"alias": "newamerican", "title": "American (New)"}, {"alias": "spanish", "title": "Spanish"}], "review_count": 597, "location": {"city": "New York", "address1": "239 E 5th St", "address3": "", "address2": null, "zip_code": "10003", "country": "US", "display_address": ["239 E 5th St", "New York, NY 10003"], "state": "NY"}, "price": "$$$", "transactions": [], "display_phone": "(212) 979-1012"}, {"rating": 4.0, "is_closed": false, "distance": 2073.195562048, "name": "Hanco's", "id": "hancos-brooklyn", "image_url": "https://s3-media3.fl.yelpcdn.com/bphoto/R5Fi93eSOxHt2V8KsrUWkQ/o.jpg", "url": "https://www.yelp.com/biz/hancos-brooklyn?adjust_creative=gBcvfFpabk3CnzmXKdYe3w&utm_campaign=yelp_api_v3&utm_medium=api_v3_business_search&utm_source=gBcvfFpabk3CnzmXKdYe3w", "phone": "+17188586818", "coordinates": {"longitude": -73.9904292380982, "latitude": 40.6870318621828}, "categories": [{"alias": "vietnamese", "title": "Vietnamese"}, {"alias": "sandwiches", "title": "Sandwiches"}, {"alias": "bubbletea", "title": "Bubble Tea"}], "review_count": 569, "location": {"city": "Brooklyn", "address1": "134 Smith St", "address3": "", "address2": "", "zip_code": "11201", "country": "US", "display_address": ["134 Smith St", "Brooklyn, NY 11201"], "state": "NY"}, "price": "$", "transactions": ["delivery", "pickup"], "display_phone": "(718) 858-6818"}, {"rating": 4.5, "is_closed": false, "distance": 3650.8009865879994, "name": "Wallflower", "id": "wallflower-new-york", "image_url": "https://s3-media4.fl.yelpcdn.com/bphoto/jTwlT-Lal5Idqaerc34R7w/o.jpg", "url": "https://www.yelp.com/biz/wallflower-new-york?adjust_creative=gBcvfFpabk3CnzmXKdYe3w&utm_campaign=yelp_api_v3&utm_medium=api_v3_business_search&utm_source=gBcvfFpabk3CnzmXKdYe3w", "phone": "+16466829842", "coordinates": {"longitude": -74.0021002, "latitude": 40.7377405}, "categories": [{"alias": "newamerican", "title": "American (New)"}], "review_count": 187, "location": {"city": "New York", "address1": "235 W 12th St", "address3": "", "address2": "", "zip_code": "10014", "country": "US", "display_address": ["235 W 12th St", "New York, NY 10014"], "state": "NY"}, "price": "$$$", "transactions": [], "display_phone": "(646) 682-9842"}, {"rating": 4.0, "is_closed": false, "distance": 3040.7014800599995, "name": "5ive Spice", "id": "5ive-spice-brooklyn-3", "image_url": "https://s3-media2.fl.yelpcdn.com/bphoto/AlExC6Q0xPBvIXCG_VDJFw/o.jpg", "url": "https://www.yelp.com/biz/5ive-spice-brooklyn-3?adjust_creative=gBcvfFpabk3CnzmXKdYe3w&utm_campaign=yelp_api_v3&utm_medium=api_v3_business_search&utm_source=gBcvfFpabk3CnzmXKdYe3w", "phone": "+17188573483", "coordinates": {"longitude": -73.9771062, "latitude": 40.6814048}, "categories": [{"alias": "vietnamese", "title": "Vietnamese"}, {"alias": "coffee", "title": "Coffee & Tea"}, {"alias": "salad", "title": "Salad"}], "review_count": 294, "location": {"city": "Brooklyn", "address1": "52 5th Ave", "address3": "", "address2": "", "zip_code": "11217", "country": "US", "display_address": ["52 5th Ave", "Brooklyn, NY 11217"], "state": "NY"}, "price": "$$", "transactions": [], "display_phone": "(718) 857-3483"}, {"rating": 4.0, "is_closed": false, "distance": 2908.1826308359996, "name": "Black Brick", "id": "black-brick-brooklyn", "image_url": "https://s3-media2.fl.yelpcdn.com/bphoto/4qN3vQeWInWFE1Ob79GBiQ/o.jpg", "url": "https://www.yelp.com/biz/black-brick-brooklyn?adjust_creative=gBcvfFpabk3CnzmXKdYe3w&utm_campaign=yelp_api_v3&utm_medium=api_v3_business_search&utm_source=gBcvfFpabk3CnzmXKdYe3w", "phone": "+17183840075", "coordinates": {"longitude": -73.9617848396301, "latitude": 40.7142079238412}, "categories": [{"alias": "coffee", "title": "Coffee & Tea"}], "review_count": 238, "location": {"city": "Brooklyn", "address1": "300 Bedford Ave", "address3": "", "address2": null, "zip_code": "11211", "country": "US", "display_address": ["300 Bedford Ave", "Brooklyn, NY 11211"], "state": "NY"}, "price": "$", "transactions": [], "display_phone": "(718) 384-0075"}, {"rating": 4.5, "is_closed": false, "distance": 2593.0217162199997, "name": "Da Marcella", "id": "da-marcella-new-york", "image_url": "https://s3-media4.fl.yelpcdn.com/bphoto/7OsGS-J0I2XHga_7JrxVyw/o.jpg", "url": "https://www.yelp.com/biz/da-marcella-new-york?adjust_creative=gBcvfFpabk3CnzmXKdYe3w&utm_campaign=yelp_api_v3&utm_medium=api_v3_business_search&utm_source=gBcvfFpabk3CnzmXKdYe3w", "phone": "+16465599192", "coordinates": {"longitude": -74.00172, "latitude": 40.72806}, "categories": [{"alias": "italian", "title": "Italian"}], "review_count": 187, "location": {"city": "New York", "address1": "142 W Houston St", "address3": "", "address2": "", "zip_code": "10012", "country": "US", "display_address": ["142 W Houston St", "New York, NY 10012"], "state": "NY"}, "price": "$$", "transactions": ["delivery", "pickup"], "display_phone": "(646) 559-9192"}, {"rating": 4.0, "is_closed": false, "distance": 1808.2212715959997, "name": "Saluggi's", "id": "saluggis-new-york", "image_url": "https://s3-media2.fl.yelpcdn.com/bphoto/RqZTREZLxC95RhVolIfikw/o.jpg", "url": "https://www.yelp.com/biz/saluggis-new-york?adjust_creative=gBcvfFpabk3CnzmXKdYe3w&utm_campaign=yelp_api_v3&utm_medium=api_v3_business_search&utm_source=gBcvfFpabk3CnzmXKdYe3w", "phone": "+12122267900", "coordinates": {"longitude": -74.003578, "latitude": 40.720104}, "categories": [{"alias": "pizza", "title": "Pizza"}, {"alias": "italian", "title": "Italian"}], "review_count": 472, "location": {"city": "New York", "address1": "325 Church St", "address3": "", "address2": "", "zip_code": "10013", "country": "US", "display_address": ["325 Church St", "New York, NY 10013"], "state": "NY"}, "price": "$$", "transactions": ["delivery", "pickup"], "display_phone": "(212) 226-7900"}]}