{"total": 131350, "region": {"center": {"longitude": -73.99429321289062, "latitude": 40.70544486444615}}, "businesses": [{"rating": 4.5, "is_closed": false, "distance": 4705.64498173, "name": "Freddy's Bar", "id": "freddys-bar-brooklyn-2", "image_url": "https://s3-media1.fl.yelpcdn.com/bphoto/Ev4wyPjzob40ksS_rw9ncg/o.jpg", "url": "https://www.yelp.com/biz/freddys-bar-brooklyn-2?adjust_creative=gBcvfFpabk3CnzmXKdYe3w&utm_campaign=yelp_api_v3&utm_medium=api_v3_business_search&utm_source=gBcvfFpabk3CnzmXKdYe3w", "phone": "+17187680131", "coordinates": {"longitude": -73.991061, "latitude": 40.6631969}, "categories": [{"alias": "bars", "title": "Bars"}, {"alias": "musicvenues", "title": "Music Venues"}], "review_count": 182, "location": {"city": "Brooklyn", "address1": "627 5th Ave", "address3": "", "address2": "", "zip_code": "11215", "country": "US", "display_address": ["627 5th Ave", "Brooklyn, NY 11215"], "state": "NY"}, "price": "$", "transactions": [], "display_phone": "(718) 768-0131"}, {"rating": 4.0, "is_closed": false, "distance": 4314.586788044, "name": "Salinas", "id": "salinas-new-york", "image_url": "https://s3-media1.fl.yelpcdn.com/bphoto/lw-ZKP-QXdmoPwjxVk1Atw/o.jpg", "url": "https://www.yelp.com/biz/salinas-new-york?adjust_creative=gBcvfFpabk3CnzmXKdYe3w&utm_campaign=yelp_api_v3&utm_medium=api_v3_business_search&utm_source=gBcvfFpabk3CnzmXKdYe3w", "phone": "+12127761990", "coordinates": {"longitude": -74.003, "latitude": 40.74364}, "categories": [{"alias": "spanish", "title": "Spanish"}], "review_count": 745, "location": {"city": "New York", "address1": "136 9th Ave", "address3": "", "address2": "", "zip_code": "10011", "country": "US", "display_address": ["136 9th Ave", "New York, NY 10011"], "state": "NY"}, "price": "$$$", "transactions": [], "display_phone": "(212) 776-1990"}, {"rating": 4.5, "is_closed": false, "distance": 2451.858136252, "name": "Gersi", "id": "gersi-brooklyn", "image_url": "https://s3-media3.fl.yelpcdn.com/bphoto/oZzHOcXySkL-tCOFJy20jw/o.jpg", "url": "https://www.yelp.com/biz/gersi-brooklyn?adjust_creative=gBcvfFpabk3CnzmXKdYe3w&utm_campaign=yelp_api_v3&utm_medium=api_v3_business_search&utm_source=gBcvfFpabk3CnzmXKdYe3w", "phone": "+13478895077", "coordinates": {"longitude": -73.99571, "latitude": 40.68344}, "categories": [{"alias": "italian", "title": "Italian"}, {"alias": "wine_bars", "title": "Wine Bars"}], "review_count": 97, "location": {"city": "Brooklyn", "address1": "316 Court St", "address3": "", "address2": "", "zip_code": "11231", "country": "US", "display_address": ["316 Court St", "Brooklyn, NY 11231"], "state": "NY"}, "price": "$$", "transactions": [], "display_phone": "(347) 889-5077"}, {"rating": 4.5, "is_closed": false, "distance": 4432.86426574, "name": "Dil-e Punjab Deli", "id": "dil-e-punjab-deli-new-york", "image_url": "https://s3-media2.fl.yelpcdn.com/bphoto/vRwVd7qL8DWsvRePyeJaeg/o.jpg", "url": "https://www.yelp.com/biz/dil-e-punjab-deli-new-york?adjust_creative=gBcvfFpabk3CnzmXKdYe3w&utm_campaign=yelp_api_v3&utm_medium=api_v3_business_search&utm_source=gBcvfFpabk3CnzmXKdYe3w", "phone": "+12126479428", "coordinates": {"longitude": -74.0020751953125, "latitude": 40.7448387145996}, "categories": [{"alias": "indpak", "title": "Indian"}, {"alias": "vegetarian", "title": "Vegetarian"}, {"alias": "pakistani", "title": "Pakistani"}], "review_count": 145, "location": {"city": "New York", "address1": "170 9th Ave", "address3": "", "address2": "", "zip_code": "10011", "country": "US", "display_address": ["170 9th Ave", "New York, NY 10011"], "state": "NY"}, "price": "$", "transactions": ["delivery", "pickup"], "display_phone": "(212) 647-9428"}, {"rating": 4.0, "is_closed": false, "distance": 2863.318254986, "name": "Zundo-Ya", "id": "zundo-ya-new-york", "image_url": "https://s3-media2.fl.yelpcdn.com/bphoto/-hdXQ_q-evEDgqvzNcQTTA/o.jpg", "url": "https://www.yelp.com/biz/zundo-ya-new-york?adjust_creative=gBcvfFpabk3CnzmXKdYe3w&utm_campaign=yelp_api_v3&utm_medium=api_v3_business_search&utm_source=gBcvfFpabk3CnzmXKdYe3w", "phone": "+19176393549", "coordinates": {"longitude": -73.9899444580078, "latitude": 40.7308616638184}, "categories": [{"alias": "ramen", "title": "Ramen"}], "review_count": 421, "location": {"city": "New York", "address1": "84 E 10th St", "address3": "", "address2": "", "zip_code": "10003", "country": "US", "display_address": ["84 E 10th St", "New York, NY 10003"], "state": "NY"}, "price": "$$", "transactions": [], "display_phone": "(917) 639-3549"}, {"rating": 4.0, "is_closed": false, "distance": 2083.0492289999997, "name": "Tuck Shop", "id": "tuck-shop-new-york", "image_url": "https://s3-media4.fl.yelpcdn.com/bphoto/W58QK91S0vcwXpehags_Cw/o.jpg", "url": "https://www.yelp.com/biz/tuck-shop-new-york?adjust_creative=gBcvfFpabk3CnzmXKdYe3w&utm_campaign=yelp_api_v3&utm_medium=api_v3_business_search&utm_source=gBcvfFpabk3CnzmXKdYe3w", "phone": "+12129795200", "coordinates": {"longitude": -73.988807, "latitude": 40.723716}, "categories": [{"alias": "australian", "title": "Australian"}], "review_count": 348, "location": {"city": "New York", "address1": "68 E 1st St", "address3": "", "address2": "", "zip_code": "10003", "country": "US", "display_address": ["68 E 1st St", "New York, NY 10003"], "state": "NY"}, "price": "$", "transactions": ["delivery", "pickup"], "display_phone": "(212) 979-5200"}, {"rating": 4.0, "is_closed": false, "distance": 1367.98084284, "name": "The Capital Grille", "id": "the-capital-grille-new-york-3", "image_url": "https://s3-media1.fl.yelpcdn.com/bphoto/WVNp-ApSvbIAvu7Iggbfrg/o.jpg", "url": "https://www.yelp.com/biz/the-capital-grille-new-york-3?adjust_creative=gBcvfFpabk3CnzmXKdYe3w&utm_campaign=yelp_api_v3&utm_medium=api_v3_business_search&utm_source=gBcvfFpabk3CnzmXKdYe3w", "phone": "+12123741811", "coordinates": {"longitude": -74.0102026698364, "latitude": 40.7078813982786}, "categories": [{"alias": "seafood", "title": "Seafood"}, {"alias": "steak", "title": "Steakhouses"}, {"alias": "wine_bars", "title": "Wine Bars"}], "review_count": 410, "location": {"city": "New York", "address1": "120 Broadway", "address3": "", "address2": "", "zip_code": "10271", "country": "US", "display_address": ["120 Broadway", "New York, NY 10271"], "state": "NY"}, "price": "$$$", "transactions": [], "display_phone": "(212) 374-1811"}, {"rating": 4.0, "is_closed": false, "distance": 2756.666971318, "name": "Westville - East", "id": "westville-east-new-york-3", "image_url": "https://s3-media4.fl.yelpcdn.com/bphoto/IFJBNJcCXsmxfcdYI6z5Ng/o.jpg", "url": "https://www.yelp.com/biz/westville-east-new-york-3?adjust_creative=gBcvfFpabk3CnzmXKdYe3w&utm_campaign=yelp_api_v3&utm_medium=api_v3_business_search&utm_source=gBcvfFpabk3CnzmXKdYe3w", "phone": "+12126772033", "coordinates": {"longitude": -73.982131, "latitude": 40.728466}, "categories": [{"alias": "tradamerican", "title": "American (Traditional)"}, {"alias": "beerbar", "title": "Beer Bar"}, {"alias": "bakeries", "title": "Bakeries"}], "review_count": 915, "location": {"city": "New York", "address1": "173 Ave A", "address3": "", "address2": "", "zip_code": "10009", "country": "US", "display_address": ["173 Ave A", "New York, NY 10009"], "state": "NY"}, "price": "$$", "transactions": [], "display_phone": "(212) 677-2033"}, {"rating": 4.0, "is_closed": false, "distance": 2700.749165546, "name": "Spot Dessert Bar", "id": "spot-dessert-bar-new-york-2", "image_url": "https://s3-media2.fl.yelpcdn.com/bphoto/4ZEcuAve4pLhHR7rVazO0g/o.jpg", "url": "https://www.yelp.com/biz/spot-dessert-bar-new-york-2?adjust_creative=gBcvfFpabk3CnzmXKdYe3w&utm_campaign=yelp_api_v3&utm_medium=api_v3_business_search&utm_source=gBcvfFpabk3CnzmXKdYe3w", "phone": "+12126775670", "coordinates": {"longitude": -73.988923, "latitude": 40.72939}, "categories": [{"alias": "desserts", "title": "Desserts"}, {"alias": "macarons", "title": "Macarons"}, {"alias": "creperies", "title": "Creperies"}], "review_count": 2207, "location": {"city": "New York", "address1": "13 St Marks Pl", "address3": "", "address2": "", "zip_code": "10003", "country": "US", "display_address": ["13 St Marks Pl", "New York, NY 10003"], "state": "NY"}, "price": "$$", "transactions": ["delivery", "pickup"], "display_phone": "(212) 677-5670"}, {"rating": 4.0, "is_closed": false, "distance": 3358.8409611479997, "name": "Decoy", "id": "decoy-new-york", "image_url": "https://s3-media4.fl.yelpcdn.com/bphoto/vZIinEo2_oGDXQFxWR5zyQ/o.jpg", "url": "https://www.yelp.com/biz/decoy-new-york?adjust_creative=gBcvfFpabk3CnzmXKdYe3w&utm_campaign=yelp_api_v3&utm_medium=api_v3_business_search&utm_source=gBcvfFpabk3CnzmXKdYe3w", "phone": "+12126919700", "coordinates": {"longitude": -74.006519, "latitude": 40.734196}, "categories": [{"alias": "chinese", "title": "Chinese"}, {"alias": "bars", "title": "Bars"}], "review_count": 214, "location": {"city": "New York", "address1": "529 Hudson St", "address3": "", "address2": "", "zip_code": "10014", "country": "US", "display_address": ["529 Hudson St", "New York, NY 10014"], "state": "NY"}, "price": "$$$", "transactions": [], "display_phone": "(212) 691-9700"}, {"rating": 4.0, "is_closed": false, "distance": 1680.2834086819998, "name": "LuAnne's Wild Ginger All-Asian Vegan", "id": "luannes-wild-ginger-all-asian-vegan-new-york", "image_url": "https://s3-media3.fl.yelpcdn.com/bphoto/tOJu4CNK4nwh5rrp8dxqWA/o.jpg", "url": "https://www.yelp.com/biz/luannes-wild-ginger-all-asian-vegan-new-york?adjust_creative=gBcvfFpabk3CnzmXKdYe3w&utm_campaign=yelp_api_v3&utm_medium=api_v3_business_search&utm_source=gBcvfFpabk3CnzmXKdYe3w", "phone": "+12129661883", "coordinates": {"longitude": -73.9964956, "latitude": 40.7204631}, "categories": [{"alias": "vegetarian", "title": "Vegetarian"}, {"alias": "asianfusion", "title": "Asian Fusion"}, {"alias": "vegan", "title": "Vegan"}], "review_count": 542, "location": {"city": "New York", "address1": "380 Broome St", "address3": "", "address2": null, "zip_code": "10013", "country": "US", "display_address": ["380 Broome St", "New York, NY 10013"], "state": "NY"}, "price": "$$", "transactions": ["delivery", "pickup"], "display_phone": "(212) 966-1883"}, {"rating": 4.0, "is_closed": false, "distance": 3767.26779585, "name": "Brunetti Pizza", "id": "brunetti-pizza-new-york", "image_url": "https://s3-media2.fl.yelpcdn.com/bphoto/fybRxT2KiiZASx6xM0VX_Q/o.jpg", "url": "https://www.yelp.com/biz/brunetti-pizza-new-york?adjust_creative=gBcvfFpabk3CnzmXKdYe3w&utm_campaign=yelp_api_v3&utm_medium=api_v3_business_search&utm_source=gBcvfFpabk3CnzmXKdYe3w", "phone": "+12122555699", "coordinates": {"longitude": -74.0054, "latitude": 40.73829}, "categories": [{"alias": "pizza", "title": "Pizza"}], "review_count": 202, "location": {"city": "New York", "address1": "626 Hudson St", "address3": "", "address2": null, "zip_code": "10014", "country": "US", "display_address": ["626 Hudson St", "New York, NY 10014"], "state": "NY"}, "price": "$$", "transactions": ["delivery", "pickup"], "display_phone": "(212) 255-5699"}, {"rating": 4.0, "is_closed": false, "distance": 2147.649424072, "name": "Aurora Soho", "id": "aurora-soho-new-york", "image_url": "https://s3-media2.fl.yelpcdn.com/bphoto/DDtqDnLCx3EMNb1aa17G8Q/o.jpg", "url": "https://www.yelp.com/biz/aurora-soho-new-york?adjust_creative=gBcvfFpabk3CnzmXKdYe3w&utm_campaign=yelp_api_v3&utm_medium=api_v3_business_search&utm_source=gBcvfFpabk3CnzmXKdYe3w", "phone": "+12123349020", "coordinates": {"longitude": -74.003199, "latitude": 40.723543}, "categories": [{"alias": "italian", "title": "Italian"}, {"alias": "breakfast_brunch", "title": "Breakfast & Brunch"}, {"alias": "wine_bars", "title": "Wine Bars"}], "review_count": 312, "location": {"city": "New York", "address1": "510 Broome St", "address3": "", "address2": "", "zip_code": "10013", "country": "US", "display_address": ["510 Broome St", "New York, NY 10013"], "state": "NY"}, "price": "$$$", "transactions": [], "display_phone": "(212) 334-9020"}, {"rating": 4.0, "is_closed": false, "distance": 3386.5261152999997, "name": "Emily", "id": "emily-brooklyn", "image_url": "https://s3-media2.fl.yelpcdn.com/bphoto/DP01taf4K5teDUJdBgegKw/o.jpg", "url": "https://www.yelp.com/biz/emily-brooklyn?adjust_creative=gBcvfFpabk3CnzmXKdYe3w&utm_campaign=yelp_api_v3&utm_medium=api_v3_business_search&utm_source=gBcvfFpabk3CnzmXKdYe3w", "phone": "+13478449588", "coordinates": {"longitude": -73.9664132321178, "latitude": 40.6835192334848}, "categories": [{"alias": "pizza", "title": "Pizza"}], "review_count": 466, "location": {"city": "Brooklyn", "address1": "919 Fulton St", "address3": "", "address2": "", "zip_code": "11238", "country": "US", "display_address": ["919 Fulton St", "Brooklyn, NY 11238"], "state": "NY"}, "price": "$$", "transactions": [], "display_phone": "(347) 844-9588"}, {"rating": 4.0, "is_closed": false, "distance": 3083.1986777039997, "name": "The Pok\u00e9Spot", "id": "the-pok\u00e9spot-new-york-3", "image_url": "https://s3-media2.fl.yelpcdn.com/bphoto/7fon0G8yMcEy2RfA4Z1axQ/o.jpg", "url": "https://www.yelp.com/biz/the-pok%C3%A9spot-new-york-3?adjust_creative=gBcvfFpabk3CnzmXKdYe3w&utm_campaign=yelp_api_v3&utm_medium=api_v3_business_search&utm_source=gBcvfFpabk3CnzmXKdYe3w", "phone": "+12129330971", "coordinates": {"longitude": -73.9902801513672, "latitude": 40.733097076416}, "categories": [{"alias": "poke", "title": "Poke"}, {"alias": "hawaiian", "title": "Hawaiian"}], "review_count": 401, "location": {"city": "New York", "address1": "120 4th Ave", "address3": "", "address2": null, "zip_code": "10003", "country": "US", "display_address": ["120 4th Ave", "New York, NY 10003"], "state": "NY"}, "price": "$$", "transactions": [], "display_phone": "(212) 933-0971"}, {"rating": 4.5, "is_closed": false, "distance": 2554.368105298, "name": "Feltman's of Coney Island", "id": "feltmans-of-coney-island-new-york", "image_url": "https://s3-media3.fl.yelpcdn.com/bphoto/brOz0TpqfBDJamaQK2ai9Q/o.jpg", "url": "https://www.yelp.com/biz/feltmans-of-coney-island-new-york?adjust_creative=gBcvfFpabk3CnzmXKdYe3w&utm_campaign=yelp_api_v3&utm_medium=api_v3_business_search&utm_source=gBcvfFpabk3CnzmXKdYe3w", "phone": "+16463376755", "coordinates": {"longitude": -73.98573, "latitude": 40.72765}, "categories": [{"alias": "hotdog", "title": "Hot Dogs"}], "review_count": 27, "location": {"city": "New York", "address1": "80 Saint Marks Pl", "address3": null, "address2": "", "zip_code": "10003", "country": "US", "display_address": ["80 Saint Marks Pl", "New York, NY 10003"], "state": "NY"}, "price": "$", "transactions": [], "display_phone": "(646) 337-6755"}, {"rating": 4.0, "is_closed": false, "distance": 1991.168145984, "name": "Mezetto", "id": "mezetto-new-york", "image_url": "https://s3-media4.fl.yelpcdn.com/bphoto/8umJoH1eA--OANB9kb3J0A/o.jpg", "url": "https://www.yelp.com/biz/mezetto-new-york?adjust_creative=gBcvfFpabk3CnzmXKdYe3w&utm_campaign=yelp_api_v3&utm_medium=api_v3_business_search&utm_source=gBcvfFpabk3CnzmXKdYe3w", "phone": "+12129334587", "coordinates": {"longitude": -73.9889362576721, "latitude": 40.7228863781236}, "categories": [{"alias": "mediterranean", "title": "Mediterranean"}, {"alias": "seafood", "title": "Seafood"}, {"alias": "breakfast_brunch", "title": "Breakfast & Brunch"}], "review_count": 399, "location": {"city": "New York", "address1": "161 E Houston St", "address3": "", "address2": "", "zip_code": "10002", "country": "US", "display_address": ["161 E Houston St", "New York, NY 10002"], "state": "NY"}, "price": "$$", "transactions": ["delivery", "pickup"], "display_phone": "(212) 933-4587"}, {"rating": 4.0, "is_closed": false, "distance": 2594.2005577699997, "name": "Good Night Sonny", "id": "good-night-sonny-new-york", "image_url": "https://s3-media3.fl.yelpcdn.com/bphoto/1KPLl6ZNdDaMhLXjiaTAcw/o.jpg", "url": "https://www.yelp.com/biz/good-night-sonny-new-york?adjust_creative=gBcvfFpabk3CnzmXKdYe3w&utm_campaign=yelp_api_v3&utm_medium=api_v3_business_search&utm_source=gBcvfFpabk3CnzmXKdYe3w", "phone": "", "coordinates": {"longitude": -73.9850075927549, "latitude": 40.7276866115628}, "categories": [{"alias": "cocktailbars", "title": "Cocktail Bars"}, {"alias": "seafood", "title": "Seafood"}], "review_count": 114, "location": {"city": "New York", "address1": "134 1st Ave", "address3": "", "address2": "", "zip_code": "10009", "country": "US", "display_address": ["134 1st Ave", "New York, NY 10009"], "state": "NY"}, "price": "$$", "transactions": [], "display_phone": ""}, {"rating": 4.0, "is_closed": false, "distance": 662.7741220518, "name": "Henry's End Restaurant", "id": "henrys-end-restaurant-brooklyn-3", "image_url": "https://s3-media1.fl.yelpcdn.com/bphoto/gYN0_4TwvFrdait3-gqYqw/o.jpg", "url": "https://www.yelp.com/biz/henrys-end-restaurant-brooklyn-3?adjust_creative=gBcvfFpabk3CnzmXKdYe3w&utm_campaign=yelp_api_v3&utm_medium=api_v3_business_search&utm_source=gBcvfFpabk3CnzmXKdYe3w", "phone": "+17188341776", "coordinates": {"longitude": -73.99217, "latitude": 40.6997}, "categories": [{"alias": "newamerican", "title": "American (New)"}, {"alias": "diners", "title": "Diners"}, {"alias": "wine_bars", "title": "Wine Bars"}], "review_count": 284, "location": {"city": "Brooklyn", "address1": "44 Henry St", "address3": "", "address2": "", "zip_code": "11201", "country": "US", "display_address": ["44 Henry St", "Brooklyn, NY 11201"], "state": "NY"}, "price": "$$$", "transactions": [], "display_phone": "(718) 834-1776"}, {"rating": 4.5, "is_closed": false, "distance": 5390.9767880399995, "name": "Kavala Estiatorio", "id": "kavala-estiatorio-long-island-city-2", "image_url": "https://s3-media4.fl.yelpcdn.com/bphoto/b7ZONvfEoCdbzkI-RmY1yA/o.jpg", "url": "https://www.yelp.com/biz/kavala-estiatorio-long-island-city-2?adjust_creative=gBcvfFpabk3CnzmXKdYe3w&utm_campaign=yelp_api_v3&utm_medium=api_v3_business_search&utm_source=gBcvfFpabk3CnzmXKdYe3w", "phone": "+17183617802", "coordinates": {"longitude": -73.95359, "latitude": 40.742855}, "categories": [{"alias": "greek", "title": "Greek"}, {"alias": "venues", "title": "Venues & Event Spaces"}], "review_count": 127, "location": {"city": "Long Island City", "address1": "1007 50th Ave", "address3": "", "address2": "", "zip_code": "11101", "country": "US", "display_address": ["1007 50th Ave", "Long Island City, NY 11101"], "state": "NY"}, "price": "$$", "transactions": ["delivery", "pickup"], "display_phone": "(718) 361-7802"}, {"rating": 4.0, "is_closed": false, "distance": 2959.494505528, "name": "Lelabar", "id": "lelabar-new-york", "image_url": "https://s3-media4.fl.yelpcdn.com/bphoto/oPRRilgoL35v82WrecQzzA/o.jpg", "url": "https://www.yelp.com/biz/lelabar-new-york?adjust_creative=gBcvfFpabk3CnzmXKdYe3w&utm_campaign=yelp_api_v3&utm_medium=api_v3_business_search&utm_source=gBcvfFpabk3CnzmXKdYe3w", "phone": "+12122060594", "coordinates": {"longitude": -74.006554, "latitude": 40.730384}, "categories": [{"alias": "wine_bars", "title": "Wine Bars"}, {"alias": "lounges", "title": "Lounges"}], "review_count": 306, "location": {"city": "New York", "address1": "422 Hudson St", "address3": "", "address2": "", "zip_code": "10014", "country": "US", "display_address": ["422 Hudson St", "New York, NY 10014"], "state": "NY"}, "price": "$$", "transactions": [], "display_phone": "(212) 206-0594"}, {"rating": 4.0, "is_closed": false, "distance": 2410.83799086, "name": "Pegu Club", "id": "pegu-club-new-york", "image_url": "https://s3-media1.fl.yelpcdn.com/bphoto/6GZgmNGHwl6c6iTVX_JTVA/o.jpg", "url": "https://www.yelp.com/biz/pegu-club-new-york?adjust_creative=gBcvfFpabk3CnzmXKdYe3w&utm_campaign=yelp_api_v3&utm_medium=api_v3_business_search&utm_source=gBcvfFpabk3CnzmXKdYe3w", "phone": "+12124737348", "coordinates": {"longitude": -73.999755, "latitude": 40.726728}, "categories": [{"alias": "lounges", "title": "Lounges"}, {"alias": "cocktailbars", "title": "Cocktail Bars"}, {"alias": "newamerican", "title": "American (New)"}], "review_count": 845, "location": {"city": "New York", "address1": "77 W Houston St", "address3": "", "address2": "", "zip_code": "10012", "country": "US", "display_address": ["77 W Houston St", "New York, NY 10012"], "state": "NY"}, "price": "$$$", "transactions": [], "display_phone": "(212) 473-7348"}, {"rating": 4.5, "is_closed": false, "distance": 4621.582394302, "name": "Le Paris Dakar", "id": "le-paris-dakar-new-york", "image_url": "https://s3-media4.fl.yelpcdn.com/bphoto/fV08jCi3kXckvqiKG6FUgQ/o.jpg", "url": "https://www.yelp.com/biz/le-paris-dakar-new-york?adjust_creative=gBcvfFpabk3CnzmXKdYe3w&utm_campaign=yelp_api_v3&utm_medium=api_v3_business_search&utm_source=gBcvfFpabk3CnzmXKdYe3w", "phone": "+13479554100", "coordinates": {"longitude": -73.9498048730164, "latitude": 40.6811617534164}, "categories": [{"alias": "desserts", "title": "Desserts"}, {"alias": "coffee", "title": "Coffee & Tea"}, {"alias": "bakeries", "title": "Bakeries"}], "review_count": 122, "location": {"city": "New York", "address1": "518 Nostrand Ave", "address3": "", "address2": null, "zip_code": "11216", "country": "US", "display_address": ["518 Nostrand Ave", "New York, NY 11216"], "state": "NY"}, "price": "$$", "transactions": [], "display_phone": "(347) 955-4100"}, {"rating": 4.0, "is_closed": false, "distance": 3212.0593361740002, "name": "Doughnut Plant", "id": "doughnut-plant-brooklyn", "image_url": "https://s3-media3.fl.yelpcdn.com/bphoto/mF9TksptPsioN7K2TLiO4g/o.jpg", "url": "https://www.yelp.com/biz/doughnut-plant-brooklyn?adjust_creative=gBcvfFpabk3CnzmXKdYe3w&utm_campaign=yelp_api_v3&utm_medium=api_v3_business_search&utm_source=gBcvfFpabk3CnzmXKdYe3w", "phone": "+12125053700", "coordinates": {"longitude": -73.9747427, "latitude": 40.680653}, "categories": [{"alias": "donuts", "title": "Donuts"}, {"alias": "coffee", "title": "Coffee & Tea"}], "review_count": 346, "location": {"city": "Brooklyn", "address1": "245 Flatbush Ave", "address3": "", "address2": "", "zip_code": "11217", "country": "US", "display_address": ["245 Flatbush Ave", "Brooklyn, NY 11217"], "state": "NY"}, "price": "$$", "transactions": [], "display_phone": "(212) 505-3700"}, {"rating": 4.0, "is_closed": false, "distance": 1658.1990795979998, "name": "Spreadhouse Cafe", "id": "spreadhouse-cafe-new-york-3", "image_url": "https://s3-media2.fl.yelpcdn.com/bphoto/PF16a6PlYBY_vYt1lVkd1w/o.jpg", "url": "https://www.yelp.com/biz/spreadhouse-cafe-new-york-3?adjust_creative=gBcvfFpabk3CnzmXKdYe3w&utm_campaign=yelp_api_v3&utm_medium=api_v3_business_search&utm_source=gBcvfFpabk3CnzmXKdYe3w", "phone": "+16465246353", "coordinates": {"longitude": -73.98585, "latitude": 40.71891}, "categories": [{"alias": "coffee", "title": "Coffee & Tea"}, {"alias": "cafes", "title": "Cafes"}, {"alias": "wine_bars", "title": "Wine Bars"}], "review_count": 249, "location": {"city": "New York", "address1": "116 Suffolk St", "address3": "", "address2": "", "zip_code": "10002", "country": "US", "display_address": ["116 Suffolk St", "New York, NY 10002"], "state": "NY"}, "price": "$", "transactions": [], "display_phone": "(646) 524-6353"}, {"rating": 4.0, "is_closed": false, "distance": 2680.7516676399996, "name": "The Uncommons", "id": "the-uncommons-new-york", "image_url": "https://s3-media4.fl.yelpcdn.com/bphoto/g6DDQisBT0GKvdPowaNxWw/o.jpg", "url": "https://www.yelp.com/biz/the-uncommons-new-york?adjust_creative=gBcvfFpabk3CnzmXKdYe3w&utm_campaign=yelp_api_v3&utm_medium=api_v3_business_search&utm_source=gBcvfFpabk3CnzmXKdYe3w", "phone": "+16465439215", "coordinates": {"longitude": -73.998649, "latitude": 40.729331}, "categories": [{"alias": "coffee", "title": "Coffee & Tea"}, {"alias": "tabletopgames", "title": "Tabletop Games"}], "review_count": 218, "location": {"city": "New York", "address1": "230 Thompson St", "address3": "", "address2": null, "zip_code": "10012", "country": "US", "display_address": ["230 Thompson St", "New York, NY 10012"], "state": "NY"}, "price": "$", "transactions": [], "display_phone": "(646) 543-9215"}, {"rating": 4.5, "is_closed": false, "distance": 2928.083246474, "name": "Quinoa Kitchen", "id": "quinoa-kitchen-brooklyn", "image_url": "https://s3-media2.fl.yelpcdn.com/bphoto/da4zo_w9YVYLsKpR_Gt_kQ/o.jpg", "url": "https://www.yelp.com/biz/quinoa-kitchen-brooklyn?adjust_creative=gBcvfFpabk3CnzmXKdYe3w&utm_campaign=yelp_api_v3&utm_medium=api_v3_business_search&utm_source=gBcvfFpabk3CnzmXKdYe3w", "phone": "+17184865150", "coordinates": {"longitude": -73.96147, "latitude": 40.71403}, "categories": [{"alias": "juicebars", "title": "Juice Bars & Smoothies"}, {"alias": "breakfast_brunch", "title": "Breakfast & Brunch"}, {"alias": "burgers", "title": "Burgers"}], "review_count": 65, "location": {"city": "Brooklyn", "address1": "287 Bedford Ave", "address3": "", "address2": "", "zip_code": "11211", "country": "US", "display_address": ["287 Bedford Ave", "Brooklyn, NY 11211"], "state": "NY"}, "price": "$$", "transactions": ["delivery", "pickup"], "display_phone": "(718) 486-5150"}, {"rating": 4.5, "is_closed": false, "distance": 6297.32971726, "name": "Omar's Kitchen & Bakery", "id": "omars-kitchen-and-bakery-new-york", "image_url": "https://s3-media4.fl.yelpcdn.com/bphoto/U3-7G8iGrHkx9rrha_torQ/o.jpg", "url": "https://www.yelp.com/biz/omars-kitchen-and-bakery-new-york?adjust_creative=gBcvfFpabk3CnzmXKdYe3w&utm_campaign=yelp_api_v3&utm_medium=api_v3_business_search&utm_source=gBcvfFpabk3CnzmXKdYe3w", "phone": "+12122078302", "coordinates": {"longitude": -73.9692688, "latitude": 40.7590294}, "categories": [{"alias": "halal", "title": "Halal"}, {"alias": "mideastern", "title": "Middle Eastern"}, {"alias": "mediterranean", "title": "Mediterranean"}], "review_count": 401, "location": {"city": "New York", "address1": "154 E 55th St", "address3": "", "address2": "", "zip_code": "10022", "country": "US", "display_address": ["154 E 55th St", "New York, NY 10022"], "state": "NY"}, "price": "$$", "transactions": ["delivery"], "display_phone": "(212) 207-8302"}, {"rating": 4.5, "is_closed": false, "distance": 4997.718304706, "name": "Lot 2", "id": "lot-2-brooklyn-2", "image_url": "https://s3-media1.fl.yelpcdn.com/bphoto/ZA6vLach2ScIUzmnVG13Zg/o.jpg", "url": "https://www.yelp.com/biz/lot-2-brooklyn-2?adjust_creative=gBcvfFpabk3CnzmXKdYe3w&utm_campaign=yelp_api_v3&utm_medium=api_v3_business_search&utm_source=gBcvfFpabk3CnzmXKdYe3w", "phone": "+17184995623", "coordinates": {"longitude": -73.9903106689453, "latitude": 40.6605911254883}, "categories": [{"alias": "newamerican", "title": "American (New)"}, {"alias": "burgers", "title": "Burgers"}], "review_count": 235, "location": {"city": "Brooklyn", "address1": "687 6th Ave", "address3": "", "address2": "", "zip_code": "11215", "country": "US", "display_address": ["687 6th Ave", "Brooklyn, NY 11215"], "state": "NY"}, "price": "$$", "transactions": [], "display_phone": "(718) 499-5623"}, {"rating": 4.5, "is_closed": false, "distance": 4035.8948053000004, "name": "Patrizia's Pizza and Pasta", "id": "patrizias-pizza-and-pasta-new-york", "image_url": "https://s3-media2.fl.yelpcdn.com/bphoto/nh_FyZC6o69J5ORc5uTImA/o.jpg", "url": "https://www.yelp.com/biz/patrizias-pizza-and-pasta-new-york?adjust_creative=gBcvfFpabk3CnzmXKdYe3w&utm_campaign=yelp_api_v3&utm_medium=api_v3_business_search&utm_source=gBcvfFpabk3CnzmXKdYe3w", "phone": "+12125979999", "coordinates": {"longitude": -73.9792862, "latitude": 40.7398415}, "categories": [{"alias": "italian", "title": "Italian"}, {"alias": "pizza", "title": "Pizza"}, {"alias": "catering", "title": "Caterers"}], "review_count": 239, "location": {"city": "New York", "address1": "462-466 2nd Ave", "address3": "", "address2": "", "zip_code": "10016", "country": "US", "display_address": ["462-466 2nd Ave", "New York, NY 10016"], "state": "NY"}, "price": "$$", "transactions": ["delivery", "pickup"], "display_phone": "(212) 597-9999"}, {"rating": 4.5, "is_closed": false, "distance": 4041.91132289, "name": "Bellocq Tea Atelier", "id": "bellocq-tea-atelier-brooklyn-2", "image_url": "https://s3-media1.fl.yelpcdn.com/bphoto/erqVTeoffulMy1nJ_TMAeg/o.jpg", "url": "https://www.yelp.com/biz/bellocq-tea-atelier-brooklyn-2?adjust_creative=gBcvfFpabk3CnzmXKdYe3w&utm_campaign=yelp_api_v3&utm_medium=api_v3_business_search&utm_source=gBcvfFpabk3CnzmXKdYe3w", "phone": "+13474639231", "coordinates": {"longitude": -73.9591417, "latitude": 40.7301765}, "categories": [{"alias": "coffee", "title": "Coffee & Tea"}], "review_count": 36, "location": {"city": "Brooklyn", "address1": "104 West St", "address3": "", "address2": "", "zip_code": "11222", "country": "US", "display_address": ["104 West St", "Brooklyn, NY 11222"], "state": "NY"}, "price": "$$", "transactions": [], "display_phone": "(347) 463-9231"}, {"rating": 4.0, "is_closed": false, "distance": 4263.93989264, "name": "La Bagel Delight", "id": "la-bagel-delight-brooklyn-4", "image_url": "https://s3-media3.fl.yelpcdn.com/bphoto/0scWS5fGj6BUasXZ28xlrw/o.jpg", "url": "https://www.yelp.com/biz/la-bagel-delight-brooklyn-4?adjust_creative=gBcvfFpabk3CnzmXKdYe3w&utm_campaign=yelp_api_v3&utm_medium=api_v3_business_search&utm_source=gBcvfFpabk3CnzmXKdYe3w", "phone": "+17187686107", "coordinates": {"longitude": -73.980512840055, "latitude": 40.668548813868}, "categories": [{"alias": "bagels", "title": "Bagels"}, {"alias": "salad", "title": "Salad"}, {"alias": "breakfast_brunch", "title": "Breakfast & Brunch"}], "review_count": 226, "location": {"city": "Brooklyn", "address1": "284 7th Ave", "address3": "", "address2": "", "zip_code": "11215", "country": "US", "display_address": ["284 7th Ave", "Brooklyn, NY 11215"], "state": "NY"}, "price": "$", "transactions": [], "display_phone": "(718) 768-6107"}, {"rating": 4.5, "is_closed": false, "distance": 1420.5855647275998, "name": "12 Corners", "id": "12-corners-new-york-4", "image_url": "https://s3-media1.fl.yelpcdn.com/bphoto/W3xtkJZdCbT3BGj9Rw_SmA/o.jpg", "url": "https://www.yelp.com/biz/12-corners-new-york-4?adjust_creative=gBcvfFpabk3CnzmXKdYe3w&utm_campaign=yelp_api_v3&utm_medium=api_v3_business_search&utm_source=gBcvfFpabk3CnzmXKdYe3w", "phone": "+12126258888", "coordinates": {"longitude": -73.997222, "latitude": 40.718048}, "categories": [{"alias": "coffee", "title": "Coffee & Tea"}], "review_count": 109, "location": {"city": "New York", "address1": "121 Mott St", "address3": "", "address2": "", "zip_code": "10013", "country": "US", "display_address": ["121 Mott St", "New York, NY 10013"], "state": "NY"}, "price": "$", "transactions": [], "display_phone": "(212) 625-8888"}, {"rating": 4.0, "is_closed": false, "distance": 2466.759015312, "name": "Giano Restaurant", "id": "giano-restaurant-new-york", "image_url": "https://s3-media1.fl.yelpcdn.com/bphoto/0PrOZ5stl86k6V1SzHcjNA/o.jpg", "url": "https://www.yelp.com/biz/giano-restaurant-new-york?adjust_creative=gBcvfFpabk3CnzmXKdYe3w&utm_campaign=yelp_api_v3&utm_medium=api_v3_business_search&utm_source=gBcvfFpabk3CnzmXKdYe3w", "phone": "+12126737200", "coordinates": {"longitude": -73.9840574049125, "latitude": 40.7262256596862}, "categories": [{"alias": "italian", "title": "Italian"}], "review_count": 427, "location": {"city": "New York", "address1": "126 E 7th St", "address3": "", "address2": "", "zip_code": "10009", "country": "US", "display_address": ["126 E 7th St", "New York, NY 10009"], "state": "NY"}, "price": "$$", "transactions": ["delivery", "pickup"], "display_phone": "(212) 673-7200"}, {"rating": 4.5, "is_closed": false, "distance": 6543.2690560599995, "name": "Il Tinello Ristorante Italiano", "id": "il-tinello-ristorante-italiano-new-york", "image_url": "https://s3-media3.fl.yelpcdn.com/bphoto/CYl-_D7OUNP0UgGrXj8RVA/o.jpg", "url": "https://www.yelp.com/biz/il-tinello-ristorante-italiano-new-york?adjust_creative=gBcvfFpabk3CnzmXKdYe3w&utm_campaign=yelp_api_v3&utm_medium=api_v3_business_search&utm_source=gBcvfFpabk3CnzmXKdYe3w", "phone": "+12122454388", "coordinates": {"longitude": -73.97566, "latitude": 40.76256}, "categories": [{"alias": "italian", "title": "Italian"}], "review_count": 168, "location": {"city": "New York", "address1": "16 W 56th St", "address3": "", "address2": "", "zip_code": "10019", "country": "US", "display_address": ["16 W 56th St", "New York, NY 10019"], "state": "NY"}, "price": "$$$$", "transactions": [], "display_phone": "(212) 245-4388"}, {"rating": 4.5, "is_closed": false, "distance": 4337.555932259999, "name": "Perpetuum Cafe", "id": "perpetuum-cafe-new-york", "image_url": "https://s3-media4.fl.yelpcdn.com/bphoto/pgmYGuCFGv0s5X4FT0ndIg/o.jpg", "url": "https://www.yelp.com/biz/perpetuum-cafe-new-york?adjust_creative=gBcvfFpabk3CnzmXKdYe3w&utm_campaign=yelp_api_v3&utm_medium=api_v3_business_search&utm_source=gBcvfFpabk3CnzmXKdYe3w", "phone": "+16468696068", "coordinates": {"longitude": -73.993072, "latitude": 40.744445}, "categories": [{"alias": "coffee", "title": "Coffee & Tea"}], "review_count": 63, "location": {"city": "New York", "address1": "124 W 25th St", "address3": "", "address2": "", "zip_code": "10001", "country": "US", "display_address": ["124 W 25th St", "New York, NY 10001"], "state": "NY"}, "price": "$$", "transactions": ["pickup"], "display_phone": "(646) 869-6068"}, {"rating": 4.0, "is_closed": false, "distance": 1215.4046926356, "name": "Yaya Tea Garden", "id": "yaya-tea-garden-new-york-3", "image_url": "https://s3-media3.fl.yelpcdn.com/bphoto/Au1hvV3hKHZytvSCKh3oEg/o.jpg", "url": "https://www.yelp.com/biz/yaya-tea-garden-new-york-3?adjust_creative=gBcvfFpabk3CnzmXKdYe3w&utm_campaign=yelp_api_v3&utm_medium=api_v3_business_search&utm_source=gBcvfFpabk3CnzmXKdYe3w", "phone": "+12122268803", "coordinates": {"longitude": -73.99496, "latitude": 40.7162999}, "categories": [{"alias": "coffee", "title": "Coffee & Tea"}, {"alias": "japanese", "title": "Japanese"}, {"alias": "bubbletea", "title": "Bubble Tea"}], "review_count": 377, "location": {"city": "New York", "address1": "51 Chrystie St", "address3": "", "address2": "", "zip_code": "10002", "country": "US", "display_address": ["51 Chrystie St", "New York, NY 10002"], "state": "NY"}, "price": "$", "transactions": ["delivery", "pickup"], "display_phone": "(212) 226-8803"}, {"rating": 4.5, "is_closed": false, "distance": 3714.9473477799997, "name": "Yakiniku Futago", "id": "yakiniku-futago-new-york", "image_url": "https://s3-media2.fl.yelpcdn.com/bphoto/wJ2f_QF8LgnbkpwG5mwh4w/o.jpg", "url": "https://www.yelp.com/biz/yakiniku-futago-new-york?adjust_creative=gBcvfFpabk3CnzmXKdYe3w&utm_campaign=yelp_api_v3&utm_medium=api_v3_business_search&utm_source=gBcvfFpabk3CnzmXKdYe3w", "phone": "+12126200225", "coordinates": {"longitude": -73.9941236398979, "latitude": 40.738851870947}, "categories": [{"alias": "japanese", "title": "Japanese"}, {"alias": "bbq", "title": "Barbeque"}, {"alias": "steak", "title": "Steakhouses"}], "review_count": 144, "location": {"city": "New York", "address1": "37 W 17th St", "address3": "", "address2": "", "zip_code": "10011", "country": "US", "display_address": ["37 W 17th St", "New York, NY 10011"], "state": "NY"}, "price": "$$$", "transactions": [], "display_phone": "(212) 620-0225"}, {"rating": 4.0, "is_closed": false, "distance": 4327.764546766, "name": "Morimoto", "id": "morimoto-new-york", "image_url": "https://s3-media1.fl.yelpcdn.com/bphoto/Pd5n3jWDdaUMQFWT-0pNSQ/o.jpg", "url": "https://www.yelp.com/biz/morimoto-new-york?adjust_creative=gBcvfFpabk3CnzmXKdYe3w&utm_campaign=yelp_api_v3&utm_medium=api_v3_business_search&utm_source=gBcvfFpabk3CnzmXKdYe3w", "phone": "+12129898883", "coordinates": {"longitude": -74.007185, "latitude": 40.74312}, "categories": [{"alias": "japanese", "title": "Japanese"}, {"alias": "sushi", "title": "Sushi Bars"}], "review_count": 2536, "location": {"city": "New York", "address1": "88 10th Ave", "address3": "", "address2": null, "zip_code": "10011", "country": "US", "display_address": ["88 10th Ave", "New York, NY 10011"], "state": "NY"}, "price": "$$$$", "transactions": [], "display_phone": "(212) 989-8883"}, {"rating": 4.0, "is_closed": false, "distance": 1421.2684398764, "name": "Dirt Candy", "id": "dirt-candy-new-york-2", "image_url": "https://s3-media2.fl.yelpcdn.com/bphoto/nLvIW6uN9k6lTXbcRm2MYw/o.jpg", "url": "https://www.yelp.com/biz/dirt-candy-new-york-2?adjust_creative=gBcvfFpabk3CnzmXKdYe3w&utm_campaign=yelp_api_v3&utm_medium=api_v3_business_search&utm_source=gBcvfFpabk3CnzmXKdYe3w", "phone": "+12122287732", "coordinates": {"longitude": -73.9907108, "latitude": 40.7179222}, "categories": [{"alias": "vegetarian", "title": "Vegetarian"}, {"alias": "vegan", "title": "Vegan"}], "review_count": 367, "location": {"city": "New York", "address1": "86 Allen St", "address3": "", "address2": "", "zip_code": "10002", "country": "US", "display_address": ["86 Allen St", "New York, NY 10002"], "state": "NY"}, "price": "$$$", "transactions": [], "display_phone": "(212) 228-7732"}, {"rating": 4.0, "is_closed": false, "distance": 2945.2998048599998, "name": "Skinny Dennis", "id": "skinny-dennis-brooklyn", "image_url": "https://s3-media2.fl.yelpcdn.com/bphoto/Qb6FQ2xkMPbuHBmeMprMfw/o.jpg", "url": "https://www.yelp.com/biz/skinny-dennis-brooklyn?adjust_creative=gBcvfFpabk3CnzmXKdYe3w&utm_campaign=yelp_api_v3&utm_medium=api_v3_business_search&utm_source=gBcvfFpabk3CnzmXKdYe3w", "phone": "+12125551212", "coordinates": {"longitude": -73.962168, "latitude": 40.715863}, "categories": [{"alias": "bars", "title": "Bars"}, {"alias": "musicvenues", "title": "Music Venues"}], "review_count": 172, "location": {"city": "Brooklyn", "address1": "152 Metropolitan Ave", "address3": "", "address2": "", "zip_code": "11211", "country": "US", "display_address": ["152 Metropolitan Ave", "Brooklyn, NY 11211"], "state": "NY"}, "price": "$", "transactions": [], "display_phone": "(212) 555-1212"}, {"rating": 4.5, "is_closed": false, "distance": 4763.83308344, "name": "Le Pif", "id": "le-pif-new-york-8", "image_url": "https://s3-media4.fl.yelpcdn.com/bphoto/FwCloZIBzmuAyrRFfDs5ig/o.jpg", "url": "https://www.yelp.com/biz/le-pif-new-york-8?adjust_creative=gBcvfFpabk3CnzmXKdYe3w&utm_campaign=yelp_api_v3&utm_medium=api_v3_business_search&utm_source=gBcvfFpabk3CnzmXKdYe3w", "phone": "+12122291700", "coordinates": {"longitude": -74.0037054, "latitude": 40.7476868}, "categories": [{"alias": "wine_bars", "title": "Wine Bars"}, {"alias": "breakfast_brunch", "title": "Breakfast & Brunch"}, {"alias": "french", "title": "French"}], "review_count": 76, "location": {"city": "New York", "address1": "465 W 23rd St", "address3": "", "address2": "", "zip_code": "10011", "country": "US", "display_address": ["465 W 23rd St", "New York, NY 10011"], "state": "NY"}, "price": "$$", "transactions": [], "display_phone": "(212) 229-1700"}, {"rating": 4.0, "is_closed": false, "distance": 2336.037637934, "name": "Cocotte", "id": "cocotte-new-york", "image_url": "https://s3-media2.fl.yelpcdn.com/bphoto/8HoVqz5bFVwlPFHIF6EE6g/o.jpg", "url": "https://www.yelp.com/biz/cocotte-new-york?adjust_creative=gBcvfFpabk3CnzmXKdYe3w&utm_campaign=yelp_api_v3&utm_medium=api_v3_business_search&utm_source=gBcvfFpabk3CnzmXKdYe3w", "phone": "+12129659100", "coordinates": {"longitude": -74.0016860961914, "latitude": 40.7256965637207}, "categories": [{"alias": "french", "title": "French"}, {"alias": "basque", "title": "Basque"}], "review_count": 248, "location": {"city": "New York", "address1": "110 Thompson St", "address3": "", "address2": "", "zip_code": "10012", "country": "US", "display_address": ["110 Thompson St", "New York, NY 10012"], "state": "NY"}, "price": "$$$", "transactions": [], "display_phone": "(212) 965-9100"}, {"rating": 4.0, "is_closed": false, "distance": 5072.926625322, "name": "Keens Steakhouse", "id": "keens-steakhouse-new-york", "image_url": "https://s3-media2.fl.yelpcdn.com/bphoto/FfrkvCd9EK5Q88Td6A9s-A/o.jpg", "url": "https://www.yelp.com/biz/keens-steakhouse-new-york?adjust_creative=gBcvfFpabk3CnzmXKdYe3w&utm_campaign=yelp_api_v3&utm_medium=api_v3_business_search&utm_source=gBcvfFpabk3CnzmXKdYe3w", "phone": "+12129473636", "coordinates": {"longitude": -73.986518, "latitude": 40.750713}, "categories": [{"alias": "steak", "title": "Steakhouses"}], "review_count": 1758, "location": {"city": "New York", "address1": "72 W 36th St", "address3": "", "address2": "", "zip_code": "10018", "country": "US", "display_address": ["72 W 36th St", "New York, NY 10018"], "state": "NY"}, "price": "$$$$", "transactions": [], "display_phone": "(212) 947-3636"}, {"rating": 4.0, "is_closed": false, "distance": 1814.120951102, "name": "Stanton Pizza", "id": "stanton-pizza-new-york-2", "image_url": "https://s3-media1.fl.yelpcdn.com/bphoto/g-t6TMTRxDjDTj0Tx8nv9w/o.jpg", "url": "https://www.yelp.com/biz/stanton-pizza-new-york-2?adjust_creative=gBcvfFpabk3CnzmXKdYe3w&utm_campaign=yelp_api_v3&utm_medium=api_v3_business_search&utm_source=gBcvfFpabk3CnzmXKdYe3w", "phone": "+12125334252", "coordinates": {"longitude": -73.986709, "latitude": 40.720726}, "categories": [{"alias": "pizza", "title": "Pizza"}, {"alias": "italian", "title": "Italian"}], "review_count": 176, "location": {"city": "New York", "address1": "127 Stanton St", "address3": "", "address2": "", "zip_code": "10002", "country": "US", "display_address": ["127 Stanton St", "New York, NY 10002"], "state": "NY"}, "price": "$", "transactions": ["delivery", "pickup"], "display_phone": "(212) 533-4252"}, {"rating": 5.0, "is_closed": false, "distance": 2989.2653643199997, "name": "The Shanti Shack", "id": "the-shanti-shack-brooklyn", "image_url": "https://s3-media3.fl.yelpcdn.com/bphoto/NxfslO3MwM1VO0uk8ZB6kA/o.jpg", "url": "https://www.yelp.com/biz/the-shanti-shack-brooklyn?adjust_creative=gBcvfFpabk3CnzmXKdYe3w&utm_campaign=yelp_api_v3&utm_medium=api_v3_business_search&utm_source=gBcvfFpabk3CnzmXKdYe3w", "phone": "+13474639886", "coordinates": {"longitude": -73.9624474, "latitude": 40.7172774}, "categories": [{"alias": "vegetarian", "title": "Vegetarian"}, {"alias": "juicebars", "title": "Juice Bars & Smoothies"}], "review_count": 21, "location": {"city": "Brooklyn", "address1": "85 N 3rd St", "address3": "", "address2": "", "zip_code": "11211", "country": "US", "display_address": ["85 N 3rd St", "Brooklyn, NY 11211"], "state": "NY"}, "price": "$$", "transactions": [], "display_phone": "(347) 463-9886"}, {"rating": 4.5, "is_closed": false, "distance": 4601.027742888, "name": "Pino Wine Bar", "id": "pino-wine-bar-new-york", "image_url": "https://s3-media4.fl.yelpcdn.com/bphoto/bT-0svB_5Cn_33Q-0CfsUw/o.jpg", "url": "https://www.yelp.com/biz/pino-wine-bar-new-york?adjust_creative=gBcvfFpabk3CnzmXKdYe3w&utm_campaign=yelp_api_v3&utm_medium=api_v3_business_search&utm_source=gBcvfFpabk3CnzmXKdYe3w", "phone": "+16467046149", "coordinates": {"longitude": -73.9793704, "latitude": 40.7452456}, "categories": [{"alias": "wine_bars", "title": "Wine Bars"}, {"alias": "tradamerican", "title": "American (Traditional)"}, {"alias": "breakfast_brunch", "title": "Breakfast & Brunch"}], "review_count": 103, "location": {"city": "New York", "address1": "156 E 33rd St", "address3": "", "address2": "", "zip_code": "10016", "country": "US", "display_address": ["156 E 33rd St", "New York, NY 10016"], "state": "NY"}, "price": "$$", "transactions": [], "display_phone": "(646) 704-6149"}, {"rating": 4.0, "is_closed": false, "distance": 3612.1546176959996, "name": "Union Square Cafe", "id": "union-square-cafe-new-york-3", "image_url": "https://s3-media3.fl.yelpcdn.com/bphoto/AsnlUCReDtHhaUMGFm1a4g/o.jpg", "url": "https://www.yelp.com/biz/union-square-cafe-new-york-3?adjust_creative=gBcvfFpabk3CnzmXKdYe3w&utm_campaign=yelp_api_v3&utm_medium=api_v3_business_search&utm_source=gBcvfFpabk3CnzmXKdYe3w", "phone": "+12122434020", "coordinates": {"longitude": -73.9876539, "latitude": 40.7375381}, "categories": [{"alias": "newamerican", "title": "American (New)"}, {"alias": "cafes", "title": "Cafes"}, {"alias": "wine_bars", "title": "Wine Bars"}], "review_count": 899, "location": {"city": "New York", "address1": "101 E 19th St", "address3": "", "address2": "", "zip_code": "10003", "country": "US", "display_address": ["101 E 19th St", "New York, NY 10003"], "state": "NY"}, "price": "$$$", "transactions": [], "display_phone": "(212) 243-4020"}, {"rating": 4.5, "is_closed": false, "distance": 4417.733733862, "name": "Covenhoven", "id": "covenhoven-brooklyn", "image_url": "https://s3-media2.fl.yelpcdn.com/bphoto/DUDTSCvSgAudOwSqpuDLZg/o.jpg", "url": "https://www.yelp.com/biz/covenhoven-brooklyn?adjust_creative=gBcvfFpabk3CnzmXKdYe3w&utm_campaign=yelp_api_v3&utm_medium=api_v3_business_search&utm_source=gBcvfFpabk3CnzmXKdYe3w", "phone": "+17184839950", "coordinates": {"longitude": -73.960244, "latitude": 40.675246}, "categories": [{"alias": "bars", "title": "Bars"}], "review_count": 79, "location": {"city": "Brooklyn", "address1": "730 Classon Ave", "address3": "", "address2": null, "zip_code": "11238", "country": "US", "display_address": ["730 Classon Ave", "Brooklyn, NY 11238"], "state": "NY"}, "price": "$$", "transactions": [], "display_phone": "(718) 483-9950"}, {"rating": 4.0, "is_closed": false, "distance": 2303.4081085, "name": "Smith St Bagels", "id": "smith-st-bagels-brooklyn", "image_url": "https://s3-media1.fl.yelpcdn.com/bphoto/74jh9zS4t0Aw7SXgw7Ai4w/o.jpg", "url": "https://www.yelp.com/biz/smith-st-bagels-brooklyn?adjust_creative=gBcvfFpabk3CnzmXKdYe3w&utm_campaign=yelp_api_v3&utm_medium=api_v3_business_search&utm_source=gBcvfFpabk3CnzmXKdYe3w", "phone": "+17188586000", "coordinates": {"longitude": -73.99205, "latitude": 40.68481}, "categories": [{"alias": "bagels", "title": "Bagels"}, {"alias": "delis", "title": "Delis"}], "review_count": 205, "location": {"city": "Brooklyn", "address1": "202 Smith St", "address3": "", "address2": "", "zip_code": "11201", "country": "US", "display_address": ["202 Smith St", "Brooklyn, NY 11201"], "state": "NY"}, "price": "$", "transactions": ["delivery", "pickup"], "display_phone": "(718) 858-6000"}]}