{"region": {"center": {"latitude": 40.70544486444615, "longitude": -73.99429321289062}}, "businesses": [{"transactions": ["pickup"], "distance": 3349.101879204, "price": "$$", "display_phone": "(917) 639-3262", "phone": "+19176393262", "url": "https://www.yelp.com/biz/2nd-city-new-york?adjust_creative=gBcvfFpabk3CnzmXKdYe3w&utm_campaign=yelp_api_v3&utm_medium=api_v3_business_search&utm_source=gBcvfFpabk3CnzmXKdYe3w", "name": "2nd City", "location": {"display_address": ["525 Hudson St", "New York, NY 10014"], "country": "US", "state": "NY", "address3": "", "address2": "", "address1": "525 Hudson St", "city": "New York", "zip_code": "10014"}, "is_closed": false, "review_count": 316, "coordinates": {"latitude": 40.73405, "longitude": -74.00642}, "id": "2nd-city-new-york", "image_url": "https://s3-media1.fl.yelpcdn.com/bphoto/vC5CPk_eMleJHS1YBRt1uw/o.jpg", "categories": [{"alias": "filipino", "title": "Filipino"}, {"alias": "asianfusion", "title": "Asian Fusion"}, {"alias": "mexican", "title": "Mexican"}], "rating": 4.5}, {"transactions": [], "distance": 5646.176912936, "price": "$$$$", "display_phone": "(718) 243-0050", "phone": "+17182430050", "url": "https://www.yelp.com/biz/chefs-table-at-brooklyn-fare-new-york?adjust_creative=gBcvfFpabk3CnzmXKdYe3w&utm_campaign=yelp_api_v3&utm_medium=api_v3_business_search&utm_source=gBcvfFpabk3CnzmXKdYe3w", "name": "Chef's Table at Brooklyn Fare", "location": {"display_address": ["431 W 37th St", "New York, NY 10018"], "country": "US", "state": "NY", "address3": "", "address2": "", "address1": "431 W 37th St", "city": "New York", "zip_code": "10018"}, "is_closed": false, "review_count": 363, "coordinates": {"latitude": 40.7561930774282, "longitude": -73.9966090932068}, "id": "chefs-table-at-brooklyn-fare-new-york", "image_url": "https://s3-media3.fl.yelpcdn.com/bphoto/2jpbcFPYvY0NaZBk5DlxzQ/o.jpg", "categories": [{"alias": "japanese", "title": "Japanese"}], "rating": 4.5}, {"transactions": [], "distance": 5329.362562404, "price": "$", "display_phone": "(347) 305-3176", "phone": "+13473053176", "url": "https://www.yelp.com/biz/kafe-louverture-brooklyn?adjust_creative=gBcvfFpabk3CnzmXKdYe3w&utm_campaign=yelp_api_v3&utm_medium=api_v3_business_search&utm_source=gBcvfFpabk3CnzmXKdYe3w", "name": "Kafe Louverture", "location": {"display_address": ["392 Halsey St", "Brooklyn, NY 11216"], "country": "US", "state": "NY", "address3": "", "address2": null, "address1": "392 Halsey St", "city": "Brooklyn", "zip_code": "11216"}, "is_closed": false, "review_count": 42, "coordinates": {"latitude": 40.6829616, "longitude": -73.9384374}, "id": "kafe-louverture-brooklyn", "image_url": "https://s3-media2.fl.yelpcdn.com/bphoto/54CIMN-avckAGkHblhy36w/o.jpg", "categories": [{"alias": "coffee", "title": "Coffee & Tea"}, {"alias": "haitian", "title": "Haitian"}], "rating": 5.0}, {"transactions": [], "distance": 2087.732247466, "price": "$", "display_phone": "(347) 987-3194", "phone": "+13479873194", "url": "https://www.yelp.com/biz/mias-bakery-brooklyn?adjust_creative=gBcvfFpabk3CnzmXKdYe3w&utm_campaign=yelp_api_v3&utm_medium=api_v3_business_search&utm_source=gBcvfFpabk3CnzmXKdYe3w", "name": "Mia's Bakery", "location": {"display_address": ["139 Smith St", "Brooklyn, NY 11201"], "country": "US", "state": "NY", "address3": "", "address2": null, "address1": "139 Smith St", "city": "Brooklyn", "zip_code": "11201"}, "is_closed": false, "review_count": 267, "coordinates": {"latitude": 40.68697, "longitude": -73.98999}, "id": "mias-bakery-brooklyn", "image_url": "https://s3-media2.fl.yelpcdn.com/bphoto/8EC-uZRGXrs-s-SxiTAgjg/o.jpg", "categories": [{"alias": "bakeries", "title": "Bakeries"}, {"alias": "cafes", "title": "Cafes"}], "rating": 4.0}, {"transactions": [], "distance": 3725.0177928299995, "price": "$$", "display_phone": "(917) 618-3029", "phone": "+19176183029", "url": "https://www.yelp.com/biz/sugarburg-brooklyn?adjust_creative=gBcvfFpabk3CnzmXKdYe3w&utm_campaign=yelp_api_v3&utm_medium=api_v3_business_search&utm_source=gBcvfFpabk3CnzmXKdYe3w", "name": "Sugarburg", "location": {"display_address": ["519 Metropolitan Ave", "Brooklyn, NY 11211"], "country": "US", "state": "NY", "address3": "", "address2": "", "address1": "519 Metropolitan Ave", "city": "Brooklyn", "zip_code": "11211"}, "is_closed": false, "review_count": 199, "coordinates": {"latitude": 40.7141182158499, "longitude": -73.9516061916947}, "id": "sugarburg-brooklyn", "image_url": "https://s3-media3.fl.yelpcdn.com/bphoto/zYOO5iRdvNzWdXxs3azavw/o.jpg", "categories": [{"alias": "pubs", "title": "Pubs"}, {"alias": "coffee", "title": "Coffee & Tea"}, {"alias": "tradamerican", "title": "American (Traditional)"}], "rating": 4.5}, {"transactions": [], "distance": 4611.80356166, "display_phone": "(212) 363-3200", "phone": "+12123633200", "url": "https://www.yelp.com/biz/statue-of-liberty-new-york-3?adjust_creative=gBcvfFpabk3CnzmXKdYe3w&utm_campaign=yelp_api_v3&utm_medium=api_v3_business_search&utm_source=gBcvfFpabk3CnzmXKdYe3w", "name": "Statue of Liberty", "location": {"display_address": ["New York, NY 10004"], "country": "US", "state": "NY", "address3": "", "address2": null, "address1": "", "city": "New York", "zip_code": "10004"}, "is_closed": false, "review_count": 723, "coordinates": {"latitude": 40.6892359865668, "longitude": -74.0446444638968}, "id": "statue-of-liberty-new-york-3", "image_url": "https://s3-media3.fl.yelpcdn.com/bphoto/tfSUDed87JksZKgnqLyLZw/o.jpg", "categories": [{"alias": "landmarks", "title": "Landmarks & Historical Buildings"}], "rating": 4.5}, {"transactions": ["delivery", "pickup"], "distance": 2166.693548962, "price": "$$", "display_phone": "(212) 226-2701", "phone": "+12122262701", "url": "https://www.yelp.com/biz/pi-bakerie-new-york?adjust_creative=gBcvfFpabk3CnzmXKdYe3w&utm_campaign=yelp_api_v3&utm_medium=api_v3_business_search&utm_source=gBcvfFpabk3CnzmXKdYe3w", "name": "Pi Bakerie", "location": {"display_address": ["512 Broome St", "New York, NY 10013"], "country": "US", "state": "NY", "address3": "", "address2": "", "address1": "512 Broome St", "city": "New York", "zip_code": "10013"}, "is_closed": false, "review_count": 151, "coordinates": {"latitude": 40.723644, "longitude": -74.00325}, "id": "pi-bakerie-new-york", "image_url": "https://s3-media3.fl.yelpcdn.com/bphoto/n8eymE73VblasnxRMD-Kdw/o.jpg", "categories": [{"alias": "bakeries", "title": "Bakeries"}, {"alias": "greek", "title": "Greek"}, {"alias": "mediterranean", "title": "Mediterranean"}], "rating": 4.5}, {"transactions": [], "distance": 3091.40051808, "price": "$", "display_phone": "(212) 505-2233", "phone": "+12125052233", "url": "https://www.yelp.com/biz/madman-espresso-new-york-2?adjust_creative=gBcvfFpabk3CnzmXKdYe3w&utm_campaign=yelp_api_v3&utm_medium=api_v3_business_search&utm_source=gBcvfFpabk3CnzmXKdYe3w", "name": "Madman Espresso", "location": {"display_address": ["319 E 14th St", "New York, NY 10003"], "country": "US", "state": "NY", "address3": "", "address2": "", "address1": "319 E 14th St", "city": "New York", "zip_code": "10003"}, "is_closed": false, "review_count": 183, "coordinates": {"latitude": 40.7320887578344, "longitude": -73.9838278699811}, "id": "madman-espresso-new-york-2", "image_url": "https://s3-media1.fl.yelpcdn.com/bphoto/Vqz4HHiPrOiPHHTTnxIlmw/o.jpg", "categories": [{"alias": "coffee", "title": "Coffee & Tea"}], "rating": 4.5}, {"transactions": [], "distance": 3194.9798935559998, "price": "$$$", "display_phone": "(718) 388-8985", "phone": "+17183888985", "url": "https://www.yelp.com/biz/zenkichi-brooklyn?adjust_creative=gBcvfFpabk3CnzmXKdYe3w&utm_campaign=yelp_api_v3&utm_medium=api_v3_business_search&utm_source=gBcvfFpabk3CnzmXKdYe3w", "name": "Zenkichi", "location": {"display_address": ["77 N 6th St", "Brooklyn, NY 11211"], "country": "US", "state": "NY", "address3": "", "address2": null, "address1": "77 N 6th St", "city": "Brooklyn", "zip_code": "11211"}, "is_closed": false, "review_count": 843, "coordinates": {"latitude": 40.718933, "longitude": -73.960823}, "id": "zenkichi-brooklyn", "image_url": "https://s3-media2.fl.yelpcdn.com/bphoto/4UsX8hPL4qahrqSEKGD4Pg/o.jpg", "categories": [{"alias": "japanese", "title": "Japanese"}], "rating": 4.0}, {"transactions": [], "distance": 2445.063341838, "price": "$$", "display_phone": "(212) 674-2985", "phone": "+12126742985", "url": "https://www.yelp.com/biz/c-and-b-new-york?adjust_creative=gBcvfFpabk3CnzmXKdYe3w&utm_campaign=yelp_api_v3&utm_medium=api_v3_business_search&utm_source=gBcvfFpabk3CnzmXKdYe3w", "name": "C&B", "location": {"display_address": ["178 E 7th St", "New York, NY 10009"], "country": "US", "state": "NY", "address3": "", "address2": "", "address1": "178 E 7th St", "city": "New York", "zip_code": "10009"}, "is_closed": false, "review_count": 121, "coordinates": {"latitude": 40.7252271901335, "longitude": -73.9816302970189}, "id": "c-and-b-new-york", "image_url": "https://s3-media2.fl.yelpcdn.com/bphoto/CHx2FW0Cok_Tz3o24TjSHA/o.jpg", "categories": [{"alias": "coffee", "title": "Coffee & Tea"}, {"alias": "breakfast_brunch", "title": "Breakfast & Brunch"}], "rating": 4.5}, {"transactions": [], "distance": 4123.12908, "display_phone": "(212) 520-7600", "phone": "+12125207600", "url": "https://www.yelp.com/biz/madison-square-park-new-york?adjust_creative=gBcvfFpabk3CnzmXKdYe3w&utm_campaign=yelp_api_v3&utm_medium=api_v3_business_search&utm_source=gBcvfFpabk3CnzmXKdYe3w", "name": "Madison Square Park", "location": {"display_address": ["Eleven Madison Ave", "Fl 15", "New York, NY 10010"], "country": "US", "state": "NY", "address3": "", "address2": "Fl 15", "address1": "Eleven Madison Ave", "city": "New York", "zip_code": "10010"}, "is_closed": false, "review_count": 334, "coordinates": {"latitude": 40.7422133587202, "longitude": -73.9879736510651}, "id": "madison-square-park-new-york", "image_url": "https://s3-media4.fl.yelpcdn.com/bphoto/fmCb1WvCedEIQv2GuzoiKA/o.jpg", "categories": [{"alias": "parks", "title": "Parks"}], "rating": 4.5}, {"transactions": [], "distance": 1655.904482626, "price": "$$", "display_phone": "(212) 477-1212", "phone": "+12124771212", "url": "https://www.yelp.com/biz/cocoron-new-york-3?adjust_creative=gBcvfFpabk3CnzmXKdYe3w&utm_campaign=yelp_api_v3&utm_medium=api_v3_business_search&utm_source=gBcvfFpabk3CnzmXKdYe3w", "name": "Cocoron", "location": {"display_address": ["16 Delancey St", "New York, NY 10002"], "country": "US", "state": "NY", "address3": "", "address2": "", "address1": "16 Delancey St", "city": "New York", "zip_code": "10002"}, "is_closed": false, "review_count": 797, "coordinates": {"latitude": 40.72031, "longitude": -73.99305}, "id": "cocoron-new-york-3", "image_url": "https://s3-media2.fl.yelpcdn.com/bphoto/4ZO_GEiv989wricp1WRpXw/o.jpg", "categories": [{"alias": "japanese", "title": "Japanese"}], "rating": 4.0}, {"transactions": [], "distance": 4706.822535808, "price": "$", "display_phone": "(718) 832-4720", "phone": "+17188324720", "url": "https://www.yelp.com/biz/south-brooklyn?adjust_creative=gBcvfFpabk3CnzmXKdYe3w&utm_campaign=yelp_api_v3&utm_medium=api_v3_business_search&utm_source=gBcvfFpabk3CnzmXKdYe3w", "name": "South", "location": {"display_address": ["629 5th Ave", "Brooklyn, NY 11215"], "country": "US", "state": "NY", "address3": "", "address2": "", "address1": "629 5th Ave", "city": "Brooklyn", "zip_code": "11215"}, "is_closed": false, "review_count": 141, "coordinates": {"latitude": 40.66313, "longitude": -73.99117}, "id": "south-brooklyn", "image_url": "https://s3-media1.fl.yelpcdn.com/bphoto/AqoQeGSpno8EUCywlfmwAA/o.jpg", "categories": [{"alias": "bars", "title": "Bars"}], "rating": 4.5}, {"transactions": [], "distance": 3038.07423251, "price": "$$", "display_phone": "(718) 599-0900", "phone": "+17185990900", "url": "https://www.yelp.com/biz/marthas-country-bakery-brooklyn-2?adjust_creative=gBcvfFpabk3CnzmXKdYe3w&utm_campaign=yelp_api_v3&utm_medium=api_v3_business_search&utm_source=gBcvfFpabk3CnzmXKdYe3w", "name": "Martha's Country Bakery", "location": {"display_address": ["263 Bedford Ave", "Brooklyn, NY 11211"], "country": "US", "state": "NY", "address3": null, "address2": "", "address1": "263 Bedford Ave", "city": "Brooklyn", "zip_code": "11211"}, "is_closed": false, "review_count": 130, "coordinates": {"latitude": 40.714844008496, "longitude": -73.9604490995407}, "id": "marthas-country-bakery-brooklyn-2", "image_url": "https://s3-media4.fl.yelpcdn.com/bphoto/QTFl8IJxeMbKJgXFfae5sA/o.jpg", "categories": [{"alias": "bakeries", "title": "Bakeries"}, {"alias": "desserts", "title": "Desserts"}, {"alias": "vegan", "title": "Vegan"}], "rating": 4.5}, {"transactions": ["delivery", "pickup"], "distance": 2961.3491089439995, "price": "$$", "display_phone": "(646) 476-8882", "phone": "+16464768882", "url": "https://www.yelp.com/biz/murrays-cheese-bar-new-york?adjust_creative=gBcvfFpabk3CnzmXKdYe3w&utm_campaign=yelp_api_v3&utm_medium=api_v3_business_search&utm_source=gBcvfFpabk3CnzmXKdYe3w", "name": "Murray's Cheese Bar", "location": {"display_address": ["264 Bleecker St", "New York, NY 10014"], "country": "US", "state": "NY", "address3": "", "address2": "", "address1": "264 Bleecker St", "city": "New York", "zip_code": "10014"}, "is_closed": false, "review_count": 535, "coordinates": {"latitude": 40.7312, "longitude": -74.00322}, "id": "murrays-cheese-bar-new-york", "image_url": "https://s3-media3.fl.yelpcdn.com/bphoto/1u8vGNITRut4EfLI2ElM8Q/o.jpg", "categories": [{"alias": "newamerican", "title": "American (New)"}, {"alias": "wine_bars", "title": "Wine Bars"}], "rating": 4.0}, {"transactions": [], "distance": 5532.16338157, "price": "$$$$", "display_phone": "(212) 257-5826", "phone": "+12122575826", "url": "https://www.yelp.com/biz/gabriel-kreuther-new-york?adjust_creative=gBcvfFpabk3CnzmXKdYe3w&utm_campaign=yelp_api_v3&utm_medium=api_v3_business_search&utm_source=gBcvfFpabk3CnzmXKdYe3w", "name": "Gabriel Kreuther", "location": {"display_address": ["41 W 42nd St", "New York, NY 10036"], "country": "US", "state": "NY", "address3": "", "address2": "", "address1": "41 W 42nd St", "city": "New York", "zip_code": "10036"}, "is_closed": false, "review_count": 187, "coordinates": {"latitude": 40.754490892055, "longitude": -73.9832724600494}, "id": "gabriel-kreuther-new-york", "image_url": "https://s3-media4.fl.yelpcdn.com/bphoto/UNbmwyFDsW3tFu9zxbNfeg/o.jpg", "categories": [{"alias": "bars", "title": "Bars"}, {"alias": "french", "title": "French"}], "rating": 4.5}, {"transactions": [], "distance": 4169.607784804, "price": "$$", "display_phone": "(718) 389-6034", "phone": "+17183896034", "url": "https://www.yelp.com/biz/t%C3%B8rst-brooklyn?adjust_creative=gBcvfFpabk3CnzmXKdYe3w&utm_campaign=yelp_api_v3&utm_medium=api_v3_business_search&utm_source=gBcvfFpabk3CnzmXKdYe3w", "name": "T\u00d8RST", "location": {"display_address": ["615 Manhattan Ave", "Brooklyn, NY 11222"], "country": "US", "state": "NY", "address3": "", "address2": "", "address1": "615 Manhattan Ave", "city": "Brooklyn", "zip_code": "11222"}, "is_closed": false, "review_count": 294, "coordinates": {"latitude": 40.7233949, "longitude": -73.950856}, "id": "t\u00f8rst-brooklyn", "image_url": "https://s3-media4.fl.yelpcdn.com/bphoto/cg3z8da4KlD6CeVs2-JSqQ/o.jpg", "categories": [{"alias": "beerbar", "title": "Beer Bar"}, {"alias": "burgers", "title": "Burgers"}, {"alias": "hotdog", "title": "Hot Dogs"}], "rating": 4.5}, {"transactions": [], "distance": 2968.0851624479997, "price": "$", "display_phone": "(212) 691-5000", "phone": "+12126915000", "url": "https://www.yelp.com/biz/the-doughnut-project-new-york?adjust_creative=gBcvfFpabk3CnzmXKdYe3w&utm_campaign=yelp_api_v3&utm_medium=api_v3_business_search&utm_source=gBcvfFpabk3CnzmXKdYe3w", "name": "The Doughnut Project", "location": {"display_address": ["10 Morton St", "New York, NY 10014"], "country": "US", "state": "NY", "address3": "", "address2": null, "address1": "10 Morton St", "city": "New York", "zip_code": "10014"}, "is_closed": false, "review_count": 248, "coordinates": {"latitude": 40.731151, "longitude": -74.003547}, "id": "the-doughnut-project-new-york", "image_url": "https://s3-media2.fl.yelpcdn.com/bphoto/PtbHjoCqkOgnmFM6JHaaMw/o.jpg", "categories": [{"alias": "donuts", "title": "Donuts"}, {"alias": "coffee", "title": "Coffee & Tea"}], "rating": 4.5}, {"transactions": ["delivery"], "distance": 1952.9101108339999, "price": "$$", "display_phone": "(718) 852-8758", "phone": "+17188528758", "url": "https://www.yelp.com/biz/sottocasa-pizzeria-boerum-hill-brooklyn?adjust_creative=gBcvfFpabk3CnzmXKdYe3w&utm_campaign=yelp_api_v3&utm_medium=api_v3_business_search&utm_source=gBcvfFpabk3CnzmXKdYe3w", "name": "Sottocasa Pizzeria- Boerum Hill", "location": {"display_address": ["298 Atlantic Ave", "Brooklyn, NY 11201"], "country": "US", "state": "NY", "address3": "", "address2": null, "address1": "298 Atlantic Ave", "city": "Brooklyn", "zip_code": "11201"}, "is_closed": false, "review_count": 441, "coordinates": {"latitude": 40.68838, "longitude": -73.98895}, "id": "sottocasa-pizzeria-boerum-hill-brooklyn", "image_url": "https://s3-media1.fl.yelpcdn.com/bphoto/AiKz4ZKr9d5T9nuV8Gg7VQ/o.jpg", "categories": [{"alias": "pizza", "title": "Pizza"}, {"alias": "italian", "title": "Italian"}], "rating": 4.5}, {"transactions": [], "distance": 1659.717009086, "price": "$$", "display_phone": "(212) 260-8482", "phone": "+12122608482", "url": "https://www.yelp.com/biz/caffe-vita-lower-east-side-new-york?adjust_creative=gBcvfFpabk3CnzmXKdYe3w&utm_campaign=yelp_api_v3&utm_medium=api_v3_business_search&utm_source=gBcvfFpabk3CnzmXKdYe3w", "name": "Caffe Vita Lower East Side", "location": {"display_address": ["124 Ludlow St", "New York, NY 10002"], "country": "US", "state": "NY", "address3": "", "address2": "", "address1": "124 Ludlow St", "city": "New York", "zip_code": "10002"}, "is_closed": false, "review_count": 149, "coordinates": {"latitude": 40.7196994, "longitude": -73.9884539}, "id": "caffe-vita-lower-east-side-new-york", "image_url": "https://s3-media1.fl.yelpcdn.com/bphoto/BvelWwd4nVwd8MqyvYlPRA/o.jpg", "categories": [{"alias": "coffee", "title": "Coffee & Tea"}], "rating": 4.5}, {"transactions": [], "distance": 1105.92798729, "price": "$", "display_phone": "(646) 870-0188", "phone": "+16468700188", "url": "https://www.yelp.com/biz/juicy-spot-cafe-new-york-2?adjust_creative=gBcvfFpabk3CnzmXKdYe3w&utm_campaign=yelp_api_v3&utm_medium=api_v3_business_search&utm_source=gBcvfFpabk3CnzmXKdYe3w", "name": "Juicy Spot Cafe", "location": {"display_address": ["33 Pell St", "New York, NY 10013"], "country": "US", "state": "NY", "address3": "", "address2": null, "address1": "33 Pell St", "city": "New York", "zip_code": "10013"}, "is_closed": false, "review_count": 153, "coordinates": {"latitude": 40.7147999, "longitude": -73.998629}, "id": "juicy-spot-cafe-new-york-2", "image_url": "https://s3-media3.fl.yelpcdn.com/bphoto/8CTYCV_n_NCzD1rx5PAVEg/o.jpg", "categories": [{"alias": "juicebars", "title": "Juice Bars & Smoothies"}, {"alias": "coffee", "title": "Coffee & Tea"}, {"alias": "icecream", "title": "Ice Cream & Frozen Yogurt"}], "rating": 4.5}, {"transactions": [], "distance": 2740.854240214, "price": "$$", "display_phone": "(718) 522-4340", "phone": "+17185224340", "url": "https://www.yelp.com/biz/black-mountain-wine-house-brooklyn?adjust_creative=gBcvfFpabk3CnzmXKdYe3w&utm_campaign=yelp_api_v3&utm_medium=api_v3_business_search&utm_source=gBcvfFpabk3CnzmXKdYe3w", "name": "Black Mountain Wine House", "location": {"display_address": ["415 Union St", "Brooklyn, NY 11231"], "country": "US", "state": "NY", "address3": "", "address2": "", "address1": "415 Union St", "city": "Brooklyn", "zip_code": "11231"}, "is_closed": false, "review_count": 176, "coordinates": {"latitude": 40.68086, "longitude": -73.99155}, "id": "black-mountain-wine-house-brooklyn", "image_url": "https://s3-media2.fl.yelpcdn.com/bphoto/vkK53-7S6ThEx3UYkpx8Ig/o.jpg", "categories": [{"alias": "wine_bars", "title": "Wine Bars"}], "rating": 4.5}, {"transactions": [], "distance": 4654.237673176, "price": "$", "display_phone": "(917) 892-9562", "phone": "+19178929562", "url": "https://www.yelp.com/biz/a-and-a-bake-and-doubles-shop-brooklyn?adjust_creative=gBcvfFpabk3CnzmXKdYe3w&utm_campaign=yelp_api_v3&utm_medium=api_v3_business_search&utm_source=gBcvfFpabk3CnzmXKdYe3w", "name": "A&A Bake & Doubles Shop", "location": {"display_address": ["481 Nostrand Ave", "Brooklyn, NY 11216"], "country": "US", "state": "NY", "address3": "", "address2": "", "address1": "481 Nostrand Ave", "city": "Brooklyn", "zip_code": "11216"}, "is_closed": false, "review_count": 125, "coordinates": {"latitude": 40.6809, "longitude": -73.94953}, "id": "a-and-a-bake-and-doubles-shop-brooklyn", "image_url": "https://s3-media1.fl.yelpcdn.com/bphoto/oHF-B3GoO-qw6JngT0jrtw/o.jpg", "categories": [{"alias": "bakeries", "title": "Bakeries"}, {"alias": "trinidadian", "title": "Trinidadian"}], "rating": 4.5}, {"transactions": [], "distance": 6519.6085393799995, "price": "$$", "display_phone": "(646) 679-7225", "phone": "+16466797225", "url": "https://www.yelp.com/biz/b-side-pizza-and-wine-bar-new-york?adjust_creative=gBcvfFpabk3CnzmXKdYe3w&utm_campaign=yelp_api_v3&utm_medium=api_v3_business_search&utm_source=gBcvfFpabk3CnzmXKdYe3w", "name": "B Side Pizza & Wine Bar", "location": {"display_address": ["370 W 51st St", "New York, NY 10019"], "country": "US", "state": "NY", "address3": "", "address2": null, "address1": "370 W 51st St", "city": "New York", "zip_code": "10019"}, "is_closed": false, "review_count": 599, "coordinates": {"latitude": 40.7638719677925, "longitude": -73.9880436658859}, "id": "b-side-pizza-and-wine-bar-new-york", "image_url": "https://s3-media3.fl.yelpcdn.com/bphoto/m_5goJPoabzTHCyQ2qAVGQ/o.jpg", "categories": [{"alias": "pizza", "title": "Pizza"}, {"alias": "italian", "title": "Italian"}, {"alias": "tapasmallplates", "title": "Tapas/Small Plates"}], "rating": 4.5}, {"transactions": [], "distance": 1901.610467126, "price": "$$", "display_phone": "(646) 657-0233", "phone": "+16466570233", "url": "https://www.yelp.com/biz/sweet-chick-new-york?adjust_creative=gBcvfFpabk3CnzmXKdYe3w&utm_campaign=yelp_api_v3&utm_medium=api_v3_business_search&utm_source=gBcvfFpabk3CnzmXKdYe3w", "name": "Sweet Chick", "location": {"display_address": ["178 Ludlow St", "New York, NY 10002"], "country": "US", "state": "NY", "address3": "", "address2": "", "address1": "178 Ludlow St", "city": "New York", "zip_code": "10002"}, "is_closed": false, "review_count": 871, "coordinates": {"latitude": 40.7217399, "longitude": -73.98739}, "id": "sweet-chick-new-york", "image_url": "https://s3-media4.fl.yelpcdn.com/bphoto/uIPQilhvzvdXZty1mMEVmA/o.jpg", "categories": [{"alias": "tradamerican", "title": "American (Traditional)"}], "rating": 4.0}, {"transactions": [], "distance": 6108.73840469, "price": "$$", "display_phone": "(718) 576-6001", "phone": "+17185766001", "url": "https://www.yelp.com/biz/amaranto-mexican-restaurant-brooklyn?adjust_creative=gBcvfFpabk3CnzmXKdYe3w&utm_campaign=yelp_api_v3&utm_medium=api_v3_business_search&utm_source=gBcvfFpabk3CnzmXKdYe3w", "name": "Amaranto Mexican Restaurant", "location": {"display_address": ["887 Hart St", "Brooklyn, NY 11237"], "country": "US", "state": "NY", "address3": "", "address2": "", "address1": "887 Hart St", "city": "Brooklyn", "zip_code": "11237"}, "is_closed": false, "review_count": 197, "coordinates": {"latitude": 40.703111, "longitude": -73.921892}, "id": "amaranto-mexican-restaurant-brooklyn", "image_url": "https://s3-media4.fl.yelpcdn.com/bphoto/VvXWECqDDvZEcrMtDfC29A/o.jpg", "categories": [{"alias": "mexican", "title": "Mexican"}], "rating": 4.5}, {"transactions": [], "distance": 1515.470577414, "price": "$$$", "display_phone": "(855) 877-9900", "phone": "+18558779900", "url": "https://www.yelp.com/biz/attaboy-new-york?adjust_creative=gBcvfFpabk3CnzmXKdYe3w&utm_campaign=yelp_api_v3&utm_medium=api_v3_business_search&utm_source=gBcvfFpabk3CnzmXKdYe3w", "name": "Attaboy", "location": {"display_address": ["134 Eldridge St", "New York, NY 10002"], "country": "US", "state": "NY", "address3": "", "address2": "", "address1": "134 Eldridge St", "city": "New York", "zip_code": "10002"}, "is_closed": false, "review_count": 343, "coordinates": {"latitude": 40.7188874, "longitude": -73.9913351}, "id": "attaboy-new-york", "image_url": "https://s3-media4.fl.yelpcdn.com/bphoto/B-ED1yG30QSYGYMpjmqt2w/o.jpg", "categories": [{"alias": "bars", "title": "Bars"}], "rating": 4.0}, {"transactions": [], "distance": 3693.6686543, "price": "$", "display_phone": "(212) 219-2216", "phone": "+12122192216", "url": "https://www.yelp.com/biz/taim-mobile-falafel-and-smoothie-truck-new-york?adjust_creative=gBcvfFpabk3CnzmXKdYe3w&utm_campaign=yelp_api_v3&utm_medium=api_v3_business_search&utm_source=gBcvfFpabk3CnzmXKdYe3w", "name": "Taim Mobile Falafel & Smoothie Truck", "location": {"display_address": ["New York, NY 10014"], "country": "US", "state": "NY", "address3": "", "address2": "", "address1": "", "city": "New York", "zip_code": "10014"}, "is_closed": false, "review_count": 148, "coordinates": {"latitude": 40.7335433959961, "longitude": -74.0103149414062}, "id": "taim-mobile-falafel-and-smoothie-truck-new-york", "image_url": "https://s3-media3.fl.yelpcdn.com/bphoto/XLntb7iu5QEOfK1ouiH1LA/o.jpg", "categories": [{"alias": "mideastern", "title": "Middle Eastern"}, {"alias": "juicebars", "title": "Juice Bars & Smoothies"}, {"alias": "foodtrucks", "title": "Food Trucks"}], "rating": 4.5}, {"transactions": [], "distance": 4281.867940239999, "price": "$$", "display_phone": "(718) 349-1744", "phone": "+17183491744", "url": "https://www.yelp.com/biz/karczma-brooklyn?adjust_creative=gBcvfFpabk3CnzmXKdYe3w&utm_campaign=yelp_api_v3&utm_medium=api_v3_business_search&utm_source=gBcvfFpabk3CnzmXKdYe3w", "name": "Karczma", "location": {"display_address": ["136 Greenpoint Ave", "Brooklyn, NY 11222"], "country": "US", "state": "NY", "address3": "", "address2": "", "address1": "136 Greenpoint Ave", "city": "Brooklyn", "zip_code": "11222"}, "is_closed": false, "review_count": 392, "coordinates": {"latitude": 40.729977, "longitude": -73.955128}, "id": "karczma-brooklyn", "image_url": "https://s3-media4.fl.yelpcdn.com/bphoto/4yhwGw33mkhq41rmmiPgMA/o.jpg", "categories": [{"alias": "polish", "title": "Polish"}], "rating": 4.5}, {"transactions": [], "distance": 3351.7354031799996, "price": "$$", "display_phone": "(718) 399-2337", "phone": "+17183992337", "url": "https://www.yelp.com/biz/mekelburgs-brooklyn?adjust_creative=gBcvfFpabk3CnzmXKdYe3w&utm_campaign=yelp_api_v3&utm_medium=api_v3_business_search&utm_source=gBcvfFpabk3CnzmXKdYe3w", "name": "Mekelburg's", "location": {"display_address": ["293 Grand Ave", "Brooklyn, NY 11238"], "country": "US", "state": "NY", "address3": "", "address2": null, "address1": "293 Grand Ave", "city": "Brooklyn", "zip_code": "11238"}, "is_closed": false, "review_count": 139, "coordinates": {"latitude": 40.6875419616699, "longitude": -73.9623336791992}, "id": "mekelburgs-brooklyn", "image_url": "https://s3-media4.fl.yelpcdn.com/bphoto/R3Ae_yRe-qxJ-hf7D7VBkw/o.jpg", "categories": [{"alias": "gourmet", "title": "Specialty Food"}, {"alias": "newamerican", "title": "American (New)"}, {"alias": "bars", "title": "Bars"}], "rating": 4.5}, {"transactions": [], "distance": 6935.58430522, "price": "$", "display_phone": "(718) 707-2808", "phone": "+17187072808", "url": "https://www.yelp.com/biz/sweet-and-sara-long-island-city-3?adjust_creative=gBcvfFpabk3CnzmXKdYe3w&utm_campaign=yelp_api_v3&utm_medium=api_v3_business_search&utm_source=gBcvfFpabk3CnzmXKdYe3w", "name": "Sweet & Sara", "location": {"display_address": ["43-31 33rd St", "Fl 4", "Long Island City, NY 11101"], "country": "US", "state": "NY", "address3": "", "address2": "Fl 4", "address1": "43-31 33rd St", "city": "Long Island City", "zip_code": "11101"}, "is_closed": false, "review_count": 55, "coordinates": {"latitude": 40.745737, "longitude": -73.931467}, "id": "sweet-and-sara-long-island-city-3", "image_url": "https://s3-media2.fl.yelpcdn.com/bphoto/v9cLXSqo3WsieQ8GBkcRgg/o.jpg", "categories": [{"alias": "desserts", "title": "Desserts"}, {"alias": "vegan", "title": "Vegan"}], "rating": 5.0}, {"transactions": [], "distance": 2519.5577592299996, "price": "$$", "display_phone": "(646) 666-5096", "phone": "+16466665096", "url": "https://www.yelp.com/biz/adoro-lei-new-york?adjust_creative=gBcvfFpabk3CnzmXKdYe3w&utm_campaign=yelp_api_v3&utm_medium=api_v3_business_search&utm_source=gBcvfFpabk3CnzmXKdYe3w", "name": "Adoro Lei", "location": {"display_address": ["287 Hudson St", "New York, NY 10013"], "country": "US", "state": "NY", "address3": "", "address2": "", "address1": "287 Hudson St", "city": "New York", "zip_code": "10013"}, "is_closed": false, "review_count": 151, "coordinates": {"latitude": 40.725612, "longitude": -74.007916}, "id": "adoro-lei-new-york", "image_url": "https://s3-media2.fl.yelpcdn.com/bphoto/C2C37kwDZ332qwlx_Cg4nw/o.jpg", "categories": [{"alias": "italian", "title": "Italian"}, {"alias": "pizza", "title": "Pizza"}, {"alias": "lounges", "title": "Lounges"}], "rating": 4.5}, {"transactions": [], "distance": 3067.8059843399997, "price": "$$$", "display_phone": "(212) 414-2929", "phone": "+12124142929", "url": "https://www.yelp.com/biz/takashi-new-york?adjust_creative=gBcvfFpabk3CnzmXKdYe3w&utm_campaign=yelp_api_v3&utm_medium=api_v3_business_search&utm_source=gBcvfFpabk3CnzmXKdYe3w", "name": "Takashi", "location": {"display_address": ["456 Hudson St", "New York, NY 10014"], "country": "US", "state": "NY", "address3": "", "address2": "", "address1": "456 Hudson St", "city": "New York", "zip_code": "10014"}, "is_closed": false, "review_count": 770, "coordinates": {"latitude": 40.7313524, "longitude": -74.0065048}, "id": "takashi-new-york", "image_url": "https://s3-media2.fl.yelpcdn.com/bphoto/HNIAUmwyy2mTkbVfTH7EaQ/o.jpg", "categories": [{"alias": "japanese", "title": "Japanese"}, {"alias": "korean", "title": "Korean"}, {"alias": "bbq", "title": "Barbeque"}], "rating": 4.0}, {"transactions": [], "distance": 1004.4276055061999, "price": "$", "display_phone": "", "phone": "", "url": "https://www.yelp.com/biz/rice-noodle-cart-new-york?adjust_creative=gBcvfFpabk3CnzmXKdYe3w&utm_campaign=yelp_api_v3&utm_medium=api_v3_business_search&utm_source=gBcvfFpabk3CnzmXKdYe3w", "name": "Rice Noodle Cart", "location": {"display_address": ["Entrace of East Broadway MTA & Wing Shoon Seafood Restaurant", "At E Broadway and Rutgers St", "New York, NY 10002"], "country": "US", "state": "NY", "address3": "At E Broadway and Rutgers St", "address2": "", "address1": "Entrace of East Broadway MTA & Wing Shoon Seafood Restaurant", "city": "New York", "zip_code": "10002"}, "is_closed": false, "review_count": 57, "coordinates": {"latitude": 40.7139045494042, "longitude": -73.9901232849436}, "id": "rice-noodle-cart-new-york", "image_url": "https://s3-media2.fl.yelpcdn.com/bphoto/c_nB3VHy2QTojfi4aa6R-A/o.jpg", "categories": [{"alias": "foodstands", "title": "Food Stands"}, {"alias": "noodles", "title": "Noodles"}], "rating": 4.5}, {"transactions": ["pickup"], "distance": 706.393319357, "price": "$", "display_phone": "(917) 262-0031", "phone": "+19172620031", "url": "https://www.yelp.com/biz/cafe-patoro-new-york?adjust_creative=gBcvfFpabk3CnzmXKdYe3w&utm_campaign=yelp_api_v3&utm_medium=api_v3_business_search&utm_source=gBcvfFpabk3CnzmXKdYe3w", "name": "Cafe Patoro", "location": {"display_address": ["223 Front St", "New York, NY 10038"], "country": "US", "state": "NY", "address3": "", "address2": "", "address1": "223 Front St", "city": "New York", "zip_code": "10038"}, "is_closed": false, "review_count": 72, "coordinates": {"latitude": 40.7072720974983, "longitude": -74.0023160353303}, "id": "cafe-patoro-new-york", "image_url": "https://s3-media4.fl.yelpcdn.com/bphoto/rs6mD51cpQncwkfBO8nJoQ/o.jpg", "categories": [{"alias": "bakeries", "title": "Bakeries"}, {"alias": "brazilian", "title": "Brazilian"}, {"alias": "coffee", "title": "Coffee & Tea"}], "rating": 4.5}, {"transactions": [], "distance": 4564.7078359, "price": "$$", "display_phone": "(347) 987-3402", "phone": "+13479873402", "url": "https://www.yelp.com/biz/c-lo-cafe-brooklyn?adjust_creative=gBcvfFpabk3CnzmXKdYe3w&utm_campaign=yelp_api_v3&utm_medium=api_v3_business_search&utm_source=gBcvfFpabk3CnzmXKdYe3w", "name": "C.Lo Cafe", "location": {"display_address": ["39 Bushwick Ave", "Brooklyn, NY 11211"], "country": "US", "state": "NY", "address3": "", "address2": "", "address1": "39 Bushwick Ave", "city": "Brooklyn", "zip_code": "11211"}, "is_closed": false, "review_count": 82, "coordinates": {"latitude": 40.713577, "longitude": -73.941177}, "id": "c-lo-cafe-brooklyn", "image_url": "https://s3-media2.fl.yelpcdn.com/bphoto/Fr3JbPo3vbQYqXjg73Eyug/o.jpg", "categories": [{"alias": "cafes", "title": "Cafes"}, {"alias": "cocktailbars", "title": "Cocktail Bars"}, {"alias": "tradamerican", "title": "American (Traditional)"}], "rating": 4.5}, {"transactions": [], "distance": 5527.160748179999, "price": "$$$$", "display_phone": "(718) 729-1297", "phone": "+17187291297", "url": "https://www.yelp.com/biz/sushi-daizen-long-island-city?adjust_creative=gBcvfFpabk3CnzmXKdYe3w&utm_campaign=yelp_api_v3&utm_medium=api_v3_business_search&utm_source=gBcvfFpabk3CnzmXKdYe3w", "name": "Sushi Daizen", "location": {"display_address": ["47-38 Vernon Blvd", "Long Island City, NY 11101"], "country": "US", "state": "NY", "address3": "", "address2": "", "address1": "47-38 Vernon Blvd", "city": "Long Island City", "zip_code": "11101"}, "is_closed": false, "review_count": 57, "coordinates": {"latitude": 40.74445, "longitude": -73.9538199}, "id": "sushi-daizen-long-island-city", "image_url": "https://s3-media2.fl.yelpcdn.com/bphoto/VZyBKqgy8eEm14Dtnl7VHw/o.jpg", "categories": [{"alias": "sushi", "title": "Sushi Bars"}], "rating": 4.5}, {"transactions": ["delivery", "pickup"], "distance": 1425.3134676861998, "price": "$$", "display_phone": "(212) 677-3158", "phone": "+12126773158", "url": "https://www.yelp.com/biz/zest-new-york-3?adjust_creative=gBcvfFpabk3CnzmXKdYe3w&utm_campaign=yelp_api_v3&utm_medium=api_v3_business_search&utm_source=gBcvfFpabk3CnzmXKdYe3w", "name": "Zest", "location": {"display_address": ["249 Broome St", "New York, NY 10002"], "country": "US", "state": "NY", "address3": "", "address2": "", "address1": "249 Broome St", "city": "New York", "zip_code": "10002"}, "is_closed": false, "review_count": 576, "coordinates": {"latitude": 40.7178344726563, "longitude": -73.9899597167969}, "id": "zest-new-york-3", "image_url": "https://s3-media3.fl.yelpcdn.com/bphoto/NdbFTC5_dpybR116FBQbeg/o.jpg", "categories": [{"alias": "sushi", "title": "Sushi Bars"}, {"alias": "japanese", "title": "Japanese"}, {"alias": "thai", "title": "Thai"}], "rating": 4.0}, {"transactions": [], "distance": 2407.5163131, "price": "$$", "display_phone": "(646) 422-7103", "phone": "+16464227103", "url": "https://www.yelp.com/biz/alphabet-city-beer-company-new-york?adjust_creative=gBcvfFpabk3CnzmXKdYe3w&utm_campaign=yelp_api_v3&utm_medium=api_v3_business_search&utm_source=gBcvfFpabk3CnzmXKdYe3w", "name": "Alphabet City Beer Company", "location": {"display_address": ["96 Ave C", "New York, NY 10009"], "country": "US", "state": "NY", "address3": "", "address2": "", "address1": "96 Ave C", "city": "New York", "zip_code": "10009"}, "is_closed": false, "review_count": 157, "coordinates": {"latitude": 40.723652, "longitude": -73.978836}, "id": "alphabet-city-beer-company-new-york", "image_url": "https://s3-media2.fl.yelpcdn.com/bphoto/HfgKNcz7OmvRBfET1Moj7Q/o.jpg", "categories": [{"alias": "bars", "title": "Bars"}, {"alias": "beer_and_wine", "title": "Beer, Wine & Spirits"}], "rating": 4.5}, {"transactions": [], "distance": 4065.0312622639995, "price": "$", "display_phone": "(718) 782-1200", "phone": "+17187821200", "url": "https://www.yelp.com/biz/porto-rico-importing-brooklyn?adjust_creative=gBcvfFpabk3CnzmXKdYe3w&utm_campaign=yelp_api_v3&utm_medium=api_v3_business_search&utm_source=gBcvfFpabk3CnzmXKdYe3w", "name": "Porto Rico Importing", "location": {"display_address": ["636 Grand St", "Brooklyn, NY 11211"], "country": "US", "state": "NY", "address3": null, "address2": "", "address1": "636 Grand St", "city": "Brooklyn", "zip_code": "11211"}, "is_closed": false, "review_count": 48, "coordinates": {"latitude": 40.7111625671387, "longitude": -73.9467086791992}, "id": "porto-rico-importing-brooklyn", "image_url": "https://s3-media3.fl.yelpcdn.com/bphoto/fE9KKTPWe2ztvSYmno74kg/o.jpg", "categories": [{"alias": "coffee", "title": "Coffee & Tea"}], "rating": 4.5}, {"transactions": [], "distance": 2587.88228893, "price": "$$$", "display_phone": "(646) 707-0301", "phone": "+16467070301", "url": "https://www.yelp.com/biz/domodomo-new-york?adjust_creative=gBcvfFpabk3CnzmXKdYe3w&utm_campaign=yelp_api_v3&utm_medium=api_v3_business_search&utm_source=gBcvfFpabk3CnzmXKdYe3w", "name": "DOMODOMO", "location": {"display_address": ["138 W Houston St", "New York, NY 10012"], "country": "US", "state": "NY", "address3": "", "address2": "", "address1": "138 W Houston St", "city": "New York", "zip_code": "10012"}, "is_closed": false, "review_count": 342, "coordinates": {"latitude": 40.72808, "longitude": -74.00157}, "id": "domodomo-new-york", "image_url": "https://s3-media3.fl.yelpcdn.com/bphoto/V-HM7_QqZcqbi34owuJhYA/o.jpg", "categories": [{"alias": "japanese", "title": "Japanese"}, {"alias": "sushi", "title": "Sushi Bars"}], "rating": 4.0}, {"transactions": [], "distance": 3896.7274506679996, "price": "$", "display_phone": "(718) 768-2613", "phone": "+17187682613", "url": "https://www.yelp.com/biz/postmark-cafe-brooklyn?adjust_creative=gBcvfFpabk3CnzmXKdYe3w&utm_campaign=yelp_api_v3&utm_medium=api_v3_business_search&utm_source=gBcvfFpabk3CnzmXKdYe3w", "name": "Postmark Cafe", "location": {"display_address": ["326 6th St", "Brooklyn, NY 11215"], "country": "US", "state": "NY", "address3": "", "address2": null, "address1": "326 6th St", "city": "Brooklyn", "zip_code": "11215"}, "is_closed": false, "review_count": 137, "coordinates": {"latitude": 40.6710865, "longitude": -73.9852}, "id": "postmark-cafe-brooklyn", "image_url": "https://s3-media1.fl.yelpcdn.com/bphoto/vyTGQh4XBiDOsJsn85SmtA/o.jpg", "categories": [{"alias": "coffee", "title": "Coffee & Tea"}, {"alias": "cafes", "title": "Cafes"}], "rating": 4.5}, {"transactions": [], "distance": 3185.293919832, "price": "$$", "display_phone": "(646) 416-6440", "phone": "+16464166440", "url": "https://www.yelp.com/biz/cava-new-york-4?adjust_creative=gBcvfFpabk3CnzmXKdYe3w&utm_campaign=yelp_api_v3&utm_medium=api_v3_business_search&utm_source=gBcvfFpabk3CnzmXKdYe3w", "name": "CAVA", "location": {"display_address": ["143 4th Ave", "New York, NY 10003"], "country": "US", "state": "NY", "address3": null, "address2": "", "address1": "143 4th Ave", "city": "New York", "zip_code": "10003"}, "is_closed": false, "review_count": 89, "coordinates": {"latitude": 40.7338763907299, "longitude": -73.9896700912803}, "id": "cava-new-york-4", "image_url": "https://s3-media2.fl.yelpcdn.com/bphoto/hMAKiYwX78CC-eDPFmWi9w/o.jpg", "categories": [{"alias": "mediterranean", "title": "Mediterranean"}], "rating": 4.5}, {"transactions": ["delivery", "pickup"], "distance": 1238.4806809341999, "price": "$$", "display_phone": "(212) 577-6474", "phone": "+12125776474", "url": "https://www.yelp.com/biz/nish-nush-new-york-5?adjust_creative=gBcvfFpabk3CnzmXKdYe3w&utm_campaign=yelp_api_v3&utm_medium=api_v3_business_search&utm_source=gBcvfFpabk3CnzmXKdYe3w", "name": "Nish Nush", "location": {"display_address": ["41 John St", "New York, NY 10038"], "country": "US", "state": "NY", "address3": "", "address2": "", "address1": "41 John St", "city": "New York", "zip_code": "10038"}, "is_closed": false, "review_count": 98, "coordinates": {"latitude": 40.709472, "longitude": -74.007949}, "id": "nish-nush-new-york-5", "image_url": "https://s3-media2.fl.yelpcdn.com/bphoto/34Q-IAGR6jf8xHwqifD_rA/o.jpg", "categories": [{"alias": "vegetarian", "title": "Vegetarian"}, {"alias": "mideastern", "title": "Middle Eastern"}, {"alias": "kosher", "title": "Kosher"}], "rating": 4.5}, {"transactions": [], "distance": 3725.6663568499994, "price": "$$", "display_phone": "(917) 592-3467", "phone": "+19175923467", "url": "https://www.yelp.com/biz/taste-of-persia-nyc-new-york-2?adjust_creative=gBcvfFpabk3CnzmXKdYe3w&utm_campaign=yelp_api_v3&utm_medium=api_v3_business_search&utm_source=gBcvfFpabk3CnzmXKdYe3w", "name": "Taste of Persia NYC", "location": {"display_address": ["12 W 18th St", "New York, NY 10011"], "country": "US", "state": "NY", "address3": "", "address2": "", "address1": "12 W 18th St", "city": "New York", "zip_code": "10011"}, "is_closed": false, "review_count": 189, "coordinates": {"latitude": 40.738933, "longitude": -73.992902}, "id": "taste-of-persia-nyc-new-york-2", "image_url": "https://s3-media3.fl.yelpcdn.com/bphoto/H-eboKV1OKEUnOd348HJfQ/o.jpg", "categories": [{"alias": "persian", "title": "Persian/Iranian"}], "rating": 4.5}, {"transactions": [], "distance": 3004.4424061239997, "price": "$$", "display_phone": "(212) 414-8599", "phone": "+12124148599", "url": "https://www.yelp.com/biz/davidstea-new-york-8?adjust_creative=gBcvfFpabk3CnzmXKdYe3w&utm_campaign=yelp_api_v3&utm_medium=api_v3_business_search&utm_source=gBcvfFpabk3CnzmXKdYe3w", "name": "DavidsTea", "location": {"display_address": ["275 Bleecker St", "New York, NY 10014"], "country": "US", "state": "NY", "address3": "", "address2": "", "address1": "275 Bleecker St", "city": "New York", "zip_code": "10014"}, "is_closed": false, "review_count": 171, "coordinates": {"latitude": 40.731647, "longitude": -74.002998}, "id": "davidstea-new-york-8", "image_url": "https://s3-media2.fl.yelpcdn.com/bphoto/WFnfpu-aEQ097QFCD0Bq2Q/o.jpg", "categories": [{"alias": "coffee", "title": "Coffee & Tea"}], "rating": 4.5}, {"transactions": [], "distance": 1882.6395672059998, "display_phone": "", "phone": "", "url": "https://www.yelp.com/biz/hook-and-ladder-8-ghostbusters-new-york?adjust_creative=gBcvfFpabk3CnzmXKdYe3w&utm_campaign=yelp_api_v3&utm_medium=api_v3_business_search&utm_source=gBcvfFpabk3CnzmXKdYe3w", "name": "Hook & Ladder 8 - Ghostbusters", "location": {"display_address": ["14 N Moore St", "New York, NY 10013"], "country": "US", "state": "NY", "address3": "", "address2": "", "address1": "14 N Moore St", "city": "New York", "zip_code": "10013"}, "is_closed": false, "review_count": 30, "coordinates": {"latitude": 40.71966, "longitude": -74.0066}, "id": "hook-and-ladder-8-ghostbusters-new-york", "image_url": "https://s3-media3.fl.yelpcdn.com/bphoto/TbRMWhBYX0uDnqMeKLiUZg/o.jpg", "categories": [{"alias": "landmarks", "title": "Landmarks & Historical Buildings"}], "rating": 5.0}, {"transactions": ["delivery", "pickup"], "distance": 2495.5127712239996, "price": "$$", "display_phone": "(212) 539-0231", "phone": "+12125390231", "url": "https://www.yelp.com/biz/le-village-new-york?adjust_creative=gBcvfFpabk3CnzmXKdYe3w&utm_campaign=yelp_api_v3&utm_medium=api_v3_business_search&utm_source=gBcvfFpabk3CnzmXKdYe3w", "name": "Le Village", "location": {"display_address": ["127 E 7th St", "New York, NY 10009"], "country": "US", "state": "NY", "address3": "", "address2": "", "address1": "127 E 7th St", "city": "New York", "zip_code": "10009"}, "is_closed": false, "review_count": 215, "coordinates": {"latitude": 40.726473, "longitude": -73.983958}, "id": "le-village-new-york", "image_url": "https://s3-media3.fl.yelpcdn.com/bphoto/SNcI_U_E0EiuRw1YyahuAQ/o.jpg", "categories": [{"alias": "french", "title": "French"}, {"alias": "gluten_free", "title": "Gluten-Free"}, {"alias": "vegetarian", "title": "Vegetarian"}], "rating": 4.5}, {"transactions": [], "distance": 1776.710716264, "price": "$$$", "display_phone": "(212) 460-5546", "phone": "+12124605546", "url": "https://www.yelp.com/biz/copper-and-oak-new-york-5?adjust_creative=gBcvfFpabk3CnzmXKdYe3w&utm_campaign=yelp_api_v3&utm_medium=api_v3_business_search&utm_source=gBcvfFpabk3CnzmXKdYe3w", "name": "Copper & Oak", "location": {"display_address": ["157 Allen St", "New York, NY 10002"], "country": "US", "state": "NY", "address3": "", "address2": "", "address1": "157 Allen St", "city": "New York", "zip_code": "10002"}, "is_closed": false, "review_count": 57, "coordinates": {"latitude": 40.721065, "longitude": -73.98986}, "id": "copper-and-oak-new-york-5", "image_url": "https://s3-media4.fl.yelpcdn.com/bphoto/sLoK8jWkKDmS-qopXzzMUw/o.jpg", "categories": [{"alias": "bars", "title": "Bars"}], "rating": 4.5}, {"transactions": [], "distance": 3194.468123436, "price": "$$", "display_phone": "(718) 388-6160", "phone": "+17183886160", "url": "https://www.yelp.com/biz/house-of-small-wonder-brooklyn?adjust_creative=gBcvfFpabk3CnzmXKdYe3w&utm_campaign=yelp_api_v3&utm_medium=api_v3_business_search&utm_source=gBcvfFpabk3CnzmXKdYe3w", "name": "House of Small Wonder", "location": {"display_address": ["77 N 6th St", "Brooklyn, NY 11211"], "country": "US", "state": "NY", "address3": "", "address2": "", "address1": "77 N 6th St", "city": "Brooklyn", "zip_code": "11211"}, "is_closed": false, "review_count": 534, "coordinates": {"latitude": 40.71902, "longitude": -73.96089}, "id": "house-of-small-wonder-brooklyn", "image_url": "https://s3-media4.fl.yelpcdn.com/bphoto/HYqjox_eyc5tw5ZrNKj3XA/o.jpg", "categories": [{"alias": "sandwiches", "title": "Sandwiches"}, {"alias": "breakfast_brunch", "title": "Breakfast & Brunch"}, {"alias": "japanese", "title": "Japanese"}], "rating": 4.0}], "total": 131348}