{"total": 131350, "region": {"center": {"longitude": -73.99429321289062, "latitude": 40.70544486444615}}, "businesses": [{"rating": 4.5, "is_closed": false, "distance": 1974.8953045739997, "name": "Russ & Daughters", "id": "russ-and-daughters-new-york", "image_url": "https://s3-media4.fl.yelpcdn.com/bphoto/zf9bFSSAGtqI0Wj2q9uLlg/o.jpg", "url": "https://www.yelp.com/biz/russ-and-daughters-new-york?adjust_creative=gBcvfFpabk3CnzmXKdYe3w&utm_campaign=yelp_api_v3&utm_medium=api_v3_business_search&utm_source=gBcvfFpabk3CnzmXKdYe3w", "phone": "+12124754880", "coordinates": {"longitude": -73.9882828294139, "latitude": 40.7226090288773}, "categories": [{"alias": "gourmet", "title": "Specialty Food"}, {"alias": "bagels", "title": "Bagels"}, {"alias": "delis", "title": "Delis"}], "review_count": 1430, "location": {"city": "New York", "address1": "179 E Houston St", "address3": "", "address2": "", "zip_code": "10002", "country": "US", "display_address": ["179 E Houston St", "New York, NY 10002"], "state": "NY"}, "price": "$$", "transactions": [], "display_phone": "(212) 475-4880"}, {"rating": 4.5, "is_closed": false, "distance": 2487.3870526299997, "name": "Ray's Candy Store", "id": "rays-candy-store-new-york-2", "image_url": "https://s3-media3.fl.yelpcdn.com/bphoto/c_Ave74kiOkAsCE_pP7Vfg/o.jpg", "url": "https://www.yelp.com/biz/rays-candy-store-new-york-2?adjust_creative=gBcvfFpabk3CnzmXKdYe3w&utm_campaign=yelp_api_v3&utm_medium=api_v3_business_search&utm_source=gBcvfFpabk3CnzmXKdYe3w", "phone": "", "coordinates": {"longitude": -73.983699, "latitude": 40.726324}, "categories": [{"alias": "desserts", "title": "Desserts"}, {"alias": "icecream", "title": "Ice Cream & Frozen Yogurt"}, {"alias": "hotdog", "title": "Hot Dogs"}], "review_count": 287, "location": {"city": "New York", "address1": "113 Ave A", "address3": "", "address2": null, "zip_code": "10009", "country": "US", "display_address": ["113 Ave A", "New York, NY 10009"], "state": "NY"}, "price": "$", "transactions": [], "display_phone": ""}, {"rating": 4.5, "is_closed": false, "distance": 5459.09451755, "name": "Grand Central Terminal", "id": "grand-central-terminal-new-york", "image_url": "https://s3-media2.fl.yelpcdn.com/bphoto/iqQXiVweA-GH-irErpydrg/o.jpg", "url": "https://www.yelp.com/biz/grand-central-terminal-new-york?adjust_creative=gBcvfFpabk3CnzmXKdYe3w&utm_campaign=yelp_api_v3&utm_medium=api_v3_business_search&utm_source=gBcvfFpabk3CnzmXKdYe3w", "phone": "+12123402583", "coordinates": {"longitude": -73.977165, "latitude": 40.752793}, "categories": [{"alias": "landmarks", "title": "Landmarks & Historical Buildings"}, {"alias": "trainstations", "title": "Train Stations"}], "review_count": 1080, "location": {"city": "New York", "address1": "89 E 42nd St", "address3": "", "address2": null, "zip_code": "10017", "country": "US", "display_address": ["89 E 42nd St", "New York, NY 10017"], "state": "NY"}, "transactions": [], "display_phone": "(212) 340-2583"}, {"rating": 4.5, "is_closed": false, "distance": 2336.509174554, "name": "Bohemian Restaurant", "id": "bohemian-restaurant-new-york", "image_url": "https://s3-media1.fl.yelpcdn.com/bphoto/c1RTpEo_qfhYlPhQ1M4hQg/o.jpg", "url": "https://www.yelp.com/biz/bohemian-restaurant-new-york?adjust_creative=gBcvfFpabk3CnzmXKdYe3w&utm_campaign=yelp_api_v3&utm_medium=api_v3_business_search&utm_source=gBcvfFpabk3CnzmXKdYe3w", "phone": "", "coordinates": {"longitude": -73.99236, "latitude": 40.72639}, "categories": [{"alias": "japanese", "title": "Japanese"}, {"alias": "cocktailbars", "title": "Cocktail Bars"}, {"alias": "burgers", "title": "Burgers"}], "review_count": 543, "location": {"city": "New York", "address1": "57 Great Jones St", "address3": "", "address2": "", "zip_code": "10012", "country": "US", "display_address": ["57 Great Jones St", "New York, NY 10012"], "state": "NY"}, "price": "$$$", "transactions": [], "display_phone": ""}, {"rating": 4.5, "is_closed": false, "distance": 5460.318420619999, "name": "Bryant Park", "id": "bryant-park-new-york-2", "image_url": "https://s3-media3.fl.yelpcdn.com/bphoto/9scyl3kOS_fOrJx50iJNIA/o.jpg", "url": "https://www.yelp.com/biz/bryant-park-new-york-2?adjust_creative=gBcvfFpabk3CnzmXKdYe3w&utm_campaign=yelp_api_v3&utm_medium=api_v3_business_search&utm_source=gBcvfFpabk3CnzmXKdYe3w", "phone": "+12127684242", "coordinates": {"longitude": -73.9836510457098, "latitude": 40.7538842911333}, "categories": [{"alias": "parks", "title": "Parks"}], "review_count": 885, "location": {"city": "New York", "address1": "41 W 40th St", "address3": "", "address2": "", "zip_code": "10018", "country": "US", "display_address": ["41 W 40th St", "New York, NY 10018"], "state": "NY"}, "transactions": [], "display_phone": "(212) 768-4242"}, {"rating": 4.5, "is_closed": false, "distance": 4074.52218398, "name": "Eleven Madison Park", "id": "eleven-madison-park-new-york", "image_url": "https://s3-media2.fl.yelpcdn.com/bphoto/LdksHnnLXrazkmBK2ohRKA/o.jpg", "url": "https://www.yelp.com/biz/eleven-madison-park-new-york?adjust_creative=gBcvfFpabk3CnzmXKdYe3w&utm_campaign=yelp_api_v3&utm_medium=api_v3_business_search&utm_source=gBcvfFpabk3CnzmXKdYe3w", "phone": "+12128890905", "coordinates": {"longitude": -73.9872074872255, "latitude": 40.7416907417333}, "categories": [{"alias": "newamerican", "title": "American (New)"}, {"alias": "french", "title": "French"}, {"alias": "cocktailbars", "title": "Cocktail Bars"}], "review_count": 1623, "location": {"city": "New York", "address1": "11 Madison Ave", "address3": "", "address2": "", "zip_code": "10010", "country": "US", "display_address": ["11 Madison Ave", "New York, NY 10010"], "state": "NY"}, "price": "$$$$", "transactions": [], "display_phone": "(212) 889-0905"}, {"rating": 4.5, "is_closed": false, "distance": 3820.2118631699996, "name": "Sunny's Bar", "id": "sunnys-bar-brooklyn", "image_url": "https://s3-media2.fl.yelpcdn.com/bphoto/YCjniKIhy3GuXtbB1zY0qg/o.jpg", "url": "https://www.yelp.com/biz/sunnys-bar-brooklyn?adjust_creative=gBcvfFpabk3CnzmXKdYe3w&utm_campaign=yelp_api_v3&utm_medium=api_v3_business_search&utm_source=gBcvfFpabk3CnzmXKdYe3w", "phone": "+17186258211", "coordinates": {"longitude": -74.01689, "latitude": 40.67569}, "categories": [{"alias": "bars", "title": "Bars"}], "review_count": 126, "location": {"city": "Brooklyn", "address1": "253 Conover St", "address3": "", "address2": "", "zip_code": "11231", "country": "US", "display_address": ["253 Conover St", "Brooklyn, NY 11231"], "state": "NY"}, "price": "$", "transactions": [], "display_phone": "(718) 625-8211"}, {"rating": 4.5, "is_closed": false, "distance": 1308.649868329, "name": "Doughnut Plant", "id": "doughnut-plant-new-york-4", "image_url": "https://s3-media4.fl.yelpcdn.com/bphoto/ByIdPZzld6KNutaZr2rlOg/o.jpg", "url": "https://www.yelp.com/biz/doughnut-plant-new-york-4?adjust_creative=gBcvfFpabk3CnzmXKdYe3w&utm_campaign=yelp_api_v3&utm_medium=api_v3_business_search&utm_source=gBcvfFpabk3CnzmXKdYe3w", "phone": "+12125053700", "coordinates": {"longitude": -73.9886098620298, "latitude": 40.7163944930004}, "categories": [{"alias": "donuts", "title": "Donuts"}, {"alias": "coffee", "title": "Coffee & Tea"}], "review_count": 2801, "location": {"city": "New York", "address1": "379 Grand St", "address3": "", "address2": "", "zip_code": "10002", "country": "US", "display_address": ["379 Grand St", "New York, NY 10002"], "state": "NY"}, "price": "$$", "transactions": [], "display_phone": "(212) 505-3700"}, {"rating": 4.5, "is_closed": false, "distance": 2951.2971713039997, "name": "La Goulette", "id": "la-goulette-brooklyn", "image_url": "https://s3-media3.fl.yelpcdn.com/bphoto/yH1GCpd7dmTLSV_N0Wjh7Q/o.jpg", "url": "https://www.yelp.com/biz/la-goulette-brooklyn?adjust_creative=gBcvfFpabk3CnzmXKdYe3w&utm_campaign=yelp_api_v3&utm_medium=api_v3_business_search&utm_source=gBcvfFpabk3CnzmXKdYe3w", "phone": "+13476894126", "coordinates": {"longitude": -73.961549, "latitude": 40.714844}, "categories": [{"alias": "mediterranean", "title": "Mediterranean"}, {"alias": "mideastern", "title": "Middle Eastern"}], "review_count": 225, "location": {"city": "Brooklyn", "address1": "159 Grand St", "address3": "", "address2": "", "zip_code": "11249", "country": "US", "display_address": ["159 Grand St", "Brooklyn, NY 11249"], "state": "NY"}, "price": "$$", "transactions": [], "display_phone": "(347) 689-4126"}, {"rating": 4.5, "is_closed": false, "distance": 3458.954944802, "name": "Taim", "id": "taim-new-york-3", "image_url": "https://s3-media3.fl.yelpcdn.com/bphoto/Z29o01m_KYYQ3HKEa5fppw/o.jpg", "url": "https://www.yelp.com/biz/taim-new-york-3?adjust_creative=gBcvfFpabk3CnzmXKdYe3w&utm_campaign=yelp_api_v3&utm_medium=api_v3_business_search&utm_source=gBcvfFpabk3CnzmXKdYe3w", "phone": "+12126911287", "coordinates": {"longitude": -74.0019588366439, "latitude": 40.736002376347}, "categories": [{"alias": "mideastern", "title": "Middle Eastern"}, {"alias": "vegetarian", "title": "Vegetarian"}, {"alias": "vegan", "title": "Vegan"}], "review_count": 1328, "location": {"city": "New York", "address1": "222 Waverly Pl", "address3": "", "address2": null, "zip_code": "10014", "country": "US", "display_address": ["222 Waverly Pl", "New York, NY 10014"], "state": "NY"}, "price": "$", "transactions": [], "display_phone": "(212) 691-1287"}, {"rating": 4.5, "is_closed": false, "distance": 2138.863071408, "name": "Housing Works Bookstore Caf\u00e9", "id": "housing-works-bookstore-caf\u00e9-new-york-3", "image_url": "https://s3-media2.fl.yelpcdn.com/bphoto/s4BSvBTRNLaBnSDFVD1opQ/o.jpg", "url": "https://www.yelp.com/biz/housing-works-bookstore-caf%C3%A9-new-york-3?adjust_creative=gBcvfFpabk3CnzmXKdYe3w&utm_campaign=yelp_api_v3&utm_medium=api_v3_business_search&utm_source=gBcvfFpabk3CnzmXKdYe3w", "phone": "+12123343324", "coordinates": {"longitude": -73.9965931, "latitude": 40.72454}, "categories": [{"alias": "bookstores", "title": "Bookstores"}, {"alias": "cafes", "title": "Cafes"}], "review_count": 488, "location": {"city": "New York", "address1": "126 Crosby St", "address3": "", "address2": "", "zip_code": "10012", "country": "US", "display_address": ["126 Crosby St", "New York, NY 10012"], "state": "NY"}, "price": "$", "transactions": [], "display_phone": "(212) 334-3324"}, {"rating": 5.0, "is_closed": false, "distance": 1697.069468618, "name": "Livenrich", "id": "livenrich-new-york", "image_url": "https://s3-media1.fl.yelpcdn.com/bphoto/J_yHqA2duWHdmH5Y8jAYBw/o.jpg", "url": "https://www.yelp.com/biz/livenrich-new-york?adjust_creative=gBcvfFpabk3CnzmXKdYe3w&utm_campaign=yelp_api_v3&utm_medium=api_v3_business_search&utm_source=gBcvfFpabk3CnzmXKdYe3w", "phone": "+12126021388", "coordinates": {"longitude": -74.014077, "latitude": 40.70828}, "categories": [{"alias": "juicebars", "title": "Juice Bars & Smoothies"}, {"alias": "coffee", "title": "Coffee & Tea"}, {"alias": "organic_stores", "title": "Organic Stores"}], "review_count": 25, "location": {"city": "New York", "address1": "99 Washington St", "address3": "", "address2": "", "zip_code": "10006", "country": "US", "display_address": ["99 Washington St", "New York, NY 10006"], "state": "NY"}, "price": "$$", "transactions": ["delivery", "pickup"], "display_phone": "(212) 602-1388"}, {"rating": 5.0, "is_closed": false, "distance": 1137.7995658642, "name": "Off The Bridge", "id": "off-the-bridge-new-york-2", "image_url": "https://s3-media2.fl.yelpcdn.com/bphoto/k3xu1Wgy2UrEvjl31AcclQ/o.jpg", "url": "https://www.yelp.com/biz/off-the-bridge-new-york-2?adjust_creative=gBcvfFpabk3CnzmXKdYe3w&utm_campaign=yelp_api_v3&utm_medium=api_v3_business_search&utm_source=gBcvfFpabk3CnzmXKdYe3w", "phone": "+12127758599", "coordinates": {"longitude": -73.99406, "latitude": 40.71567}, "categories": [{"alias": "coffee", "title": "Coffee & Tea"}, {"alias": "bike_repair_maintenance", "title": "Bike Repair/Maintenance"}], "review_count": 33, "location": {"city": "New York", "address1": "105 Canal St", "address3": "", "address2": null, "zip_code": "10002", "country": "US", "display_address": ["105 Canal St", "New York, NY 10002"], "state": "NY"}, "price": "$", "transactions": [], "display_phone": "(212) 775-8599"}, {"rating": 4.5, "is_closed": false, "distance": 2665.8200501859997, "name": "Fresco Gelateria", "id": "fresco-gelateria-new-york", "image_url": "https://s3-media4.fl.yelpcdn.com/bphoto/3u5EnEBlcaVLpqACsHvb4Q/o.jpg", "url": "https://www.yelp.com/biz/fresco-gelateria-new-york?adjust_creative=gBcvfFpabk3CnzmXKdYe3w&utm_campaign=yelp_api_v3&utm_medium=api_v3_business_search&utm_source=gBcvfFpabk3CnzmXKdYe3w", "phone": "+12126776320", "coordinates": {"longitude": -73.9872518859138, "latitude": 40.7288182060487}, "categories": [{"alias": "gelato", "title": "Gelato"}, {"alias": "coffee", "title": "Coffee & Tea"}, {"alias": "breakfast_brunch", "title": "Breakfast & Brunch"}], "review_count": 378, "location": {"city": "New York", "address1": "138 2nd Ave", "address3": "", "address2": "", "zip_code": "10003", "country": "US", "display_address": ["138 2nd Ave", "New York, NY 10003"], "state": "NY"}, "price": "$", "transactions": ["delivery", "pickup"], "display_phone": "(212) 677-6320"}, {"rating": 4.5, "is_closed": false, "distance": 1999.290484964, "name": "McNally Jackson", "id": "mcnally-jackson-new-york", "image_url": "https://s3-media2.fl.yelpcdn.com/bphoto/mNDnUeHHXdGL1gU0Ah6c0w/o.jpg", "url": "https://www.yelp.com/biz/mcnally-jackson-new-york?adjust_creative=gBcvfFpabk3CnzmXKdYe3w&utm_campaign=yelp_api_v3&utm_medium=api_v3_business_search&utm_source=gBcvfFpabk3CnzmXKdYe3w", "phone": "+12122741160", "coordinates": {"longitude": -73.99598, "latitude": 40.72339}, "categories": [{"alias": "bookstores", "title": "Bookstores"}, {"alias": "coffee", "title": "Coffee & Tea"}, {"alias": "copyshops", "title": "Printing Services"}], "review_count": 379, "location": {"city": "New York", "address1": "52 Prince St", "address3": "", "address2": null, "zip_code": "10012", "country": "US", "display_address": ["52 Prince St", "New York, NY 10012"], "state": "NY"}, "price": "$$", "transactions": [], "display_phone": "(212) 274-1160"}, {"rating": 4.5, "is_closed": false, "distance": 2322.066474592, "name": "Chobani SoHo", "id": "chobani-soho-new-york", "image_url": "https://s3-media3.fl.yelpcdn.com/bphoto/qyyAwEzbql-f2z7lZXFYFg/o.jpg", "url": "https://www.yelp.com/biz/chobani-soho-new-york?adjust_creative=gBcvfFpabk3CnzmXKdYe3w&utm_campaign=yelp_api_v3&utm_medium=api_v3_business_search&utm_source=gBcvfFpabk3CnzmXKdYe3w", "phone": "+12123643970", "coordinates": {"longitude": -74.0010523796082, "latitude": 40.7256895490098}, "categories": [{"alias": "icecream", "title": "Ice Cream & Frozen Yogurt"}, {"alias": "coffee", "title": "Coffee & Tea"}, {"alias": "sandwiches", "title": "Sandwiches"}], "review_count": 517, "location": {"city": "New York", "address1": "152 Prince St", "address3": "", "address2": null, "zip_code": "10012", "country": "US", "display_address": ["152 Prince St", "New York, NY 10012"], "state": "NY"}, "price": "$", "transactions": [], "display_phone": "(212) 364-3970"}, {"rating": 4.5, "is_closed": false, "distance": 1400.58365723, "name": "Cafe Katja", "id": "cafe-katja-new-york", "image_url": "https://s3-media4.fl.yelpcdn.com/bphoto/RXLtt93EJlMEjVwv2Ueczw/o.jpg", "url": "https://www.yelp.com/biz/cafe-katja-new-york?adjust_creative=gBcvfFpabk3CnzmXKdYe3w&utm_campaign=yelp_api_v3&utm_medium=api_v3_business_search&utm_source=gBcvfFpabk3CnzmXKdYe3w", "phone": "+12122199545", "coordinates": {"longitude": -73.990589, "latitude": 40.7177673}, "categories": [{"alias": "pubs", "title": "Pubs"}, {"alias": "german", "title": "German"}, {"alias": "austrian", "title": "Austrian"}], "review_count": 656, "location": {"city": "New York", "address1": "79 Orchard St", "address3": "", "address2": "", "zip_code": "10002", "country": "US", "display_address": ["79 Orchard St", "New York, NY 10002"], "state": "NY"}, "price": "$$", "transactions": [], "display_phone": "(212) 219-9545"}, {"rating": 4.5, "is_closed": false, "distance": 1430.1037325697998, "name": "Simple NYC", "id": "simple-nyc-new-york-3", "image_url": "https://s3-media2.fl.yelpcdn.com/bphoto/JOld1GBLQhFimK3e4PAdTw/o.jpg", "url": "https://www.yelp.com/biz/simple-nyc-new-york-3?adjust_creative=gBcvfFpabk3CnzmXKdYe3w&utm_campaign=yelp_api_v3&utm_medium=api_v3_business_search&utm_source=gBcvfFpabk3CnzmXKdYe3w", "phone": "+16468708292", "coordinates": {"longitude": -73.99223, "latitude": 40.71821}, "categories": [{"alias": "japanese", "title": "Japanese"}, {"alias": "hawaiian", "title": "Hawaiian"}, {"alias": "poke", "title": "Poke"}], "review_count": 188, "location": {"city": "New York", "address1": "109 Eldridge St", "address3": "", "address2": "", "zip_code": "10002", "country": "US", "display_address": ["109 Eldridge St", "New York, NY 10002"], "state": "NY"}, "price": "$$", "transactions": [], "display_phone": "(646) 870-8292"}, {"rating": 5.0, "is_closed": false, "distance": 1825.6092246919998, "name": "RISE Coffee", "id": "rise-coffee-new-york", "image_url": "https://s3-media1.fl.yelpcdn.com/bphoto/BomV0R1pNTm9XyrJHWdj8w/o.jpg", "url": "https://www.yelp.com/biz/rise-coffee-new-york?adjust_creative=gBcvfFpabk3CnzmXKdYe3w&utm_campaign=yelp_api_v3&utm_medium=api_v3_business_search&utm_source=gBcvfFpabk3CnzmXKdYe3w", "phone": "+16468697050", "coordinates": {"longitude": -73.988822, "latitude": 40.721366}, "categories": [{"alias": "coffee", "title": "Coffee & Tea"}], "review_count": 48, "location": {"city": "New York", "address1": "85 Stanton St", "address3": "", "address2": "", "zip_code": "10002", "country": "US", "display_address": ["85 Stanton St", "New York, NY 10002"], "state": "NY"}, "price": "$", "transactions": [], "display_phone": "(646) 869-7050"}, {"rating": 4.5, "is_closed": false, "distance": 1946.7876986719998, "name": "Benson's NYC", "id": "bensons-nyc-new-york", "image_url": "https://s3-media1.fl.yelpcdn.com/bphoto/IRDAMx_lRnwe36Uh0n8ZnA/o.jpg", "url": "https://www.yelp.com/biz/bensons-nyc-new-york?adjust_creative=gBcvfFpabk3CnzmXKdYe3w&utm_campaign=yelp_api_v3&utm_medium=api_v3_business_search&utm_source=gBcvfFpabk3CnzmXKdYe3w", "phone": "+16467915765", "coordinates": {"longitude": -73.9866943, "latitude": 40.7218285}, "categories": [{"alias": "newamerican", "title": "American (New)"}, {"alias": "breakfast_brunch", "title": "Breakfast & Brunch"}, {"alias": "burgers", "title": "Burgers"}], "review_count": 211, "location": {"city": "New York", "address1": "181 Essex St", "address3": "", "address2": null, "zip_code": "10002", "country": "US", "display_address": ["181 Essex St", "New York, NY 10002"], "state": "NY"}, "price": "$$", "transactions": ["pickup"], "display_phone": "(646) 791-5765"}, {"rating": 4.5, "is_closed": false, "distance": 2247.918548102, "name": "bibi", "id": "bibi-new-york", "image_url": "https://s3-media2.fl.yelpcdn.com/bphoto/4Gd7FFTTfexbzIaaW6xDiA/o.jpg", "url": "https://www.yelp.com/biz/bibi-new-york?adjust_creative=gBcvfFpabk3CnzmXKdYe3w&utm_campaign=yelp_api_v3&utm_medium=api_v3_business_search&utm_source=gBcvfFpabk3CnzmXKdYe3w", "phone": "+12126732424", "coordinates": {"longitude": -73.983519, "latitude": 40.723937}, "categories": [{"alias": "wine_bars", "title": "Wine Bars"}], "review_count": 133, "location": {"city": "New York", "address1": "211 E 4th St", "address3": "", "address2": "", "zip_code": "10009", "country": "US", "display_address": ["211 E 4th St", "New York, NY 10009"], "state": "NY"}, "price": "$$", "transactions": [], "display_phone": "(212) 673-2424"}, {"rating": 4.5, "is_closed": false, "distance": 1953.7863964639998, "name": "Gaia Italian Caf\u00e9", "id": "gaia-italian-caf\u00e9-new-york", "image_url": "https://s3-media2.fl.yelpcdn.com/bphoto/vrzyT93evfnbmkQDr2rSqA/o.jpg", "url": "https://www.yelp.com/biz/gaia-italian-caf%C3%A9-new-york?adjust_creative=gBcvfFpabk3CnzmXKdYe3w&utm_campaign=yelp_api_v3&utm_medium=api_v3_business_search&utm_source=gBcvfFpabk3CnzmXKdYe3w", "phone": "+16463503977", "coordinates": {"longitude": -73.985346, "latitude": 40.721653}, "categories": [{"alias": "italian", "title": "Italian"}], "review_count": 789, "location": {"city": "New York", "address1": "251 E Houston St", "address3": "", "address2": "", "zip_code": "10002", "country": "US", "display_address": ["251 E Houston St", "New York, NY 10002"], "state": "NY"}, "price": "$", "transactions": [], "display_phone": "(646) 350-3977"}, {"rating": 5.0, "is_closed": false, "distance": 4199.010426604, "name": "The Blue Light Speak Cheesy", "id": "the-blue-light-speak-cheesy-brooklyn-2", "image_url": "https://s3-media3.fl.yelpcdn.com/bphoto/cRnOjfU1PWmUfl3D1qyXtg/o.jpg", "url": "https://www.yelp.com/biz/the-blue-light-speak-cheesy-brooklyn-2?adjust_creative=gBcvfFpabk3CnzmXKdYe3w&utm_campaign=yelp_api_v3&utm_medium=api_v3_business_search&utm_source=gBcvfFpabk3CnzmXKdYe3w", "phone": "+17145196374", "coordinates": {"longitude": -73.9562161, "latitude": 40.7297972}, "categories": [{"alias": "sandwiches", "title": "Sandwiches"}, {"alias": "breakfast_brunch", "title": "Breakfast & Brunch"}, {"alias": "popuprestaurants", "title": "Pop-Up Restaurants"}], "review_count": 47, "location": {"city": "Brooklyn", "address1": "114 Greenpoint Ave", "address3": "", "address2": null, "zip_code": "11222", "country": "US", "display_address": ["114 Greenpoint Ave", "Brooklyn, NY 11222"], "state": "NY"}, "price": "$", "transactions": [], "display_phone": "(714) 519-6374"}, {"rating": 4.5, "is_closed": false, "distance": 1789.6657423299998, "name": "One World Trade Center", "id": "one-world-trade-center-new-york-4", "image_url": "https://s3-media1.fl.yelpcdn.com/bphoto/a28KdtKLhkUb1ucSE3nfdA/o.jpg", "url": "https://www.yelp.com/biz/one-world-trade-center-new-york-4?adjust_creative=gBcvfFpabk3CnzmXKdYe3w&utm_campaign=yelp_api_v3&utm_medium=api_v3_business_search&utm_source=gBcvfFpabk3CnzmXKdYe3w", "phone": "", "coordinates": {"longitude": -73.9884418, "latitude": 40.692022}, "categories": [{"alias": "landmarks", "title": "Landmarks & Historical Buildings"}, {"alias": "sharedofficespaces", "title": "Shared Office Spaces"}], "review_count": 339, "location": {"city": "New York", "address1": "285 Fulton St", "address3": "", "address2": "", "zip_code": "10007", "country": "US", "display_address": ["285 Fulton St", "New York, NY 10007"], "state": "NY"}, "transactions": [], "display_phone": ""}, {"rating": 4.5, "is_closed": false, "distance": 2825.0827505959996, "name": "Harry & Ida's Meat and Supply", "id": "harry-and-idas-meat-and-supply-new-york", "image_url": "https://s3-media2.fl.yelpcdn.com/bphoto/Ob1yiY7LoMzOqEQJxyAmfw/o.jpg", "url": "https://www.yelp.com/biz/harry-and-idas-meat-and-supply-new-york?adjust_creative=gBcvfFpabk3CnzmXKdYe3w&utm_campaign=yelp_api_v3&utm_medium=api_v3_business_search&utm_source=gBcvfFpabk3CnzmXKdYe3w", "phone": "+16468640967", "coordinates": {"longitude": -73.981689, "latitude": 40.729}, "categories": [{"alias": "sandwiches", "title": "Sandwiches"}, {"alias": "meats", "title": "Meat Shops"}], "review_count": 163, "location": {"city": "New York", "address1": "189 Ave A", "address3": "", "address2": "", "zip_code": "10009", "country": "US", "display_address": ["189 Ave A", "New York, NY 10009"], "state": "NY"}, "price": "$$", "transactions": ["delivery", "pickup"], "display_phone": "(646) 864-0967"}, {"rating": 4.5, "is_closed": false, "distance": 1392.786083062, "name": "Luke's Lobster FiDi", "id": "lukes-lobster-fidi-new-york", "image_url": "https://s3-media2.fl.yelpcdn.com/bphoto/C5NV5lfsLo2nJDkx3Or9ig/o.jpg", "url": "https://www.yelp.com/biz/lukes-lobster-fidi-new-york?adjust_creative=gBcvfFpabk3CnzmXKdYe3w&utm_campaign=yelp_api_v3&utm_medium=api_v3_business_search&utm_source=gBcvfFpabk3CnzmXKdYe3w", "phone": "+12127471700", "coordinates": {"longitude": -74.0107793876969, "latitude": 40.7046213003984}, "categories": [{"alias": "seafood", "title": "Seafood"}], "review_count": 777, "location": {"city": "New York", "address1": "26 S William St", "address3": "", "address2": "", "zip_code": "10004", "country": "US", "display_address": ["26 S William St", "New York, NY 10004"], "state": "NY"}, "price": "$$", "transactions": [], "display_phone": "(212) 747-1700"}, {"rating": 4.5, "is_closed": false, "distance": 1552.193624072, "name": "Petee's Pie Company", "id": "petees-pie-company-new-york", "image_url": "https://s3-media3.fl.yelpcdn.com/bphoto/7dbtLXaLt9kpoqNam-NpKg/o.jpg", "url": "https://www.yelp.com/biz/petees-pie-company-new-york?adjust_creative=gBcvfFpabk3CnzmXKdYe3w&utm_campaign=yelp_api_v3&utm_medium=api_v3_business_search&utm_source=gBcvfFpabk3CnzmXKdYe3w", "phone": "+12129662526", "coordinates": {"longitude": -73.9912822511308, "latitude": 40.7192158508607}, "categories": [{"alias": "bakeries", "title": "Bakeries"}, {"alias": "comfortfood", "title": "Comfort Food"}, {"alias": "coffee", "title": "Coffee & Tea"}], "review_count": 385, "location": {"city": "New York", "address1": "61 Delancey St", "address3": "", "address2": "", "zip_code": "10002", "country": "US", "display_address": ["61 Delancey St", "New York, NY 10002"], "state": "NY"}, "price": "$", "transactions": [], "display_phone": "(212) 966-2526"}, {"rating": 5.0, "is_closed": false, "distance": 2370.7284100399997, "name": "6BC Botanical Garden", "id": "6bc-botanical-garden-new-york-2", "image_url": "https://s3-media4.fl.yelpcdn.com/bphoto/V3ADl7yuJG6ZUl_8tE2j7A/o.jpg", "url": "https://www.yelp.com/biz/6bc-botanical-garden-new-york-2?adjust_creative=gBcvfFpabk3CnzmXKdYe3w&utm_campaign=yelp_api_v3&utm_medium=api_v3_business_search&utm_source=gBcvfFpabk3CnzmXKdYe3w", "phone": "", "coordinates": {"longitude": -73.980687, "latitude": 40.724105}, "categories": [{"alias": "parks", "title": "Parks"}, {"alias": "gardens", "title": "Botanical Gardens"}], "review_count": 24, "location": {"city": "New York", "address1": "622 6th St", "address3": "", "address2": "", "zip_code": "10009", "country": "US", "display_address": ["622 6th St", "New York, NY 10009"], "state": "NY"}, "transactions": [], "display_phone": ""}, {"rating": 4.5, "is_closed": false, "distance": 3044.816079638, "name": "Patsys Pizzeria", "id": "patsys-pizzeria-brooklyn-2", "image_url": "https://s3-media3.fl.yelpcdn.com/bphoto/253P93WX8aWHR_zm4YkDeQ/o.jpg", "url": "https://www.yelp.com/biz/patsys-pizzeria-brooklyn-2?adjust_creative=gBcvfFpabk3CnzmXKdYe3w&utm_campaign=yelp_api_v3&utm_medium=api_v3_business_search&utm_source=gBcvfFpabk3CnzmXKdYe3w", "phone": "+17186222268", "coordinates": {"longitude": -73.9762573242188, "latitude": 40.6817474365234}, "categories": [{"alias": "pizza", "title": "Pizza"}, {"alias": "italian", "title": "Italian"}], "review_count": 310, "location": {"city": "Brooklyn", "address1": "450 Dean St", "address3": "", "address2": "", "zip_code": "11217", "country": "US", "display_address": ["450 Dean St", "Brooklyn, NY 11217"], "state": "NY"}, "price": "$$", "transactions": [], "display_phone": "(718) 622-2268"}, {"rating": 4.5, "is_closed": false, "distance": 1338.1788594124, "name": "Breakroom", "id": "breakroom-new-york", "image_url": "https://s3-media1.fl.yelpcdn.com/bphoto/erA6rW1fUVn3VTTXo7PJRA/o.jpg", "url": "https://www.yelp.com/biz/breakroom-new-york?adjust_creative=gBcvfFpabk3CnzmXKdYe3w&utm_campaign=yelp_api_v3&utm_medium=api_v3_business_search&utm_source=gBcvfFpabk3CnzmXKdYe3w", "phone": "+12122272802", "coordinates": {"longitude": -73.9999440120647, "latitude": 40.7166907225542}, "categories": [{"alias": "burgers", "title": "Burgers"}, {"alias": "mexican", "title": "Mexican"}], "review_count": 1132, "location": {"city": "New York", "address1": "83 Baxter St", "address3": "", "address2": "", "zip_code": "10013", "country": "US", "display_address": ["83 Baxter St", "New York, NY 10013"], "state": "NY"}, "price": "$", "transactions": ["delivery", "pickup"], "display_phone": "(212) 227-2802"}, {"rating": 4.5, "is_closed": false, "distance": 2435.865320002, "name": "Governors Island National Monument", "id": "governors-island-national-monument-new-york", "image_url": "https://s3-media2.fl.yelpcdn.com/bphoto/05UGopBhOW0qcwspJzBxnA/o.jpg", "url": "https://www.yelp.com/biz/governors-island-national-monument-new-york?adjust_creative=gBcvfFpabk3CnzmXKdYe3w&utm_campaign=yelp_api_v3&utm_medium=api_v3_business_search&utm_source=gBcvfFpabk3CnzmXKdYe3w", "phone": "+12128253045", "coordinates": {"longitude": -74.0164375305176, "latitude": 40.6913770268785}, "categories": [{"alias": "landmarks", "title": "Landmarks & Historical Buildings"}, {"alias": "parks", "title": "Parks"}], "review_count": 243, "location": {"city": "New York", "address1": "10 S St", "address3": "Slip 7", "address2": "", "zip_code": "10004", "country": "US", "display_address": ["10 S St", "Slip 7", "New York, NY 10004"], "state": "NY"}, "transactions": [], "display_phone": "(212) 825-3045"}, {"rating": 4.5, "is_closed": false, "distance": 2423.97261927, "name": "The Eddy", "id": "the-eddy-new-york", "image_url": "https://s3-media1.fl.yelpcdn.com/bphoto/UCN6r8MJENNvHaVAoVPELQ/o.jpg", "url": "https://www.yelp.com/biz/the-eddy-new-york?adjust_creative=gBcvfFpabk3CnzmXKdYe3w&utm_campaign=yelp_api_v3&utm_medium=api_v3_business_search&utm_source=gBcvfFpabk3CnzmXKdYe3w", "phone": "+16468959884", "coordinates": {"longitude": -73.986646, "latitude": 40.7264594}, "categories": [{"alias": "newamerican", "title": "American (New)"}, {"alias": "cocktailbars", "title": "Cocktail Bars"}, {"alias": "wine_bars", "title": "Wine Bars"}], "review_count": 290, "location": {"city": "New York", "address1": "342 E 6th St", "address3": "", "address2": "", "zip_code": "10003", "country": "US", "display_address": ["342 E 6th St", "New York, NY 10003"], "state": "NY"}, "price": "$$$", "transactions": [], "display_phone": "(646) 895-9884"}, {"rating": 4.5, "is_closed": false, "distance": 1944.5008265319998, "name": "Paloma Rocket", "id": "paloma-rocket-new-york", "image_url": "https://s3-media3.fl.yelpcdn.com/bphoto/CPlrX0PuCTnJBg9GZ_HOmw/o.jpg", "url": "https://www.yelp.com/biz/paloma-rocket-new-york?adjust_creative=gBcvfFpabk3CnzmXKdYe3w&utm_campaign=yelp_api_v3&utm_medium=api_v3_business_search&utm_source=gBcvfFpabk3CnzmXKdYe3w", "phone": "+19172620869", "coordinates": {"longitude": -73.9841888, "latitude": 40.7211556}, "categories": [{"alias": "beerbar", "title": "Beer Bar"}, {"alias": "sportsbars", "title": "Sports Bars"}, {"alias": "pubs", "title": "Pubs"}], "review_count": 64, "location": {"city": "New York", "address1": "7 Clinton St", "address3": "", "address2": "", "zip_code": "10002", "country": "US", "display_address": ["7 Clinton St", "New York, NY 10002"], "state": "NY"}, "price": "$$", "transactions": [], "display_phone": "(917) 262-0869"}, {"rating": 4.5, "is_closed": false, "distance": 664.9587528216, "name": "Fishmarket Restaurant", "id": "fishmarket-restaurant-new-york", "image_url": "https://s3-media1.fl.yelpcdn.com/bphoto/BxY50B6ntFYQa8COuI1Fog/o.jpg", "url": "https://www.yelp.com/biz/fishmarket-restaurant-new-york?adjust_creative=gBcvfFpabk3CnzmXKdYe3w&utm_campaign=yelp_api_v3&utm_medium=api_v3_business_search&utm_source=gBcvfFpabk3CnzmXKdYe3w", "phone": "+19173638101", "coordinates": {"longitude": -74.00192, "latitude": 40.70717}, "categories": [{"alias": "seafood", "title": "Seafood"}, {"alias": "chinese", "title": "Chinese"}, {"alias": "asianfusion", "title": "Asian Fusion"}], "review_count": 323, "location": {"city": "New York", "address1": "111 South St", "address3": "", "address2": "", "zip_code": "10038", "country": "US", "display_address": ["111 South St", "New York, NY 10038"], "state": "NY"}, "price": "$$", "transactions": [], "display_phone": "(917) 363-8101"}, {"rating": 4.5, "is_closed": false, "distance": 4132.198193702, "name": "Bombay Grill", "id": "bombay-grill-brooklyn-5", "image_url": "https://s3-media1.fl.yelpcdn.com/bphoto/1lR8wkXSN0WqhnbQ4_dGKA/o.jpg", "url": "https://www.yelp.com/biz/bombay-grill-brooklyn-5?adjust_creative=gBcvfFpabk3CnzmXKdYe3w&utm_campaign=yelp_api_v3&utm_medium=api_v3_business_search&utm_source=gBcvfFpabk3CnzmXKdYe3w", "phone": "+17184840004", "coordinates": {"longitude": -73.9541799, "latitude": 40.6839}, "categories": [{"alias": "indpak", "title": "Indian"}], "review_count": 142, "location": {"city": "Brooklyn", "address1": "1176 Bedford Ave", "address3": "", "address2": "", "zip_code": "11216", "country": "US", "display_address": ["1176 Bedford Ave", "Brooklyn, NY 11216"], "state": "NY"}, "price": "$$", "transactions": ["delivery", "pickup"], "display_phone": "(718) 484-0004"}, {"rating": 4.5, "is_closed": false, "distance": 3041.624114682, "name": "Traif", "id": "traif-brooklyn", "image_url": "https://s3-media1.fl.yelpcdn.com/bphoto/vU65FogGLV9e7OkGTQsRLw/o.jpg", "url": "https://www.yelp.com/biz/traif-brooklyn?adjust_creative=gBcvfFpabk3CnzmXKdYe3w&utm_campaign=yelp_api_v3&utm_medium=api_v3_business_search&utm_source=gBcvfFpabk3CnzmXKdYe3w", "phone": "+13478449578", "coordinates": {"longitude": -73.958872, "latitude": 40.710658}, "categories": [{"alias": "newamerican", "title": "American (New)"}, {"alias": "tapasmallplates", "title": "Tapas/Small Plates"}], "review_count": 1656, "location": {"city": "Brooklyn", "address1": "229 S 4th St", "address3": "", "address2": "", "zip_code": "11211", "country": "US", "display_address": ["229 S 4th St", "Brooklyn, NY 11211"], "state": "NY"}, "price": "$$$", "transactions": [], "display_phone": "(347) 844-9578"}, {"rating": 4.5, "is_closed": false, "distance": 1002.9871979259999, "name": "12 Corners", "id": "12-corners-new-york", "image_url": "https://s3-media2.fl.yelpcdn.com/bphoto/ZGPCUUViDTKmHtcAbsQAXg/o.jpg", "url": "https://www.yelp.com/biz/12-corners-new-york?adjust_creative=gBcvfFpabk3CnzmXKdYe3w&utm_campaign=yelp_api_v3&utm_medium=api_v3_business_search&utm_source=gBcvfFpabk3CnzmXKdYe3w", "phone": "+12126258888", "coordinates": {"longitude": -73.9903806, "latitude": 40.7139624}, "categories": [{"alias": "coffee", "title": "Coffee & Tea"}], "review_count": 283, "location": {"city": "New York", "address1": "155 E Broadway", "address3": "", "address2": "", "zip_code": "10002", "country": "US", "display_address": ["155 E Broadway", "New York, NY 10002"], "state": "NY"}, "price": "$", "transactions": [], "display_phone": "(212) 625-8888"}, {"rating": 4.5, "is_closed": false, "distance": 2960.5676134399996, "name": "BeeHive Oven Biscuit Cafe", "id": "beehive-oven-biscuit-cafe-brooklyn", "image_url": "https://s3-media1.fl.yelpcdn.com/bphoto/Wke-gXHrlOR01qdo-jDKrQ/o.jpg", "url": "https://www.yelp.com/biz/beehive-oven-biscuit-cafe-brooklyn?adjust_creative=gBcvfFpabk3CnzmXKdYe3w&utm_campaign=yelp_api_v3&utm_medium=api_v3_business_search&utm_source=gBcvfFpabk3CnzmXKdYe3w", "phone": "+13479874960", "coordinates": {"longitude": -73.9604523, "latitude": 40.7125678}, "categories": [{"alias": "southern", "title": "Southern"}, {"alias": "cajun", "title": "Cajun/Creole"}, {"alias": "breakfast_brunch", "title": "Breakfast & Brunch"}], "review_count": 520, "location": {"city": "Brooklyn", "address1": "182 S 2nd St", "address3": "", "address2": "", "zip_code": "11211", "country": "US", "display_address": ["182 S 2nd St", "Brooklyn, NY 11211"], "state": "NY"}, "price": "$$", "transactions": [], "display_phone": "(347) 987-4960"}, {"rating": 4.5, "is_closed": false, "distance": 2406.99730095, "name": "The Greek", "id": "the-greek-new-york", "image_url": "https://s3-media4.fl.yelpcdn.com/bphoto/i1RZvA0FL9VlGGQMTn4KnQ/o.jpg", "url": "https://www.yelp.com/biz/the-greek-new-york?adjust_creative=gBcvfFpabk3CnzmXKdYe3w&utm_campaign=yelp_api_v3&utm_medium=api_v3_business_search&utm_source=gBcvfFpabk3CnzmXKdYe3w", "phone": "+16464763941", "coordinates": {"longitude": -74.0096166, "latitude": 40.7237145}, "categories": [{"alias": "greek", "title": "Greek"}, {"alias": "mediterranean", "title": "Mediterranean"}, {"alias": "cocktailbars", "title": "Cocktail Bars"}], "review_count": 353, "location": {"city": "New York", "address1": "458 Greenwich St", "address3": "", "address2": "", "zip_code": "10013", "country": "US", "display_address": ["458 Greenwich St", "New York, NY 10013"], "state": "NY"}, "price": "$$$", "transactions": ["delivery", "pickup"], "display_phone": "(646) 476-3941"}, {"rating": 4.5, "is_closed": false, "distance": 3416.4160652519995, "name": "El Mate", "id": "el-mate-brooklyn", "image_url": "https://s3-media2.fl.yelpcdn.com/bphoto/3q1Xt67rYZFvAsl5tA9xOg/o.jpg", "url": "https://www.yelp.com/biz/el-mate-brooklyn?adjust_creative=gBcvfFpabk3CnzmXKdYe3w&utm_campaign=yelp_api_v3&utm_medium=api_v3_business_search&utm_source=gBcvfFpabk3CnzmXKdYe3w", "phone": "+17182221102", "coordinates": {"longitude": -73.9995224876405, "latitude": 40.6749782203506}, "categories": [{"alias": "brazilian", "title": "Brazilian"}, {"alias": "argentine", "title": "Argentine"}, {"alias": "steak", "title": "Steakhouses"}], "review_count": 157, "location": {"city": "Brooklyn", "address1": "550 Court St", "address3": "", "address2": "", "zip_code": "11231", "country": "US", "display_address": ["550 Court St", "Brooklyn, NY 11231"], "state": "NY"}, "price": "$$", "transactions": ["pickup"], "display_phone": "(718) 222-1102"}, {"rating": 4.5, "is_closed": false, "distance": 1941.771224958, "name": "The MasalaWala", "id": "the-masalawala-new-york-2", "image_url": "https://s3-media3.fl.yelpcdn.com/bphoto/CyQNJnhPb8OSO85iYXWmlQ/o.jpg", "url": "https://www.yelp.com/biz/the-masalawala-new-york-2?adjust_creative=gBcvfFpabk3CnzmXKdYe3w&utm_campaign=yelp_api_v3&utm_medium=api_v3_business_search&utm_source=gBcvfFpabk3CnzmXKdYe3w", "phone": "+12123589300", "coordinates": {"longitude": -73.986663, "latitude": 40.721923}, "categories": [{"alias": "indpak", "title": "Indian"}, {"alias": "pakistani", "title": "Pakistani"}], "review_count": 916, "location": {"city": "New York", "address1": "179 Essex St", "address3": "", "address2": "", "zip_code": "10002", "country": "US", "display_address": ["179 Essex St", "New York, NY 10002"], "state": "NY"}, "price": "$$", "transactions": ["delivery", "pickup"], "display_phone": "(212) 358-9300"}, {"rating": 4.5, "is_closed": false, "distance": 1742.63519484, "name": "Parisi Bakery", "id": "parisi-bakery-new-york", "image_url": "https://s3-media3.fl.yelpcdn.com/bphoto/_wKcjaaCs0z5Hb-b5wZEZw/o.jpg", "url": "https://www.yelp.com/biz/parisi-bakery-new-york?adjust_creative=gBcvfFpabk3CnzmXKdYe3w&utm_campaign=yelp_api_v3&utm_medium=api_v3_business_search&utm_source=gBcvfFpabk3CnzmXKdYe3w", "phone": "+12122266378", "coordinates": {"longitude": -73.9954365, "latitude": 40.7211836}, "categories": [{"alias": "bakeries", "title": "Bakeries"}, {"alias": "sandwiches", "title": "Sandwiches"}], "review_count": 323, "location": {"city": "New York", "address1": "198 Mott St", "address3": "", "address2": "", "zip_code": "10012", "country": "US", "display_address": ["198 Mott St", "New York, NY 10012"], "state": "NY"}, "price": "$", "transactions": [], "display_phone": "(212) 226-6378"}, {"rating": 5.0, "is_closed": false, "distance": 4057.272151322, "name": "Mission Ceviche", "id": "mission-ceviche-new-york", "image_url": "https://s3-media2.fl.yelpcdn.com/bphoto/p045OeiL1gEJokK-thJhLw/o.jpg", "url": "https://www.yelp.com/biz/mission-ceviche-new-york?adjust_creative=gBcvfFpabk3CnzmXKdYe3w&utm_campaign=yelp_api_v3&utm_medium=api_v3_business_search&utm_source=gBcvfFpabk3CnzmXKdYe3w", "phone": "+13478216359", "coordinates": {"longitude": -74.004628, "latitude": 40.74108}, "categories": [{"alias": "seafood", "title": "Seafood"}, {"alias": "foodstands", "title": "Food Stands"}, {"alias": "peruvian", "title": "Peruvian"}], "review_count": 64, "location": {"city": "New York", "address1": "353 W 14th St", "address3": "", "address2": "", "zip_code": "10014", "country": "US", "display_address": ["353 W 14th St", "New York, NY 10014"], "state": "NY"}, "price": "$$", "transactions": ["pickup"], "display_phone": "(347) 821-6359"}, {"rating": 4.5, "is_closed": false, "distance": 3497.498798736, "name": "Pates Et Traditions", "id": "pates-et-traditions-brooklyn", "image_url": "https://s3-media3.fl.yelpcdn.com/bphoto/sLrK7b4eIKt0WCp3jxJT5g/o.jpg", "url": "https://www.yelp.com/biz/pates-et-traditions-brooklyn?adjust_creative=gBcvfFpabk3CnzmXKdYe3w&utm_campaign=yelp_api_v3&utm_medium=api_v3_business_search&utm_source=gBcvfFpabk3CnzmXKdYe3w", "phone": "+17183021878", "coordinates": {"longitude": -73.95474, "latitude": 40.71491}, "categories": [{"alias": "french", "title": "French"}, {"alias": "desserts", "title": "Desserts"}], "review_count": 690, "location": {"city": "Brooklyn", "address1": "52 Havemeyer St", "address3": "", "address2": "", "zip_code": "11211", "country": "US", "display_address": ["52 Havemeyer St", "Brooklyn, NY 11211"], "state": "NY"}, "price": "$$", "transactions": [], "display_phone": "(718) 302-1878"}, {"rating": 4.5, "is_closed": false, "distance": 3272.032195944, "name": "L'Artusi", "id": "l-artusi-new-york", "image_url": "https://s3-media1.fl.yelpcdn.com/bphoto/xrR-LIfmC0r4ej7F5uFhdA/o.jpg", "url": "https://www.yelp.com/biz/l-artusi-new-york?adjust_creative=gBcvfFpabk3CnzmXKdYe3w&utm_campaign=yelp_api_v3&utm_medium=api_v3_business_search&utm_source=gBcvfFpabk3CnzmXKdYe3w", "phone": "+12122555757", "coordinates": {"longitude": -74.005068, "latitude": 40.733714}, "categories": [{"alias": "italian", "title": "Italian"}], "review_count": 1262, "location": {"city": "New York", "address1": "228 W 10th St", "address3": "", "address2": "", "zip_code": "10014", "country": "US", "display_address": ["228 W 10th St", "New York, NY 10014"], "state": "NY"}, "price": "$$$", "transactions": [], "display_phone": "(212) 255-5757"}, {"rating": 4.5, "is_closed": false, "distance": 3998.969464604, "name": "Flatiron Building", "id": "flatiron-building-new-york-2", "image_url": "https://s3-media2.fl.yelpcdn.com/bphoto/bq1wnHaptYLXuwQIRLpL0w/o.jpg", "url": "https://www.yelp.com/biz/flatiron-building-new-york-2?adjust_creative=gBcvfFpabk3CnzmXKdYe3w&utm_campaign=yelp_api_v3&utm_medium=api_v3_business_search&utm_source=gBcvfFpabk3CnzmXKdYe3w", "phone": "", "coordinates": {"longitude": -73.9895794188884, "latitude": 40.7412290453689}, "categories": [{"alias": "landmarks", "title": "Landmarks & Historical Buildings"}], "review_count": 139, "location": {"city": "New York", "address1": "175 5th Ave", "address3": "", "address2": "", "zip_code": "10010", "country": "US", "display_address": ["175 5th Ave", "New York, NY 10010"], "state": "NY"}, "transactions": ["delivery", "pickup"], "display_phone": ""}, {"rating": 4.5, "is_closed": false, "distance": 1654.9195665459997, "name": "Greecologies", "id": "greecologies-new-york", "image_url": "https://s3-media1.fl.yelpcdn.com/bphoto/njhzjtniy-1SBDQts1j1ZQ/o.jpg", "url": "https://www.yelp.com/biz/greecologies-new-york?adjust_creative=gBcvfFpabk3CnzmXKdYe3w&utm_campaign=yelp_api_v3&utm_medium=api_v3_business_search&utm_source=gBcvfFpabk3CnzmXKdYe3w", "phone": "+12129410100", "coordinates": {"longitude": -73.9964868578209, "latitude": 40.7202330882667}, "categories": [{"alias": "juicebars", "title": "Juice Bars & Smoothies"}, {"alias": "icecream", "title": "Ice Cream & Frozen Yogurt"}, {"alias": "greek", "title": "Greek"}], "review_count": 262, "location": {"city": "New York", "address1": "379 Broome St", "address3": "", "address2": "", "zip_code": "10013", "country": "US", "display_address": ["379 Broome St", "New York, NY 10013"], "state": "NY"}, "price": "$$", "transactions": ["delivery", "pickup"], "display_phone": "(212) 941-0100"}, {"rating": 4.5, "is_closed": false, "distance": 3299.60002921, "name": "Cafe Mogador", "id": "cafe-mogador-brooklyn", "image_url": "https://s3-media2.fl.yelpcdn.com/bphoto/vKOnSpZPeLG2Nk7URi1CAw/o.jpg", "url": "https://www.yelp.com/biz/cafe-mogador-brooklyn?adjust_creative=gBcvfFpabk3CnzmXKdYe3w&utm_campaign=yelp_api_v3&utm_medium=api_v3_business_search&utm_source=gBcvfFpabk3CnzmXKdYe3w", "phone": "+17184869222", "coordinates": {"longitude": -73.959993, "latitude": 40.719747}, "categories": [{"alias": "moroccan", "title": "Moroccan"}, {"alias": "mideastern", "title": "Middle Eastern"}], "review_count": 773, "location": {"city": "Brooklyn", "address1": "133 Wythe Ave", "address3": "", "address2": "", "zip_code": "11211", "country": "US", "display_address": ["133 Wythe Ave", "Brooklyn, NY 11211"], "state": "NY"}, "price": "$$", "transactions": [], "display_phone": "(718) 486-9222"}, {"rating": 4.5, "is_closed": false, "distance": 2427.891523104, "name": "Raku", "id": "raku-new-york-4", "image_url": "https://s3-media2.fl.yelpcdn.com/bphoto/Us_0LyJdWvmox8hBob88-A/o.jpg", "url": "https://www.yelp.com/biz/raku-new-york-4?adjust_creative=gBcvfFpabk3CnzmXKdYe3w&utm_campaign=yelp_api_v3&utm_medium=api_v3_business_search&utm_source=gBcvfFpabk3CnzmXKdYe3w", "phone": "+12122281324", "coordinates": {"longitude": -73.9866526052356, "latitude": 40.7264988089246}, "categories": [{"alias": "japanese", "title": "Japanese"}, {"alias": "noodles", "title": "Noodles"}], "review_count": 406, "location": {"city": "New York", "address1": "342 E 6th St", "address3": "", "address2": "", "zip_code": "10003", "country": "US", "display_address": ["342 E 6th St", "New York, NY 10003"], "state": "NY"}, "price": "$$", "transactions": [], "display_phone": "(212) 228-1324"}, {"rating": 4.5, "is_closed": false, "distance": 2074.057524552, "name": "La Colombe Coffee", "id": "la-colombe-coffee-new-york-2", "image_url": "https://s3-media2.fl.yelpcdn.com/bphoto/h2uyvOZ3dCMhdxUC_2oeig/o.jpg", "url": "https://www.yelp.com/biz/la-colombe-coffee-new-york-2?adjust_creative=gBcvfFpabk3CnzmXKdYe3w&utm_campaign=yelp_api_v3&utm_medium=api_v3_business_search&utm_source=gBcvfFpabk3CnzmXKdYe3w", "phone": "+12126251717", "coordinates": {"longitude": -73.99643, "latitude": 40.72396}, "categories": [{"alias": "coffee", "title": "Coffee & Tea"}], "review_count": 561, "location": {"city": "New York", "address1": "270 Lafayette St", "address3": "", "address2": "", "zip_code": "10012", "country": "US", "display_address": ["270 Lafayette St", "New York, NY 10012"], "state": "NY"}, "price": "$$", "transactions": [], "display_phone": "(212) 625-1717"}]}