{"total": 131352, "region": {"center": {"longitude": -73.99429321289062, "latitude": 40.70544486444615}}, "businesses": [{"rating": 4.5, "is_closed": false, "distance": 2367.4569436879997, "name": "No Ho Juice Bar & Deli", "id": "no-ho-juice-bar-and-deli-new-york", "image_url": "https://s3-media2.fl.yelpcdn.com/bphoto/MGAJg2XZC8MrcFasukRnkQ/o.jpg", "url": "https://www.yelp.com/biz/no-ho-juice-bar-and-deli-new-york?adjust_creative=gBcvfFpabk3CnzmXKdYe3w&utm_campaign=yelp_api_v3&utm_medium=api_v3_business_search&utm_source=gBcvfFpabk3CnzmXKdYe3w", "phone": "+12127775070", "coordinates": {"longitude": -73.9968021, "latitude": 40.7266505}, "categories": [{"alias": "delis", "title": "Delis"}, {"alias": "juicebars", "title": "Juice Bars & Smoothies"}], "review_count": 105, "location": {"city": "New York", "address1": "208 Mercer St", "address3": "", "address2": "", "zip_code": "10012", "country": "US", "display_address": ["208 Mercer St", "New York, NY 10012"], "state": "NY"}, "price": "$", "transactions": [], "display_phone": "(212) 777-5070"}, {"rating": 4.0, "is_closed": false, "distance": 4328.41166238, "name": "Doughnut Plant", "id": "doughnut-plant-new-york-2", "image_url": "https://s3-media4.fl.yelpcdn.com/bphoto/_NU6Aty0PdFOoZ4Dg48rFA/o.jpg", "url": "https://www.yelp.com/biz/doughnut-plant-new-york-2?adjust_creative=gBcvfFpabk3CnzmXKdYe3w&utm_campaign=yelp_api_v3&utm_medium=api_v3_business_search&utm_source=gBcvfFpabk3CnzmXKdYe3w", "phone": "+12125053700", "coordinates": {"longitude": -73.9969177, "latitude": 40.7444916}, "categories": [{"alias": "donuts", "title": "Donuts"}, {"alias": "coffee", "title": "Coffee & Tea"}], "review_count": 2007, "location": {"city": "New York", "address1": "220 W 23rd St", "address3": "", "address2": "", "zip_code": "10011", "country": "US", "display_address": ["220 W 23rd St", "New York, NY 10011"], "state": "NY"}, "price": "$$", "transactions": [], "display_phone": "(212) 505-3700"}, {"rating": 4.5, "is_closed": false, "distance": 2821.993461532, "name": "Pokito", "id": "pokito-brooklyn-2", "image_url": "https://s3-media3.fl.yelpcdn.com/bphoto/QtwSopKsMvTWk6ZgABu2Pg/o.jpg", "url": "https://www.yelp.com/biz/pokito-brooklyn-2?adjust_creative=gBcvfFpabk3CnzmXKdYe3w&utm_campaign=yelp_api_v3&utm_medium=api_v3_business_search&utm_source=gBcvfFpabk3CnzmXKdYe3w", "phone": "+19179091542", "coordinates": {"longitude": -73.96184, "latitude": 40.71162}, "categories": [{"alias": "bars", "title": "Bars"}, {"alias": "asianfusion", "title": "Asian Fusion"}, {"alias": "newamerican", "title": "American (New)"}], "review_count": 65, "location": {"city": "Brooklyn", "address1": "155 S 4th St", "address3": "", "address2": null, "zip_code": "11211", "country": "US", "display_address": ["155 S 4th St", "Brooklyn, NY 11211"], "state": "NY"}, "price": "$$", "transactions": [], "display_phone": "(917) 909-1542"}, {"rating": 4.0, "is_closed": false, "distance": 2392.9749605959996, "name": "Blue Ribbon Sushi", "id": "blue-ribbon-sushi-new-york", "image_url": "https://s3-media1.fl.yelpcdn.com/bphoto/6bk6zUsStnqWiAbPBcCcjA/o.jpg", "url": "https://www.yelp.com/biz/blue-ribbon-sushi-new-york?adjust_creative=gBcvfFpabk3CnzmXKdYe3w&utm_campaign=yelp_api_v3&utm_medium=api_v3_business_search&utm_source=gBcvfFpabk3CnzmXKdYe3w", "phone": "+12123430404", "coordinates": {"longitude": -74.0024, "latitude": 40.7260599}, "categories": [{"alias": "sushi", "title": "Sushi Bars"}, {"alias": "japanese", "title": "Japanese"}], "review_count": 888, "location": {"city": "New York", "address1": "119 Sullivan St", "address3": "", "address2": "", "zip_code": "10012", "country": "US", "display_address": ["119 Sullivan St", "New York, NY 10012"], "state": "NY"}, "price": "$$$", "transactions": [], "display_phone": "(212) 343-0404"}, {"rating": 4.0, "is_closed": false, "distance": 3586.231690844, "name": "Flex Mussels", "id": "flex-mussels-new-york-2", "image_url": "https://s3-media1.fl.yelpcdn.com/bphoto/UIcbKDdQpZCR971aTCOvQw/o.jpg", "url": "https://www.yelp.com/biz/flex-mussels-new-york-2?adjust_creative=gBcvfFpabk3CnzmXKdYe3w&utm_campaign=yelp_api_v3&utm_medium=api_v3_business_search&utm_source=gBcvfFpabk3CnzmXKdYe3w", "phone": "+12122290222", "coordinates": {"longitude": -73.999661, "latitude": 40.737437}, "categories": [{"alias": "seafood", "title": "Seafood"}, {"alias": "bars", "title": "Bars"}], "review_count": 695, "location": {"city": "New York", "address1": "154 W 13th St", "address3": "", "address2": "", "zip_code": "10011", "country": "US", "display_address": ["154 W 13th St", "New York, NY 10011"], "state": "NY"}, "price": "$$$", "transactions": [], "display_phone": "(212) 229-0222"}, {"rating": 4.5, "is_closed": false, "distance": 7161.946022919999, "name": "Jean-Georges", "id": "jean-georges-new-york", "image_url": "https://s3-media1.fl.yelpcdn.com/bphoto/iaGpNeGJMFrBIm0WyKE8oA/o.jpg", "url": "https://www.yelp.com/biz/jean-georges-new-york?adjust_creative=gBcvfFpabk3CnzmXKdYe3w&utm_campaign=yelp_api_v3&utm_medium=api_v3_business_search&utm_source=gBcvfFpabk3CnzmXKdYe3w", "phone": "+12122993900", "coordinates": {"longitude": -73.9814290717583, "latitude": 40.7691122743293}, "categories": [{"alias": "french", "title": "French"}], "review_count": 1544, "location": {"city": "New York", "address1": "1 Central Park W", "address3": "", "address2": "", "zip_code": "10023", "country": "US", "display_address": ["1 Central Park W", "New York, NY 10023"], "state": "NY"}, "price": "$$$$", "transactions": [], "display_phone": "(212) 299-3900"}, {"rating": 4.5, "is_closed": false, "distance": 5039.060318098, "name": "Trademark Taste & Grind", "id": "trademark-taste-and-grind-new-york", "image_url": "https://s3-media2.fl.yelpcdn.com/bphoto/S9ZQlCujXht2H9klX8jALg/o.jpg", "url": "https://www.yelp.com/biz/trademark-taste-and-grind-new-york?adjust_creative=gBcvfFpabk3CnzmXKdYe3w&utm_campaign=yelp_api_v3&utm_medium=api_v3_business_search&utm_source=gBcvfFpabk3CnzmXKdYe3w", "phone": "+16468582320", "coordinates": {"longitude": -73.9854583740234, "latitude": 40.7502555847168}, "categories": [{"alias": "bars", "title": "Bars"}, {"alias": "newamerican", "title": "American (New)"}, {"alias": "venues", "title": "Venues & Event Spaces"}], "review_count": 180, "location": {"city": "New York", "address1": "38 W 36th St", "address3": "", "address2": null, "zip_code": "10018", "country": "US", "display_address": ["38 W 36th St", "New York, NY 10018"], "state": "NY"}, "price": "$$", "transactions": [], "display_phone": "(646) 858-2320"}, {"rating": 4.0, "is_closed": false, "distance": 2910.937016246, "name": "Pata Negra", "id": "pata-negra-new-york", "image_url": "https://s3-media4.fl.yelpcdn.com/bphoto/DPSevcWfUZ6HYSGEbHwChw/o.jpg", "url": "https://www.yelp.com/biz/pata-negra-new-york?adjust_creative=gBcvfFpabk3CnzmXKdYe3w&utm_campaign=yelp_api_v3&utm_medium=api_v3_business_search&utm_source=gBcvfFpabk3CnzmXKdYe3w", "phone": "+12122281696", "coordinates": {"longitude": -73.98394, "latitude": 40.730438}, "categories": [{"alias": "tapas", "title": "Tapas Bars"}, {"alias": "wine_bars", "title": "Wine Bars"}, {"alias": "spanish", "title": "Spanish"}], "review_count": 342, "location": {"city": "New York", "address1": "345 E 12th St", "address3": "", "address2": "", "zip_code": "10003", "country": "US", "display_address": ["345 E 12th St", "New York, NY 10003"], "state": "NY"}, "price": "$$", "transactions": [], "display_phone": "(212) 228-1696"}, {"rating": 5.0, "is_closed": false, "distance": 2187.502797964, "name": "Teardrop Park", "id": "teardrop-park-new-york", "image_url": "https://s3-media3.fl.yelpcdn.com/bphoto/zvMSIWlDrv6-uBWblc4ojg/o.jpg", "url": "https://www.yelp.com/biz/teardrop-park-new-york?adjust_creative=gBcvfFpabk3CnzmXKdYe3w&utm_campaign=yelp_api_v3&utm_medium=api_v3_business_search&utm_source=gBcvfFpabk3CnzmXKdYe3w", "phone": "+12122679700", "coordinates": {"longitude": -74.0156435966492, "latitude": 40.7166312645682}, "categories": [{"alias": "parks", "title": "Parks"}], "review_count": 20, "location": {"city": "New York", "address1": "Warren St", "address3": "", "address2": "", "zip_code": "10005", "country": "US", "display_address": ["Warren St", "New York, NY 10005"], "state": "NY"}, "transactions": [], "display_phone": "(212) 267-9700"}, {"rating": 4.0, "is_closed": false, "distance": 2726.167725242, "name": "Graffiti Food & Wine Bar", "id": "graffiti-food-and-wine-bar-new-york", "image_url": "https://s3-media3.fl.yelpcdn.com/bphoto/6XwACWq4T6F2MVnrCCaAsg/o.jpg", "url": "https://www.yelp.com/biz/graffiti-food-and-wine-bar-new-york?adjust_creative=gBcvfFpabk3CnzmXKdYe3w&utm_campaign=yelp_api_v3&utm_medium=api_v3_business_search&utm_source=gBcvfFpabk3CnzmXKdYe3w", "phone": "+12126770695", "coordinates": {"longitude": -73.985641, "latitude": 40.729049}, "categories": [{"alias": "newamerican", "title": "American (New)"}, {"alias": "wine_bars", "title": "Wine Bars"}, {"alias": "vegetarian", "title": "Vegetarian"}], "review_count": 476, "location": {"city": "New York", "address1": "224 E 10th St", "address3": "", "address2": "", "zip_code": "10003", "country": "US", "display_address": ["224 E 10th St", "New York, NY 10003"], "state": "NY"}, "price": "$$$", "transactions": [], "display_phone": "(212) 677-0695"}, {"rating": 4.0, "is_closed": false, "distance": 4566.739144848, "name": "Dun-Well Doughnuts", "id": "dun-well-doughnuts-brooklyn", "image_url": "https://s3-media3.fl.yelpcdn.com/bphoto/fqhSaqxhaK4hvgQ78AEzuA/o.jpg", "url": "https://www.yelp.com/biz/dun-well-doughnuts-brooklyn?adjust_creative=gBcvfFpabk3CnzmXKdYe3w&utm_campaign=yelp_api_v3&utm_medium=api_v3_business_search&utm_source=gBcvfFpabk3CnzmXKdYe3w", "phone": "+13472940871", "coordinates": {"longitude": -73.940202, "latitude": 40.707743}, "categories": [{"alias": "donuts", "title": "Donuts"}, {"alias": "coffee", "title": "Coffee & Tea"}], "review_count": 664, "location": {"city": "Brooklyn", "address1": "222 Montrose Ave", "address3": "", "address2": null, "zip_code": "11206", "country": "US", "display_address": ["222 Montrose Ave", "Brooklyn, NY 11206"], "state": "NY"}, "price": "$", "transactions": [], "display_phone": "(347) 294-0871"}, {"rating": 4.0, "is_closed": false, "distance": 4031.62844496, "name": "Shake Shack", "id": "shake-shack-new-york-2", "image_url": "https://s3-media4.fl.yelpcdn.com/bphoto/UkUmY3BkzfVaHuCotIJzew/o.jpg", "url": "https://www.yelp.com/biz/shake-shack-new-york-2?adjust_creative=gBcvfFpabk3CnzmXKdYe3w&utm_campaign=yelp_api_v3&utm_medium=api_v3_business_search&utm_source=gBcvfFpabk3CnzmXKdYe3w", "phone": "+12128896600", "coordinates": {"longitude": -73.98815019045, "latitude": 40.7414000197233}, "categories": [{"alias": "burgers", "title": "Burgers"}, {"alias": "foodstands", "title": "Food Stands"}, {"alias": "icecream", "title": "Ice Cream & Frozen Yogurt"}], "review_count": 5227, "location": {"city": "New York", "address1": "Madison Square Park", "address3": "E 23rd St & Madison Ave", "address2": "", "zip_code": "10010", "country": "US", "display_address": ["Madison Square Park", "E 23rd St & Madison Ave", "New York, NY 10010"], "state": "NY"}, "price": "$$", "transactions": [], "display_phone": "(212) 889-6600"}, {"rating": 4.5, "is_closed": false, "distance": 2892.5800795359996, "name": "Milk and Hops", "id": "milk-and-hops-new-york", "image_url": "https://s3-media4.fl.yelpcdn.com/bphoto/PDqDN_QDNm8hAC5FH2CdYQ/o.jpg", "url": "https://www.yelp.com/biz/milk-and-hops-new-york?adjust_creative=gBcvfFpabk3CnzmXKdYe3w&utm_campaign=yelp_api_v3&utm_medium=api_v3_business_search&utm_source=gBcvfFpabk3CnzmXKdYe3w", "phone": "+12129955588", "coordinates": {"longitude": -73.9916460329074, "latitude": 40.7313816129368}, "categories": [{"alias": "cheese", "title": "Cheese Shops"}, {"alias": "beer_and_wine", "title": "Beer, Wine & Spirits"}, {"alias": "sandwiches", "title": "Sandwiches"}], "review_count": 64, "location": {"city": "New York", "address1": "779 Broadway", "address3": "", "address2": "", "zip_code": "10003", "country": "US", "display_address": ["779 Broadway", "New York, NY 10003"], "state": "NY"}, "price": "$$", "transactions": [], "display_phone": "(212) 995-5588"}, {"rating": 4.0, "is_closed": false, "distance": 3400.0671020600003, "name": "Oasis", "id": "oasis-brooklyn-3", "image_url": "https://s3-media4.fl.yelpcdn.com/bphoto/omSpGwNbNzSqdJHdQapNMw/o.jpg", "url": "https://www.yelp.com/biz/oasis-brooklyn-3?adjust_creative=gBcvfFpabk3CnzmXKdYe3w&utm_campaign=yelp_api_v3&utm_medium=api_v3_business_search&utm_source=gBcvfFpabk3CnzmXKdYe3w", "phone": "+17182187607", "coordinates": {"longitude": -73.9573632606763, "latitude": 40.7177548450764}, "categories": [{"alias": "mideastern", "title": "Middle Eastern"}, {"alias": "falafel", "title": "Falafel"}], "review_count": 506, "location": {"city": "Brooklyn", "address1": "161 N 7th St", "address3": "", "address2": "", "zip_code": "11211", "country": "US", "display_address": ["161 N 7th St", "Brooklyn, NY 11211"], "state": "NY"}, "price": "$", "transactions": [], "display_phone": "(718) 218-7607"}, {"rating": 4.0, "is_closed": false, "distance": 2091.20295011, "name": "MarieBelle", "id": "mariebelle-new-york-3", "image_url": "https://s3-media3.fl.yelpcdn.com/bphoto/5yZJc-3lgyQyVT-1cbQUeg/o.jpg", "url": "https://www.yelp.com/biz/mariebelle-new-york-3?adjust_creative=gBcvfFpabk3CnzmXKdYe3w&utm_campaign=yelp_api_v3&utm_medium=api_v3_business_search&utm_source=gBcvfFpabk3CnzmXKdYe3w", "phone": "+12129256999", "coordinates": {"longitude": -74.0027623, "latitude": 40.7231207}, "categories": [{"alias": "chocolate", "title": "Chocolatiers & Shops"}, {"alias": "coffee", "title": "Coffee & Tea"}], "review_count": 381, "location": {"city": "New York", "address1": "484 Broome St", "address3": "", "address2": "", "zip_code": "10013", "country": "US", "display_address": ["484 Broome St", "New York, NY 10013"], "state": "NY"}, "price": "$$$", "transactions": [], "display_phone": "(212) 925-6999"}, {"rating": 4.5, "is_closed": false, "distance": 1275.439125754, "name": "D Elici", "id": "d-elici-new-york", "image_url": "https://s3-media2.fl.yelpcdn.com/bphoto/EGYZZYh03tbUINEP-9GiOQ/o.jpg", "url": "https://www.yelp.com/biz/d-elici-new-york?adjust_creative=gBcvfFpabk3CnzmXKdYe3w&utm_campaign=yelp_api_v3&utm_medium=api_v3_business_search&utm_source=gBcvfFpabk3CnzmXKdYe3w", "phone": "+12125875740", "coordinates": {"longitude": -74.0083587169647, "latitude": 40.7096665352583}, "categories": [{"alias": "salad", "title": "Salad"}, {"alias": "sandwiches", "title": "Sandwiches"}, {"alias": "breakfast_brunch", "title": "Breakfast & Brunch"}], "review_count": 71, "location": {"city": "New York", "address1": "71 Nassau St", "address3": "", "address2": "", "zip_code": "10038", "country": "US", "display_address": ["71 Nassau St", "New York, NY 10038"], "state": "NY"}, "price": "$", "transactions": ["delivery", "pickup"], "display_phone": "(212) 587-5740"}, {"rating": 4.5, "is_closed": false, "distance": 1379.012224804, "name": "Kam Boat Bakery & Cafe", "id": "kam-boat-bakery-and-cafe-new-york", "image_url": "https://s3-media4.fl.yelpcdn.com/bphoto/OAaeS2wJZMngd2hnP_rvaQ/o.jpg", "url": "https://www.yelp.com/biz/kam-boat-bakery-and-cafe-new-york?adjust_creative=gBcvfFpabk3CnzmXKdYe3w&utm_campaign=yelp_api_v3&utm_medium=api_v3_business_search&utm_source=gBcvfFpabk3CnzmXKdYe3w", "phone": "+12122741822", "coordinates": {"longitude": -73.995106, "latitude": 40.7178308}, "categories": [{"alias": "bakeries", "title": "Bakeries"}, {"alias": "cafes", "title": "Cafes"}], "review_count": 49, "location": {"city": "New York", "address1": "111 Bowery St", "address3": "", "address2": "", "zip_code": "10002", "country": "US", "display_address": ["111 Bowery St", "New York, NY 10002"], "state": "NY"}, "price": "$", "transactions": [], "display_phone": "(212) 274-1822"}, {"rating": 4.0, "is_closed": false, "distance": 2789.8744147459997, "name": "Veniero's Pastry Shop", "id": "venieros-pastry-shop-new-york", "image_url": "https://s3-media1.fl.yelpcdn.com/bphoto/q9M4jSVaITVRXOVFE7-xIg/o.jpg", "url": "https://www.yelp.com/biz/venieros-pastry-shop-new-york?adjust_creative=gBcvfFpabk3CnzmXKdYe3w&utm_campaign=yelp_api_v3&utm_medium=api_v3_business_search&utm_source=gBcvfFpabk3CnzmXKdYe3w", "phone": "+12126747070", "coordinates": {"longitude": -73.98454, "latitude": 40.72941}, "categories": [{"alias": "bakeries", "title": "Bakeries"}, {"alias": "desserts", "title": "Desserts"}, {"alias": "italian", "title": "Italian"}], "review_count": 1615, "location": {"city": "New York", "address1": "342 E 11th St", "address3": "", "address2": "", "zip_code": "10003", "country": "US", "display_address": ["342 E 11th St", "New York, NY 10003"], "state": "NY"}, "price": "$$", "transactions": [], "display_phone": "(212) 674-7070"}, {"rating": 4.0, "is_closed": false, "distance": 4224.184366619999, "name": "Ninth Street Espresso", "id": "ninth-street-espresso-new-york-6", "image_url": "https://s3-media2.fl.yelpcdn.com/bphoto/Rltkga0X3OvRLQeZM-I-aA/o.jpg", "url": "https://www.yelp.com/biz/ninth-street-espresso-new-york-6?adjust_creative=gBcvfFpabk3CnzmXKdYe3w&utm_campaign=yelp_api_v3&utm_medium=api_v3_business_search&utm_source=gBcvfFpabk3CnzmXKdYe3w", "phone": "+12122282930", "coordinates": {"longitude": -74.0060007320855, "latitude": 40.7423824065482}, "categories": [{"alias": "coffee", "title": "Coffee & Tea"}, {"alias": "cafes", "title": "Cafes"}], "review_count": 322, "location": {"city": "New York", "address1": "75 9th Ave", "address3": "", "address2": "", "zip_code": "10011", "country": "US", "display_address": ["75 9th Ave", "New York, NY 10011"], "state": "NY"}, "price": "$", "transactions": [], "display_phone": "(212) 228-2930"}, {"rating": 4.0, "is_closed": false, "distance": 2516.98764325, "name": "Lupa", "id": "lupa-new-york", "image_url": "https://s3-media2.fl.yelpcdn.com/bphoto/PDwjcrbRujUNGlWHEMyICA/o.jpg", "url": "https://www.yelp.com/biz/lupa-new-york?adjust_creative=gBcvfFpabk3CnzmXKdYe3w&utm_campaign=yelp_api_v3&utm_medium=api_v3_business_search&utm_source=gBcvfFpabk3CnzmXKdYe3w", "phone": "+12129825089", "coordinates": {"longitude": -74.00021, "latitude": 40.72765}, "categories": [{"alias": "italian", "title": "Italian"}, {"alias": "newamerican", "title": "American (New)"}], "review_count": 1231, "location": {"city": "New York", "address1": "170 Thompson St", "address3": "", "address2": "", "zip_code": "10012", "country": "US", "display_address": ["170 Thompson St", "New York, NY 10012"], "state": "NY"}, "price": "$$$", "transactions": [], "display_phone": "(212) 982-5089"}, {"rating": 4.0, "is_closed": false, "distance": 2460.473094206, "name": "Ciccio", "id": "ciccio-new-york-2", "image_url": "https://s3-media2.fl.yelpcdn.com/bphoto/TWseYpRcgAvi-LBTJa1-1A/o.jpg", "url": "https://www.yelp.com/biz/ciccio-new-york-2?adjust_creative=gBcvfFpabk3CnzmXKdYe3w&utm_campaign=yelp_api_v3&utm_medium=api_v3_business_search&utm_source=gBcvfFpabk3CnzmXKdYe3w", "phone": "+16464769498", "coordinates": {"longitude": -74.0034497364971, "latitude": 40.7264542403041}, "categories": [{"alias": "italian", "title": "Italian"}, {"alias": "bars", "title": "Bars"}], "review_count": 196, "location": {"city": "New York", "address1": "190 6th Ave", "address3": "", "address2": "", "zip_code": "10012", "country": "US", "display_address": ["190 6th Ave", "New York, NY 10012"], "state": "NY"}, "price": "$$", "transactions": [], "display_phone": "(646) 476-9498"}, {"rating": 4.0, "is_closed": false, "distance": 2680.9180733959997, "name": "Mark", "id": "mark-new-york", "image_url": "https://s3-media1.fl.yelpcdn.com/bphoto/6hzWnmZL8UIHM7dXd_0R3w/o.jpg", "url": "https://www.yelp.com/biz/mark-new-york?adjust_creative=gBcvfFpabk3CnzmXKdYe3w&utm_campaign=yelp_api_v3&utm_medium=api_v3_business_search&utm_source=gBcvfFpabk3CnzmXKdYe3w", "phone": "+12126773132", "coordinates": {"longitude": -73.98809, "latitude": 40.729092}, "categories": [{"alias": "burgers", "title": "Burgers"}], "review_count": 960, "location": {"city": "New York", "address1": "33 St Marks Pl", "address3": "", "address2": "", "zip_code": "10003", "country": "US", "display_address": ["33 St Marks Pl", "New York, NY 10003"], "state": "NY"}, "price": "$", "transactions": ["delivery", "pickup"], "display_phone": "(212) 677-3132"}, {"rating": 4.5, "is_closed": false, "distance": 2394.6555943579997, "name": "Gruppo", "id": "gruppo-new-york", "image_url": "https://s3-media2.fl.yelpcdn.com/bphoto/3mFBOQ-mrs9WUYxgIH62Ag/o.jpg", "url": "https://www.yelp.com/biz/gruppo-new-york?adjust_creative=gBcvfFpabk3CnzmXKdYe3w&utm_campaign=yelp_api_v3&utm_medium=api_v3_business_search&utm_source=gBcvfFpabk3CnzmXKdYe3w", "phone": "+12129952100", "coordinates": {"longitude": -73.9815485, "latitude": 40.7246919}, "categories": [{"alias": "pizza", "title": "Pizza"}], "review_count": 164, "location": {"city": "New York", "address1": "98 Avenue B", "address3": "", "address2": "", "zip_code": "10009", "country": "US", "display_address": ["98 Avenue B", "New York, NY 10009"], "state": "NY"}, "price": "$$", "transactions": ["delivery"], "display_phone": "(212) 995-2100"}, {"rating": 4.0, "is_closed": false, "distance": 3108.3972406219996, "name": "SkyIce Sweet & Savory", "id": "skyice-sweet-and-savory-brooklyn-2", "image_url": "https://s3-media2.fl.yelpcdn.com/bphoto/AvVFpspRm_EdLfFVqS3gwQ/o.jpg", "url": "https://www.yelp.com/biz/skyice-sweet-and-savory-brooklyn-2?adjust_creative=gBcvfFpabk3CnzmXKdYe3w&utm_campaign=yelp_api_v3&utm_medium=api_v3_business_search&utm_source=gBcvfFpabk3CnzmXKdYe3w", "phone": "+17182300910", "coordinates": {"longitude": -73.9772872924805, "latitude": 40.6806411743164}, "categories": [{"alias": "icecream", "title": "Ice Cream & Frozen Yogurt"}, {"alias": "thai", "title": "Thai"}], "review_count": 566, "location": {"city": "Brooklyn", "address1": "63 5th Ave", "address3": "", "address2": "", "zip_code": "11217", "country": "US", "display_address": ["63 5th Ave", "Brooklyn, NY 11217"], "state": "NY"}, "price": "$$", "transactions": ["delivery", "pickup"], "display_phone": "(718) 230-0910"}, {"rating": 4.5, "is_closed": false, "distance": 3990.545535308, "name": "Mahji", "id": "mahji-brooklyn", "image_url": "https://s3-media2.fl.yelpcdn.com/bphoto/JUB20sQ567bhoVoHKCxGIQ/o.jpg", "url": "https://www.yelp.com/biz/mahji-brooklyn?adjust_creative=gBcvfFpabk3CnzmXKdYe3w&utm_campaign=yelp_api_v3&utm_medium=api_v3_business_search&utm_source=gBcvfFpabk3CnzmXKdYe3w", "phone": "+19179091353", "coordinates": {"longitude": -73.9476156974959, "latitude": 40.7114433254982}, "categories": [{"alias": "chicken_wings", "title": "Chicken Wings"}, {"alias": "korean", "title": "Korean"}, {"alias": "cocktailbars", "title": "Cocktail Bars"}], "review_count": 78, "location": {"city": "Brooklyn", "address1": "617 Grand St", "address3": null, "address2": "", "zip_code": "11211", "country": "US", "display_address": ["617 Grand St", "Brooklyn, NY 11211"], "state": "NY"}, "price": "$$", "transactions": [], "display_phone": "(917) 909-1353"}, {"rating": 4.0, "is_closed": false, "distance": 2873.519378444, "name": "Joe's Pizza", "id": "joes-pizza-new-york-4", "image_url": "https://s3-media2.fl.yelpcdn.com/bphoto/FhbFkrh_3TrAOZvoWTyOJA/o.jpg", "url": "https://www.yelp.com/biz/joes-pizza-new-york-4?adjust_creative=gBcvfFpabk3CnzmXKdYe3w&utm_campaign=yelp_api_v3&utm_medium=api_v3_business_search&utm_source=gBcvfFpabk3CnzmXKdYe3w", "phone": "+12123661182", "coordinates": {"longitude": -74.0021299, "latitude": 40.7305599}, "categories": [{"alias": "pizza", "title": "Pizza"}], "review_count": 1521, "location": {"city": "New York", "address1": "7 Carmine St", "address3": "", "address2": "", "zip_code": "10014", "country": "US", "display_address": ["7 Carmine St", "New York, NY 10014"], "state": "NY"}, "price": "$", "transactions": [], "display_phone": "(212) 366-1182"}, {"rating": 4.0, "is_closed": false, "distance": 2597.641648558, "name": "Taqueria St. Marks Place", "id": "taqueria-st-marks-place-new-york", "image_url": "https://s3-media4.fl.yelpcdn.com/bphoto/lwZYPBDlvrgK8eaKZzZpSw/o.jpg", "url": "https://www.yelp.com/biz/taqueria-st-marks-place-new-york?adjust_creative=gBcvfFpabk3CnzmXKdYe3w&utm_campaign=yelp_api_v3&utm_medium=api_v3_business_search&utm_source=gBcvfFpabk3CnzmXKdYe3w", "phone": "+16469645614", "coordinates": {"longitude": -73.9856138085992, "latitude": 40.7278587780221}, "categories": [{"alias": "mexican", "title": "Mexican"}], "review_count": 250, "location": {"city": "New York", "address1": "79 St Marks Pl", "address3": "", "address2": "", "zip_code": "10003", "country": "US", "display_address": ["79 St Marks Pl", "New York, NY 10003"], "state": "NY"}, "price": "$$", "transactions": ["delivery", "pickup"], "display_phone": "(646) 964-5614"}, {"rating": 4.0, "is_closed": false, "distance": 1543.890073408, "name": "Aunt Jake's", "id": "aunt-jakes-new-york", "image_url": "https://s3-media3.fl.yelpcdn.com/bphoto/cITkjB2SEObtQwLLJAgT8g/o.jpg", "url": "https://www.yelp.com/biz/aunt-jakes-new-york?adjust_creative=gBcvfFpabk3CnzmXKdYe3w&utm_campaign=yelp_api_v3&utm_medium=api_v3_business_search&utm_source=gBcvfFpabk3CnzmXKdYe3w", "phone": "+16468580470", "coordinates": {"longitude": -73.9975398002347, "latitude": 40.719107292949}, "categories": [{"alias": "italian", "title": "Italian"}, {"alias": "wine_bars", "title": "Wine Bars"}, {"alias": "pastashops", "title": "Pasta Shops"}], "review_count": 273, "location": {"city": "New York", "address1": "151 Mulberry St", "address3": "", "address2": "", "zip_code": "10013", "country": "US", "display_address": ["151 Mulberry St", "New York, NY 10013"], "state": "NY"}, "price": "$$", "transactions": ["delivery", "pickup"], "display_phone": "(646) 858-0470"}, {"rating": 4.0, "is_closed": false, "distance": 4082.3068834279998, "name": "Sushi Katsuei", "id": "sushi-katsuei-brooklyn", "image_url": "https://s3-media1.fl.yelpcdn.com/bphoto/Ix-Ur7ZHv1p7S2tnLvTN0g/o.jpg", "url": "https://www.yelp.com/biz/sushi-katsuei-brooklyn?adjust_creative=gBcvfFpabk3CnzmXKdYe3w&utm_campaign=yelp_api_v3&utm_medium=api_v3_business_search&utm_source=gBcvfFpabk3CnzmXKdYe3w", "phone": "+17187885338", "coordinates": {"longitude": -73.9785903, "latitude": 40.6707147}, "categories": [{"alias": "sushi", "title": "Sushi Bars"}], "review_count": 266, "location": {"city": "Brooklyn", "address1": "210 7th Ave", "address3": "", "address2": "", "zip_code": "11215", "country": "US", "display_address": ["210 7th Ave", "Brooklyn, NY 11215"], "state": "NY"}, "price": "$$$", "transactions": [], "display_phone": "(718) 788-5338"}, {"rating": 4.5, "is_closed": false, "distance": 6149.486249754, "name": "Eclair Bakery", "id": "eclair-bakery-new-york", "image_url": "https://s3-media1.fl.yelpcdn.com/bphoto/Ut7-y_p7FHz-smRM3GIh-A/o.jpg", "url": "https://www.yelp.com/biz/eclair-bakery-new-york?adjust_creative=gBcvfFpabk3CnzmXKdYe3w&utm_campaign=yelp_api_v3&utm_medium=api_v3_business_search&utm_source=gBcvfFpabk3CnzmXKdYe3w", "phone": "+12127592253", "coordinates": {"longitude": -73.9666252, "latitude": 40.7566183}, "categories": [{"alias": "bakeries", "title": "Bakeries"}, {"alias": "coffee", "title": "Coffee & Tea"}, {"alias": "desserts", "title": "Desserts"}], "review_count": 349, "location": {"city": "New York", "address1": "305 E 53rd St", "address3": "", "address2": "", "zip_code": "10022", "country": "US", "display_address": ["305 E 53rd St", "New York, NY 10022"], "state": "NY"}, "price": "$$", "transactions": ["pickup"], "display_phone": "(212) 759-2253"}, {"rating": 4.0, "is_closed": false, "distance": 2046.1823073459998, "name": "Darna Falafel", "id": "darna-falafel-brooklyn", "image_url": "https://s3-media2.fl.yelpcdn.com/bphoto/TQ6h7aelhit3-x9IG2Qt9w/o.jpg", "url": "https://www.yelp.com/biz/darna-falafel-brooklyn?adjust_creative=gBcvfFpabk3CnzmXKdYe3w&utm_campaign=yelp_api_v3&utm_medium=api_v3_business_search&utm_source=gBcvfFpabk3CnzmXKdYe3w", "phone": "+13477991673", "coordinates": {"longitude": -73.9938177876969, "latitude": 40.6870474589747}, "categories": [{"alias": "falafel", "title": "Falafel"}, {"alias": "mideastern", "title": "Middle Eastern"}], "review_count": 167, "location": {"city": "Brooklyn", "address1": "200 Court St", "address3": "", "address2": "", "zip_code": "11201", "country": "US", "display_address": ["200 Court St", "Brooklyn, NY 11201"], "state": "NY"}, "price": "$", "transactions": ["delivery", "pickup"], "display_phone": "(347) 799-1673"}, {"rating": 4.5, "is_closed": false, "distance": 1635.306861834, "name": "Hot Mini Cakes", "id": "hot-mini-cakes-new-york", "image_url": "https://s3-media3.fl.yelpcdn.com/bphoto/5y25gHxnNCYkxQOLWC4m1w/o.jpg", "url": "https://www.yelp.com/biz/hot-mini-cakes-new-york?adjust_creative=gBcvfFpabk3CnzmXKdYe3w&utm_campaign=yelp_api_v3&utm_medium=api_v3_business_search&utm_source=gBcvfFpabk3CnzmXKdYe3w", "phone": "", "coordinates": {"longitude": -73.99482, "latitude": 40.71846}, "categories": [{"alias": "bakeries", "title": "Bakeries"}, {"alias": "foodstands", "title": "Food Stands"}], "review_count": 80, "location": {"city": "New York", "address1": "SE Corner of Grand St & Bowery", "address3": "", "address2": "", "zip_code": "10002", "country": "US", "display_address": ["SE Corner of Grand St & Bowery", "New York, NY 10002"], "state": "NY"}, "price": "$", "transactions": [], "display_phone": ""}, {"rating": 4.5, "is_closed": false, "distance": 1310.954845544, "name": "Rabbit House", "id": "rabbit-house-new-york", "image_url": "https://s3-media4.fl.yelpcdn.com/bphoto/OIgpblag4K9KJiNCQ6eHYw/o.jpg", "url": "https://www.yelp.com/biz/rabbit-house-new-york?adjust_creative=gBcvfFpabk3CnzmXKdYe3w&utm_campaign=yelp_api_v3&utm_medium=api_v3_business_search&utm_source=gBcvfFpabk3CnzmXKdYe3w", "phone": "+12123434200", "coordinates": {"longitude": -73.993133, "latitude": 40.717205}, "categories": [{"alias": "japanese", "title": "Japanese"}, {"alias": "tapas", "title": "Tapas Bars"}], "review_count": 62, "location": {"city": "New York", "address1": "76 Forsyth St", "address3": "", "address2": null, "zip_code": "10002", "country": "US", "display_address": ["76 Forsyth St", "New York, NY 10002"], "state": "NY"}, "price": "$$", "transactions": ["pickup"], "display_phone": "(212) 343-4200"}, {"rating": 5.0, "is_closed": false, "distance": 8549.5543764, "name": "Elite Event: Pupusa Party at Salvatoria Kitchen and Bar", "id": "elite-event-pupusa-party-at-salvatoria-kitchen-and-bar-astoria", "image_url": "https://s3-media2.fl.yelpcdn.com/bphoto/mnVNXqQtWhXQjBEXzobDog/o.jpg", "url": "https://www.yelp.com/biz/elite-event-pupusa-party-at-salvatoria-kitchen-and-bar-astoria?adjust_creative=gBcvfFpabk3CnzmXKdYe3w&utm_campaign=yelp_api_v3&utm_medium=api_v3_business_search&utm_source=gBcvfFpabk3CnzmXKdYe3w", "phone": "", "coordinates": {"longitude": -73.92486, "latitude": 40.76142}, "categories": [{"alias": "yelpevents", "title": "Yelp Events"}], "review_count": 40, "location": {"city": "Astoria", "address1": "31-18 Broadway", "address3": null, "address2": "", "zip_code": "11106", "country": "US", "display_address": ["31-18 Broadway", "Astoria, NY 11106"], "state": "NY"}, "transactions": [], "display_phone": ""}, {"rating": 4.0, "is_closed": false, "distance": 3272.1411482619997, "name": "Malatesta Trattoria", "id": "malatesta-trattoria-new-york", "image_url": "https://s3-media2.fl.yelpcdn.com/bphoto/-5A2WyQVd3xrzudn9JBLVA/o.jpg", "url": "https://www.yelp.com/biz/malatesta-trattoria-new-york?adjust_creative=gBcvfFpabk3CnzmXKdYe3w&utm_campaign=yelp_api_v3&utm_medium=api_v3_business_search&utm_source=gBcvfFpabk3CnzmXKdYe3w", "phone": "+12127411207", "coordinates": {"longitude": -74.008384, "latitude": 40.732845}, "categories": [{"alias": "italian", "title": "Italian"}], "review_count": 1001, "location": {"city": "New York", "address1": "649 Washington St", "address3": "", "address2": "", "zip_code": "10014", "country": "US", "display_address": ["649 Washington St", "New York, NY 10014"], "state": "NY"}, "price": "$$", "transactions": [], "display_phone": "(212) 741-1207"}, {"rating": 4.5, "is_closed": false, "distance": 1650.2907828379998, "name": "Ichimura", "id": "ichimura-new-york", "image_url": "https://s3-media1.fl.yelpcdn.com/bphoto/i8y3KEL5es6-aLWk1th3AQ/o.jpg", "url": "https://www.yelp.com/biz/ichimura-new-york?adjust_creative=gBcvfFpabk3CnzmXKdYe3w&utm_campaign=yelp_api_v3&utm_medium=api_v3_business_search&utm_source=gBcvfFpabk3CnzmXKdYe3w", "phone": "+12124044600", "coordinates": {"longitude": -74.00538, "latitude": 40.71772}, "categories": [{"alias": "sushi", "title": "Sushi Bars"}], "review_count": 17, "location": {"city": "New York", "address1": "69 Leonard St", "address3": null, "address2": "", "zip_code": "10013", "country": "US", "display_address": ["69 Leonard St", "New York, NY 10013"], "state": "NY"}, "price": "$$$$", "transactions": [], "display_phone": "(212) 404-4600"}, {"rating": 4.5, "is_closed": false, "distance": 3652.0087962579996, "name": "8th Wonder Juice Bar", "id": "8th-wonder-juice-bar-new-york", "image_url": "https://s3-media4.fl.yelpcdn.com/bphoto/MBslO3PzXvEja7PE0bFpfg/o.jpg", "url": "https://www.yelp.com/biz/8th-wonder-juice-bar-new-york?adjust_creative=gBcvfFpabk3CnzmXKdYe3w&utm_campaign=yelp_api_v3&utm_medium=api_v3_business_search&utm_source=gBcvfFpabk3CnzmXKdYe3w", "phone": "+16468613929", "coordinates": {"longitude": -73.981469, "latitude": 40.7368146}, "categories": [{"alias": "juicebars", "title": "Juice Bars & Smoothies"}, {"alias": "vegetarian", "title": "Vegetarian"}, {"alias": "acaibowls", "title": "Acai Bowls"}], "review_count": 59, "location": {"city": "New York", "address1": "370 2nd Ave", "address3": "", "address2": "", "zip_code": "10010", "country": "US", "display_address": ["370 2nd Ave", "New York, NY 10010"], "state": "NY"}, "price": "$", "transactions": ["delivery", "pickup"], "display_phone": "(646) 861-3929"}, {"rating": 4.5, "is_closed": false, "distance": 3363.801268896, "name": "Oregano", "id": "oregano-brooklyn", "image_url": "https://s3-media3.fl.yelpcdn.com/bphoto/E4SjmME9-K7BOgXEq5l3aA/o.jpg", "url": "https://www.yelp.com/biz/oregano-brooklyn?adjust_creative=gBcvfFpabk3CnzmXKdYe3w&utm_campaign=yelp_api_v3&utm_medium=api_v3_business_search&utm_source=gBcvfFpabk3CnzmXKdYe3w", "phone": "+17185995988", "coordinates": {"longitude": -73.9586248, "latitude": 40.7190165}, "categories": [{"alias": "italian", "title": "Italian"}, {"alias": "pizza", "title": "Pizza"}, {"alias": "bars", "title": "Bars"}], "review_count": 241, "location": {"city": "Brooklyn", "address1": "102 Berry St", "address3": "", "address2": "", "zip_code": "11249", "country": "US", "display_address": ["102 Berry St", "Brooklyn, NY 11249"], "state": "NY"}, "price": "$$", "transactions": [], "display_phone": "(718) 599-5988"}, {"rating": 4.0, "is_closed": false, "distance": 2922.1191933679997, "name": "Red Bamboo", "id": "red-bamboo-new-york", "image_url": "https://s3-media2.fl.yelpcdn.com/bphoto/ZNrOvgd_eMMyVbQIl5RWzw/o.jpg", "url": "https://www.yelp.com/biz/red-bamboo-new-york?adjust_creative=gBcvfFpabk3CnzmXKdYe3w&utm_campaign=yelp_api_v3&utm_medium=api_v3_business_search&utm_source=gBcvfFpabk3CnzmXKdYe3w", "phone": "+12122601212", "coordinates": {"longitude": -74.0003546456233, "latitude": 40.7313183707867}, "categories": [{"alias": "vegetarian", "title": "Vegetarian"}, {"alias": "soulfood", "title": "Soul Food"}, {"alias": "vegan", "title": "Vegan"}], "review_count": 1363, "location": {"city": "New York", "address1": "140 W 4th St", "address3": "", "address2": "", "zip_code": "10012", "country": "US", "display_address": ["140 W 4th St", "New York, NY 10012"], "state": "NY"}, "price": "$$", "transactions": [], "display_phone": "(212) 260-1212"}, {"rating": 4.5, "is_closed": false, "distance": 1622.7435491239999, "name": "Antler Beer And Wine Dispensary", "id": "antler-beer-and-wine-dispensary-new-york", "image_url": "https://s3-media3.fl.yelpcdn.com/bphoto/nys8vr2yJgjLTrrrA4t4Dg/o.jpg", "url": "https://www.yelp.com/biz/antler-beer-and-wine-dispensary-new-york?adjust_creative=gBcvfFpabk3CnzmXKdYe3w&utm_campaign=yelp_api_v3&utm_medium=api_v3_business_search&utm_source=gBcvfFpabk3CnzmXKdYe3w", "phone": "+12124325000", "coordinates": {"longitude": -73.9902404124195, "latitude": 40.7197126679496}, "categories": [{"alias": "wine_bars", "title": "Wine Bars"}, {"alias": "beerbar", "title": "Beer Bar"}], "review_count": 63, "location": {"city": "New York", "address1": "123 Allen St", "address3": "", "address2": "", "zip_code": "10002", "country": "US", "display_address": ["123 Allen St", "New York, NY 10002"], "state": "NY"}, "price": "$$", "transactions": [], "display_phone": "(212) 432-5000"}, {"rating": 4.0, "is_closed": false, "distance": 3862.8624309159995, "name": "Hometown Bar-B-Que", "id": "hometown-bar-b-que-brooklyn", "image_url": "https://s3-media1.fl.yelpcdn.com/bphoto/lKVJLyeERspu92EoZCTY8w/o.jpg", "url": "https://www.yelp.com/biz/hometown-bar-b-que-brooklyn?adjust_creative=gBcvfFpabk3CnzmXKdYe3w&utm_campaign=yelp_api_v3&utm_medium=api_v3_business_search&utm_source=gBcvfFpabk3CnzmXKdYe3w", "phone": "+13472944644", "coordinates": {"longitude": -74.016127, "latitude": 40.674905}, "categories": [{"alias": "bbq", "title": "Barbeque"}], "review_count": 729, "location": {"city": "Brooklyn", "address1": "454 Van Brunt St", "address3": "", "address2": "", "zip_code": "11231", "country": "US", "display_address": ["454 Van Brunt St", "Brooklyn, NY 11231"], "state": "NY"}, "price": "$$", "transactions": [], "display_phone": "(347) 294-4644"}, {"rating": 4.5, "is_closed": false, "distance": 6923.970181242, "name": "Bolivian Llama Party", "id": "bolivian-llama-party-new-york-7", "image_url": "https://s3-media3.fl.yelpcdn.com/bphoto/4pK3_5taDvluSvzN2U5NpQ/o.jpg", "url": "https://www.yelp.com/biz/bolivian-llama-party-new-york-7?adjust_creative=gBcvfFpabk3CnzmXKdYe3w&utm_campaign=yelp_api_v3&utm_medium=api_v3_business_search&utm_source=gBcvfFpabk3CnzmXKdYe3w", "phone": "+13473955481", "coordinates": {"longitude": -73.9830144, "latitude": 40.7671243}, "categories": [{"alias": "foodstands", "title": "Food Stands"}, {"alias": "latin", "title": "Latin American"}], "review_count": 164, "location": {"city": "New York", "address1": "57TH St 8th Ave", "address3": null, "address2": "", "zip_code": "10019", "country": "US", "display_address": ["57TH St 8th Ave", "New York, NY 10019"], "state": "NY"}, "price": "$", "transactions": [], "display_phone": "(347) 395-5481"}, {"rating": 4.0, "is_closed": false, "distance": 1531.6412257339998, "name": "Margherita NYC", "id": "margherita-nyc-new-york", "image_url": "https://s3-media3.fl.yelpcdn.com/bphoto/GOUXE4GPpJ-yDw3CQcSysg/o.jpg", "url": "https://www.yelp.com/biz/margherita-nyc-new-york?adjust_creative=gBcvfFpabk3CnzmXKdYe3w&utm_campaign=yelp_api_v3&utm_medium=api_v3_business_search&utm_source=gBcvfFpabk3CnzmXKdYe3w", "phone": "+12122268391", "coordinates": {"longitude": -73.9969329833984, "latitude": 40.7189865112305}, "categories": [{"alias": "italian", "title": "Italian"}, {"alias": "pizza", "title": "Pizza"}], "review_count": 159, "location": {"city": "New York", "address1": "197 Grand St", "address3": "", "address2": "", "zip_code": "10013", "country": "US", "display_address": ["197 Grand St", "New York, NY 10013"], "state": "NY"}, "price": "$$", "transactions": ["pickup"], "display_phone": "(212) 226-8391"}, {"rating": 4.5, "is_closed": false, "distance": 1961.0256905859999, "name": "Subject", "id": "subject-new-york-4", "image_url": "https://s3-media3.fl.yelpcdn.com/bphoto/0nGP6DrmEUiToQzbqe3xlQ/o.jpg", "url": "https://www.yelp.com/biz/subject-new-york-4?adjust_creative=gBcvfFpabk3CnzmXKdYe3w&utm_campaign=yelp_api_v3&utm_medium=api_v3_business_search&utm_source=gBcvfFpabk3CnzmXKdYe3w", "phone": "+16464227898", "coordinates": {"longitude": -73.984779, "latitude": 40.721537}, "categories": [{"alias": "cocktailbars", "title": "Cocktail Bars"}], "review_count": 106, "location": {"city": "New York", "address1": "188 Suffolk St", "address3": "", "address2": null, "zip_code": "10002", "country": "US", "display_address": ["188 Suffolk St", "New York, NY 10002"], "state": "NY"}, "price": "$$", "transactions": [], "display_phone": "(646) 422-7898"}, {"rating": 4.0, "is_closed": false, "distance": 3295.9936592040003, "name": "Corkbuzz Wine Studio", "id": "corkbuzz-wine-studio-new-york", "image_url": "https://s3-media3.fl.yelpcdn.com/bphoto/xqQn6vQ7dP1mXyfinreFFg/o.jpg", "url": "https://www.yelp.com/biz/corkbuzz-wine-studio-new-york?adjust_creative=gBcvfFpabk3CnzmXKdYe3w&utm_campaign=yelp_api_v3&utm_medium=api_v3_business_search&utm_source=gBcvfFpabk3CnzmXKdYe3w", "phone": "+16468736071", "coordinates": {"longitude": -73.99314, "latitude": 40.73501}, "categories": [{"alias": "wine_bars", "title": "Wine Bars"}, {"alias": "newamerican", "title": "American (New)"}], "review_count": 316, "location": {"city": "New York", "address1": "13 E 13th St", "address3": "", "address2": "", "zip_code": "10003", "country": "US", "display_address": ["13 E 13th St", "New York, NY 10003"], "state": "NY"}, "price": "$$$", "transactions": [], "display_phone": "(646) 873-6071"}, {"rating": 4.5, "is_closed": false, "distance": 1602.410342894, "name": "Boubouki", "id": "boubouki-new-york", "image_url": "https://s3-media4.fl.yelpcdn.com/bphoto/74AwbO1hNu2Q6PCz0hqz9Q/o.jpg", "url": "https://www.yelp.com/biz/boubouki-new-york?adjust_creative=gBcvfFpabk3CnzmXKdYe3w&utm_campaign=yelp_api_v3&utm_medium=api_v3_business_search&utm_source=gBcvfFpabk3CnzmXKdYe3w", "phone": "+17183444202", "coordinates": {"longitude": -73.9876520633698, "latitude": 40.7189488065666}, "categories": [{"alias": "greek", "title": "Greek"}, {"alias": "foodstands", "title": "Food Stands"}], "review_count": 61, "location": {"city": "New York", "address1": "120 Essex St", "address3": "Essex St Market", "address2": "", "zip_code": "10002", "country": "US", "display_address": ["120 Essex St", "Essex St Market", "New York, NY 10002"], "state": "NY"}, "price": "$", "transactions": [], "display_phone": "(718) 344-4202"}, {"rating": 4.0, "is_closed": false, "distance": 4888.59153425, "name": "Soup Spot", "id": "soup-spot-new-york", "image_url": "https://s3-media1.fl.yelpcdn.com/bphoto/2DODGcOKKhegTzscdwWRig/o.jpg", "url": "https://www.yelp.com/biz/soup-spot-new-york?adjust_creative=gBcvfFpabk3CnzmXKdYe3w&utm_campaign=yelp_api_v3&utm_medium=api_v3_business_search&utm_source=gBcvfFpabk3CnzmXKdYe3w", "phone": "+12126438623", "coordinates": {"longitude": -73.9929231, "latitude": 40.7493139}, "categories": [{"alias": "soup", "title": "Soup"}], "review_count": 249, "location": {"city": "New York", "address1": "220 W 31st St", "address3": "", "address2": "", "zip_code": "10001", "country": "US", "display_address": ["220 W 31st St", "New York, NY 10001"], "state": "NY"}, "price": "$", "transactions": [], "display_phone": "(212) 643-8623"}, {"rating": 4.5, "is_closed": false, "distance": 3291.59839073, "name": "Sahara Ark", "id": "sahara-ark-brooklyn", "image_url": "https://s3-media2.fl.yelpcdn.com/bphoto/U4dz_KJHgiuVUUjSYv-Bzg/o.jpg", "url": "https://www.yelp.com/biz/sahara-ark-brooklyn?adjust_creative=gBcvfFpabk3CnzmXKdYe3w&utm_campaign=yelp_api_v3&utm_medium=api_v3_business_search&utm_source=gBcvfFpabk3CnzmXKdYe3w", "phone": "+17182301903", "coordinates": {"longitude": -73.967674, "latitude": 40.683807}, "categories": [{"alias": "mideastern", "title": "Middle Eastern"}, {"alias": "mediterranean", "title": "Mediterranean"}], "review_count": 28, "location": {"city": "Brooklyn", "address1": "887 Fulton St", "address3": "", "address2": null, "zip_code": "11238", "country": "US", "display_address": ["887 Fulton St", "Brooklyn, NY 11238"], "state": "NY"}, "price": "$$", "transactions": ["delivery", "pickup"], "display_phone": "(718) 230-1903"}, {"rating": 4.0, "is_closed": false, "distance": 2674.72951736, "name": "Meadowsweet", "id": "meadowsweet-brooklyn", "image_url": "https://s3-media2.fl.yelpcdn.com/bphoto/-H9Hb6CrbB6VZfa6KBFrjg/o.jpg", "url": "https://www.yelp.com/biz/meadowsweet-brooklyn?adjust_creative=gBcvfFpabk3CnzmXKdYe3w&utm_campaign=yelp_api_v3&utm_medium=api_v3_business_search&utm_source=gBcvfFpabk3CnzmXKdYe3w", "phone": "+17183840673", "coordinates": {"longitude": -73.9632384, "latitude": 40.7103995}, "categories": [{"alias": "tradamerican", "title": "American (Traditional)"}], "review_count": 216, "location": {"city": "Brooklyn", "address1": "149 Broadway", "address3": "", "address2": "", "zip_code": "11211", "country": "US", "display_address": ["149 Broadway", "Brooklyn, NY 11211"], "state": "NY"}, "price": "$$$", "transactions": [], "display_phone": "(718) 384-0673"}, {"rating": 4.0, "is_closed": false, "distance": 3134.4484318719997, "name": "Blue Bottle Coffee", "id": "blue-bottle-coffee-brooklyn-2", "image_url": "https://s3-media4.fl.yelpcdn.com/bphoto/snAGIFBo0KMm8LujPYe2ug/o.jpg", "url": "https://www.yelp.com/biz/blue-bottle-coffee-brooklyn-2?adjust_creative=gBcvfFpabk3CnzmXKdYe3w&utm_campaign=yelp_api_v3&utm_medium=api_v3_business_search&utm_source=gBcvfFpabk3CnzmXKdYe3w", "phone": "+15106533394", "coordinates": {"longitude": -73.960623, "latitude": 40.717416}, "categories": [{"alias": "coffee", "title": "Coffee & Tea"}], "review_count": 517, "location": {"city": "Brooklyn", "address1": "160 Berry St", "address3": "", "address2": "", "zip_code": "11211", "country": "US", "display_address": ["160 Berry St", "Brooklyn, NY 11211"], "state": "NY"}, "price": "$$", "transactions": [], "display_phone": "(510) 653-3394"}]}