{"total": 131350, "region": {"center": {"longitude": -73.99429321289062, "latitude": 40.70544486444615}}, "businesses": [{"rating": 4.0, "is_closed": false, "distance": 2048.218444314, "name": "Shake Shack", "id": "shake-shack-new-york-11", "image_url": "https://s3-media2.fl.yelpcdn.com/bphoto/AxEZkcmGOfUIhl6FujpLJA/o.jpg", "url": "https://www.yelp.com/biz/shake-shack-new-york-11?adjust_creative=gBcvfFpabk3CnzmXKdYe3w&utm_campaign=yelp_api_v3&utm_medium=api_v3_business_search&utm_source=gBcvfFpabk3CnzmXKdYe3w", "phone": "+16465454600", "coordinates": {"longitude": -74.0148092602577, "latitude": 40.7153171088311}, "categories": [{"alias": "burgers", "title": "Burgers"}, {"alias": "icecream", "title": "Ice Cream & Frozen Yogurt"}], "review_count": 772, "location": {"city": "New York", "address1": "215 Murray St", "address3": "", "address2": "", "zip_code": "10282", "country": "US", "display_address": ["215 Murray St", "New York, NY 10282"], "state": "NY"}, "price": "$$", "transactions": [], "display_phone": "(646) 545-4600"}, {"rating": 4.0, "is_closed": false, "distance": 2620.850262566, "name": "1 or 8", "id": "1-or-8-brooklyn", "image_url": "https://s3-media1.fl.yelpcdn.com/bphoto/vIKkMp3gOXFdEr7ct3cG6Q/o.jpg", "url": "https://www.yelp.com/biz/1-or-8-brooklyn?adjust_creative=gBcvfFpabk3CnzmXKdYe3w&utm_campaign=yelp_api_v3&utm_medium=api_v3_business_search&utm_source=gBcvfFpabk3CnzmXKdYe3w", "phone": "+17183842152", "coordinates": {"longitude": -73.965457, "latitude": 40.714257}, "categories": [{"alias": "japanese", "title": "Japanese"}, {"alias": "sushi", "title": "Sushi Bars"}], "review_count": 349, "location": {"city": "Brooklyn", "address1": "66 S 2nd St", "address3": "", "address2": "", "zip_code": "11249", "country": "US", "display_address": ["66 S 2nd St", "Brooklyn, NY 11249"], "state": "NY"}, "price": "$$$", "transactions": [], "display_phone": "(718) 384-2152"}, {"rating": 4.5, "is_closed": false, "distance": 6091.28269838, "name": "Adel's Famous Halal Food", "id": "adels-famous-halal-food-new-york", "image_url": "https://s3-media2.fl.yelpcdn.com/bphoto/18axx2D5yMs54_qz_Ltdug/o.jpg", "url": "https://www.yelp.com/biz/adels-famous-halal-food-new-york?adjust_creative=gBcvfFpabk3CnzmXKdYe3w&utm_campaign=yelp_api_v3&utm_medium=api_v3_business_search&utm_source=gBcvfFpabk3CnzmXKdYe3w", "phone": "", "coordinates": {"longitude": -73.9808887692171, "latitude": 40.7592712342245}, "categories": [{"alias": "mideastern", "title": "Middle Eastern"}, {"alias": "foodtrucks", "title": "Food Trucks"}, {"alias": "halal", "title": "Halal"}], "review_count": 146, "location": {"city": "New York", "address1": "49th & 6th", "address3": "", "address2": "", "zip_code": "10019", "country": "US", "display_address": ["49th & 6th", "New York, NY 10019"], "state": "NY"}, "price": "$", "transactions": [], "display_phone": ""}, {"rating": 4.0, "is_closed": false, "distance": 4524.965023666, "name": "The Crabby Shack", "id": "the-crabby-shack-brooklyn", "image_url": "https://s3-media1.fl.yelpcdn.com/bphoto/K4bKR6B8BwKaxQOQ7Z-tAg/o.jpg", "url": "https://www.yelp.com/biz/the-crabby-shack-brooklyn?adjust_creative=gBcvfFpabk3CnzmXKdYe3w&utm_campaign=yelp_api_v3&utm_medium=api_v3_business_search&utm_source=gBcvfFpabk3CnzmXKdYe3w", "phone": "+17184841507", "coordinates": {"longitude": -73.9554671528066, "latitude": 40.6773501401729}, "categories": [{"alias": "seafood", "title": "Seafood"}], "review_count": 332, "location": {"city": "Brooklyn", "address1": "613 Franklin Ave", "address3": "", "address2": "", "zip_code": "11238", "country": "US", "display_address": ["613 Franklin Ave", "Brooklyn, NY 11238"], "state": "NY"}, "price": "$$", "transactions": ["delivery", "pickup"], "display_phone": "(718) 484-1507"}, {"rating": 4.5, "is_closed": false, "distance": 2155.066067462, "name": "June", "id": "june-brooklyn-3", "image_url": "https://s3-media3.fl.yelpcdn.com/bphoto/IJmGwi0H05db7eJtu4jGLA/o.jpg", "url": "https://www.yelp.com/biz/june-brooklyn-3?adjust_creative=gBcvfFpabk3CnzmXKdYe3w&utm_campaign=yelp_api_v3&utm_medium=api_v3_business_search&utm_source=gBcvfFpabk3CnzmXKdYe3w", "phone": "+19179090434", "coordinates": {"longitude": -73.99394, "latitude": 40.6861}, "categories": [{"alias": "wine_bars", "title": "Wine Bars"}, {"alias": "breakfast_brunch", "title": "Breakfast & Brunch"}], "review_count": 106, "location": {"city": "Brooklyn", "address1": "231 Court St", "address3": "", "address2": null, "zip_code": "11201", "country": "US", "display_address": ["231 Court St", "Brooklyn, NY 11201"], "state": "NY"}, "price": "$$", "transactions": [], "display_phone": "(917) 909-0434"}, {"rating": 4.0, "is_closed": false, "distance": 3585.658443936, "name": "M\u00e9m\u00e9 Mediterranean", "id": "m\u00e9m\u00e9-mediterranean-new-york-4", "image_url": "https://s3-media1.fl.yelpcdn.com/bphoto/m7-oSF3w9hHNa2k0gCGBqg/o.jpg", "url": "https://www.yelp.com/biz/m%C3%A9m%C3%A9-mediterranean-new-york-4?adjust_creative=gBcvfFpabk3CnzmXKdYe3w&utm_campaign=yelp_api_v3&utm_medium=api_v3_business_search&utm_source=gBcvfFpabk3CnzmXKdYe3w", "phone": "+16466928450", "coordinates": {"longitude": -74.00616, "latitude": 40.736412}, "categories": [{"alias": "mediterranean", "title": "Mediterranean"}, {"alias": "salad", "title": "Salad"}, {"alias": "seafood", "title": "Seafood"}], "review_count": 449, "location": {"city": "New York", "address1": "581 Hudson St", "address3": "", "address2": "", "zip_code": "10014", "country": "US", "display_address": ["581 Hudson St", "New York, NY 10014"], "state": "NY"}, "price": "$$", "transactions": [], "display_phone": "(646) 692-8450"}, {"rating": 4.0, "is_closed": false, "distance": 2731.587821428, "name": "Curry-Ya", "id": "curry-ya-new-york", "image_url": "https://s3-media1.fl.yelpcdn.com/bphoto/sYudfpQQG4pu7s9AhhJbZw/o.jpg", "url": "https://www.yelp.com/biz/curry-ya-new-york?adjust_creative=gBcvfFpabk3CnzmXKdYe3w&utm_campaign=yelp_api_v3&utm_medium=api_v3_business_search&utm_source=gBcvfFpabk3CnzmXKdYe3w", "phone": "+18666028779", "coordinates": {"longitude": -73.9860382080078, "latitude": 40.7292175292969}, "categories": [{"alias": "japanese", "title": "Japanese"}], "review_count": 599, "location": {"city": "New York", "address1": "214 E 10th St", "address3": "", "address2": "", "zip_code": "10003", "country": "US", "display_address": ["214 E 10th St", "New York, NY 10003"], "state": "NY"}, "price": "$$", "transactions": ["delivery", "pickup"], "display_phone": "(866) 602-8779"}, {"rating": 4.0, "is_closed": false, "distance": 5432.928419423999, "name": "Sergimmo Salumeria", "id": "sergimmo-salumeria-new-york", "image_url": "https://s3-media3.fl.yelpcdn.com/bphoto/wgbVEA1CcmAydRK9pvy1lw/o.jpg", "url": "https://www.yelp.com/biz/sergimmo-salumeria-new-york?adjust_creative=gBcvfFpabk3CnzmXKdYe3w&utm_campaign=yelp_api_v3&utm_medium=api_v3_business_search&utm_source=gBcvfFpabk3CnzmXKdYe3w", "phone": "+12129674212", "coordinates": {"longitude": -73.995498, "latitude": 40.754296}, "categories": [{"alias": "italian", "title": "Italian"}, {"alias": "sandwiches", "title": "Sandwiches"}], "review_count": 517, "location": {"city": "New York", "address1": "456 9th Ave", "address3": "", "address2": "", "zip_code": "10018", "country": "US", "display_address": ["456 9th Ave", "New York, NY 10018"], "state": "NY"}, "price": "$$", "transactions": ["delivery", "pickup"], "display_phone": "(212) 967-4212"}, {"rating": 4.0, "is_closed": false, "distance": 4367.414500082, "name": "ilili", "id": "ilili-new-york-2", "image_url": "https://s3-media3.fl.yelpcdn.com/bphoto/J1ckcEiV_S2BFgaM7TEg_g/o.jpg", "url": "https://www.yelp.com/biz/ilili-new-york-2?adjust_creative=gBcvfFpabk3CnzmXKdYe3w&utm_campaign=yelp_api_v3&utm_medium=api_v3_business_search&utm_source=gBcvfFpabk3CnzmXKdYe3w", "phone": "+12126832929", "coordinates": {"longitude": -73.98793, "latitude": 40.744415}, "categories": [{"alias": "mediterranean", "title": "Mediterranean"}, {"alias": "lebanese", "title": "Lebanese"}], "review_count": 1856, "location": {"city": "New York", "address1": "236 5th Ave", "address3": "", "address2": "", "zip_code": "10001", "country": "US", "display_address": ["236 5th Ave", "New York, NY 10001"], "state": "NY"}, "price": "$$$", "transactions": [], "display_phone": "(212) 683-2929"}, {"rating": 4.5, "is_closed": false, "distance": 4938.949714058, "name": "Southside Coffee", "id": "southside-coffee-brooklyn", "image_url": "https://s3-media3.fl.yelpcdn.com/bphoto/b8D10NUB7Kr-qteBlr0kaQ/o.jpg", "url": "https://www.yelp.com/biz/southside-coffee-brooklyn?adjust_creative=gBcvfFpabk3CnzmXKdYe3w&utm_campaign=yelp_api_v3&utm_medium=api_v3_business_search&utm_source=gBcvfFpabk3CnzmXKdYe3w", "phone": "+13475992884", "coordinates": {"longitude": -73.9902541413903, "latitude": 40.6611330590684}, "categories": [{"alias": "coffee", "title": "Coffee & Tea"}], "review_count": 168, "location": {"city": "Brooklyn", "address1": "652 6th Ave", "address3": "", "address2": "", "zip_code": "11215", "country": "US", "display_address": ["652 6th Ave", "Brooklyn, NY 11215"], "state": "NY"}, "price": "$", "transactions": [], "display_phone": "(347) 599-2884"}, {"rating": 4.0, "is_closed": false, "distance": 2255.6588297659996, "name": "Ba'al Cafe & Falafel", "id": "baal-cafe-and-falafel-new-york", "image_url": "https://s3-media3.fl.yelpcdn.com/bphoto/8hYzNrYc8gUjs84Ug-lztA/o.jpg", "url": "https://www.yelp.com/biz/baal-cafe-and-falafel-new-york?adjust_creative=gBcvfFpabk3CnzmXKdYe3w&utm_campaign=yelp_api_v3&utm_medium=api_v3_business_search&utm_source=gBcvfFpabk3CnzmXKdYe3w", "phone": "+16463689957", "coordinates": {"longitude": -74.003776, "latitude": 40.724399}, "categories": [{"alias": "falafel", "title": "Falafel"}, {"alias": "mideastern", "title": "Middle Eastern"}], "review_count": 178, "location": {"city": "New York", "address1": "71 Sullivan St", "address3": "", "address2": "", "zip_code": "10012", "country": "US", "display_address": ["71 Sullivan St", "New York, NY 10012"], "state": "NY"}, "price": "$", "transactions": ["delivery", "pickup"], "display_phone": "(646) 368-9957"}, {"rating": 4.5, "is_closed": false, "distance": 5058.561334614, "name": "Porteno Restaurant", "id": "porteno-restaurant-new-york", "image_url": "https://s3-media2.fl.yelpcdn.com/bphoto/O7zXzZKejlZcohmxwalY-Q/o.jpg", "url": "https://www.yelp.com/biz/porteno-restaurant-new-york?adjust_creative=gBcvfFpabk3CnzmXKdYe3w&utm_campaign=yelp_api_v3&utm_medium=api_v3_business_search&utm_source=gBcvfFpabk3CnzmXKdYe3w", "phone": "+12126959694", "coordinates": {"longitude": -74.002525, "latitude": 40.750499}, "categories": [{"alias": "argentine", "title": "Argentine"}], "review_count": 294, "location": {"city": "New York", "address1": "299 10th Ave", "address3": "", "address2": "", "zip_code": "10001", "country": "US", "display_address": ["299 10th Ave", "New York, NY 10001"], "state": "NY"}, "price": "$$$", "transactions": [], "display_phone": "(212) 695-9694"}, {"rating": 4.0, "is_closed": false, "distance": 2595.767089326, "name": "Enoteca on Court", "id": "enoteca-on-court-brooklyn-2", "image_url": "https://s3-media2.fl.yelpcdn.com/bphoto/J-NntzctamRNncTTFylhSg/o.jpg", "url": "https://www.yelp.com/biz/enoteca-on-court-brooklyn-2?adjust_creative=gBcvfFpabk3CnzmXKdYe3w&utm_campaign=yelp_api_v3&utm_medium=api_v3_business_search&utm_source=gBcvfFpabk3CnzmXKdYe3w", "phone": "+17182431000", "coordinates": {"longitude": -73.9957122802734, "latitude": 40.6821365356445}, "categories": [{"alias": "italian", "title": "Italian"}, {"alias": "pizza", "title": "Pizza"}], "review_count": 202, "location": {"city": "Brooklyn", "address1": "347 Court St", "address3": "", "address2": "", "zip_code": "11231", "country": "US", "display_address": ["347 Court St", "Brooklyn, NY 11231"], "state": "NY"}, "price": "$$", "transactions": ["delivery"], "display_phone": "(718) 243-1000"}, {"rating": 4.5, "is_closed": false, "distance": 8265.904338983999, "name": "Tea and Milk", "id": "tea-and-milk-astoria", "image_url": "https://s3-media1.fl.yelpcdn.com/bphoto/LExacuQh01Nbwom7iUnIlg/o.jpg", "url": "https://www.yelp.com/biz/tea-and-milk-astoria?adjust_creative=gBcvfFpabk3CnzmXKdYe3w&utm_campaign=yelp_api_v3&utm_medium=api_v3_business_search&utm_source=gBcvfFpabk3CnzmXKdYe3w", "phone": "+13479212056", "coordinates": {"longitude": -73.92631, "latitude": 40.75904}, "categories": [{"alias": "coffee", "title": "Coffee & Tea"}, {"alias": "bubbletea", "title": "Bubble Tea"}, {"alias": "cafes", "title": "Cafes"}], "review_count": 218, "location": {"city": "Astoria", "address1": "32-02 34th Ave", "address3": "", "address2": "", "zip_code": "11106", "country": "US", "display_address": ["32-02 34th Ave", "Astoria, NY 11106"], "state": "NY"}, "price": "$", "transactions": ["pickup"], "display_phone": "(347) 921-2056"}, {"rating": 5.0, "is_closed": false, "distance": 10271.01226618, "name": "Elite Event: Meatopia at Brother's Taverna", "id": "elite-event-meatopia-at-brothers-taverna-astoria", "image_url": "https://s3-media2.fl.yelpcdn.com/bphoto/FJg8m6WB1TXGd_EAMcnQNg/o.jpg", "url": "https://www.yelp.com/biz/elite-event-meatopia-at-brothers-taverna-astoria?adjust_creative=gBcvfFpabk3CnzmXKdYe3w&utm_campaign=yelp_api_v3&utm_medium=api_v3_business_search&utm_source=gBcvfFpabk3CnzmXKdYe3w", "phone": "", "coordinates": {"longitude": -73.90812, "latitude": 40.77078}, "categories": [{"alias": "yelpevents", "title": "Yelp Events"}], "review_count": 49, "location": {"city": "Astoria", "address1": "23-01 Steinway St", "address3": null, "address2": "", "zip_code": "11105", "country": "US", "display_address": ["23-01 Steinway St", "Astoria, NY 11105"], "state": "NY"}, "transactions": [], "display_phone": ""}, {"rating": 4.0, "is_closed": false, "distance": 2081.110296168, "name": "Locanda Verde", "id": "locanda-verde-new-york", "image_url": "https://s3-media3.fl.yelpcdn.com/bphoto/gaMeTVSZXGMOZUMwgWO7Fg/o.jpg", "url": "https://www.yelp.com/biz/locanda-verde-new-york?adjust_creative=gBcvfFpabk3CnzmXKdYe3w&utm_campaign=yelp_api_v3&utm_medium=api_v3_business_search&utm_source=gBcvfFpabk3CnzmXKdYe3w", "phone": "+12129253797", "coordinates": {"longitude": -74.010039072422, "latitude": 40.7198601300801}, "categories": [{"alias": "italian", "title": "Italian"}, {"alias": "delis", "title": "Delis"}, {"alias": "cocktailbars", "title": "Cocktail Bars"}], "review_count": 1318, "location": {"city": "New York", "address1": "377 Greenwich St", "address3": "", "address2": "", "zip_code": "10013", "country": "US", "display_address": ["377 Greenwich St", "New York, NY 10013"], "state": "NY"}, "price": "$$$", "transactions": [], "display_phone": "(212) 925-3797"}, {"rating": 4.0, "is_closed": false, "distance": 2269.697424454, "name": "Casa Adela", "id": "casa-adela-new-york", "image_url": "https://s3-media3.fl.yelpcdn.com/bphoto/G7tYSvlLvKdjy_aWAdpdaQ/o.jpg", "url": "https://www.yelp.com/biz/casa-adela-new-york?adjust_creative=gBcvfFpabk3CnzmXKdYe3w&utm_campaign=yelp_api_v3&utm_medium=api_v3_business_search&utm_source=gBcvfFpabk3CnzmXKdYe3w", "phone": "+12124731882", "coordinates": {"longitude": -73.97973, "latitude": 40.72264}, "categories": [{"alias": "latin", "title": "Latin American"}, {"alias": "puertorican", "title": "Puerto Rican"}], "review_count": 292, "location": {"city": "New York", "address1": "66 Ave C", "address3": "", "address2": null, "zip_code": "10009", "country": "US", "display_address": ["66 Ave C", "New York, NY 10009"], "state": "NY"}, "price": "$$", "transactions": [], "display_phone": "(212) 473-1882"}, {"rating": 4.0, "is_closed": false, "distance": 4978.020465908, "name": "NY Pizza Suprema", "id": "ny-pizza-suprema-new-york", "image_url": "https://s3-media4.fl.yelpcdn.com/bphoto/EqbDXneMuQP6pw6GemVdQA/o.jpg", "url": "https://www.yelp.com/biz/ny-pizza-suprema-new-york?adjust_creative=gBcvfFpabk3CnzmXKdYe3w&utm_campaign=yelp_api_v3&utm_medium=api_v3_business_search&utm_source=gBcvfFpabk3CnzmXKdYe3w", "phone": "+12125948939", "coordinates": {"longitude": -73.9953231811523, "latitude": 40.7502059936523}, "categories": [{"alias": "pizza", "title": "Pizza"}], "review_count": 1209, "location": {"city": "New York", "address1": "413 8th Ave", "address3": "", "address2": "", "zip_code": "10001", "country": "US", "display_address": ["413 8th Ave", "New York, NY 10001"], "state": "NY"}, "price": "$", "transactions": ["delivery", "pickup"], "display_phone": "(212) 594-8939"}, {"rating": 4.5, "is_closed": false, "distance": 3253.003520718, "name": "Red Hook Bait & Tackle", "id": "red-hook-bait-and-tackle-brooklyn", "image_url": "https://s3-media4.fl.yelpcdn.com/bphoto/a_5ngggo5VefqOLpbb6O9w/o.jpg", "url": "https://www.yelp.com/biz/red-hook-bait-and-tackle-brooklyn?adjust_creative=gBcvfFpabk3CnzmXKdYe3w&utm_campaign=yelp_api_v3&utm_medium=api_v3_business_search&utm_source=gBcvfFpabk3CnzmXKdYe3w", "phone": "+17184514665", "coordinates": {"longitude": -74.011161, "latitude": 40.679157}, "categories": [{"alias": "divebars", "title": "Dive Bars"}], "review_count": 62, "location": {"city": "Brooklyn", "address1": "320 Van Brunt St", "address3": "", "address2": "", "zip_code": "11231", "country": "US", "display_address": ["320 Van Brunt St", "Brooklyn, NY 11231"], "state": "NY"}, "price": "$", "transactions": [], "display_phone": "(718) 451-4665"}, {"rating": 4.0, "is_closed": false, "distance": 2477.841896156, "name": "Yuca Bar & Restaurant", "id": "yuca-bar-and-restaurant-new-york", "image_url": "https://s3-media2.fl.yelpcdn.com/bphoto/HOzMENO1xIm58mNXKowocg/o.jpg", "url": "https://www.yelp.com/biz/yuca-bar-and-restaurant-new-york?adjust_creative=gBcvfFpabk3CnzmXKdYe3w&utm_campaign=yelp_api_v3&utm_medium=api_v3_business_search&utm_source=gBcvfFpabk3CnzmXKdYe3w", "phone": "+12129829533", "coordinates": {"longitude": -73.9836, "latitude": 40.7262}, "categories": [{"alias": "latin", "title": "Latin American"}, {"alias": "tapas", "title": "Tapas Bars"}, {"alias": "cocktailbars", "title": "Cocktail Bars"}], "review_count": 1441, "location": {"city": "New York", "address1": "111 Avenue A", "address3": "", "address2": null, "zip_code": "10009", "country": "US", "display_address": ["111 Avenue A", "New York, NY 10009"], "state": "NY"}, "price": "$$", "transactions": [], "display_phone": "(212) 982-9533"}, {"rating": 4.5, "is_closed": false, "distance": 3440.3453417119995, "name": "Dainobu", "id": "dainobu-new-york-3", "image_url": "https://s3-media3.fl.yelpcdn.com/bphoto/SY7C6sO5Aqy0WutCaMt5Yw/o.jpg", "url": "https://www.yelp.com/biz/dainobu-new-york-3?adjust_creative=gBcvfFpabk3CnzmXKdYe3w&utm_campaign=yelp_api_v3&utm_medium=api_v3_business_search&utm_source=gBcvfFpabk3CnzmXKdYe3w", "phone": "+12126450237", "coordinates": {"longitude": -73.9972, "latitude": 40.736282}, "categories": [{"alias": "delis", "title": "Delis"}, {"alias": "grocery", "title": "Grocery"}, {"alias": "importedfood", "title": "Imported Food"}], "review_count": 60, "location": {"city": "New York", "address1": "498 6th Ave", "address3": "", "address2": "", "zip_code": "10011", "country": "US", "display_address": ["498 6th Ave", "New York, NY 10011"], "state": "NY"}, "price": "$$", "transactions": [], "display_phone": "(212) 645-0237"}, {"rating": 4.5, "is_closed": false, "distance": 5059.54287108, "name": "Anchor Coffee and Corp", "id": "anchor-coffee-and-corp-brooklyn", "image_url": "https://s3-media2.fl.yelpcdn.com/bphoto/z7G7RMVrDqPuBpBZgoE1jA/o.jpg", "url": "https://www.yelp.com/biz/anchor-coffee-and-corp-brooklyn?adjust_creative=gBcvfFpabk3CnzmXKdYe3w&utm_campaign=yelp_api_v3&utm_medium=api_v3_business_search&utm_source=gBcvfFpabk3CnzmXKdYe3w", "phone": "", "coordinates": {"longitude": -73.9411785, "latitude": 40.6842654}, "categories": [{"alias": "coffee", "title": "Coffee & Tea"}], "review_count": 46, "location": {"city": "Brooklyn", "address1": "525A Throop Ave", "address3": "", "address2": "", "zip_code": "11221", "country": "US", "display_address": ["525A Throop Ave", "Brooklyn, NY 11221"], "state": "NY"}, "price": "$$", "transactions": [], "display_phone": ""}, {"rating": 4.5, "is_closed": false, "distance": 2853.37108538, "name": "Brooklyn Gourmet Deli", "id": "brooklyn-gourmet-deli-brooklyn", "image_url": "https://s3-media2.fl.yelpcdn.com/bphoto/g5TKCBZIUXyy-CuBACKjrg/o.jpg", "url": "https://www.yelp.com/biz/brooklyn-gourmet-deli-brooklyn?adjust_creative=gBcvfFpabk3CnzmXKdYe3w&utm_campaign=yelp_api_v3&utm_medium=api_v3_business_search&utm_source=gBcvfFpabk3CnzmXKdYe3w", "phone": "+17184868261", "coordinates": {"longitude": -73.961914, "latitude": 40.713092}, "categories": [{"alias": "delis", "title": "Delis"}], "review_count": 30, "location": {"city": "Brooklyn", "address1": "313 Bedford Ave", "address3": "", "address2": "", "zip_code": "11211", "country": "US", "display_address": ["313 Bedford Ave", "Brooklyn, NY 11211"], "state": "NY"}, "price": "$", "transactions": [], "display_phone": "(718) 486-8261"}, {"rating": 4.0, "is_closed": false, "distance": 4211.45529189, "name": "Pippali", "id": "pippali-new-york", "image_url": "https://s3-media3.fl.yelpcdn.com/bphoto/nbVtQ7FDyfkfLQnE3yPBbQ/o.jpg", "url": "https://www.yelp.com/biz/pippali-new-york?adjust_creative=gBcvfFpabk3CnzmXKdYe3w&utm_campaign=yelp_api_v3&utm_medium=api_v3_business_search&utm_source=gBcvfFpabk3CnzmXKdYe3w", "phone": "+12126891999", "coordinates": {"longitude": -73.98325, "latitude": 40.74241}, "categories": [{"alias": "indpak", "title": "Indian"}, {"alias": "desserts", "title": "Desserts"}], "review_count": 477, "location": {"city": "New York", "address1": "129 E 27th St", "address3": "", "address2": "", "zip_code": "10016", "country": "US", "display_address": ["129 E 27th St", "New York, NY 10016"], "state": "NY"}, "price": "$$", "transactions": ["delivery", "pickup"], "display_phone": "(212) 689-1999"}, {"rating": 4.0, "is_closed": false, "distance": 1737.69532571, "name": "Ramen Lab", "id": "ramen-lab-new-york-2", "image_url": "https://s3-media2.fl.yelpcdn.com/bphoto/blSLvWKyO_jOX7UEm2xl8w/o.jpg", "url": "https://www.yelp.com/biz/ramen-lab-new-york-2?adjust_creative=gBcvfFpabk3CnzmXKdYe3w&utm_campaign=yelp_api_v3&utm_medium=api_v3_business_search&utm_source=gBcvfFpabk3CnzmXKdYe3w", "phone": "+16466137522", "coordinates": {"longitude": -73.9963582, "latitude": 40.7209918}, "categories": [{"alias": "ramen", "title": "Ramen"}], "review_count": 236, "location": {"city": "New York", "address1": "70 Kenmare St", "address3": "", "address2": "", "zip_code": "10012", "country": "US", "display_address": ["70 Kenmare St", "New York, NY 10012"], "state": "NY"}, "price": "$$", "transactions": [], "display_phone": "(646) 613-7522"}, {"rating": 4.0, "is_closed": false, "distance": 2248.6691442779997, "name": "Vin et Fleurs", "id": "vin-et-fleurs-new-york", "image_url": "https://s3-media4.fl.yelpcdn.com/bphoto/bl3PxdRTsRCRvCc7mOquDw/o.jpg", "url": "https://www.yelp.com/biz/vin-et-fleurs-new-york?adjust_creative=gBcvfFpabk3CnzmXKdYe3w&utm_campaign=yelp_api_v3&utm_medium=api_v3_business_search&utm_source=gBcvfFpabk3CnzmXKdYe3w", "phone": "+12124313335", "coordinates": {"longitude": -74.003265, "latitude": 40.724479}, "categories": [{"alias": "french", "title": "French"}], "review_count": 329, "location": {"city": "New York", "address1": "69 Thompson St", "address3": "", "address2": "", "zip_code": "10012", "country": "US", "display_address": ["69 Thompson St", "New York, NY 10012"], "state": "NY"}, "price": "$$", "transactions": ["delivery", "pickup"], "display_phone": "(212) 431-3335"}, {"rating": 4.5, "is_closed": false, "distance": 6246.650474122, "name": "B Squared", "id": "b-squared-new-york", "image_url": "https://s3-media4.fl.yelpcdn.com/bphoto/QebR8IY-Fi1rCUR1W9XxIQ/o.jpg", "url": "https://www.yelp.com/biz/b-squared-new-york?adjust_creative=gBcvfFpabk3CnzmXKdYe3w&utm_campaign=yelp_api_v3&utm_medium=api_v3_business_search&utm_source=gBcvfFpabk3CnzmXKdYe3w", "phone": "+16463623171", "coordinates": {"longitude": -73.9906616, "latitude": 40.7615509}, "categories": [{"alias": "italian", "title": "Italian"}, {"alias": "pizza", "title": "Pizza"}], "review_count": 163, "location": {"city": "New York", "address1": "679 9th Ave", "address3": "", "address2": null, "zip_code": "10036", "country": "US", "display_address": ["679 9th Ave", "New York, NY 10036"], "state": "NY"}, "price": "$$", "transactions": [], "display_phone": "(646) 362-3171"}, {"rating": 5.0, "is_closed": false, "distance": 1422.0333430849998, "name": "Optimum Gourmet Deli", "id": "optimum-gourmet-deli-new-york", "image_url": "https://s3-media4.fl.yelpcdn.com/bphoto/zdrczljZ2sbDr3TBucNbVA/o.jpg", "url": "https://www.yelp.com/biz/optimum-gourmet-deli-new-york?adjust_creative=gBcvfFpabk3CnzmXKdYe3w&utm_campaign=yelp_api_v3&utm_medium=api_v3_business_search&utm_source=gBcvfFpabk3CnzmXKdYe3w", "phone": "+12124774400", "coordinates": {"longitude": -73.989686, "latitude": 40.717746}, "categories": [{"alias": "delis", "title": "Delis"}], "review_count": 19, "location": {"city": "New York", "address1": "243 Broome St", "address3": "", "address2": "", "zip_code": "10002", "country": "US", "display_address": ["243 Broome St", "New York, NY 10002"], "state": "NY"}, "price": "$", "transactions": [], "display_phone": "(212) 477-4400"}, {"rating": 4.0, "is_closed": false, "distance": 2221.819720388, "name": "Gasoline Alley Coffee", "id": "gasoline-alley-coffee-new-york", "image_url": "https://s3-media2.fl.yelpcdn.com/bphoto/SXGhXLxFh74dWrJQsq2JAA/o.jpg", "url": "https://www.yelp.com/biz/gasoline-alley-coffee-new-york?adjust_creative=gBcvfFpabk3CnzmXKdYe3w&utm_campaign=yelp_api_v3&utm_medium=api_v3_business_search&utm_source=gBcvfFpabk3CnzmXKdYe3w", "phone": "+12129330113", "coordinates": {"longitude": -73.9948196, "latitude": 40.7254219}, "categories": [{"alias": "coffee", "title": "Coffee & Tea"}], "review_count": 226, "location": {"city": "New York", "address1": "325 Lafayette St", "address3": "", "address2": "", "zip_code": "10012", "country": "US", "display_address": ["325 Lafayette St", "New York, NY 10012"], "state": "NY"}, "price": "$$", "transactions": [], "display_phone": "(212) 933-0113"}, {"rating": 4.5, "is_closed": false, "distance": 3424.1766245999997, "name": "Upright Brew House", "id": "upright-brew-house-new-york", "image_url": "https://s3-media1.fl.yelpcdn.com/bphoto/3ciupkMCK4XYoCPhAdLTAQ/o.jpg", "url": "https://www.yelp.com/biz/upright-brew-house-new-york?adjust_creative=gBcvfFpabk3CnzmXKdYe3w&utm_campaign=yelp_api_v3&utm_medium=api_v3_business_search&utm_source=gBcvfFpabk3CnzmXKdYe3w", "phone": "+12128109944", "coordinates": {"longitude": -74.0062052269836, "latitude": 40.7348858444195}, "categories": [{"alias": "bars", "title": "Bars"}, {"alias": "gastropubs", "title": "Gastropubs"}], "review_count": 178, "location": {"city": "New York", "address1": "547 Hudson St", "address3": "", "address2": "", "zip_code": "10014", "country": "US", "display_address": ["547 Hudson St", "New York, NY 10014"], "state": "NY"}, "price": "$$", "transactions": ["delivery", "pickup"], "display_phone": "(212) 810-9944"}, {"rating": 4.5, "is_closed": false, "distance": 3799.825226852, "name": "Kest\u00e9 - Williamsburg", "id": "kest\u00e9-williamsburg-brooklyn-2", "image_url": "https://s3-media1.fl.yelpcdn.com/bphoto/07jzr2K-PQfI2DUxB0IbxQ/o.jpg", "url": "https://www.yelp.com/biz/kest%C3%A9-williamsburg-brooklyn-2?adjust_creative=gBcvfFpabk3CnzmXKdYe3w&utm_campaign=yelp_api_v3&utm_medium=api_v3_business_search&utm_source=gBcvfFpabk3CnzmXKdYe3w", "phone": "+19179091183", "coordinates": {"longitude": -73.9530651, "latitude": 40.7192686}, "categories": [{"alias": "pizza", "title": "Pizza"}, {"alias": "italian", "title": "Italian"}, {"alias": "gluten_free", "title": "Gluten-Free"}], "review_count": 81, "location": {"city": "Brooklyn", "address1": "232 N12th St", "address3": "", "address2": "", "zip_code": "11211", "country": "US", "display_address": ["232 N12th St", "Brooklyn, NY 11211"], "state": "NY"}, "price": "$$", "transactions": ["delivery", "pickup"], "display_phone": "(917) 909-1183"}, {"rating": 5.0, "is_closed": false, "distance": 1366.1399188139999, "name": "Cheong Fun Cart", "id": "cheong-fun-cart-new-york", "image_url": "https://s3-media3.fl.yelpcdn.com/bphoto/pi3rXIEE2Iwj4rHU_Ed_4Q/o.jpg", "url": "https://www.yelp.com/biz/cheong-fun-cart-new-york?adjust_creative=gBcvfFpabk3CnzmXKdYe3w&utm_campaign=yelp_api_v3&utm_medium=api_v3_business_search&utm_source=gBcvfFpabk3CnzmXKdYe3w", "phone": "", "coordinates": {"longitude": -73.9963736857056, "latitude": 40.7176279773311}, "categories": [{"alias": "foodstands", "title": "Food Stands"}, {"alias": "chinese", "title": "Chinese"}, {"alias": "streetvendors", "title": "Street Vendors"}], "review_count": 20, "location": {"city": "New York", "address1": "On The Corner Of Elizabeth St And Hester St", "address3": "", "address2": "", "zip_code": "10013", "country": "US", "display_address": ["On The Corner Of Elizabeth St And Hester St", "New York, NY 10013"], "state": "NY"}, "price": "$", "transactions": [], "display_phone": ""}, {"rating": 4.0, "is_closed": false, "distance": 1744.632707648, "name": "Uncle Boons", "id": "uncle-boons-new-york-2", "image_url": "https://s3-media2.fl.yelpcdn.com/bphoto/onNXxdy-zk_W-uofS2x2WA/o.jpg", "url": "https://www.yelp.com/biz/uncle-boons-new-york-2?adjust_creative=gBcvfFpabk3CnzmXKdYe3w&utm_campaign=yelp_api_v3&utm_medium=api_v3_business_search&utm_source=gBcvfFpabk3CnzmXKdYe3w", "phone": "+16463706650", "coordinates": {"longitude": -73.9943286309159, "latitude": 40.7211328622237}, "categories": [{"alias": "thai", "title": "Thai"}], "review_count": 458, "location": {"city": "New York", "address1": "7 Spring St", "address3": "", "address2": null, "zip_code": "10012", "country": "US", "display_address": ["7 Spring St", "New York, NY 10012"], "state": "NY"}, "price": "$$$", "transactions": [], "display_phone": "(646) 370-6650"}, {"rating": 4.0, "is_closed": false, "distance": 2437.325474184, "name": "Izakaya", "id": "izakaya-new-york-2", "image_url": "https://s3-media2.fl.yelpcdn.com/bphoto/7ol3Fg2tDszCttoGj_oQmw/o.jpg", "url": "https://www.yelp.com/biz/izakaya-new-york-2?adjust_creative=gBcvfFpabk3CnzmXKdYe3w&utm_campaign=yelp_api_v3&utm_medium=api_v3_business_search&utm_source=gBcvfFpabk3CnzmXKdYe3w", "phone": "+19179692469", "coordinates": {"longitude": -73.9873, "latitude": 40.72679}, "categories": [{"alias": "izakaya", "title": "Izakaya"}, {"alias": "tapasmallplates", "title": "Tapas/Small Plates"}], "review_count": 149, "location": {"city": "New York", "address1": "326 E 6th St", "address3": "", "address2": "", "zip_code": "10003", "country": "US", "display_address": ["326 E 6th St", "New York, NY 10003"], "state": "NY"}, "price": "$$", "transactions": [], "display_phone": "(917) 969-2469"}, {"rating": 4.5, "is_closed": false, "distance": 6209.139977401999, "name": "Lali Restaurant", "id": "lali-restaurant-new-york", "image_url": "https://s3-media3.fl.yelpcdn.com/bphoto/AhI_HofJUCwc85xH7-tyPA/o.jpg", "url": "https://www.yelp.com/biz/lali-restaurant-new-york?adjust_creative=gBcvfFpabk3CnzmXKdYe3w&utm_campaign=yelp_api_v3&utm_medium=api_v3_business_search&utm_source=gBcvfFpabk3CnzmXKdYe3w", "phone": "+12126641507", "coordinates": {"longitude": -73.993919, "latitude": 40.76128}, "categories": [{"alias": "dominican", "title": "Dominican"}], "review_count": 138, "location": {"city": "New York", "address1": "630 10th Ave", "address3": "", "address2": "", "zip_code": "10036", "country": "US", "display_address": ["630 10th Ave", "New York, NY 10036"], "state": "NY"}, "price": "$", "transactions": [], "display_phone": "(212) 664-1507"}, {"rating": 4.5, "is_closed": false, "distance": 8229.69966074, "name": "The Family Store", "id": "the-family-store-brooklyn-3", "image_url": "https://s3-media1.fl.yelpcdn.com/bphoto/8pkDS6wjMBlsJ0raLsn9Ew/o.jpg", "url": "https://www.yelp.com/biz/the-family-store-brooklyn-3?adjust_creative=gBcvfFpabk3CnzmXKdYe3w&utm_campaign=yelp_api_v3&utm_medium=api_v3_business_search&utm_source=gBcvfFpabk3CnzmXKdYe3w", "phone": "+17187480207", "coordinates": {"longitude": -74.0258941650391, "latitude": 40.6354141235352}, "categories": [{"alias": "mediterranean", "title": "Mediterranean"}, {"alias": "tradamerican", "title": "American (Traditional)"}, {"alias": "vegan", "title": "Vegan"}], "review_count": 113, "location": {"city": "Brooklyn", "address1": "6905 3rd Ave", "address3": "", "address2": "", "zip_code": "11209", "country": "US", "display_address": ["6905 3rd Ave", "Brooklyn, NY 11209"], "state": "NY"}, "price": "$$", "transactions": [], "display_phone": "(718) 748-0207"}, {"rating": 4.5, "is_closed": false, "distance": 4194.001677722, "name": "Covina", "id": "covina-new-york-3", "image_url": "https://s3-media1.fl.yelpcdn.com/bphoto/eeUw2oP6o41gfeQ67TGgiA/o.jpg", "url": "https://www.yelp.com/biz/covina-new-york-3?adjust_creative=gBcvfFpabk3CnzmXKdYe3w&utm_campaign=yelp_api_v3&utm_medium=api_v3_business_search&utm_source=gBcvfFpabk3CnzmXKdYe3w", "phone": "+12122040225", "coordinates": {"longitude": -73.9832149, "latitude": 40.7423054}, "categories": [{"alias": "newamerican", "title": "American (New)"}, {"alias": "bars", "title": "Bars"}, {"alias": "cafes", "title": "Cafes"}], "review_count": 156, "location": {"city": "New York", "address1": "127 E 27th St", "address3": "", "address2": "", "zip_code": "10016", "country": "US", "display_address": ["127 E 27th St", "New York, NY 10016"], "state": "NY"}, "price": "$$$", "transactions": [], "display_phone": "(212) 204-0225"}, {"rating": 4.0, "is_closed": false, "distance": 2743.291907512, "name": "Flinders Lane", "id": "flinders-lane-new-york", "image_url": "https://s3-media2.fl.yelpcdn.com/bphoto/FDNekbQAbTrN2ICKARmwEQ/o.jpg", "url": "https://www.yelp.com/biz/flinders-lane-new-york?adjust_creative=gBcvfFpabk3CnzmXKdYe3w&utm_campaign=yelp_api_v3&utm_medium=api_v3_business_search&utm_source=gBcvfFpabk3CnzmXKdYe3w", "phone": "+12122286900", "coordinates": {"longitude": -73.981873, "latitude": 40.728248}, "categories": [{"alias": "australian", "title": "Australian"}, {"alias": "wine_bars", "title": "Wine Bars"}], "review_count": 182, "location": {"city": "New York", "address1": "162 Avenue A", "address3": "", "address2": "", "zip_code": "10009", "country": "US", "display_address": ["162 Avenue A", "New York, NY 10009"], "state": "NY"}, "price": "$$", "transactions": [], "display_phone": "(212) 228-6900"}, {"rating": 4.0, "is_closed": false, "distance": 1620.054341984, "name": "Sel Rrose", "id": "sel-rrose-new-york", "image_url": "https://s3-media3.fl.yelpcdn.com/bphoto/PSF84grZZzNn1SUGBsMMqA/o.jpg", "url": "https://www.yelp.com/biz/sel-rrose-new-york?adjust_creative=gBcvfFpabk3CnzmXKdYe3w&utm_campaign=yelp_api_v3&utm_medium=api_v3_business_search&utm_source=gBcvfFpabk3CnzmXKdYe3w", "phone": "+12122262510", "coordinates": {"longitude": -73.9937874, "latitude": 40.7200099}, "categories": [{"alias": "cocktailbars", "title": "Cocktail Bars"}, {"alias": "seafood", "title": "Seafood"}, {"alias": "cafes", "title": "Cafes"}], "review_count": 274, "location": {"city": "New York", "address1": "1 Delancey St", "address3": "", "address2": "", "zip_code": "10002", "country": "US", "display_address": ["1 Delancey St", "New York, NY 10002"], "state": "NY"}, "price": "$$", "transactions": [], "display_phone": "(212) 226-2510"}, {"rating": 5.0, "is_closed": false, "distance": 6639.924889921999, "name": "Yelp Elite Event at The Rickey", "id": "yelp-elite-event-at-the-rickey-new-york", "image_url": "https://s3-media2.fl.yelpcdn.com/bphoto/mqQOZhTaWa8qW2RbSZiuVg/o.jpg", "url": "https://www.yelp.com/biz/yelp-elite-event-at-the-rickey-new-york?adjust_creative=gBcvfFpabk3CnzmXKdYe3w&utm_campaign=yelp_api_v3&utm_medium=api_v3_business_search&utm_source=gBcvfFpabk3CnzmXKdYe3w", "phone": "", "coordinates": {"longitude": -73.9819, "latitude": 40.7645}, "categories": [{"alias": "yelpevents", "title": "Yelp Events"}], "review_count": 19, "location": {"city": "New York", "address1": "210 West 55th St", "address3": null, "address2": "", "zip_code": "10019", "country": "US", "display_address": ["210 West 55th St", "New York, NY 10019"], "state": "NY"}, "transactions": [], "display_phone": ""}, {"rating": 4.5, "is_closed": false, "distance": 1525.9144859044, "name": "Jupioca", "id": "jupioca-new-york", "image_url": "https://s3-media2.fl.yelpcdn.com/bphoto/rht8MnRxA3p-gVlxk4ukNg/o.jpg", "url": "https://www.yelp.com/biz/jupioca-new-york?adjust_creative=gBcvfFpabk3CnzmXKdYe3w&utm_campaign=yelp_api_v3&utm_medium=api_v3_business_search&utm_source=gBcvfFpabk3CnzmXKdYe3w", "phone": "+12125744849", "coordinates": {"longitude": -74.0090647196881, "latitude": 40.7133784356323}, "categories": [{"alias": "juicebars", "title": "Juice Bars & Smoothies"}, {"alias": "bubbletea", "title": "Bubble Tea"}, {"alias": "cafes", "title": "Cafes"}], "review_count": 52, "location": {"city": "New York", "address1": "113 Church St", "address3": "", "address2": "", "zip_code": "10007", "country": "US", "display_address": ["113 Church St", "New York, NY 10007"], "state": "NY"}, "price": "$", "transactions": ["delivery", "pickup"], "display_phone": "(212) 574-4849"}, {"rating": 4.0, "is_closed": false, "distance": 1870.4344935799998, "name": "Ed's Lobster Bar", "id": "eds-lobster-bar-new-york-3", "image_url": "https://s3-media3.fl.yelpcdn.com/bphoto/F2OtI0iiJj0CnudYP47sFA/o.jpg", "url": "https://www.yelp.com/biz/eds-lobster-bar-new-york-3?adjust_creative=gBcvfFpabk3CnzmXKdYe3w&utm_campaign=yelp_api_v3&utm_medium=api_v3_business_search&utm_source=gBcvfFpabk3CnzmXKdYe3w", "phone": "+12123433236", "coordinates": {"longitude": -73.997688, "latitude": 40.72211}, "categories": [{"alias": "seafood", "title": "Seafood"}, {"alias": "bars", "title": "Bars"}, {"alias": "soup", "title": "Soup"}], "review_count": 780, "location": {"city": "New York", "address1": "222 Lafayette St", "address3": "", "address2": "", "zip_code": "10012", "country": "US", "display_address": ["222 Lafayette St", "New York, NY 10012"], "state": "NY"}, "price": "$$$", "transactions": [], "display_phone": "(212) 343-3236"}, {"rating": 4.0, "is_closed": false, "distance": 2455.462092248, "name": "Malai Marke Indian Cuisine", "id": "malai-marke-indian-cuisine-new-york", "image_url": "https://s3-media2.fl.yelpcdn.com/bphoto/lRvQR5t76Q1Un_KpntLK4w/o.jpg", "url": "https://www.yelp.com/biz/malai-marke-indian-cuisine-new-york?adjust_creative=gBcvfFpabk3CnzmXKdYe3w&utm_campaign=yelp_api_v3&utm_medium=api_v3_business_search&utm_source=gBcvfFpabk3CnzmXKdYe3w", "phone": "+12127777729", "coordinates": {"longitude": -73.98758, "latitude": 40.726934}, "categories": [{"alias": "indpak", "title": "Indian"}], "review_count": 430, "location": {"city": "New York", "address1": "318 E 6th St", "address3": "", "address2": null, "zip_code": "10003", "country": "US", "display_address": ["318 E 6th St", "New York, NY 10003"], "state": "NY"}, "price": "$$", "transactions": ["delivery", "pickup"], "display_phone": "(212) 777-7729"}, {"rating": 4.5, "is_closed": false, "distance": 5016.445711484, "name": "Lucid Cafe", "id": "lucid-cafe-new-york-3", "image_url": "https://s3-media2.fl.yelpcdn.com/bphoto/4c7ef63juWj0pT3Oqw6iPQ/o.jpg", "url": "https://www.yelp.com/biz/lucid-cafe-new-york-3?adjust_creative=gBcvfFpabk3CnzmXKdYe3w&utm_campaign=yelp_api_v3&utm_medium=api_v3_business_search&utm_source=gBcvfFpabk3CnzmXKdYe3w", "phone": "+12128673490", "coordinates": {"longitude": -73.9779531955719, "latitude": 40.748740285635}, "categories": [{"alias": "coffee", "title": "Coffee & Tea"}], "review_count": 214, "location": {"city": "New York", "address1": "311 Lexington Ave", "address3": "", "address2": null, "zip_code": "10016", "country": "US", "display_address": ["311 Lexington Ave", "New York, NY 10016"], "state": "NY"}, "price": "$", "transactions": [], "display_phone": "(212) 867-3490"}, {"rating": 4.5, "is_closed": false, "distance": 5960.204530324, "name": "Zabka Eastern European Coffee Lounge", "id": "zabka-eastern-european-coffee-lounge-brooklyn-2", "image_url": "https://s3-media4.fl.yelpcdn.com/bphoto/PXeTRONxUYRsJmYiGdpkMQ/o.jpg", "url": "https://www.yelp.com/biz/zabka-eastern-european-coffee-lounge-brooklyn-2?adjust_creative=gBcvfFpabk3CnzmXKdYe3w&utm_campaign=yelp_api_v3&utm_medium=api_v3_business_search&utm_source=gBcvfFpabk3CnzmXKdYe3w", "phone": "+15185287809", "coordinates": {"longitude": -73.92956, "latitude": 40.68404}, "categories": [{"alias": "coffee", "title": "Coffee & Tea"}, {"alias": "polish", "title": "Polish"}, {"alias": "breakfast_brunch", "title": "Breakfast & Brunch"}], "review_count": 40, "location": {"city": "Brooklyn", "address1": "616 Halsey St", "address3": "", "address2": null, "zip_code": "11233", "country": "US", "display_address": ["616 Halsey St", "Brooklyn, NY 11233"], "state": "NY"}, "price": "$", "transactions": [], "display_phone": "(518) 528-7809"}, {"rating": 4.0, "is_closed": false, "distance": 3910.374332, "name": "Mywaycup Coffee", "id": "mywaycup-coffee-new-york", "image_url": "https://s3-media3.fl.yelpcdn.com/bphoto/qOLY2jPShjTKHK_t5vVuZg/o.jpg", "url": "https://www.yelp.com/biz/mywaycup-coffee-new-york?adjust_creative=gBcvfFpabk3CnzmXKdYe3w&utm_campaign=yelp_api_v3&utm_medium=api_v3_business_search&utm_source=gBcvfFpabk3CnzmXKdYe3w", "phone": "+16463681083", "coordinates": {"longitude": -73.9860941258456, "latitude": 40.7400207592455}, "categories": [{"alias": "coffee", "title": "Coffee & Tea"}], "review_count": 169, "location": {"city": "New York", "address1": "102 E 23rd St", "address3": "", "address2": null, "zip_code": "10010", "country": "US", "display_address": ["102 E 23rd St", "New York, NY 10010"], "state": "NY"}, "price": "$", "transactions": [], "display_phone": "(646) 368-1083"}, {"rating": 4.5, "is_closed": false, "distance": 5884.525477757999, "name": "Simon Sips", "id": "simon-sips-new-york-4", "image_url": "https://s3-media3.fl.yelpcdn.com/bphoto/1ctPxEo-NFFWlQ2VyH_Tuw/o.jpg", "url": "https://www.yelp.com/biz/simon-sips-new-york-4?adjust_creative=gBcvfFpabk3CnzmXKdYe3w&utm_campaign=yelp_api_v3&utm_medium=api_v3_business_search&utm_source=gBcvfFpabk3CnzmXKdYe3w", "phone": "+12123542100", "coordinates": {"longitude": -73.9821615, "latitude": 40.7575595}, "categories": [{"alias": "coffee", "title": "Coffee & Tea"}], "review_count": 156, "location": {"city": "New York", "address1": "1185 Ave Of The Americas", "address3": "", "address2": "", "zip_code": "10036", "country": "US", "display_address": ["1185 Ave Of The Americas", "New York, NY 10036"], "state": "NY"}, "price": "$$", "transactions": [], "display_phone": "(212) 354-2100"}, {"rating": 4.0, "is_closed": false, "distance": 3046.914658998, "name": "Hudson Clearwater", "id": "hudson-clearwater-new-york", "image_url": "https://s3-media4.fl.yelpcdn.com/bphoto/QAgF5pxNDkTHRTJn3bIAmQ/o.jpg", "url": "https://www.yelp.com/biz/hudson-clearwater-new-york?adjust_creative=gBcvfFpabk3CnzmXKdYe3w&utm_campaign=yelp_api_v3&utm_medium=api_v3_business_search&utm_source=gBcvfFpabk3CnzmXKdYe3w", "phone": "+12129893255", "coordinates": {"longitude": -74.006988, "latitude": 40.731094}, "categories": [{"alias": "newamerican", "title": "American (New)"}, {"alias": "breakfast_brunch", "title": "Breakfast & Brunch"}, {"alias": "wine_bars", "title": "Wine Bars"}], "review_count": 435, "location": {"city": "New York", "address1": "447 Hudson St", "address3": "", "address2": "", "zip_code": "10014", "country": "US", "display_address": ["447 Hudson St", "New York, NY 10014"], "state": "NY"}, "price": "$$$", "transactions": [], "display_phone": "(212) 989-3255"}, {"rating": 4.0, "is_closed": false, "distance": 2263.057448548, "name": "Boqueria", "id": "boqueria-new-york-2", "image_url": "https://s3-media1.fl.yelpcdn.com/bphoto/5iU1JDn8DGmNqg-RjJhPmA/o.jpg", "url": "https://www.yelp.com/biz/boqueria-new-york-2?adjust_creative=gBcvfFpabk3CnzmXKdYe3w&utm_campaign=yelp_api_v3&utm_medium=api_v3_business_search&utm_source=gBcvfFpabk3CnzmXKdYe3w", "phone": "+12123434255", "coordinates": {"longitude": -74.0021299, "latitude": 40.724912}, "categories": [{"alias": "spanish", "title": "Spanish"}], "review_count": 686, "location": {"city": "New York", "address1": "171 Spring St", "address3": "", "address2": "", "zip_code": "10012", "country": "US", "display_address": ["171 Spring St", "New York, NY 10012"], "state": "NY"}, "price": "$$$", "transactions": ["delivery", "pickup"], "display_phone": "(212) 343-4255"}, {"rating": 4.0, "is_closed": false, "distance": 2754.059035848, "name": "Aurora", "id": "aurora-brooklyn", "image_url": "https://s3-media4.fl.yelpcdn.com/bphoto/XTCRYGKSB1kvwvVBQflJ9Q/o.jpg", "url": "https://www.yelp.com/biz/aurora-brooklyn?adjust_creative=gBcvfFpabk3CnzmXKdYe3w&utm_campaign=yelp_api_v3&utm_medium=api_v3_business_search&utm_source=gBcvfFpabk3CnzmXKdYe3w", "phone": "+17183885100", "coordinates": {"longitude": -73.964771, "latitude": 40.716054}, "categories": [{"alias": "italian", "title": "Italian"}, {"alias": "breakfast_brunch", "title": "Breakfast & Brunch"}, {"alias": "comfortfood", "title": "Comfort Food"}], "review_count": 428, "location": {"city": "Brooklyn", "address1": "70 Grand St", "address3": "", "address2": "", "zip_code": "11249", "country": "US", "display_address": ["70 Grand St", "Brooklyn, NY 11249"], "state": "NY"}, "price": "$$", "transactions": ["delivery", "pickup"], "display_phone": "(718) 388-5100"}]}