{"total": 36020, "region": {"center": {"longitude": -122.33551025390625, "latitude": 47.62541904760501}}, "businesses": [{"rating": 4.5, "is_closed": false, "distance": 1883.5166575059998, "name": "Kerry Park", "id": "kerry-park-seattle", "image_url": "https://s3-media3.fl.yelpcdn.com/bphoto/DOejrsx8yu3Ppl7PWxnCqw/o.jpg", "url": "https://www.yelp.com/biz/kerry-park-seattle?adjust_creative=gBcvfFpabk3CnzmXKdYe3w&utm_campaign=yelp_api_v3&utm_medium=api_v3_business_search&utm_source=gBcvfFpabk3CnzmXKdYe3w", "phone": "+12066844075", "coordinates": {"longitude": -122.359552904963, "latitude": 47.6295290887356}, "categories": [{"alias": "parks", "title": "Parks"}, {"alias": "playgrounds", "title": "Playgrounds"}], "review_count": 711, "location": {"city": "Seattle", "address1": "211 W Highland Dr", "address3": "", "address2": "", "zip_code": "98119", "country": "US", "display_address": ["211 W Highland Dr", "Seattle, WA 98119"], "state": "WA"}, "transactions": [], "display_phone": "(206) 684-4075"}, {"rating": 4.5, "is_closed": false, "distance": 1769.7751046, "name": "Cederberg Tea House", "id": "cederberg-tea-house-seattle-2", "image_url": "https://s3-media1.fl.yelpcdn.com/bphoto/u9DdkQ8zPs1CTgHbjyAhZA/o.jpg", "url": "https://www.yelp.com/biz/cederberg-tea-house-seattle-2?adjust_creative=gBcvfFpabk3CnzmXKdYe3w&utm_campaign=yelp_api_v3&utm_medium=api_v3_business_search&utm_source=gBcvfFpabk3CnzmXKdYe3w", "phone": "+12062851352", "coordinates": {"longitude": -122.356939564896, "latitude": 47.6321057378511}, "categories": [{"alias": "coffee", "title": "Coffee & Tea"}, {"alias": "bakeries", "title": "Bakeries"}, {"alias": "southafrican", "title": "South African"}], "review_count": 221, "location": {"city": "Seattle", "address1": "1417 Queen Anne Ave N", "address3": "", "address2": "Ste 101 B", "zip_code": "98109", "country": "US", "display_address": ["1417 Queen Anne Ave N", "Ste 101 B", "Seattle, WA 98109"], "state": "WA"}, "price": "$", "transactions": [], "display_phone": "(206) 285-1352"}, {"rating": 4.5, "is_closed": false, "distance": 1572.403554858, "name": "Monorail Espresso", "id": "monorail-espresso-seattle", "image_url": "https://s3-media2.fl.yelpcdn.com/bphoto/25oDr-Xs6ag0Y62gh9rOEA/o.jpg", "url": "https://www.yelp.com/biz/monorail-espresso-seattle?adjust_creative=gBcvfFpabk3CnzmXKdYe3w&utm_campaign=yelp_api_v3&utm_medium=api_v3_business_search&utm_source=gBcvfFpabk3CnzmXKdYe3w", "phone": "+12064220736", "coordinates": {"longitude": -122.334991455078, "latitude": 47.6112365722656}, "categories": [{"alias": "coffee", "title": "Coffee & Tea"}], "review_count": 428, "location": {"city": "Seattle", "address1": "520 Pike St", "address3": "", "address2": "", "zip_code": "98101", "country": "US", "display_address": ["520 Pike St", "Seattle, WA 98101"], "state": "WA"}, "price": "$", "transactions": [], "display_phone": "(206) 422-0736"}, {"rating": 4.5, "is_closed": false, "distance": 1209.8615785, "name": "Le Caviste", "id": "le-caviste-seattle", "image_url": "https://s3-media3.fl.yelpcdn.com/bphoto/uUdTm1S-G6Lz1eA0YS_uMw/o.jpg", "url": "https://www.yelp.com/biz/le-caviste-seattle?adjust_creative=gBcvfFpabk3CnzmXKdYe3w&utm_campaign=yelp_api_v3&utm_medium=api_v3_business_search&utm_source=gBcvfFpabk3CnzmXKdYe3w", "phone": "+12067282657", "coordinates": {"longitude": -122.3366618, "latitude": 47.6145686}, "categories": [{"alias": "wine_bars", "title": "Wine Bars"}, {"alias": "french", "title": "French"}], "review_count": 151, "location": {"city": "Seattle", "address1": "1919 7th Ave", "address3": "", "address2": "", "zip_code": "98101", "country": "US", "display_address": ["1919 7th Ave", "Seattle, WA 98101"], "state": "WA"}, "price": "$$", "transactions": [], "display_phone": "(206) 728-2657"}, {"rating": 5.0, "is_closed": false, "distance": 853.8071735499999, "name": "Cheese Wizards Food Truck", "id": "cheese-wizards-food-truck-seattle", "image_url": "https://s3-media4.fl.yelpcdn.com/bphoto/CIvolK-R87uxf3bX-gKCtQ/o.jpg", "url": "https://www.yelp.com/biz/cheese-wizards-food-truck-seattle?adjust_creative=gBcvfFpabk3CnzmXKdYe3w&utm_campaign=yelp_api_v3&utm_medium=api_v3_business_search&utm_source=gBcvfFpabk3CnzmXKdYe3w", "phone": "+12069494024", "coordinates": {"longitude": -122.345626831055, "latitude": 47.6312065124512}, "categories": [{"alias": "sandwiches", "title": "Sandwiches"}, {"alias": "foodtrucks", "title": "Food Trucks"}], "review_count": 106, "location": {"city": "Seattle", "address1": "", "address3": "", "address2": "", "zip_code": "98109", "country": "US", "display_address": ["Seattle, WA 98109"], "state": "WA"}, "price": "$", "transactions": [], "display_phone": "(206) 949-4024"}, {"rating": 4.5, "is_closed": false, "distance": 1196.4578684419998, "name": "Tacos Chukis", "id": "tacos-chukis-seattle", "image_url": "https://s3-media2.fl.yelpcdn.com/bphoto/ZSJozswEEEkKfq0J6GfmEQ/o.jpg", "url": "https://www.yelp.com/biz/tacos-chukis-seattle?adjust_creative=gBcvfFpabk3CnzmXKdYe3w&utm_campaign=yelp_api_v3&utm_medium=api_v3_business_search&utm_source=gBcvfFpabk3CnzmXKdYe3w", "phone": "+12063284447", "coordinates": {"longitude": -122.321262359619, "latitude": 47.620570445175}, "categories": [{"alias": "mexican", "title": "Mexican"}, {"alias": "sandwiches", "title": "Sandwiches"}], "review_count": 924, "location": {"city": "Seattle", "address1": "219 Broadway E", "address3": "", "address2": "", "zip_code": "98102", "country": "US", "display_address": ["219 Broadway E", "Seattle, WA 98102"], "state": "WA"}, "price": "$", "transactions": [], "display_phone": "(206) 328-4447"}, {"rating": 4.5, "is_closed": false, "distance": 1368.5996340699999, "name": "Street Bean Coffee", "id": "street-bean-coffee-seattle-2", "image_url": "https://s3-media2.fl.yelpcdn.com/bphoto/72LyVk1quZT3QMH4ymSjuA/o.jpg", "url": "https://www.yelp.com/biz/street-bean-coffee-seattle-2?adjust_creative=gBcvfFpabk3CnzmXKdYe3w&utm_campaign=yelp_api_v3&utm_medium=api_v3_business_search&utm_source=gBcvfFpabk3CnzmXKdYe3w", "phone": "+12067086803", "coordinates": {"longitude": -122.3493343, "latitude": 47.6173786}, "categories": [{"alias": "coffee", "title": "Coffee & Tea"}], "review_count": 205, "location": {"city": "Seattle", "address1": "2711 3rd Ave", "address3": "", "address2": "", "zip_code": "98121", "country": "US", "display_address": ["2711 3rd Ave", "Seattle, WA 98121"], "state": "WA"}, "price": "$", "transactions": [], "display_phone": "(206) 708-6803"}, {"rating": 4.5, "is_closed": false, "distance": 1739.052964934, "name": "Ada's Technical Books and Cafe", "id": "adas-technical-books-and-cafe-seattle", "image_url": "https://s3-media2.fl.yelpcdn.com/bphoto/w_eDvF1TcfgOviNbnIS5sg/o.jpg", "url": "https://www.yelp.com/biz/adas-technical-books-and-cafe-seattle?adjust_creative=gBcvfFpabk3CnzmXKdYe3w&utm_campaign=yelp_api_v3&utm_medium=api_v3_business_search&utm_source=gBcvfFpabk3CnzmXKdYe3w", "phone": "+12063221058", "coordinates": {"longitude": -122.3126743, "latitude": 47.6226405233527}, "categories": [{"alias": "bookstores", "title": "Bookstores"}, {"alias": "cafes", "title": "Cafes"}], "review_count": 172, "location": {"city": "Seattle", "address1": "425 15th Ave E", "address3": "", "address2": "", "zip_code": "98112", "country": "US", "display_address": ["425 15th Ave E", "Seattle, WA 98112"], "state": "WA"}, "price": "$", "transactions": [], "display_phone": "(206) 322-1058"}, {"rating": 4.5, "is_closed": false, "distance": 1816.5669869679998, "name": "Bakery Nouveau", "id": "bakery-nouveau-seattle-3", "image_url": "https://s3-media2.fl.yelpcdn.com/bphoto/bO84GBuLXp7IVNDgNh-Dnw/o.jpg", "url": "https://www.yelp.com/biz/bakery-nouveau-seattle-3?adjust_creative=gBcvfFpabk3CnzmXKdYe3w&utm_campaign=yelp_api_v3&utm_medium=api_v3_business_search&utm_source=gBcvfFpabk3CnzmXKdYe3w", "phone": "+12068586957", "coordinates": {"longitude": -122.312891077337, "latitude": 47.6195513808201}, "categories": [{"alias": "bakeries", "title": "Bakeries"}, {"alias": "cafes", "title": "Cafes"}, {"alias": "cakeshop", "title": "Patisserie/Cake Shop"}], "review_count": 660, "location": {"city": "Seattle", "address1": "1435 E John St", "address3": "", "address2": "Ste 137", "zip_code": "98112", "country": "US", "display_address": ["1435 E John St", "Ste 137", "Seattle, WA 98112"], "state": "WA"}, "price": "$", "transactions": [], "display_phone": "(206) 858-6957"}, {"rating": 4.5, "is_closed": false, "distance": 1874.8653284680001, "name": "Storyville Coffee Company", "id": "storyville-coffee-company-seattle-9", "image_url": "https://s3-media2.fl.yelpcdn.com/bphoto/XK0ThNt664M84V3QPeLggg/o.jpg", "url": "https://www.yelp.com/biz/storyville-coffee-company-seattle-9?adjust_creative=gBcvfFpabk3CnzmXKdYe3w&utm_campaign=yelp_api_v3&utm_medium=api_v3_business_search&utm_source=gBcvfFpabk3CnzmXKdYe3w", "phone": "+12067805777", "coordinates": {"longitude": -122.3403957, "latitude": 47.6088847}, "categories": [{"alias": "coffee", "title": "Coffee & Tea"}], "review_count": 819, "location": {"city": "Seattle", "address1": "94 Pike St", "address3": "", "address2": "Ste 34", "zip_code": "98101", "country": "US", "display_address": ["94 Pike St", "Ste 34", "Seattle, WA 98101"], "state": "WA"}, "price": "$$", "transactions": ["delivery", "pickup"], "display_phone": "(206) 780-5777"}, {"rating": 4.5, "is_closed": false, "distance": 1737.669093468, "name": "Modern Steep", "id": "modern-steep-seattle", "image_url": "https://s3-media2.fl.yelpcdn.com/bphoto/RhLvECMWNbfVTq33roP9Ag/o.jpg", "url": "https://www.yelp.com/biz/modern-steep-seattle?adjust_creative=gBcvfFpabk3CnzmXKdYe3w&utm_campaign=yelp_api_v3&utm_medium=api_v3_business_search&utm_source=gBcvfFpabk3CnzmXKdYe3w", "phone": "+12063234832", "coordinates": {"longitude": -122.31297, "latitude": 47.62179}, "categories": [{"alias": "coffee", "title": "Coffee & Tea"}, {"alias": "tea", "title": "Tea Rooms"}], "review_count": 409, "location": {"city": "Seattle", "address1": "345 15th Ave E", "address3": "", "address2": "Ste 103", "zip_code": "98112", "country": "US", "display_address": ["345 15th Ave E", "Ste 103", "Seattle, WA 98112"], "state": "WA"}, "price": "$$", "transactions": [], "display_phone": "(206) 323-4832"}, {"rating": 4.5, "is_closed": false, "distance": 1143.4730043529999, "name": "Espresso Vivace Sidewalk Bar", "id": "espresso-vivace-sidewalk-bar-seattle", "image_url": "https://s3-media1.fl.yelpcdn.com/bphoto/4qtzX0OHyj_tpmPZqvAnSw/o.jpg", "url": "https://www.yelp.com/biz/espresso-vivace-sidewalk-bar-seattle?adjust_creative=gBcvfFpabk3CnzmXKdYe3w&utm_campaign=yelp_api_v3&utm_medium=api_v3_business_search&utm_source=gBcvfFpabk3CnzmXKdYe3w", "phone": "+12068605869", "coordinates": {"longitude": -122.321304, "latitude": 47.621665}, "categories": [{"alias": "coffee", "title": "Coffee & Tea"}], "review_count": 373, "location": {"city": "Seattle", "address1": "321 Broadway E", "address3": "", "address2": null, "zip_code": "98102", "country": "US", "display_address": ["321 Broadway E", "Seattle, WA 98102"], "state": "WA"}, "price": "$", "transactions": [], "display_phone": "(206) 860-5869"}, {"rating": 5.0, "is_closed": false, "distance": 1982.798934248, "name": "The Growl Store", "id": "the-growl-store-seattle", "image_url": "https://s3-media3.fl.yelpcdn.com/bphoto/D9zg5kWCpBbeIT5yNUuBYg/o.jpg", "url": "https://www.yelp.com/biz/the-growl-store-seattle?adjust_creative=gBcvfFpabk3CnzmXKdYe3w&utm_campaign=yelp_api_v3&utm_medium=api_v3_business_search&utm_source=gBcvfFpabk3CnzmXKdYe3w", "phone": "+12067261000", "coordinates": {"longitude": -122.31591, "latitude": 47.61351}, "categories": [{"alias": "beerbar", "title": "Beer Bar"}], "review_count": 31, "location": {"city": "Seattle", "address1": "1222 E Madison St", "address3": "", "address2": "Ste C", "zip_code": "98122", "country": "US", "display_address": ["1222 E Madison St", "Ste C", "Seattle, WA 98122"], "state": "WA"}, "price": "$$", "transactions": [], "display_phone": "(206) 726-1000"}, {"rating": 4.5, "is_closed": false, "distance": 3529.6286281, "name": "Washington Park Arboretum", "id": "washington-park-arboretum-seattle-2", "image_url": "https://s3-media3.fl.yelpcdn.com/bphoto/C2b17BIgfVDan2v26eyRww/o.jpg", "url": "https://www.yelp.com/biz/washington-park-arboretum-seattle-2?adjust_creative=gBcvfFpabk3CnzmXKdYe3w&utm_campaign=yelp_api_v3&utm_medium=api_v3_business_search&utm_source=gBcvfFpabk3CnzmXKdYe3w", "phone": "+12065438800", "coordinates": {"longitude": -122.2939888, "latitude": 47.6379108}, "categories": [{"alias": "parks", "title": "Parks"}], "review_count": 180, "location": {"city": "Seattle", "address1": "2300 Arboretum Dr E", "address3": "", "address2": "", "zip_code": "98112", "country": "US", "display_address": ["2300 Arboretum Dr E", "Seattle, WA 98112"], "state": "WA"}, "transactions": [], "display_phone": "(206) 543-8800"}, {"rating": 4.5, "is_closed": false, "distance": 1537.3248513449998, "name": "Some Random Bar", "id": "some-random-bar-seattle", "image_url": "https://s3-media2.fl.yelpcdn.com/bphoto/m4hfcLhvJbEGdbgI3DhvqA/o.jpg", "url": "https://www.yelp.com/biz/some-random-bar-seattle?adjust_creative=gBcvfFpabk3CnzmXKdYe3w&utm_campaign=yelp_api_v3&utm_medium=api_v3_business_search&utm_source=gBcvfFpabk3CnzmXKdYe3w", "phone": "", "coordinates": {"longitude": -122.349802245912, "latitude": 47.6155010022786}, "categories": [{"alias": "gastropubs", "title": "Gastropubs"}, {"alias": "cocktailbars", "title": "Cocktail Bars"}, {"alias": "breakfast_brunch", "title": "Breakfast & Brunch"}], "review_count": 555, "location": {"city": "Seattle", "address1": "2604 1st Ave", "address3": "", "address2": null, "zip_code": "98121", "country": "US", "display_address": ["2604 1st Ave", "Seattle, WA 98121"], "state": "WA"}, "price": "$$", "transactions": [], "display_phone": ""}, {"rating": 4.5, "is_closed": false, "distance": 1924.9405863040001, "name": "MarketSpice", "id": "marketspice-seattle", "image_url": "https://s3-media3.fl.yelpcdn.com/bphoto/1exjNdATfNKTHu5IOt3bHQ/o.jpg", "url": "https://www.yelp.com/biz/marketspice-seattle?adjust_creative=gBcvfFpabk3CnzmXKdYe3w&utm_campaign=yelp_api_v3&utm_medium=api_v3_business_search&utm_source=gBcvfFpabk3CnzmXKdYe3w", "phone": "+12066226340", "coordinates": {"longitude": -122.34081, "latitude": 47.60832}, "categories": [{"alias": "coffee", "title": "Coffee & Tea"}, {"alias": "herbsandspices", "title": "Herbs & Spices"}], "review_count": 219, "location": {"city": "Seattle", "address1": "85A Pike St", "address3": "", "address2": "", "zip_code": "98101", "country": "US", "display_address": ["85A Pike St", "Seattle, WA 98101"], "state": "WA"}, "price": "$$", "transactions": [], "display_phone": "(206) 622-6340"}, {"rating": 4.5, "is_closed": false, "distance": 2881.195930244, "name": "Salumi Artisan Cured Meats", "id": "salumi-artisan-cured-meats-seattle-2", "image_url": "https://s3-media3.fl.yelpcdn.com/bphoto/MKLw35GIOC3Dn8_5FZLopA/o.jpg", "url": "https://www.yelp.com/biz/salumi-artisan-cured-meats-seattle-2?adjust_creative=gBcvfFpabk3CnzmXKdYe3w&utm_campaign=yelp_api_v3&utm_medium=api_v3_business_search&utm_source=gBcvfFpabk3CnzmXKdYe3w", "phone": "+12066218772", "coordinates": {"longitude": -122.33058, "latitude": 47.59969}, "categories": [{"alias": "sandwiches", "title": "Sandwiches"}, {"alias": "meats", "title": "Meat Shops"}], "review_count": 1195, "location": {"city": "Seattle", "address1": "309 3rd Ave S", "address3": "", "address2": "", "zip_code": "98104", "country": "US", "display_address": ["309 3rd Ave S", "Seattle, WA 98104"], "state": "WA"}, "price": "$$", "transactions": [], "display_phone": "(206) 621-8772"}, {"rating": 4.5, "is_closed": false, "distance": 2574.84422092, "name": "Il Corvo Pasta", "id": "il-corvo-pasta-seattle", "image_url": "https://s3-media1.fl.yelpcdn.com/bphoto/5lon1Dkb7r1rbEf5z8qdow/o.jpg", "url": "https://www.yelp.com/biz/il-corvo-pasta-seattle?adjust_creative=gBcvfFpabk3CnzmXKdYe3w&utm_campaign=yelp_api_v3&utm_medium=api_v3_business_search&utm_source=gBcvfFpabk3CnzmXKdYe3w", "phone": "+12065380999", "coordinates": {"longitude": -122.33165, "latitude": 47.60244}, "categories": [{"alias": "italian", "title": "Italian"}, {"alias": "noodles", "title": "Noodles"}, {"alias": "pastashops", "title": "Pasta Shops"}], "review_count": 624, "location": {"city": "Seattle", "address1": "217 James St", "address3": "", "address2": "", "zip_code": "98104", "country": "US", "display_address": ["217 James St", "Seattle, WA 98104"], "state": "WA"}, "price": "$$", "transactions": [], "display_phone": "(206) 538-0999"}, {"rating": 4.5, "is_closed": false, "distance": 1069.62127689, "name": "Altura", "id": "altura-seattle", "image_url": "https://s3-media1.fl.yelpcdn.com/bphoto/f-RK_kUvPB5VBQg_lO4Ncw/o.jpg", "url": "https://www.yelp.com/biz/altura-seattle?adjust_creative=gBcvfFpabk3CnzmXKdYe3w&utm_campaign=yelp_api_v3&utm_medium=api_v3_business_search&utm_source=gBcvfFpabk3CnzmXKdYe3w", "phone": "+12064026749", "coordinates": {"longitude": -122.32115, "latitude": 47.62488}, "categories": [{"alias": "italian", "title": "Italian"}], "review_count": 383, "location": {"city": "Seattle", "address1": "617 Broadway E", "address3": "", "address2": "", "zip_code": "98102", "country": "US", "display_address": ["617 Broadway E", "Seattle, WA 98102"], "state": "WA"}, "price": "$$$$", "transactions": [], "display_phone": "(206) 402-6749"}, {"rating": 4.5, "is_closed": false, "distance": 2509.524489934, "name": "Queen Bee Cafe", "id": "queen-bee-cafe-seattle", "image_url": "https://s3-media1.fl.yelpcdn.com/bphoto/4W51jFWZ5Dcjjyf2I5shdw/o.jpg", "url": "https://www.yelp.com/biz/queen-bee-cafe-seattle?adjust_creative=gBcvfFpabk3CnzmXKdYe3w&utm_campaign=yelp_api_v3&utm_medium=api_v3_business_search&utm_source=gBcvfFpabk3CnzmXKdYe3w", "phone": "+12067576314", "coordinates": {"longitude": -122.303524240851, "latitude": 47.6186051219702}, "categories": [{"alias": "cafes", "title": "Cafes"}, {"alias": "coffee", "title": "Coffee & Tea"}, {"alias": "breakfast_brunch", "title": "Breakfast & Brunch"}], "review_count": 198, "location": {"city": "Seattle", "address1": "2200 E Madison St", "address3": "", "address2": "Ste B", "zip_code": "98112", "country": "US", "display_address": ["2200 E Madison St", "Ste B", "Seattle, WA 98112"], "state": "WA"}, "price": "$", "transactions": [], "display_phone": "(206) 757-6314"}, {"rating": 4.5, "is_closed": false, "distance": 1912.744524982, "name": "Ghost Alley Espresso", "id": "ghost-alley-espresso-seattle", "image_url": "https://s3-media2.fl.yelpcdn.com/bphoto/yi8tUfyeVSMwQjoi1KlZ9w/o.jpg", "url": "https://www.yelp.com/biz/ghost-alley-espresso-seattle?adjust_creative=gBcvfFpabk3CnzmXKdYe3w&utm_campaign=yelp_api_v3&utm_medium=api_v3_business_search&utm_source=gBcvfFpabk3CnzmXKdYe3w", "phone": "+12068050195", "coordinates": {"longitude": -122.3406767, "latitude": 47.6085748}, "categories": [{"alias": "coffee", "title": "Coffee & Tea"}, {"alias": "cafes", "title": "Cafes"}], "review_count": 195, "location": {"city": "Seattle", "address1": "1499 Post Aly", "address3": "Pike Place Market", "address2": "", "zip_code": "98101", "country": "US", "display_address": ["1499 Post Aly", "Pike Place Market", "Seattle, WA 98101"], "state": "WA"}, "price": "$", "transactions": [], "display_phone": "(206) 805-0195"}, {"rating": 4.5, "is_closed": false, "distance": 1848.2735599119999, "name": "Umma's Lunch Box", "id": "ummas-lunch-box-seattle", "image_url": "https://s3-media4.fl.yelpcdn.com/bphoto/1Cq7uSCEgC7xsb-MXJ-AQg/o.jpg", "url": "https://www.yelp.com/biz/ummas-lunch-box-seattle?adjust_creative=gBcvfFpabk3CnzmXKdYe3w&utm_campaign=yelp_api_v3&utm_medium=api_v3_business_search&utm_source=gBcvfFpabk3CnzmXKdYe3w", "phone": "+12068543166", "coordinates": {"longitude": -122.33444, "latitude": 47.60862}, "categories": [{"alias": "korean", "title": "Korean"}, {"alias": "buffets", "title": "Buffets"}], "review_count": 288, "location": {"city": "Seattle", "address1": "1301 5th Ave", "address3": "Concourse", "address2": "", "zip_code": "98101", "country": "US", "display_address": ["1301 5th Ave", "Concourse", "Seattle, WA 98101"], "state": "WA"}, "price": "$", "transactions": [], "display_phone": "(206) 854-3166"}, {"rating": 4.5, "is_closed": false, "distance": 2862.6122375279997, "name": "Schilling Cider House", "id": "schilling-cider-house-seattle", "image_url": "https://s3-media4.fl.yelpcdn.com/bphoto/QH-2jlH6QBuD5oB1t6pKHg/o.jpg", "url": "https://www.yelp.com/biz/schilling-cider-house-seattle?adjust_creative=gBcvfFpabk3CnzmXKdYe3w&utm_campaign=yelp_api_v3&utm_medium=api_v3_business_search&utm_source=gBcvfFpabk3CnzmXKdYe3w", "phone": "+12064207088", "coordinates": {"longitude": -122.349140569568, "latitude": 47.6495558023453}, "categories": [{"alias": "bars", "title": "Bars"}, {"alias": "cideries", "title": "Cideries"}], "review_count": 204, "location": {"city": "Seattle", "address1": "708 N 34th St", "address3": "", "address2": "", "zip_code": "98103", "country": "US", "display_address": ["708 N 34th St", "Seattle, WA 98103"], "state": "WA"}, "price": "$$", "transactions": [], "display_phone": "(206) 420-7088"}, {"rating": 4.5, "is_closed": false, "distance": 1860.5370525800001, "name": "The Crumpet Shop", "id": "the-crumpet-shop-seattle", "image_url": "https://s3-media3.fl.yelpcdn.com/bphoto/omMQvG3tyiEWvCoB4cRGPA/o.jpg", "url": "https://www.yelp.com/biz/the-crumpet-shop-seattle?adjust_creative=gBcvfFpabk3CnzmXKdYe3w&utm_campaign=yelp_api_v3&utm_medium=api_v3_business_search&utm_source=gBcvfFpabk3CnzmXKdYe3w", "phone": "+12066821598", "coordinates": {"longitude": -122.340491730164, "latitude": 47.6090277348593}, "categories": [{"alias": "bakeries", "title": "Bakeries"}, {"alias": "coffee", "title": "Coffee & Tea"}, {"alias": "breakfast_brunch", "title": "Breakfast & Brunch"}], "review_count": 1664, "location": {"city": "Seattle", "address1": "1503 1st Ave", "address3": "", "address2": "", "zip_code": "98101", "country": "US", "display_address": ["1503 1st Ave", "Seattle, WA 98101"], "state": "WA"}, "price": "$", "transactions": [], "display_phone": "(206) 682-1598"}, {"rating": 4.5, "is_closed": false, "distance": 1584.5363208377998, "name": "Moore Coffee Shop", "id": "moore-coffee-shop-seattle", "image_url": "https://s3-media4.fl.yelpcdn.com/bphoto/OPei4QKGtpMz59d0szCqfQ/o.jpg", "url": "https://www.yelp.com/biz/moore-coffee-shop-seattle?adjust_creative=gBcvfFpabk3CnzmXKdYe3w&utm_campaign=yelp_api_v3&utm_medium=api_v3_business_search&utm_source=gBcvfFpabk3CnzmXKdYe3w", "phone": "+12068837044", "coordinates": {"longitude": -122.3412531, "latitude": 47.611705}, "categories": [{"alias": "coffee", "title": "Coffee & Tea"}, {"alias": "sandwiches", "title": "Sandwiches"}, {"alias": "waffles", "title": "Waffles"}], "review_count": 698, "location": {"city": "Seattle", "address1": "1930 2nd Ave", "address3": "", "address2": null, "zip_code": "98101", "country": "US", "display_address": ["1930 2nd Ave", "Seattle, WA 98101"], "state": "WA"}, "price": "$", "transactions": [], "display_phone": "(206) 883-7044"}, {"rating": 4.5, "is_closed": false, "distance": 1620.272407554, "name": "Volunteer Park", "id": "volunteer-park-seattle", "image_url": "https://s3-media1.fl.yelpcdn.com/bphoto/gkd2EFqSfrFzPKRLtvzmHQ/o.jpg", "url": "https://www.yelp.com/biz/volunteer-park-seattle?adjust_creative=gBcvfFpabk3CnzmXKdYe3w&utm_campaign=yelp_api_v3&utm_medium=api_v3_business_search&utm_source=gBcvfFpabk3CnzmXKdYe3w", "phone": "+12066844075", "coordinates": {"longitude": -122.3126449, "latitude": 47.6314277}, "categories": [{"alias": "parks", "title": "Parks"}, {"alias": "playgrounds", "title": "Playgrounds"}], "review_count": 169, "location": {"city": "Seattle", "address1": "1247 15th Ave E", "address3": "", "address2": null, "zip_code": "98102", "country": "US", "display_address": ["1247 15th Ave E", "Seattle, WA 98102"], "state": "WA"}, "transactions": [], "display_phone": "(206) 684-4075"}, {"rating": 4.5, "is_closed": false, "distance": 1221.991335014, "name": "Eggs & Plants", "id": "eggs-and-plants-seattle", "image_url": "https://s3-media1.fl.yelpcdn.com/bphoto/0fm9D1L99ufQ4GPdRNSK1g/o.jpg", "url": "https://www.yelp.com/biz/eggs-and-plants-seattle?adjust_creative=gBcvfFpabk3CnzmXKdYe3w&utm_campaign=yelp_api_v3&utm_medium=api_v3_business_search&utm_source=gBcvfFpabk3CnzmXKdYe3w", "phone": "+12064482050", "coordinates": {"longitude": -122.3429413, "latitude": 47.6156197}, "categories": [{"alias": "mediterranean", "title": "Mediterranean"}, {"alias": "vegetarian", "title": "Vegetarian"}, {"alias": "mideastern", "title": "Middle Eastern"}], "review_count": 128, "location": {"city": "Seattle", "address1": "2229 5th Ave", "address3": "", "address2": null, "zip_code": "98121", "country": "US", "display_address": ["2229 5th Ave", "Seattle, WA 98121"], "state": "WA"}, "price": "$", "transactions": ["delivery", "pickup"], "display_phone": "(206) 448-2050"}, {"rating": 4.5, "is_closed": false, "distance": 747.585825063, "name": "Sun Liquor", "id": "sun-liquor-seattle", "image_url": "https://s3-media1.fl.yelpcdn.com/bphoto/RDeTvrHjoeJgtZuadlpwuw/o.jpg", "url": "https://www.yelp.com/biz/sun-liquor-seattle?adjust_creative=gBcvfFpabk3CnzmXKdYe3w&utm_campaign=yelp_api_v3&utm_medium=api_v3_business_search&utm_source=gBcvfFpabk3CnzmXKdYe3w", "phone": "+12068601130", "coordinates": {"longitude": -122.32560712946, "latitude": 47.62460938971}, "categories": [{"alias": "lounges", "title": "Lounges"}, {"alias": "cocktailbars", "title": "Cocktail Bars"}], "review_count": 345, "location": {"city": "Seattle", "address1": "607 Summit Ave E", "address3": "", "address2": null, "zip_code": "98102", "country": "US", "display_address": ["607 Summit Ave E", "Seattle, WA 98102"], "state": "WA"}, "price": "$$", "transactions": [], "display_phone": "(206) 860-1130"}, {"rating": 4.5, "is_closed": false, "distance": 1833.4842081139998, "name": "Pike Place Chowder", "id": "pike-place-chowder-seattle", "image_url": "https://s3-media3.fl.yelpcdn.com/bphoto/ijju-wYoRAxWjHPTCxyQGQ/o.jpg", "url": "https://www.yelp.com/biz/pike-place-chowder-seattle?adjust_creative=gBcvfFpabk3CnzmXKdYe3w&utm_campaign=yelp_api_v3&utm_medium=api_v3_business_search&utm_source=gBcvfFpabk3CnzmXKdYe3w", "phone": "+12062672537", "coordinates": {"longitude": -122.3410995, "latitude": 47.6093656}, "categories": [{"alias": "seafood", "title": "Seafood"}, {"alias": "tradamerican", "title": "American (Traditional)"}, {"alias": "soup", "title": "Soup"}], "review_count": 4591, "location": {"city": "Seattle", "address1": "1530 Post Aly", "address3": "", "address2": "Ste 11", "zip_code": "98101", "country": "US", "display_address": ["1530 Post Aly", "Ste 11", "Seattle, WA 98101"], "state": "WA"}, "price": "$$", "transactions": [], "display_phone": "(206) 267-2537"}, {"rating": 5.0, "is_closed": false, "distance": 1435.7658413049999, "name": "FOB Poke Bar", "id": "fob-poke-bar-seattle-2", "image_url": "https://s3-media3.fl.yelpcdn.com/bphoto/bcWONWjGUOm3mqw0mqFrAg/o.jpg", "url": "https://www.yelp.com/biz/fob-poke-bar-seattle-2?adjust_creative=gBcvfFpabk3CnzmXKdYe3w&utm_campaign=yelp_api_v3&utm_medium=api_v3_business_search&utm_source=gBcvfFpabk3CnzmXKdYe3w", "phone": "+12067289888", "coordinates": {"longitude": -122.343868017197, "latitude": 47.6138005187095}, "categories": [{"alias": "poke", "title": "Poke"}, {"alias": "salad", "title": "Salad"}, {"alias": "hawaiian", "title": "Hawaiian"}], "review_count": 95, "location": {"city": "Seattle", "address1": "220 Blanchard St", "address3": null, "address2": "", "zip_code": "98121", "country": "US", "display_address": ["220 Blanchard St", "Seattle, WA 98121"], "state": "WA"}, "price": "$$", "transactions": [], "display_phone": "(206) 728-9888"}, {"rating": 4.5, "is_closed": false, "distance": 3841.1316738299997, "name": "Paseo Caribbean Food - Fremont", "id": "paseo-caribbean-food-fremont-seattle-2", "image_url": "https://s3-media1.fl.yelpcdn.com/bphoto/EkY6eLJLjuK3w1S4wbxqXg/o.jpg", "url": "https://www.yelp.com/biz/paseo-caribbean-food-fremont-seattle-2?adjust_creative=gBcvfFpabk3CnzmXKdYe3w&utm_campaign=yelp_api_v3&utm_medium=api_v3_business_search&utm_source=gBcvfFpabk3CnzmXKdYe3w", "phone": "+12065457440", "coordinates": {"longitude": -122.350311279297, "latitude": 47.6584968566895}, "categories": [{"alias": "caribbean", "title": "Caribbean"}, {"alias": "cuban", "title": "Cuban"}, {"alias": "sandwiches", "title": "Sandwiches"}], "review_count": 4370, "location": {"city": "Seattle", "address1": "4225 Fremont Ave N", "address3": "", "address2": "", "zip_code": "98103", "country": "US", "display_address": ["4225 Fremont Ave N", "Seattle, WA 98103"], "state": "WA"}, "price": "$", "transactions": [], "display_phone": "(206) 545-7440"}, {"rating": 4.5, "is_closed": false, "distance": 2894.8225338919997, "name": "Tenth West", "id": "tenth-west-seattle", "image_url": "https://s3-media2.fl.yelpcdn.com/bphoto/QDxxCkNA_yNQJtHyIzfrFA/o.jpg", "url": "https://www.yelp.com/biz/tenth-west-seattle?adjust_creative=gBcvfFpabk3CnzmXKdYe3w&utm_campaign=yelp_api_v3&utm_medium=api_v3_business_search&utm_source=gBcvfFpabk3CnzmXKdYe3w", "phone": "+12067086742", "coordinates": {"longitude": -122.370742797852, "latitude": 47.6361083984375}, "categories": [{"alias": "breakfast_brunch", "title": "Breakfast & Brunch"}, {"alias": "sandwiches", "title": "Sandwiches"}], "review_count": 101, "location": {"city": "Seattle", "address1": "1903 10th Ave W", "address3": "", "address2": "", "zip_code": "98119", "country": "US", "display_address": ["1903 10th Ave W", "Seattle, WA 98119"], "state": "WA"}, "price": "$$", "transactions": [], "display_phone": "(206) 708-6742"}, {"rating": 4.5, "is_closed": false, "distance": 2963.0751260939996, "name": "Windy City Pie", "id": "windy-city-pie-seattle", "image_url": "https://s3-media3.fl.yelpcdn.com/bphoto/FkUs1r5EAY0ziqJk85GcVA/o.jpg", "url": "https://www.yelp.com/biz/windy-city-pie-seattle?adjust_creative=gBcvfFpabk3CnzmXKdYe3w&utm_campaign=yelp_api_v3&utm_medium=api_v3_business_search&utm_source=gBcvfFpabk3CnzmXKdYe3w", "phone": "+12064864743", "coordinates": {"longitude": -122.3742664, "latitude": 47.6306947}, "categories": [{"alias": "pizza", "title": "Pizza"}, {"alias": "foodstands", "title": "Food Stands"}], "review_count": 161, "location": {"city": "Seattle", "address1": "1417 Elliott Ave W", "address3": "", "address2": null, "zip_code": "98119", "country": "US", "display_address": ["1417 Elliott Ave W", "Seattle, WA 98119"], "state": "WA"}, "price": "$$", "transactions": ["pickup"], "display_phone": "(206) 486-4743"}, {"rating": 4.5, "is_closed": false, "distance": 1883.2717159579997, "name": "Nosh", "id": "nosh-seattle", "image_url": "https://s3-media1.fl.yelpcdn.com/bphoto/iglA6IhFuUlssNsPgvFRmg/o.jpg", "url": "https://www.yelp.com/biz/nosh-seattle?adjust_creative=gBcvfFpabk3CnzmXKdYe3w&utm_campaign=yelp_api_v3&utm_medium=api_v3_business_search&utm_source=gBcvfFpabk3CnzmXKdYe3w", "phone": "+12064898712", "coordinates": {"longitude": -122.33499, "latitude": 47.61159}, "categories": [{"alias": "newamerican", "title": "American (New)"}, {"alias": "fishnchips", "title": "Fish & Chips"}, {"alias": "foodtrucks", "title": "Food Trucks"}], "review_count": 197, "location": {"city": "Seattle", "address1": null, "address3": "", "address2": null, "zip_code": "98101", "country": "US", "display_address": ["Seattle, WA 98101"], "state": "WA"}, "price": "$$", "transactions": [], "display_phone": "(206) 489-8712"}, {"rating": 4.5, "is_closed": false, "distance": 783.9288260799999, "name": "Campfire BBQ", "id": "campfire-bbq-seattle-7", "image_url": "https://s3-media1.fl.yelpcdn.com/bphoto/hT2cGsP2Bp8IRKr6Dq8FgQ/o.jpg", "url": "https://www.yelp.com/biz/campfire-bbq-seattle-7?adjust_creative=gBcvfFpabk3CnzmXKdYe3w&utm_campaign=yelp_api_v3&utm_medium=api_v3_business_search&utm_source=gBcvfFpabk3CnzmXKdYe3w", "phone": "+12068185141", "coordinates": {"longitude": -122.3459644, "latitude": 47.6256997}, "categories": [{"alias": "foodtrucks", "title": "Food Trucks"}, {"alias": "bbq", "title": "Barbeque"}], "review_count": 78, "location": {"city": "Seattle", "address1": "706 Taylor Ave N", "address3": "", "address2": "", "zip_code": "98109", "country": "US", "display_address": ["706 Taylor Ave N", "Seattle, WA 98109"], "state": "WA"}, "price": "$$", "transactions": [], "display_phone": "(206) 818-5141"}, {"rating": 4.5, "is_closed": false, "distance": 1792.9396226919998, "name": "Sushi Kashiba", "id": "sushi-kashiba-seattle", "image_url": "https://s3-media4.fl.yelpcdn.com/bphoto/iPcf5cZIqM6J-RylKLM4RA/o.jpg", "url": "https://www.yelp.com/biz/sushi-kashiba-seattle?adjust_creative=gBcvfFpabk3CnzmXKdYe3w&utm_campaign=yelp_api_v3&utm_medium=api_v3_business_search&utm_source=gBcvfFpabk3CnzmXKdYe3w", "phone": "+12064418844", "coordinates": {"longitude": -122.341460804441, "latitude": 47.6098011662063}, "categories": [{"alias": "japanese", "title": "Japanese"}, {"alias": "sushi", "title": "Sushi Bars"}], "review_count": 349, "location": {"city": "Seattle", "address1": "86 Pine St", "address3": "", "address2": "Ste 1", "zip_code": "98101", "country": "US", "display_address": ["86 Pine St", "Ste 1", "Seattle, WA 98101"], "state": "WA"}, "price": "$$$$", "transactions": [], "display_phone": "(206) 441-8844"}, {"rating": 4.5, "is_closed": false, "distance": 1132.134318916, "name": "Pie Bar", "id": "pie-bar-seattle-2", "image_url": "https://s3-media3.fl.yelpcdn.com/bphoto/vTuRi6pjlGBVbHrtdAw3vA/o.jpg", "url": "https://www.yelp.com/biz/pie-bar-seattle-2?adjust_creative=gBcvfFpabk3CnzmXKdYe3w&utm_campaign=yelp_api_v3&utm_medium=api_v3_business_search&utm_source=gBcvfFpabk3CnzmXKdYe3w", "phone": "+12062571459", "coordinates": {"longitude": -122.3274386, "latitude": 47.6168122}, "categories": [{"alias": "cocktailbars", "title": "Cocktail Bars"}, {"alias": "desserts", "title": "Desserts"}], "review_count": 897, "location": {"city": "Seattle", "address1": "1361 E Olive Way", "address3": "", "address2": "", "zip_code": "98122", "country": "US", "display_address": ["1361 E Olive Way", "Seattle, WA 98122"], "state": "WA"}, "price": "$$", "transactions": [], "display_phone": "(206) 257-1459"}, {"rating": 4.5, "is_closed": false, "distance": 1696.8113304819997, "name": "Cafe Argento", "id": "cafe-argento-seattle", "image_url": "https://s3-media3.fl.yelpcdn.com/bphoto/ZErYVln4BYW_QufMCaBu7Q/o.jpg", "url": "https://www.yelp.com/biz/cafe-argento-seattle?adjust_creative=gBcvfFpabk3CnzmXKdYe3w&utm_campaign=yelp_api_v3&utm_medium=api_v3_business_search&utm_source=gBcvfFpabk3CnzmXKdYe3w", "phone": "+12063833295", "coordinates": {"longitude": -122.31725, "latitude": 47.61624}, "categories": [{"alias": "coffee", "title": "Coffee & Tea"}, {"alias": "sandwiches", "title": "Sandwiches"}], "review_count": 96, "location": {"city": "Seattle", "address1": "1125 E Olive St", "address3": "", "address2": null, "zip_code": "98122", "country": "US", "display_address": ["1125 E Olive St", "Seattle, WA 98122"], "state": "WA"}, "price": "$", "transactions": [], "display_phone": "(206) 383-3295"}, {"rating": 4.5, "is_closed": false, "distance": 2319.1052889919997, "name": "Gas Works Park", "id": "gas-works-park-seattle-2", "image_url": "https://s3-media2.fl.yelpcdn.com/bphoto/0t1RsOKbLQMwE2KjvAhYyg/o.jpg", "url": "https://www.yelp.com/biz/gas-works-park-seattle-2?adjust_creative=gBcvfFpabk3CnzmXKdYe3w&utm_campaign=yelp_api_v3&utm_medium=api_v3_business_search&utm_source=gBcvfFpabk3CnzmXKdYe3w", "phone": "+12066844075", "coordinates": {"longitude": -122.3337, "latitude": 47.646241}, "categories": [{"alias": "parks", "title": "Parks"}], "review_count": 449, "location": {"city": "Seattle", "address1": "2101 N Northlake Way", "address3": "", "address2": "", "zip_code": "98103", "country": "US", "display_address": ["2101 N Northlake Way", "Seattle, WA 98103"], "state": "WA"}, "transactions": [], "display_phone": "(206) 684-4075"}, {"rating": 4.5, "is_closed": false, "distance": 2127.672042916, "name": "Bounty Kitchen", "id": "bounty-kitchen-seattle-2", "image_url": "https://s3-media4.fl.yelpcdn.com/bphoto/ictcxM5Q0eMif-6rU1A5jw/o.jpg", "url": "https://www.yelp.com/biz/bounty-kitchen-seattle-2?adjust_creative=gBcvfFpabk3CnzmXKdYe3w&utm_campaign=yelp_api_v3&utm_medium=api_v3_business_search&utm_source=gBcvfFpabk3CnzmXKdYe3w", "phone": "+12066952017", "coordinates": {"longitude": -122.3565216, "latitude": 47.6381912}, "categories": [{"alias": "salad", "title": "Salad"}, {"alias": "vegetarian", "title": "Vegetarian"}, {"alias": "sandwiches", "title": "Sandwiches"}], "review_count": 172, "location": {"city": "Seattle", "address1": "7 Boston St", "address3": "", "address2": "", "zip_code": "98109", "country": "US", "display_address": ["7 Boston St", "Seattle, WA 98109"], "state": "WA"}, "price": "$$", "transactions": [], "display_phone": "(206) 695-2017"}, {"rating": 4.5, "is_closed": false, "distance": 2138.443999272, "name": "Storyville Coffee Company", "id": "storyville-coffee-company-seattle-7", "image_url": "https://s3-media2.fl.yelpcdn.com/bphoto/_zilLCGGZdQoZiBYagbt7A/o.jpg", "url": "https://www.yelp.com/biz/storyville-coffee-company-seattle-7?adjust_creative=gBcvfFpabk3CnzmXKdYe3w&utm_campaign=yelp_api_v3&utm_medium=api_v3_business_search&utm_source=gBcvfFpabk3CnzmXKdYe3w", "phone": "+12067805777", "coordinates": {"longitude": -122.356766466898, "latitude": 47.638251231047}, "categories": [{"alias": "coffee", "title": "Coffee & Tea"}], "review_count": 158, "location": {"city": "Seattle", "address1": "2128 Queen Anne Ave N", "address3": "", "address2": "", "zip_code": "98109", "country": "US", "display_address": ["2128 Queen Anne Ave N", "Seattle, WA 98109"], "state": "WA"}, "price": "$$", "transactions": [], "display_phone": "(206) 780-5777"}, {"rating": 4.5, "is_closed": false, "distance": 3049.121064138, "name": "Seattle Best Tea", "id": "seattle-best-tea-seattle", "image_url": "https://s3-media1.fl.yelpcdn.com/bphoto/iKDTnPWqwdFJ9uL_EWiNzg/o.jpg", "url": "https://www.yelp.com/biz/seattle-best-tea-seattle?adjust_creative=gBcvfFpabk3CnzmXKdYe3w&utm_campaign=yelp_api_v3&utm_medium=api_v3_business_search&utm_source=gBcvfFpabk3CnzmXKdYe3w", "phone": "+12067499855", "coordinates": {"longitude": -122.32731, "latitude": 47.59846}, "categories": [{"alias": "coffee", "title": "Coffee & Tea"}], "review_count": 107, "location": {"city": "Seattle", "address1": "506 S King St", "address3": "", "address2": "", "zip_code": "98104", "country": "US", "display_address": ["506 S King St", "Seattle, WA 98104"], "state": "WA"}, "price": "$", "transactions": [], "display_phone": "(206) 749-9855"}, {"rating": 4.5, "is_closed": false, "distance": 2289.7098892219997, "name": "Storyville Coffee Company", "id": "storyville-coffee-company-seattle-8", "image_url": "https://s3-media4.fl.yelpcdn.com/bphoto/HMWVPVIZhf4R9EbKbVLqhQ/o.jpg", "url": "https://www.yelp.com/biz/storyville-coffee-company-seattle-8?adjust_creative=gBcvfFpabk3CnzmXKdYe3w&utm_campaign=yelp_api_v3&utm_medium=api_v3_business_search&utm_source=gBcvfFpabk3CnzmXKdYe3w", "phone": "+12067805777", "coordinates": {"longitude": -122.336349, "latitude": 47.604836}, "categories": [{"alias": "coffee", "title": "Coffee & Tea"}], "review_count": 227, "location": {"city": "Seattle", "address1": "1001 1st Ave", "address3": "", "address2": "", "zip_code": "98104", "country": "US", "display_address": ["1001 1st Ave", "Seattle, WA 98104"], "state": "WA"}, "price": "$$", "transactions": ["pickup"], "display_phone": "(206) 780-5777"}, {"rating": 4.5, "is_closed": false, "distance": 2659.363378106, "name": "Tat's Delicatessen", "id": "tats-delicatessen-seattle", "image_url": "https://s3-media4.fl.yelpcdn.com/bphoto/T-xo2VdZ_9M8aX_ze7cM7w/o.jpg", "url": "https://www.yelp.com/biz/tats-delicatessen-seattle?adjust_creative=gBcvfFpabk3CnzmXKdYe3w&utm_campaign=yelp_api_v3&utm_medium=api_v3_business_search&utm_source=gBcvfFpabk3CnzmXKdYe3w", "phone": "+12062648287", "coordinates": {"longitude": -122.332317061304, "latitude": 47.6015989850198}, "categories": [{"alias": "delis", "title": "Delis"}, {"alias": "cheesesteaks", "title": "Cheesesteaks"}, {"alias": "sandwiches", "title": "Sandwiches"}], "review_count": 910, "location": {"city": "Seattle", "address1": "159 Yesler Way", "address3": "", "address2": "", "zip_code": "98104", "country": "US", "display_address": ["159 Yesler Way", "Seattle, WA 98104"], "state": "WA"}, "price": "$$", "transactions": [], "display_phone": "(206) 264-8287"}, {"rating": 4.5, "is_closed": false, "distance": 3090.5449929359997, "name": "Royal Grinders", "id": "royal-grinders-seattle-2", "image_url": "https://s3-media2.fl.yelpcdn.com/bphoto/oFeNStAXWqn1-BBroXzfYQ/o.jpg", "url": "https://www.yelp.com/biz/royal-grinders-seattle-2?adjust_creative=gBcvfFpabk3CnzmXKdYe3w&utm_campaign=yelp_api_v3&utm_medium=api_v3_business_search&utm_source=gBcvfFpabk3CnzmXKdYe3w", "phone": "+12065457560", "coordinates": {"longitude": -122.35078, "latitude": 47.6513}, "categories": [{"alias": "sandwiches", "title": "Sandwiches"}, {"alias": "gelato", "title": "Gelato"}], "review_count": 481, "location": {"city": "Seattle", "address1": "3526 Fremont Pl N", "address3": "", "address2": null, "zip_code": "98103", "country": "US", "display_address": ["3526 Fremont Pl N", "Seattle, WA 98103"], "state": "WA"}, "price": "$", "transactions": ["pickup"], "display_phone": "(206) 545-7560"}, {"rating": 4.5, "is_closed": false, "distance": 1874.8653284680001, "name": "Radiator Whiskey", "id": "radiator-whiskey-seattle", "image_url": "https://s3-media4.fl.yelpcdn.com/bphoto/saw3PlnZX0sNoD3Hb6Fr5g/o.jpg", "url": "https://www.yelp.com/biz/radiator-whiskey-seattle?adjust_creative=gBcvfFpabk3CnzmXKdYe3w&utm_campaign=yelp_api_v3&utm_medium=api_v3_business_search&utm_source=gBcvfFpabk3CnzmXKdYe3w", "phone": "+12064674268", "coordinates": {"longitude": -122.34036, "latitude": 47.60888}, "categories": [{"alias": "newamerican", "title": "American (New)"}, {"alias": "cocktailbars", "title": "Cocktail Bars"}], "review_count": 821, "location": {"city": "Seattle", "address1": "94 Pike St", "address3": "", "address2": "Ste 30", "zip_code": "98101", "country": "US", "display_address": ["94 Pike St", "Ste 30", "Seattle, WA 98101"], "state": "WA"}, "price": "$$", "transactions": [], "display_phone": "(206) 467-4268"}, {"rating": 4.5, "is_closed": false, "distance": 1793.2717904679998, "name": "Bavarian Meats", "id": "bavarian-meats-seattle", "image_url": "https://s3-media2.fl.yelpcdn.com/bphoto/n9zq_w7KmavkjqRxk2aa2Q/o.jpg", "url": "https://www.yelp.com/biz/bavarian-meats-seattle?adjust_creative=gBcvfFpabk3CnzmXKdYe3w&utm_campaign=yelp_api_v3&utm_medium=api_v3_business_search&utm_source=gBcvfFpabk3CnzmXKdYe3w", "phone": "+12064410942", "coordinates": {"longitude": -122.342614755034, "latitude": 47.6099764555693}, "categories": [{"alias": "meats", "title": "Meat Shops"}, {"alias": "delis", "title": "Delis"}, {"alias": "german", "title": "German"}], "review_count": 184, "location": {"city": "Seattle", "address1": "1920 Pike Pl", "address3": "", "address2": "", "zip_code": "98101", "country": "US", "display_address": ["1920 Pike Pl", "Seattle, WA 98101"], "state": "WA"}, "price": "$", "transactions": ["pickup"], "display_phone": "(206) 441-0942"}, {"rating": 4.5, "is_closed": false, "distance": 1700.79235484, "name": "Scratch Deli", "id": "scratch-deli-seattle", "image_url": "https://s3-media1.fl.yelpcdn.com/bphoto/6TnCpb7YJNB1oF_SfbaHaA/o.jpg", "url": "https://www.yelp.com/biz/scratch-deli-seattle?adjust_creative=gBcvfFpabk3CnzmXKdYe3w&utm_campaign=yelp_api_v3&utm_medium=api_v3_business_search&utm_source=gBcvfFpabk3CnzmXKdYe3w", "phone": "+12062574554", "coordinates": {"longitude": -122.3164896, "latitude": 47.6170777}, "categories": [{"alias": "sandwiches", "title": "Sandwiches"}, {"alias": "delis", "title": "Delis"}, {"alias": "coffee", "title": "Coffee & Tea"}], "review_count": 183, "location": {"city": "Seattle", "address1": "1718 12th Ave", "address3": "", "address2": "", "zip_code": "98122", "country": "US", "display_address": ["1718 12th Ave", "Seattle, WA 98122"], "state": "WA"}, "price": "$", "transactions": [], "display_phone": "(206) 257-4554"}, {"rating": 4.5, "is_closed": false, "distance": 1798.82208226, "name": "Le Panier French Bakery", "id": "le-panier-french-bakery-seattle", "image_url": "https://s3-media1.fl.yelpcdn.com/bphoto/FOI1896xDO-yFXgNp7t_gA/o.jpg", "url": "https://www.yelp.com/biz/le-panier-french-bakery-seattle?adjust_creative=gBcvfFpabk3CnzmXKdYe3w&utm_campaign=yelp_api_v3&utm_medium=api_v3_business_search&utm_source=gBcvfFpabk3CnzmXKdYe3w", "phone": "+12064413669", "coordinates": {"longitude": -122.342474609613, "latitude": 47.6098933070898}, "categories": [{"alias": "bakeries", "title": "Bakeries"}, {"alias": "sandwiches", "title": "Sandwiches"}, {"alias": "cakeshop", "title": "Patisserie/Cake Shop"}], "review_count": 1745, "location": {"city": "Seattle", "address1": "1902 Pike Pl", "address3": "", "address2": "", "zip_code": "98101", "country": "US", "display_address": ["1902 Pike Pl", "Seattle, WA 98101"], "state": "WA"}, "price": "$", "transactions": [], "display_phone": "(206) 441-3669"}, {"rating": 4.5, "is_closed": false, "distance": 1273.4955258359998, "name": "Tea Republik", "id": "tea-republik-seattle-2", "image_url": "https://s3-media3.fl.yelpcdn.com/bphoto/ZfkDIbfU6WvYlxuGxZwRsQ/o.jpg", "url": "https://www.yelp.com/biz/tea-republik-seattle-2?adjust_creative=gBcvfFpabk3CnzmXKdYe3w&utm_campaign=yelp_api_v3&utm_medium=api_v3_business_search&utm_source=gBcvfFpabk3CnzmXKdYe3w", "phone": "+12068290055", "coordinates": {"longitude": -122.32064, "latitude": 47.62006}, "categories": [{"alias": "tea", "title": "Tea Rooms"}, {"alias": "coffee", "title": "Coffee & Tea"}], "review_count": 87, "location": {"city": "Seattle", "address1": "202 Broadway E", "address3": "", "address2": "", "zip_code": "98102", "country": "US", "display_address": ["202 Broadway E", "Seattle, WA 98102"], "state": "WA"}, "price": "$", "transactions": [], "display_phone": "(206) 829-0055"}]}