{"region": {"center": {"latitude": 47.62541904760501, "longitude": -122.33551025390625}}, "businesses": [{"transactions": ["delivery", "pickup"], "distance": 1016.4486350097999, "price": "$$", "display_phone": "(206) 249-5988", "phone": "+12062495988", "url": "https://www.yelp.com/biz/jars-juice-seattle?adjust_creative=gBcvfFpabk3CnzmXKdYe3w&utm_campaign=yelp_api_v3&utm_medium=api_v3_business_search&utm_source=gBcvfFpabk3CnzmXKdYe3w", "name": "Jars Juice", "location": {"display_address": ["1099 Stewart St", "Ste 101", "Seattle, WA 98101"], "country": "US", "state": "WA", "address3": "", "address2": "Ste 101", "address1": "1099 Stewart St", "city": "Seattle", "zip_code": "98101"}, "is_closed": false, "review_count": 73, "coordinates": {"latitude": 47.61659, "longitude": -122.33264}, "id": "jars-juice-seattle", "image_url": "https://s3-media1.fl.yelpcdn.com/bphoto/zKVCzJCTtz7PeOKD4x3UxA/o.jpg", "categories": [{"alias": "juicebars", "title": "Juice Bars & Smoothies"}, {"alias": "gluten_free", "title": "Gluten-Free"}, {"alias": "acaibowls", "title": "Acai Bowls"}], "rating": 4.5}, {"transactions": [], "distance": 1029.3901426198, "price": "$$", "display_phone": "(206) 324-0599", "phone": "+12063240599", "url": "https://www.yelp.com/biz/cook-weaver-seattle?adjust_creative=gBcvfFpabk3CnzmXKdYe3w&utm_campaign=yelp_api_v3&utm_medium=api_v3_business_search&utm_source=gBcvfFpabk3CnzmXKdYe3w", "name": "Cook Weaver", "location": {"display_address": ["806 E Roy St", "Seattle, WA 98102"], "country": "US", "state": "WA", "address3": null, "address2": "", "address1": "806 E Roy St", "city": "Seattle", "zip_code": "98102"}, "is_closed": false, "review_count": 50, "coordinates": {"latitude": 47.62522, "longitude": -122.32172}, "id": "cook-weaver-seattle", "image_url": "https://s3-media4.fl.yelpcdn.com/bphoto/2OKtvKOssbbLuv2t-_bR4Q/o.jpg", "categories": [{"alias": "asianfusion", "title": "Asian Fusion"}, {"alias": "modern_european", "title": "Modern European"}, {"alias": "newamerican", "title": "American (New)"}], "rating": 4.5}, {"transactions": ["pickup"], "distance": 2352.59999961, "price": "$$$$", "display_phone": "(206) 624-3287", "phone": "+12066243287", "url": "https://www.yelp.com/biz/metropolitan-grill-seattle?adjust_creative=gBcvfFpabk3CnzmXKdYe3w&utm_campaign=yelp_api_v3&utm_medium=api_v3_business_search&utm_source=gBcvfFpabk3CnzmXKdYe3w", "name": "Metropolitan Grill", "location": {"display_address": ["820 2nd Ave", "Seattle, WA 98104"], "country": "US", "state": "WA", "address3": "", "address2": "", "address1": "820 2nd Ave", "city": "Seattle", "zip_code": "98104"}, "is_closed": false, "review_count": 1313, "coordinates": {"latitude": 47.6044399, "longitude": -122.3342}, "id": "metropolitan-grill-seattle", "image_url": "https://s3-media4.fl.yelpcdn.com/bphoto/Ze_sAXI7MDC4iPSWsoE5dg/o.jpg", "categories": [{"alias": "tradamerican", "title": "American (Traditional)"}, {"alias": "steak", "title": "Steakhouses"}], "rating": 4.0}, {"transactions": [], "distance": 1934.9456921499998, "price": "$$", "display_phone": "(206) 538-0040", "phone": "+12065380040", "url": "https://www.yelp.com/biz/italian-family-pizza-seattle?adjust_creative=gBcvfFpabk3CnzmXKdYe3w&utm_campaign=yelp_api_v3&utm_medium=api_v3_business_search&utm_source=gBcvfFpabk3CnzmXKdYe3w", "name": "Italian Family Pizza", "location": {"display_address": ["1028 Madison St", "Seattle, WA 98104"], "country": "US", "state": "WA", "address3": "", "address2": null, "address1": "1028 Madison St", "city": "Seattle", "zip_code": "98104"}, "is_closed": false, "review_count": 684, "coordinates": {"latitude": 47.6093542, "longitude": -122.3255851}, "id": "italian-family-pizza-seattle", "image_url": "https://s3-media3.fl.yelpcdn.com/bphoto/OkLejOakL2ad7RhmNOFYQA/o.jpg", "categories": [{"alias": "pizza", "title": "Pizza"}], "rating": 4.5}, {"transactions": ["pickup"], "distance": 298.4792525658, "price": "$$", "display_phone": "(206) 623-0336", "phone": "+12066230336", "url": "https://www.yelp.com/biz/veggie-grill-seattle?adjust_creative=gBcvfFpabk3CnzmXKdYe3w&utm_campaign=yelp_api_v3&utm_medium=api_v3_business_search&utm_source=gBcvfFpabk3CnzmXKdYe3w", "name": "Veggie Grill", "location": {"display_address": ["446 Terry Ave N", "Seattle, WA 98109"], "country": "US", "state": "WA", "address3": "", "address2": "", "address1": "446 Terry Ave N", "city": "Seattle", "zip_code": "98109"}, "is_closed": false, "review_count": 291, "coordinates": {"latitude": 47.6229080378028, "longitude": -122.336923465408}, "id": "veggie-grill-seattle", "image_url": "https://s3-media1.fl.yelpcdn.com/bphoto/mJ-HgUpsnsmgbTnSXelgfw/o.jpg", "categories": [{"alias": "newamerican", "title": "American (New)"}, {"alias": "vegetarian", "title": "Vegetarian"}, {"alias": "vegan", "title": "Vegan"}], "rating": 4.5}, {"transactions": [], "distance": 1108.2512305139999, "price": "$", "display_phone": "(206) 633-3876", "phone": "+12066333876", "url": "https://www.yelp.com/biz/caf%C3%A9-suisse-seattle?adjust_creative=gBcvfFpabk3CnzmXKdYe3w&utm_campaign=yelp_api_v3&utm_medium=api_v3_business_search&utm_source=gBcvfFpabk3CnzmXKdYe3w", "name": "Caf\u00e9 Suisse", "location": {"display_address": ["2008 Westlake Ave", "Seattle, WA 98121"], "country": "US", "state": "WA", "address3": "", "address2": "", "address1": "2008 Westlake Ave", "city": "Seattle", "zip_code": "98121"}, "is_closed": false, "review_count": 70, "coordinates": {"latitude": 47.6155395507812, "longitude": -122.337577819824}, "id": "caf\u00e9-suisse-seattle", "image_url": "https://s3-media1.fl.yelpcdn.com/bphoto/DxcDMbY0vRcQqdo75-UW0g/o.jpg", "categories": [{"alias": "cafes", "title": "Cafes"}, {"alias": "breakfast_brunch", "title": "Breakfast & Brunch"}], "rating": 4.5}, {"transactions": [], "distance": 1914.8580712039998, "price": "$", "display_phone": "(206) 839-1000", "phone": "+12068391000", "url": "https://www.yelp.com/biz/ulis-famous-sausage-seattle?adjust_creative=gBcvfFpabk3CnzmXKdYe3w&utm_campaign=yelp_api_v3&utm_medium=api_v3_business_search&utm_source=gBcvfFpabk3CnzmXKdYe3w", "name": "Uli's Famous Sausage", "location": {"display_address": ["1511 Pike Pl", "Seattle, WA 98101"], "country": "US", "state": "WA", "address3": "", "address2": "", "address1": "1511 Pike Pl", "city": "Seattle", "zip_code": "98101"}, "is_closed": false, "review_count": 222, "coordinates": {"latitude": 47.60864, "longitude": -122.34079}, "id": "ulis-famous-sausage-seattle", "image_url": "https://s3-media1.fl.yelpcdn.com/bphoto/Ks4JoO505lfAcScP0cmlTA/o.jpg", "categories": [{"alias": "meats", "title": "Meat Shops"}, {"alias": "german", "title": "German"}, {"alias": "hotdog", "title": "Hot Dogs"}], "rating": 4.5}, {"transactions": [], "distance": 1284.3729905224, "price": "$$", "display_phone": "(206) 257-1030", "phone": "+12062571030", "url": "https://www.yelp.com/biz/meekong-bar-seattle-4?adjust_creative=gBcvfFpabk3CnzmXKdYe3w&utm_campaign=yelp_api_v3&utm_medium=api_v3_business_search&utm_source=gBcvfFpabk3CnzmXKdYe3w", "name": "Meekong Bar", "location": {"display_address": ["2525 4th Ave", "Seattle, WA 98121"], "country": "US", "state": "WA", "address3": "", "address2": "", "address1": "2525 4th Ave", "city": "Seattle", "zip_code": "98121"}, "is_closed": false, "review_count": 148, "coordinates": {"latitude": 47.6167700829394, "longitude": -122.346869073808}, "id": "meekong-bar-seattle-4", "image_url": "https://s3-media3.fl.yelpcdn.com/bphoto/ntU_AqgzPNQV7VLhvPmA1Q/o.jpg", "categories": [{"alias": "vietnamese", "title": "Vietnamese"}, {"alias": "burgers", "title": "Burgers"}, {"alias": "asianfusion", "title": "Asian Fusion"}], "rating": 4.5}, {"transactions": ["pickup"], "distance": 1732.482834384, "price": "$$", "display_phone": "(206) 624-1332", "phone": "+12066241332", "url": "https://www.yelp.com/biz/veggie-grill-seattle-6?adjust_creative=gBcvfFpabk3CnzmXKdYe3w&utm_campaign=yelp_api_v3&utm_medium=api_v3_business_search&utm_source=gBcvfFpabk3CnzmXKdYe3w", "name": "Veggie Grill", "location": {"display_address": ["1427 4th Ave", "Seattle, WA 98101"], "country": "US", "state": "WA", "address3": "", "address2": "", "address1": "1427 4th Ave", "city": "Seattle", "zip_code": "98101"}, "is_closed": false, "review_count": 328, "coordinates": {"latitude": 47.6098539, "longitude": -122.3365793}, "id": "veggie-grill-seattle-6", "image_url": "https://s3-media2.fl.yelpcdn.com/bphoto/slIFhS9bjHZ1OSXPE98Dnw/o.jpg", "categories": [{"alias": "newamerican", "title": "American (New)"}, {"alias": "vegan", "title": "Vegan"}, {"alias": "vegetarian", "title": "Vegetarian"}], "rating": 4.5}, {"transactions": [], "distance": 1279.0875800009999, "display_phone": "(206) 684-7200", "phone": "+12066847200", "url": "https://www.yelp.com/biz/international-fountain-seattle?adjust_creative=gBcvfFpabk3CnzmXKdYe3w&utm_campaign=yelp_api_v3&utm_medium=api_v3_business_search&utm_source=gBcvfFpabk3CnzmXKdYe3w", "name": "International Fountain", "location": {"display_address": ["305 Harrison St", "Seattle, WA 98109"], "country": "US", "state": "WA", "address3": "", "address2": "", "address1": "305 Harrison St", "city": "Seattle", "zip_code": "98109"}, "is_closed": false, "review_count": 63, "coordinates": {"latitude": 47.6225227241452, "longitude": -122.35202729702}, "id": "international-fountain-seattle", "image_url": "https://s3-media3.fl.yelpcdn.com/bphoto/lmLYcg6OXjVazKQ4kzv8uw/o.jpg", "categories": [{"alias": "landmarks", "title": "Landmarks & Historical Buildings"}], "rating": 4.5}, {"transactions": [], "distance": 2184.005863078, "price": "$$$$", "display_phone": "(206) 708-6836", "phone": "+12067086836", "url": "https://www.yelp.com/biz/eden-hill-seattle?adjust_creative=gBcvfFpabk3CnzmXKdYe3w&utm_campaign=yelp_api_v3&utm_medium=api_v3_business_search&utm_source=gBcvfFpabk3CnzmXKdYe3w", "name": "Eden Hill", "location": {"display_address": ["2209 Queen Anne Ave N", "Seattle, WA 98109"], "country": "US", "state": "WA", "address3": "", "address2": "", "address1": "2209 Queen Anne Ave N", "city": "Seattle", "zip_code": "98109"}, "is_closed": false, "review_count": 84, "coordinates": {"latitude": 47.63876, "longitude": -122.35715}, "id": "eden-hill-seattle", "image_url": "https://s3-media2.fl.yelpcdn.com/bphoto/10j9t6n1lFTwV5UXrG55bQ/o.jpg", "categories": [{"alias": "newamerican", "title": "American (New)"}], "rating": 4.5}, {"transactions": [], "distance": 1569.708715028, "price": "$$$$", "display_phone": "(206) 728-1337", "phone": "+12067281337", "url": "https://www.yelp.com/biz/el-gaucho-seattle?adjust_creative=gBcvfFpabk3CnzmXKdYe3w&utm_campaign=yelp_api_v3&utm_medium=api_v3_business_search&utm_source=gBcvfFpabk3CnzmXKdYe3w", "name": "El Gaucho", "location": {"display_address": ["2505 1st Ave", "Seattle, WA 98121"], "country": "US", "state": "WA", "address3": "", "address2": "", "address1": "2505 1st Ave", "city": "Seattle", "zip_code": "98121"}, "is_closed": false, "review_count": 917, "coordinates": {"latitude": 47.6147330738928, "longitude": -122.349196290354}, "id": "el-gaucho-seattle", "image_url": "https://s3-media2.fl.yelpcdn.com/bphoto/S0dCGhfpVRg0LBd6KWD5UA/o.jpg", "categories": [{"alias": "steak", "title": "Steakhouses"}, {"alias": "seafood", "title": "Seafood"}, {"alias": "venues", "title": "Venues & Event Spaces"}], "rating": 4.0}, {"transactions": [], "distance": 6163.49700286, "display_phone": "(206) 684-4075", "phone": "+12066844075", "url": "https://www.yelp.com/biz/green-lake-park-seattle?adjust_creative=gBcvfFpabk3CnzmXKdYe3w&utm_campaign=yelp_api_v3&utm_medium=api_v3_business_search&utm_source=gBcvfFpabk3CnzmXKdYe3w", "name": "Green Lake Park", "location": {"display_address": ["7201 E Green Lake Dr N", "Seattle, WA 98103"], "country": "US", "state": "WA", "address3": "", "address2": "", "address1": "7201 E Green Lake Dr N", "city": "Seattle", "zip_code": "98103"}, "is_closed": false, "review_count": 401, "coordinates": {"latitude": 47.6806660650906, "longitude": -122.328855806324}, "id": "green-lake-park-seattle", "image_url": "https://s3-media4.fl.yelpcdn.com/bphoto/Py-Py7aHPi1ZJ_vt4woEYw/o.jpg", "categories": [{"alias": "parks", "title": "Parks"}, {"alias": "lakes", "title": "Lakes"}], "rating": 4.5}, {"transactions": [], "distance": 4404.629682911999, "price": "$", "display_phone": "", "phone": "", "url": "https://www.yelp.com/biz/tea-republik-seattle?adjust_creative=gBcvfFpabk3CnzmXKdYe3w&utm_campaign=yelp_api_v3&utm_medium=api_v3_business_search&utm_source=gBcvfFpabk3CnzmXKdYe3w", "name": "Tea Republik", "location": {"display_address": ["4527 University Way NE", "Seattle, WA 98105"], "country": "US", "state": "WA", "address3": "", "address2": "", "address1": "4527 University Way NE", "city": "Seattle", "zip_code": "98105"}, "is_closed": false, "review_count": 229, "coordinates": {"latitude": 47.6620911, "longitude": -122.3132793}, "id": "tea-republik-seattle", "image_url": "https://s3-media1.fl.yelpcdn.com/bphoto/_IiRgdGOqulJq35Tv4Jk2A/o.jpg", "categories": [{"alias": "tea", "title": "Tea Rooms"}, {"alias": "coffee", "title": "Coffee & Tea"}], "rating": 4.5}, {"transactions": [], "distance": 5106.906712884, "price": "$", "display_phone": "(206) 257-4798", "phone": "+12062574798", "url": "https://www.yelp.com/biz/fat-ducks-deli-and-bakery-seattle?adjust_creative=gBcvfFpabk3CnzmXKdYe3w&utm_campaign=yelp_api_v3&utm_medium=api_v3_business_search&utm_source=gBcvfFpabk3CnzmXKdYe3w", "name": "Fat Ducks Deli & Bakery", "location": {"display_address": ["5509 University Way NE", "Seattle, WA 98105"], "country": "US", "state": "WA", "address3": "", "address2": "", "address1": "5509 University Way NE", "city": "Seattle", "zip_code": "98105"}, "is_closed": false, "review_count": 216, "coordinates": {"latitude": 47.668865, "longitude": -122.31337}, "id": "fat-ducks-deli-and-bakery-seattle", "image_url": "https://s3-media4.fl.yelpcdn.com/bphoto/DdY1izp50z_eXKT-PTyAwA/o.jpg", "categories": [{"alias": "delis", "title": "Delis"}, {"alias": "bakeries", "title": "Bakeries"}, {"alias": "sandwiches", "title": "Sandwiches"}], "rating": 4.5}, {"transactions": [], "distance": 5398.3527151279995, "price": "$", "display_phone": "(206) 453-4892", "phone": "+12064534892", "url": "https://www.yelp.com/biz/the-station-seattle-3?adjust_creative=gBcvfFpabk3CnzmXKdYe3w&utm_campaign=yelp_api_v3&utm_medium=api_v3_business_search&utm_source=gBcvfFpabk3CnzmXKdYe3w", "name": "The Station", "location": {"display_address": ["1600 S Roberto Maestas Festival St", "Seattle, WA 98144"], "country": "US", "state": "WA", "address3": "", "address2": "", "address1": "1600 S Roberto Maestas Festival St", "city": "Seattle", "zip_code": "98144"}, "is_closed": false, "review_count": 141, "coordinates": {"latitude": 47.579563, "longitude": -122.311864}, "id": "the-station-seattle-3", "image_url": "https://s3-media1.fl.yelpcdn.com/bphoto/3D54DCZOAb3M_45VWLojbw/o.jpg", "categories": [{"alias": "coffee", "title": "Coffee & Tea"}, {"alias": "italian", "title": "Italian"}, {"alias": "mexican", "title": "Mexican"}], "rating": 4.5}, {"transactions": [], "distance": 6478.814506258, "price": "$", "display_phone": "(206) 789-1463", "phone": "+12067891463", "url": "https://www.yelp.com/biz/caf%C3%A9-besalu-seattle-2?adjust_creative=gBcvfFpabk3CnzmXKdYe3w&utm_campaign=yelp_api_v3&utm_medium=api_v3_business_search&utm_source=gBcvfFpabk3CnzmXKdYe3w", "name": "Caf\u00e9 Besalu", "location": {"display_address": ["5909 24th Ave NW", "Seattle, WA 98107"], "country": "US", "state": "WA", "address3": "", "address2": "", "address1": "5909 24th Ave NW", "city": "Seattle", "zip_code": "98107"}, "is_closed": false, "review_count": 710, "coordinates": {"latitude": 47.671821301106, "longitude": -122.38782088382}, "id": "caf\u00e9-besalu-seattle-2", "image_url": "https://s3-media4.fl.yelpcdn.com/bphoto/T67ry-IXyZjVvx6xwtQKNg/o.jpg", "categories": [{"alias": "bakeries", "title": "Bakeries"}, {"alias": "coffee", "title": "Coffee & Tea"}, {"alias": "french", "title": "French"}], "rating": 4.5}, {"transactions": [], "distance": 2080.483458238, "price": "$$", "display_phone": "(206) 838-8081", "phone": "+12068388081", "url": "https://www.yelp.com/biz/bar-cotto-seattle?adjust_creative=gBcvfFpabk3CnzmXKdYe3w&utm_campaign=yelp_api_v3&utm_medium=api_v3_business_search&utm_source=gBcvfFpabk3CnzmXKdYe3w", "name": "Bar Cotto", "location": {"display_address": ["1546 15th Ave", "Seattle, WA 98122"], "country": "US", "state": "WA", "address3": "", "address2": "", "address1": "1546 15th Ave", "city": "Seattle", "zip_code": "98122"}, "is_closed": false, "review_count": 165, "coordinates": {"latitude": 47.6146934, "longitude": -122.3127642}, "id": "bar-cotto-seattle", "image_url": "https://s3-media4.fl.yelpcdn.com/bphoto/ucEvRWiVpd4iSkv9VAYk0A/o.jpg", "categories": [{"alias": "bars", "title": "Bars"}, {"alias": "pizza", "title": "Pizza"}, {"alias": "italian", "title": "Italian"}], "rating": 4.5}, {"transactions": [], "distance": 158.9271208332, "price": "$", "display_phone": "(206) 265-1798", "phone": "+12062651798", "url": "https://www.yelp.com/biz/i-love-my-gff-seattle-3?adjust_creative=gBcvfFpabk3CnzmXKdYe3w&utm_campaign=yelp_api_v3&utm_medium=api_v3_business_search&utm_source=gBcvfFpabk3CnzmXKdYe3w", "name": "I Love My GFF", "location": {"display_address": ["592 Terry Ave N", "Seattle, WA 98109"], "country": "US", "state": "WA", "address3": "", "address2": null, "address1": "592 Terry Ave N", "city": "Seattle", "zip_code": "98109"}, "is_closed": false, "review_count": 71, "coordinates": {"latitude": 47.6243996044122, "longitude": -122.336994657105}, "id": "i-love-my-gff-seattle-3", "image_url": "https://s3-media1.fl.yelpcdn.com/bphoto/HLk6soq-tUjN2tmBRg_enQ/o.jpg", "categories": [{"alias": "gluten_free", "title": "Gluten-Free"}, {"alias": "vegetarian", "title": "Vegetarian"}, {"alias": "foodstands", "title": "Food Stands"}], "rating": 4.5}, {"transactions": [], "distance": 1762.7284484759998, "price": "$", "display_phone": "(206) 282-3004", "phone": "+12062823004", "url": "https://www.yelp.com/biz/nielsens-authentic-danish-pastry-seattle?adjust_creative=gBcvfFpabk3CnzmXKdYe3w&utm_campaign=yelp_api_v3&utm_medium=api_v3_business_search&utm_source=gBcvfFpabk3CnzmXKdYe3w", "name": "Nielsen's Authentic Danish Pastry", "location": {"display_address": ["520 2nd Ave W", "Seattle, WA 98119"], "country": "US", "state": "WA", "address3": "", "address2": "", "address1": "520 2nd Ave W", "city": "Seattle", "zip_code": "98119"}, "is_closed": false, "review_count": 148, "coordinates": {"latitude": 47.6240348815918, "longitude": -122.358947753906}, "id": "nielsens-authentic-danish-pastry-seattle", "image_url": "https://s3-media1.fl.yelpcdn.com/bphoto/yp5M5Cj04GfXBOwmOMeFtw/o.jpg", "categories": [{"alias": "bakeries", "title": "Bakeries"}, {"alias": "cafes", "title": "Cafes"}, {"alias": "cakeshop", "title": "Patisserie/Cake Shop"}], "rating": 4.5}, {"transactions": [], "distance": 2221.1766281239998, "price": "$$$", "display_phone": "(206) 582-3505", "phone": "+12065823505", "url": "https://www.yelp.com/biz/heartwood-provisions-seattle-3?adjust_creative=gBcvfFpabk3CnzmXKdYe3w&utm_campaign=yelp_api_v3&utm_medium=api_v3_business_search&utm_source=gBcvfFpabk3CnzmXKdYe3w", "name": "Heartwood Provisions", "location": {"display_address": ["1103 1st Ave", "Seattle, WA 98101"], "country": "US", "state": "WA", "address3": "", "address2": null, "address1": "1103 1st Ave", "city": "Seattle", "zip_code": "98101"}, "is_closed": false, "review_count": 198, "coordinates": {"latitude": 47.6054687, "longitude": -122.3369829}, "id": "heartwood-provisions-seattle-3", "image_url": "https://s3-media1.fl.yelpcdn.com/bphoto/63brW4vg52INxF4OIQTgqQ/o.jpg", "categories": [{"alias": "newamerican", "title": "American (New)"}, {"alias": "bars", "title": "Bars"}], "rating": 4.5}, {"transactions": [], "distance": 6419.303688002, "display_phone": "(206) 386-4236", "phone": "+12063864236", "url": "https://www.yelp.com/biz/discovery-park-seattle?adjust_creative=gBcvfFpabk3CnzmXKdYe3w&utm_campaign=yelp_api_v3&utm_medium=api_v3_business_search&utm_source=gBcvfFpabk3CnzmXKdYe3w", "name": "Discovery Park", "location": {"display_address": ["3801 Discovery Park Blvd", "Seattle, WA 98199"], "country": "US", "state": "WA", "address3": "", "address2": "", "address1": "3801 Discovery Park Blvd", "city": "Seattle", "zip_code": "98199"}, "is_closed": false, "review_count": 311, "coordinates": {"latitude": 47.6580687010542, "longitude": -122.406170910291}, "id": "discovery-park-seattle", "image_url": "https://s3-media2.fl.yelpcdn.com/bphoto/xqA2CM_X_SUILvZFFchKgQ/o.jpg", "categories": [{"alias": "parks", "title": "Parks"}, {"alias": "beaches", "title": "Beaches"}], "rating": 4.5}, {"transactions": [], "distance": 1913.05786348, "price": "$$$", "display_phone": "(206) 382-0900", "phone": "+12063820900", "url": "https://www.yelp.com/biz/the-capital-grille-seattle?adjust_creative=gBcvfFpabk3CnzmXKdYe3w&utm_campaign=yelp_api_v3&utm_medium=api_v3_business_search&utm_source=gBcvfFpabk3CnzmXKdYe3w", "name": "The Capital Grille", "location": {"display_address": ["1301 4th Ave", "Seattle, WA 98101"], "country": "US", "state": "WA", "address3": "", "address2": "", "address1": "1301 4th Ave", "city": "Seattle", "zip_code": "98101"}, "is_closed": false, "review_count": 621, "coordinates": {"latitude": 47.60826, "longitude": -122.33538}, "id": "the-capital-grille-seattle", "image_url": "https://s3-media2.fl.yelpcdn.com/bphoto/NK0fvTJ53LKZBimp0KUv3w/o.jpg", "categories": [{"alias": "steak", "title": "Steakhouses"}, {"alias": "seafood", "title": "Seafood"}, {"alias": "wine_bars", "title": "Wine Bars"}], "rating": 4.0}, {"transactions": [], "distance": 686.8541453895999, "price": "$", "display_phone": "(206) 388-5164", "phone": "+12063885164", "url": "https://www.yelp.com/biz/espresso-vivace-alley-24-seattle?adjust_creative=gBcvfFpabk3CnzmXKdYe3w&utm_campaign=yelp_api_v3&utm_medium=api_v3_business_search&utm_source=gBcvfFpabk3CnzmXKdYe3w", "name": "Espresso Vivace Alley 24", "location": {"display_address": ["227 Yale Ave N", "Seattle, WA 98109"], "country": "US", "state": "WA", "address3": "", "address2": null, "address1": "227 Yale Ave N", "city": "Seattle", "zip_code": "98109"}, "is_closed": false, "review_count": 480, "coordinates": {"latitude": 47.62021, "longitude": -122.33069}, "id": "espresso-vivace-alley-24-seattle", "image_url": "https://s3-media1.fl.yelpcdn.com/bphoto/eBsCOeWoJrTp8n03sclSJQ/o.jpg", "categories": [{"alias": "coffee", "title": "Coffee & Tea"}], "rating": 4.0}, {"transactions": [], "distance": 1156.4064491696, "price": "$$", "display_phone": "(206) 329-0248", "phone": "+12063290248", "url": "https://www.yelp.com/biz/witness-seattle?adjust_creative=gBcvfFpabk3CnzmXKdYe3w&utm_campaign=yelp_api_v3&utm_medium=api_v3_business_search&utm_source=gBcvfFpabk3CnzmXKdYe3w", "name": "Witness", "location": {"display_address": ["410 Broadway E", "Seattle, WA 98102"], "country": "US", "state": "WA", "address3": "", "address2": "", "address1": "410 Broadway E", "city": "Seattle", "zip_code": "98102"}, "is_closed": false, "review_count": 549, "coordinates": {"latitude": 47.6225508133524, "longitude": -122.320680460381}, "id": "witness-seattle", "image_url": "https://s3-media3.fl.yelpcdn.com/bphoto/dbdj0w0SA1BQ8fJBDs9Ksw/o.jpg", "categories": [{"alias": "southern", "title": "Southern"}, {"alias": "cocktailbars", "title": "Cocktail Bars"}], "rating": 4.5}, {"transactions": [], "distance": 6974.304220949999, "price": "$$", "display_phone": "(206) 588-2040", "phone": "+12065882040", "url": "https://www.yelp.com/biz/un-bien-seattle?adjust_creative=gBcvfFpabk3CnzmXKdYe3w&utm_campaign=yelp_api_v3&utm_medium=api_v3_business_search&utm_source=gBcvfFpabk3CnzmXKdYe3w", "name": "Un Bien", "location": {"display_address": ["7302 15th Ave NW", "Seattle, WA 98117"], "country": "US", "state": "WA", "address3": "", "address2": "", "address1": "7302 15th Ave NW", "city": "Seattle", "zip_code": "98117"}, "is_closed": false, "review_count": 577, "coordinates": {"latitude": 47.6816885778588, "longitude": -122.37663764418}, "id": "un-bien-seattle", "image_url": "https://s3-media1.fl.yelpcdn.com/bphoto/1NuqkfzIkjaB_OJuR83How/o.jpg", "categories": [{"alias": "cuban", "title": "Cuban"}, {"alias": "caribbean", "title": "Caribbean"}, {"alias": "sandwiches", "title": "Sandwiches"}], "rating": 4.5}, {"transactions": ["pickup", "delivery"], "distance": 2607.88558046, "price": "$$", "display_phone": "(206) 973-3766", "phone": "+12069733766", "url": "https://www.yelp.com/biz/sprout-seattle?adjust_creative=gBcvfFpabk3CnzmXKdYe3w&utm_campaign=yelp_api_v3&utm_medium=api_v3_business_search&utm_source=gBcvfFpabk3CnzmXKdYe3w", "name": "Sprout", "location": {"display_address": ["512 2nd Ave", "Pioneer Sq", "Seattle, WA 98104"], "country": "US", "state": "WA", "address3": "Pioneer Sq", "address2": "", "address1": "512 2nd Ave", "city": "Seattle", "zip_code": "98104"}, "is_closed": false, "review_count": 98, "coordinates": {"latitude": 47.6020821770476, "longitude": -122.332066488718}, "id": "sprout-seattle", "image_url": "https://s3-media3.fl.yelpcdn.com/bphoto/tqjbNN5j6oiCO1b7blkq-w/o.jpg", "categories": [{"alias": "salad", "title": "Salad"}, {"alias": "gluten_free", "title": "Gluten-Free"}, {"alias": "wraps", "title": "Wraps"}], "rating": 4.5}, {"transactions": [], "distance": 1506.145256784, "price": "$", "display_phone": "(206) 257-1688", "phone": "+12062571688", "url": "https://www.yelp.com/biz/kaladi-brothers-coffee-seattle?adjust_creative=gBcvfFpabk3CnzmXKdYe3w&utm_campaign=yelp_api_v3&utm_medium=api_v3_business_search&utm_source=gBcvfFpabk3CnzmXKdYe3w", "name": "Kaladi Brothers Coffee", "location": {"display_address": ["517 E Pike St", "Seattle, WA 98122"], "country": "US", "state": "WA", "address3": "", "address2": null, "address1": "517 E Pike St", "city": "Seattle", "zip_code": "98122"}, "is_closed": false, "review_count": 190, "coordinates": {"latitude": 47.614, "longitude": -122.324709}, "id": "kaladi-brothers-coffee-seattle", "image_url": "https://s3-media1.fl.yelpcdn.com/bphoto/awVdCMXAmi1VZXiQ4ILlPg/o.jpg", "categories": [{"alias": "coffee", "title": "Coffee & Tea"}, {"alias": "bakeries", "title": "Bakeries"}], "rating": 4.5}, {"transactions": [], "distance": 1555.4893431778, "price": "$$$", "display_phone": "(206) 826-1700", "phone": "+12068261700", "url": "https://www.yelp.com/biz/shaker-and-spear-seattle-2?adjust_creative=gBcvfFpabk3CnzmXKdYe3w&utm_campaign=yelp_api_v3&utm_medium=api_v3_business_search&utm_source=gBcvfFpabk3CnzmXKdYe3w", "name": "Shaker and Spear", "location": {"display_address": ["2000 2nd Ave", "Seattle, WA 98121"], "country": "US", "state": "WA", "address3": null, "address2": null, "address1": "2000 2nd Ave", "city": "Seattle", "zip_code": "98121"}, "is_closed": false, "review_count": 239, "coordinates": {"latitude": 47.61203, "longitude": -122.34165}, "id": "shaker-and-spear-seattle-2", "image_url": "https://s3-media1.fl.yelpcdn.com/bphoto/l4voRg9QhL7WXuVc5plSzg/o.jpg", "categories": [{"alias": "seafood", "title": "Seafood"}, {"alias": "newamerican", "title": "American (New)"}, {"alias": "breakfast_brunch", "title": "Breakfast & Brunch"}], "rating": 4.5}, {"transactions": [], "distance": 1101.027868858, "price": "$$", "display_phone": "(206) 420-8742", "phone": "+12064208742", "url": "https://www.yelp.com/biz/bait-shop-seattle?adjust_creative=gBcvfFpabk3CnzmXKdYe3w&utm_campaign=yelp_api_v3&utm_medium=api_v3_business_search&utm_source=gBcvfFpabk3CnzmXKdYe3w", "name": "Bait Shop", "location": {"display_address": ["606 Broadway E", "Seattle, WA 98102"], "country": "US", "state": "WA", "address3": "", "address2": "", "address1": "606 Broadway E", "city": "Seattle", "zip_code": "98102"}, "is_closed": false, "review_count": 159, "coordinates": {"latitude": 47.6243328, "longitude": -122.3209067}, "id": "bait-shop-seattle", "image_url": "https://s3-media1.fl.yelpcdn.com/bphoto/hyS6MJTe7OjjOm1qYEHT8g/o.jpg", "categories": [{"alias": "divebars", "title": "Dive Bars"}, {"alias": "tradamerican", "title": "American (Traditional)"}], "rating": 4.5}, {"transactions": [], "distance": 1452.6779447498, "price": "$$", "display_phone": "(206) 747-9595", "phone": "+12067479595", "url": "https://www.yelp.com/biz/suika-seattle-seattle?adjust_creative=gBcvfFpabk3CnzmXKdYe3w&utm_campaign=yelp_api_v3&utm_medium=api_v3_business_search&utm_source=gBcvfFpabk3CnzmXKdYe3w", "name": "Suika Seattle", "location": {"display_address": ["611 E Pine St", "Seattle, WA 98122"], "country": "US", "state": "WA", "address3": "", "address2": "", "address1": "611 E Pine St", "city": "Seattle", "zip_code": "98122"}, "is_closed": false, "review_count": 389, "coordinates": {"latitude": 47.6149776553302, "longitude": -122.323858731759}, "id": "suika-seattle-seattle", "image_url": "https://s3-media2.fl.yelpcdn.com/bphoto/4cgpVxAB6PQkfmKxJWDrqg/o.jpg", "categories": [{"alias": "izakaya", "title": "Izakaya"}, {"alias": "ramen", "title": "Ramen"}, {"alias": "salad", "title": "Salad"}], "rating": 4.0}, {"transactions": [], "distance": 4490.449669619999, "display_phone": "(206) 684-9286", "phone": "+12066849286", "url": "https://www.yelp.com/biz/ella-bailey-park-seattle?adjust_creative=gBcvfFpabk3CnzmXKdYe3w&utm_campaign=yelp_api_v3&utm_medium=api_v3_business_search&utm_source=gBcvfFpabk3CnzmXKdYe3w", "name": "Ella Bailey Park", "location": {"display_address": ["2601 W Smith St", "Seattle, WA 98134"], "country": "US", "state": "WA", "address3": "", "address2": "", "address1": "2601 W Smith St", "city": "Seattle", "zip_code": "98134"}, "is_closed": false, "review_count": 29, "coordinates": {"latitude": 47.6411249488592, "longitude": -122.390803992748}, "id": "ella-bailey-park-seattle", "image_url": "https://s3-media4.fl.yelpcdn.com/bphoto/D5gKeKLqSkeOTmHyUUL8Jg/o.jpg", "categories": [{"alias": "parks", "title": "Parks"}, {"alias": "playgrounds", "title": "Playgrounds"}], "rating": 5.0}, {"transactions": ["pickup"], "distance": 1579.8234652081999, "price": "$$", "display_phone": "(206) 709-1399", "phone": "+12067091399", "url": "https://www.yelp.com/biz/honeyhole-sandwiches-seattle-2?adjust_creative=gBcvfFpabk3CnzmXKdYe3w&utm_campaign=yelp_api_v3&utm_medium=api_v3_business_search&utm_source=gBcvfFpabk3CnzmXKdYe3w", "name": "HoneyHole Sandwiches", "location": {"display_address": ["703 E Pike St", "Seattle, WA 98122"], "country": "US", "state": "WA", "address3": "", "address2": "", "address1": "703 E Pike St", "city": "Seattle", "zip_code": "98122"}, "is_closed": false, "review_count": 1060, "coordinates": {"latitude": 47.61393, "longitude": -122.3232}, "id": "honeyhole-sandwiches-seattle-2", "image_url": "https://s3-media2.fl.yelpcdn.com/bphoto/Brq21LMKzHQgAiL_4XkMYQ/o.jpg", "categories": [{"alias": "bars", "title": "Bars"}, {"alias": "sandwiches", "title": "Sandwiches"}], "rating": 4.0}, {"transactions": [], "distance": 2757.088457464, "price": "$$", "display_phone": "(206) 641-7250", "phone": "+12066417250", "url": "https://www.yelp.com/biz/e-smith-mercantile-seattle?adjust_creative=gBcvfFpabk3CnzmXKdYe3w&utm_campaign=yelp_api_v3&utm_medium=api_v3_business_search&utm_source=gBcvfFpabk3CnzmXKdYe3w", "name": "E Smith Mercantile", "location": {"display_address": ["208 1st Ave S", "Seattle, WA 98104"], "country": "US", "state": "WA", "address3": "", "address2": "", "address1": "208 1st Ave S", "city": "Seattle", "zip_code": "98104"}, "is_closed": false, "review_count": 116, "coordinates": {"latitude": 47.6006431, "longitude": -122.3340863}, "id": "e-smith-mercantile-seattle", "image_url": "https://s3-media3.fl.yelpcdn.com/bphoto/pXV7tftCI9n2zXQpfAVfdw/o.jpg", "categories": [{"alias": "cocktailbars", "title": "Cocktail Bars"}, {"alias": "giftshops", "title": "Gift Shops"}], "rating": 4.5}, {"transactions": [], "distance": 1964.4989681739999, "price": "$", "display_phone": "(206) 285-0693", "phone": "+12062850693", "url": "https://www.yelp.com/biz/el-diablo-coffee-seattle-2?adjust_creative=gBcvfFpabk3CnzmXKdYe3w&utm_campaign=yelp_api_v3&utm_medium=api_v3_business_search&utm_source=gBcvfFpabk3CnzmXKdYe3w", "name": "El Diablo Coffee", "location": {"display_address": ["1811 Queen Anne Ave N", "Seattle, WA 98109"], "country": "US", "state": "WA", "address3": "", "address2": "", "address1": "1811 Queen Anne Ave N", "city": "Seattle", "zip_code": "98109"}, "is_closed": false, "review_count": 342, "coordinates": {"latitude": 47.6351852416992, "longitude": -122.357360839844}, "id": "el-diablo-coffee-seattle-2", "image_url": "https://s3-media1.fl.yelpcdn.com/bphoto/tCb3J8SCd5XuwjtU-cRKFA/o.jpg", "categories": [{"alias": "coffee", "title": "Coffee & Tea"}], "rating": 4.0}, {"transactions": [], "distance": 4149.922659792, "price": "$", "display_phone": "(206) 547-3219", "phone": "+12065473219", "url": "https://www.yelp.com/biz/ugly-mug-caf%C3%A9-and-coffee-roasters-seattle-2?adjust_creative=gBcvfFpabk3CnzmXKdYe3w&utm_campaign=yelp_api_v3&utm_medium=api_v3_business_search&utm_source=gBcvfFpabk3CnzmXKdYe3w", "name": "Ugly Mug Caf\u00e9 & Coffee Roasters", "location": {"display_address": ["1309 NE 43rd St", "Ste 101", "Seattle, WA 98105"], "country": "US", "state": "WA", "address3": "", "address2": "Ste 101", "address1": "1309 NE 43rd St", "city": "Seattle", "zip_code": "98105"}, "is_closed": false, "review_count": 341, "coordinates": {"latitude": 47.6597958, "longitude": -122.3139519}, "id": "ugly-mug-caf\u00e9-and-coffee-roasters-seattle-2", "image_url": "https://s3-media4.fl.yelpcdn.com/bphoto/SAFdn54mTqRWWrz8tq8a6Q/o.jpg", "categories": [{"alias": "breakfast_brunch", "title": "Breakfast & Brunch"}, {"alias": "coffee", "title": "Coffee & Tea"}, {"alias": "sandwiches", "title": "Sandwiches"}], "rating": 4.5}, {"transactions": ["pickup"], "distance": 2958.851413264, "price": "$$", "display_phone": "(206) 402-6634", "phone": "+12064026634", "url": "https://www.yelp.com/biz/arayas-place-seattle-3?adjust_creative=gBcvfFpabk3CnzmXKdYe3w&utm_campaign=yelp_api_v3&utm_medium=api_v3_business_search&utm_source=gBcvfFpabk3CnzmXKdYe3w", "name": "Araya's Place", "location": {"display_address": ["2808 E Madison St", "Seattle, WA 98112"], "country": "US", "state": "WA", "address3": "", "address2": "", "address1": "2808 E Madison St", "city": "Seattle", "zip_code": "98112"}, "is_closed": false, "review_count": 233, "coordinates": {"latitude": 47.6238626, "longitude": -122.2960954}, "id": "arayas-place-seattle-3", "image_url": "https://s3-media1.fl.yelpcdn.com/bphoto/MO2ZiTdzakZt0zbTcF9lNw/o.jpg", "categories": [{"alias": "thai", "title": "Thai"}, {"alias": "vegan", "title": "Vegan"}, {"alias": "venues", "title": "Venues & Event Spaces"}], "rating": 4.5}, {"transactions": [], "distance": 3969.384162714, "price": "$$$", "display_phone": "(206) 547-1348", "phone": "+12065471348", "url": "https://www.yelp.com/biz/harvest-beat-seattle?adjust_creative=gBcvfFpabk3CnzmXKdYe3w&utm_campaign=yelp_api_v3&utm_medium=api_v3_business_search&utm_source=gBcvfFpabk3CnzmXKdYe3w", "name": "Harvest Beat", "location": {"display_address": ["1711 N 45th St", "Seattle, WA 98103"], "country": "US", "state": "WA", "address3": "", "address2": "", "address1": "1711 N 45th St", "city": "Seattle", "zip_code": "98103"}, "is_closed": false, "review_count": 62, "coordinates": {"latitude": 47.66115, "longitude": -122.33678}, "id": "harvest-beat-seattle", "image_url": "https://s3-media3.fl.yelpcdn.com/bphoto/qvXCYtIylcqT47hBZvYvYA/o.jpg", "categories": [{"alias": "vegetarian", "title": "Vegetarian"}, {"alias": "vegan", "title": "Vegan"}], "rating": 5.0}, {"transactions": [], "distance": 3279.5436294599995, "price": "$$$", "display_phone": "(206) 322-5800", "phone": "+12063225800", "url": "https://www.yelp.com/biz/nishino-seattle?adjust_creative=gBcvfFpabk3CnzmXKdYe3w&utm_campaign=yelp_api_v3&utm_medium=api_v3_business_search&utm_source=gBcvfFpabk3CnzmXKdYe3w", "name": "Nishino", "location": {"display_address": ["3130 E Madison St", "Ste 106", "Seattle, WA 98112"], "country": "US", "state": "WA", "address3": "", "address2": "Ste 106", "address1": "3130 E Madison St", "city": "Seattle", "zip_code": "98112"}, "is_closed": false, "review_count": 567, "coordinates": {"latitude": 47.626865892007, "longitude": -122.29180523016}, "id": "nishino-seattle", "image_url": "https://s3-media3.fl.yelpcdn.com/bphoto/Mx-M9DBlxCEJ_70d3gIiUg/o.jpg", "categories": [{"alias": "sushi", "title": "Sushi Bars"}, {"alias": "japanese", "title": "Japanese"}], "rating": 4.5}, {"transactions": [], "distance": 5763.297275172, "price": "$$", "display_phone": "(206) 453-3233", "phone": "+12064533233", "url": "https://www.yelp.com/biz/no-bones-beach-club-seattle-2?adjust_creative=gBcvfFpabk3CnzmXKdYe3w&utm_campaign=yelp_api_v3&utm_medium=api_v3_business_search&utm_source=gBcvfFpabk3CnzmXKdYe3w", "name": "No Bones Beach Club", "location": {"display_address": ["5410 17th Ave NW", "Seattle, WA 98107"], "country": "US", "state": "WA", "address3": "", "address2": "", "address1": "5410 17th Ave NW", "city": "Seattle", "zip_code": "98107"}, "is_closed": false, "review_count": 234, "coordinates": {"latitude": 47.6683552, "longitude": -122.3786058}, "id": "no-bones-beach-club-seattle-2", "image_url": "https://s3-media3.fl.yelpcdn.com/bphoto/EqGk9Mbic6otzTVyfy1V6A/o.jpg", "categories": [{"alias": "vegan", "title": "Vegan"}, {"alias": "cocktailbars", "title": "Cocktail Bars"}, {"alias": "sandwiches", "title": "Sandwiches"}], "rating": 4.5}, {"transactions": [], "distance": 5212.836529429999, "price": "$$", "display_phone": "(206) 240-7174", "phone": "+12062407174", "url": "https://www.yelp.com/biz/slate-coffee-roasters-seattle-4?adjust_creative=gBcvfFpabk3CnzmXKdYe3w&utm_campaign=yelp_api_v3&utm_medium=api_v3_business_search&utm_source=gBcvfFpabk3CnzmXKdYe3w", "name": "Slate Coffee Roasters", "location": {"display_address": ["5413 6th Ave NW", "Seattle, WA 98107"], "country": "US", "state": "WA", "address3": "", "address2": null, "address1": "5413 6th Ave NW", "city": "Seattle", "zip_code": "98107"}, "is_closed": false, "review_count": 209, "coordinates": {"latitude": 47.6683499, "longitude": -122.36354}, "id": "slate-coffee-roasters-seattle-4", "image_url": "https://s3-media2.fl.yelpcdn.com/bphoto/fV-xIyx-alMQU1wkkcGxlw/o.jpg", "categories": [{"alias": "coffee", "title": "Coffee & Tea"}], "rating": 4.5}, {"transactions": [], "distance": 1395.377281396, "price": "$$", "display_phone": "(206) 441-1430", "phone": "+12064411430", "url": "https://www.yelp.com/biz/lola-seattle?adjust_creative=gBcvfFpabk3CnzmXKdYe3w&utm_campaign=yelp_api_v3&utm_medium=api_v3_business_search&utm_source=gBcvfFpabk3CnzmXKdYe3w", "name": "Lola", "location": {"display_address": ["2000 4th Ave", "Seattle, WA 98121"], "country": "US", "state": "WA", "address3": "", "address2": null, "address1": "2000 4th Ave", "city": "Seattle", "zip_code": "98121"}, "is_closed": false, "review_count": 2837, "coordinates": {"latitude": 47.6132519777742, "longitude": -122.340060726984}, "id": "lola-seattle", "image_url": "https://s3-media3.fl.yelpcdn.com/bphoto/EeM89mDr70_ziqrjUb3gEg/o.jpg", "categories": [{"alias": "greek", "title": "Greek"}, {"alias": "mediterranean", "title": "Mediterranean"}, {"alias": "breakfast_brunch", "title": "Breakfast & Brunch"}], "rating": 4.0}, {"transactions": [], "distance": 3487.64738486, "price": "$$", "display_phone": "(206) 328-0404", "phone": "+12063280404", "url": "https://www.yelp.com/biz/cafe-selam-seattle?adjust_creative=gBcvfFpabk3CnzmXKdYe3w&utm_campaign=yelp_api_v3&utm_medium=api_v3_business_search&utm_source=gBcvfFpabk3CnzmXKdYe3w", "name": "Cafe Selam", "location": {"display_address": ["2715 E Cherry St", "Ste B", "Seattle, WA 98122"], "country": "US", "state": "WA", "address3": "", "address2": "Ste B", "address1": "2715 E Cherry St", "city": "Seattle", "zip_code": "98122"}, "is_closed": false, "review_count": 155, "coordinates": {"latitude": 47.6079453527927, "longitude": -122.296983003616}, "id": "cafe-selam-seattle", "image_url": "https://s3-media2.fl.yelpcdn.com/bphoto/rczuuPvrgaOX9-YZTJNFQQ/o.jpg", "categories": [{"alias": "ethiopian", "title": "Ethiopian"}], "rating": 4.5}, {"transactions": [], "distance": 2971.7298347459996, "price": "$$", "display_phone": "(206) 709-8883", "phone": "+12067098883", "url": "https://www.yelp.com/biz/aglio-e-olio-seattle?adjust_creative=gBcvfFpabk3CnzmXKdYe3w&utm_campaign=yelp_api_v3&utm_medium=api_v3_business_search&utm_source=gBcvfFpabk3CnzmXKdYe3w", "name": "Aglio e Olio", "location": {"display_address": ["2743 E Madison St", "Seattle, WA 98112"], "country": "US", "state": "WA", "address3": "", "address2": "", "address1": "2743 E Madison St", "city": "Seattle", "zip_code": "98112"}, "is_closed": false, "review_count": 71, "coordinates": {"latitude": 47.62323, "longitude": -122.29593}, "id": "aglio-e-olio-seattle", "image_url": "https://s3-media3.fl.yelpcdn.com/bphoto/e2aP81X9az1FCPZCg_SRDw/o.jpg", "categories": [{"alias": "italian", "title": "Italian"}, {"alias": "pizza", "title": "Pizza"}, {"alias": "sandwiches", "title": "Sandwiches"}], "rating": 4.5}, {"transactions": [], "distance": 1954.81862714, "price": "$$", "display_phone": "(206) 324-3160", "phone": "+12063243160", "url": "https://www.yelp.com/biz/pomodoro-seattle?adjust_creative=gBcvfFpabk3CnzmXKdYe3w&utm_campaign=yelp_api_v3&utm_medium=api_v3_business_search&utm_source=gBcvfFpabk3CnzmXKdYe3w", "name": "Pomodoro", "location": {"display_address": ["2366 Eastlake Ave E", "Ste 101", "Seattle, WA 98102"], "country": "US", "state": "WA", "address3": "", "address2": "Ste 101", "address1": "2366 Eastlake Ave E", "city": "Seattle", "zip_code": "98102"}, "is_closed": false, "review_count": 241, "coordinates": {"latitude": 47.641699, "longitude": -122.325672}, "id": "pomodoro-seattle", "image_url": "https://s3-media1.fl.yelpcdn.com/bphoto/FWNyUO2uIOSa3dd0wIWFUA/o.jpg", "categories": [{"alias": "italian", "title": "Italian"}, {"alias": "spanish", "title": "Spanish"}, {"alias": "basque", "title": "Basque"}], "rating": 4.5}, {"transactions": [], "distance": 1118.041328536, "price": "$", "display_phone": "(206) 860-2722", "phone": "+12068602722", "url": "https://www.yelp.com/biz/espresso-vivace-roasteria-seattle?adjust_creative=gBcvfFpabk3CnzmXKdYe3w&utm_campaign=yelp_api_v3&utm_medium=api_v3_business_search&utm_source=gBcvfFpabk3CnzmXKdYe3w", "name": "Espresso Vivace Roasteria", "location": {"display_address": ["532 Broadway E", "Seattle, WA 98102"], "country": "US", "state": "WA", "address3": "", "address2": "", "address1": "532 Broadway E", "city": "Seattle", "zip_code": "98102"}, "is_closed": false, "review_count": 614, "coordinates": {"latitude": 47.6238354263561, "longitude": -122.320776209235}, "id": "espresso-vivace-roasteria-seattle", "image_url": "https://s3-media2.fl.yelpcdn.com/bphoto/RlfOAGL5h8Xp4ZIwASnkcQ/o.jpg", "categories": [{"alias": "coffee", "title": "Coffee & Tea"}], "rating": 4.0}, {"transactions": [], "distance": 1993.7055923619998, "price": "$$$", "display_phone": "(206) 682-0168", "phone": "+12066820168", "url": "https://www.yelp.com/biz/frans-chocolates-seattle-3?adjust_creative=gBcvfFpabk3CnzmXKdYe3w&utm_campaign=yelp_api_v3&utm_medium=api_v3_business_search&utm_source=gBcvfFpabk3CnzmXKdYe3w", "name": "Fran's Chocolates", "location": {"display_address": ["1325 1st Ave", "Seattle, WA 98101"], "country": "US", "state": "WA", "address3": "", "address2": "", "address1": "1325 1st Ave", "city": "Seattle", "zip_code": "98101"}, "is_closed": false, "review_count": 261, "coordinates": {"latitude": 47.6076583012086, "longitude": -122.339147280925}, "id": "frans-chocolates-seattle-3", "image_url": "https://s3-media4.fl.yelpcdn.com/bphoto/659vseIYwn1Cuq3Hp9lbkQ/o.jpg", "categories": [{"alias": "chocolate", "title": "Chocolatiers & Shops"}, {"alias": "candy", "title": "Candy Stores"}, {"alias": "coffee", "title": "Coffee & Tea"}], "rating": 4.0}, {"transactions": [], "distance": 1320.6343819079998, "price": "$$", "display_phone": "(206) 501-4321", "phone": "+12065014321", "url": "https://www.yelp.com/biz/taylor-shellfish-farms-seattle?adjust_creative=gBcvfFpabk3CnzmXKdYe3w&utm_campaign=yelp_api_v3&utm_medium=api_v3_business_search&utm_source=gBcvfFpabk3CnzmXKdYe3w", "name": "Taylor Shellfish Farms", "location": {"display_address": ["1521 Melrose Ave", "Seattle, WA 98122"], "country": "US", "state": "WA", "address3": "", "address2": "", "address1": "1521 Melrose Ave", "city": "Seattle", "zip_code": "98122"}, "is_closed": false, "review_count": 685, "coordinates": {"latitude": 47.614652, "longitude": -122.328081}, "id": "taylor-shellfish-farms-seattle", "image_url": "https://s3-media3.fl.yelpcdn.com/bphoto/Hll9_C0nxV9tyezB-8NGLw/o.jpg", "categories": [{"alias": "seafood", "title": "Seafood"}, {"alias": "raw_food", "title": "Live/Raw Food"}], "rating": 4.0}, {"transactions": [], "distance": 4439.04091266, "price": "$", "display_phone": "(206) 548-9539", "phone": "+12065489539", "url": "https://www.yelp.com/biz/aladdin-falafel-corner-seattle-2?adjust_creative=gBcvfFpabk3CnzmXKdYe3w&utm_campaign=yelp_api_v3&utm_medium=api_v3_business_search&utm_source=gBcvfFpabk3CnzmXKdYe3w", "name": "Aladdin Falafel Corner", "location": {"display_address": ["4541 University Way NE", "Seattle, WA 98105"], "country": "US", "state": "WA", "address3": "", "address2": null, "address1": "4541 University Way NE", "city": "Seattle", "zip_code": "98105"}, "is_closed": false, "review_count": 349, "coordinates": {"latitude": 47.6624399, "longitude": -122.31344}, "id": "aladdin-falafel-corner-seattle-2", "image_url": "https://s3-media2.fl.yelpcdn.com/bphoto/WagMhj1E2lnKWmw8h4131w/o.jpg", "categories": [{"alias": "mideastern", "title": "Middle Eastern"}, {"alias": "falafel", "title": "Falafel"}, {"alias": "greek", "title": "Greek"}], "rating": 4.5}, {"transactions": [], "distance": 1129.2068811758, "price": "$$", "display_phone": "(206) 979-7049", "phone": "+12069797049", "url": "https://www.yelp.com/biz/knee-high-stocking-co-seattle-3?adjust_creative=gBcvfFpabk3CnzmXKdYe3w&utm_campaign=yelp_api_v3&utm_medium=api_v3_business_search&utm_source=gBcvfFpabk3CnzmXKdYe3w", "name": "Knee High Stocking Co.", "location": {"display_address": ["1356 E Olive Way", "Seattle, WA 98122"], "country": "US", "state": "WA", "address3": "", "address2": "", "address1": "1356 E Olive Way", "city": "Seattle", "zip_code": "98122"}, "is_closed": false, "review_count": 688, "coordinates": {"latitude": 47.6168966455954, "longitude": -122.327313423157}, "id": "knee-high-stocking-co-seattle-3", "image_url": "https://s3-media1.fl.yelpcdn.com/bphoto/G2cyMnhV8fN-GZDEMSQQAA/o.jpg", "categories": [{"alias": "cocktailbars", "title": "Cocktail Bars"}, {"alias": "speakeasies", "title": "Speakeasies"}, {"alias": "asianfusion", "title": "Asian Fusion"}], "rating": 4.0}], "total": 36022}