{"total": 36020, "region": {"center": {"longitude": -122.33551025390625, "latitude": 47.62541904760501}}, "businesses": [{"rating": 4.5, "is_closed": false, "distance": 4716.0025330359995, "name": "Oh Boy! Oberto Factory Outlet", "id": "oh-boy-oberto-factory-outlet-seattle", "image_url": "https://s3-media2.fl.yelpcdn.com/bphoto/1syJiYtc7YQgDeoD_O8kTg/o.jpg", "url": "https://www.yelp.com/biz/oh-boy-oberto-factory-outlet-seattle?adjust_creative=gBcvfFpabk3CnzmXKdYe3w&utm_campaign=yelp_api_v3&utm_medium=api_v3_business_search&utm_source=gBcvfFpabk3CnzmXKdYe3w", "phone": "+12063227524", "coordinates": {"longitude": -122.30589, "latitude": 47.58801}, "categories": [{"alias": "meats", "title": "Meat Shops"}, {"alias": "outlet_stores", "title": "Outlet Stores"}, {"alias": "hotdog", "title": "Hot Dogs"}], "review_count": 53, "location": {"city": "Seattle", "address1": "1715 Rainier Ave S", "address3": "", "address2": "", "zip_code": "98144", "country": "US", "display_address": ["1715 Rainier Ave S", "Seattle, WA 98144"], "state": "WA"}, "price": "$", "transactions": [], "display_phone": "(206) 322-7524"}, {"rating": 4.0, "is_closed": false, "distance": 2003.7654157679997, "name": "Vito's", "id": "vitos-seattle", "image_url": "https://s3-media2.fl.yelpcdn.com/bphoto/_8vfVP7qPYrfuomc1bVKOg/o.jpg", "url": "https://www.yelp.com/biz/vitos-seattle?adjust_creative=gBcvfFpabk3CnzmXKdYe3w&utm_campaign=yelp_api_v3&utm_medium=api_v3_business_search&utm_source=gBcvfFpabk3CnzmXKdYe3w", "phone": "+12063974053", "coordinates": {"longitude": -122.327379, "latitude": 47.608254}, "categories": [{"alias": "lounges", "title": "Lounges"}, {"alias": "italian", "title": "Italian"}, {"alias": "pizza", "title": "Pizza"}], "review_count": 300, "location": {"city": "Seattle", "address1": "927 9th Ave", "address3": "", "address2": "", "zip_code": "98104", "country": "US", "display_address": ["927 9th Ave", "Seattle, WA 98104"], "state": "WA"}, "price": "$$", "transactions": [], "display_phone": "(206) 397-4053"}, {"rating": 4.0, "is_closed": false, "distance": 1538.750485184, "name": "Sarajevo Restaurant & Lounge", "id": "sarajevo-restaurant-and-lounge-seattle", "image_url": "https://s3-media2.fl.yelpcdn.com/bphoto/8J0K0B6VsaD_HS8kT6U4RA/o.jpg", "url": "https://www.yelp.com/biz/sarajevo-restaurant-and-lounge-seattle?adjust_creative=gBcvfFpabk3CnzmXKdYe3w&utm_campaign=yelp_api_v3&utm_medium=api_v3_business_search&utm_source=gBcvfFpabk3CnzmXKdYe3w", "phone": "+12064489000", "coordinates": {"longitude": -122.347440719604, "latitude": 47.6141587557771}, "categories": [{"alias": "lounges", "title": "Lounges"}, {"alias": "modern_european", "title": "Modern European"}, {"alias": "tradamerican", "title": "American (Traditional)"}], "review_count": 163, "location": {"city": "Seattle", "address1": "2332 1st Ave", "address3": "", "address2": "", "zip_code": "98121", "country": "US", "display_address": ["2332 1st Ave", "Seattle, WA 98121"], "state": "WA"}, "price": "$$", "transactions": ["pickup"], "display_phone": "(206) 448-9000"}, {"rating": 4.0, "is_closed": false, "distance": 5825.278430328, "name": "Anchored Ship Coffee Bar", "id": "anchored-ship-coffee-bar-seattle", "image_url": "https://s3-media3.fl.yelpcdn.com/bphoto/nVxi2ff9tJ56HjKAYk1tug/o.jpg", "url": "https://www.yelp.com/biz/anchored-ship-coffee-bar-seattle?adjust_creative=gBcvfFpabk3CnzmXKdYe3w&utm_campaign=yelp_api_v3&utm_medium=api_v3_business_search&utm_source=gBcvfFpabk3CnzmXKdYe3w", "phone": "+12064845143", "coordinates": {"longitude": -122.383381649852, "latitude": 47.6666213572025}, "categories": [{"alias": "coffee", "title": "Coffee & Tea"}], "review_count": 105, "location": {"city": "Seattle", "address1": "5306 Ballard Ave NW", "address3": "", "address2": "", "zip_code": "98107", "country": "US", "display_address": ["5306 Ballard Ave NW", "Seattle, WA 98107"], "state": "WA"}, "price": "$", "transactions": [], "display_phone": "(206) 484-5143"}, {"rating": 4.0, "is_closed": false, "distance": 1687.78245028, "name": "Rancho Bravo Tacos", "id": "rancho-bravo-tacos-seattle-2", "image_url": "https://s3-media3.fl.yelpcdn.com/bphoto/xIqH4EgY2HIu-dVroDWulg/o.jpg", "url": "https://www.yelp.com/biz/rancho-bravo-tacos-seattle-2?adjust_creative=gBcvfFpabk3CnzmXKdYe3w&utm_campaign=yelp_api_v3&utm_medium=api_v3_business_search&utm_source=gBcvfFpabk3CnzmXKdYe3w", "phone": "+12063229399", "coordinates": {"longitude": -122.318983, "latitude": 47.61511}, "categories": [{"alias": "mexican", "title": "Mexican"}, {"alias": "sandwiches", "title": "Sandwiches"}], "review_count": 706, "location": {"city": "Seattle", "address1": "1001 E Pine St", "address3": "", "address2": "", "zip_code": "98122", "country": "US", "display_address": ["1001 E Pine St", "Seattle, WA 98122"], "state": "WA"}, "price": "$", "transactions": [], "display_phone": "(206) 322-9399"}, {"rating": 4.5, "is_closed": false, "distance": 1485.463145642, "name": "No Anchor", "id": "no-anchor-seattle-3", "image_url": "https://s3-media1.fl.yelpcdn.com/bphoto/TEJbmHYv23O-PVWC8ll9yQ/o.jpg", "url": "https://www.yelp.com/biz/no-anchor-seattle-3?adjust_creative=gBcvfFpabk3CnzmXKdYe3w&utm_campaign=yelp_api_v3&utm_medium=api_v3_business_search&utm_source=gBcvfFpabk3CnzmXKdYe3w", "phone": "+12064482610", "coordinates": {"longitude": -122.34843313694, "latitude": 47.615292215253}, "categories": [{"alias": "beerbar", "title": "Beer Bar"}, {"alias": "newamerican", "title": "American (New)"}, {"alias": "gastropubs", "title": "Gastropubs"}], "review_count": 54, "location": {"city": "Seattle", "address1": "2505 2nd Ave", "address3": null, "address2": "Ste 105", "zip_code": "98121", "country": "US", "display_address": ["2505 2nd Ave", "Ste 105", "Seattle, WA 98121"], "state": "WA"}, "price": "$$", "transactions": [], "display_phone": "(206) 448-2610"}, {"rating": 4.0, "is_closed": false, "distance": 1542.1581016999999, "name": "La Creperie Voila", "id": "la-creperie-voila-seattle-4", "image_url": "https://s3-media2.fl.yelpcdn.com/bphoto/kihc_c24TrxD1TCUJMckOw/o.jpg", "url": "https://www.yelp.com/biz/la-creperie-voila-seattle-4?adjust_creative=gBcvfFpabk3CnzmXKdYe3w&utm_campaign=yelp_api_v3&utm_medium=api_v3_business_search&utm_source=gBcvfFpabk3CnzmXKdYe3w", "phone": "+12064472737", "coordinates": {"longitude": -122.3331001, "latitude": 47.6115485}, "categories": [{"alias": "creperies", "title": "Creperies"}, {"alias": "foodstands", "title": "Food Stands"}], "review_count": 267, "location": {"city": "Seattle", "address1": "707 Pike St", "address3": "", "address2": "Ste 1", "zip_code": "98101", "country": "US", "display_address": ["707 Pike St", "Ste 1", "Seattle, WA 98101"], "state": "WA"}, "price": "$", "transactions": [], "display_phone": "(206) 447-2737"}, {"rating": 4.0, "is_closed": false, "distance": 5819.54644405, "name": "An Nam Pho", "id": "an-nam-pho-seattle", "image_url": "https://s3-media1.fl.yelpcdn.com/bphoto/LfCMupO1tGTZ4r3nml7h3A/o.jpg", "url": "https://www.yelp.com/biz/an-nam-pho-seattle?adjust_creative=gBcvfFpabk3CnzmXKdYe3w&utm_campaign=yelp_api_v3&utm_medium=api_v3_business_search&utm_source=gBcvfFpabk3CnzmXKdYe3w", "phone": "+12064662179", "coordinates": {"longitude": -122.31704, "latitude": 47.67628}, "categories": [{"alias": "vietnamese", "title": "Vietnamese"}, {"alias": "sandwiches", "title": "Sandwiches"}, {"alias": "vegetarian", "title": "Vegetarian"}], "review_count": 116, "location": {"city": "Seattle", "address1": "6510 Roosevelt Way NE", "address3": "", "address2": "", "zip_code": "98115", "country": "US", "display_address": ["6510 Roosevelt Way NE", "Seattle, WA 98115"], "state": "WA"}, "price": "$", "transactions": [], "display_phone": "(206) 466-2179"}, {"rating": 4.0, "is_closed": false, "distance": 2752.019358332, "name": "Pacific Inn Pub", "id": "pacific-inn-pub-seattle", "image_url": "https://s3-media3.fl.yelpcdn.com/bphoto/r6of4lvd7qsdy2Iorw3k2Q/o.jpg", "url": "https://www.yelp.com/biz/pacific-inn-pub-seattle?adjust_creative=gBcvfFpabk3CnzmXKdYe3w&utm_campaign=yelp_api_v3&utm_medium=api_v3_business_search&utm_source=gBcvfFpabk3CnzmXKdYe3w", "phone": "+12065472967", "coordinates": {"longitude": -122.34309, "latitude": 47.64965}, "categories": [{"alias": "divebars", "title": "Dive Bars"}, {"alias": "tradamerican", "title": "American (Traditional)"}, {"alias": "fishnchips", "title": "Fish & Chips"}], "review_count": 236, "location": {"city": "Seattle", "address1": "3501 Stone Way N", "address3": "", "address2": "", "zip_code": "98103", "country": "US", "display_address": ["3501 Stone Way N", "Seattle, WA 98103"], "state": "WA"}, "price": "$", "transactions": [], "display_phone": "(206) 547-2967"}, {"rating": 4.0, "is_closed": false, "distance": 255.35912768799997, "name": "Lake Union Park", "id": "lake-union-park-seattle", "image_url": "https://s3-media2.fl.yelpcdn.com/bphoto/hRsRB2hpZKn1AcxXf6D9Rw/o.jpg", "url": "https://www.yelp.com/biz/lake-union-park-seattle?adjust_creative=gBcvfFpabk3CnzmXKdYe3w&utm_campaign=yelp_api_v3&utm_medium=api_v3_business_search&utm_source=gBcvfFpabk3CnzmXKdYe3w", "phone": "+12066844075", "coordinates": {"longitude": -122.33663, "latitude": 47.62763}, "categories": [{"alias": "parks", "title": "Parks"}, {"alias": "boating", "title": "Boating"}], "review_count": 36, "location": {"city": "Seattle", "address1": "860 Terry Ave N", "address3": "", "address2": "", "zip_code": "98109", "country": "US", "display_address": ["860 Terry Ave N", "Seattle, WA 98109"], "state": "WA"}, "transactions": [], "display_phone": "(206) 684-4075"}, {"rating": 4.0, "is_closed": false, "distance": 922.16389005, "name": "The Butcher's Table", "id": "the-butchers-table-seattle", "image_url": "https://s3-media2.fl.yelpcdn.com/bphoto/fqwFDP0HK05el2p1NsCHSQ/o.jpg", "url": "https://www.yelp.com/biz/the-butchers-table-seattle?adjust_creative=gBcvfFpabk3CnzmXKdYe3w&utm_campaign=yelp_api_v3&utm_medium=api_v3_business_search&utm_source=gBcvfFpabk3CnzmXKdYe3w", "phone": "+12062095990", "coordinates": {"longitude": -122.33869, "latitude": 47.6174}, "categories": [{"alias": "steak", "title": "Steakhouses"}, {"alias": "butcher", "title": "Butcher"}, {"alias": "musicvenues", "title": "Music Venues"}], "review_count": 134, "location": {"city": "Seattle", "address1": "2121 Westlake Ave", "address3": null, "address2": null, "zip_code": "98121", "country": "US", "display_address": ["2121 Westlake Ave", "Seattle, WA 98121"], "state": "WA"}, "price": "$$$$", "transactions": [], "display_phone": "(206) 209-5990"}, {"rating": 4.0, "is_closed": false, "distance": 2622.9084474919996, "name": "Kraken Congee", "id": "kraken-congee-seattle", "image_url": "https://s3-media2.fl.yelpcdn.com/bphoto/EJQiO0IbOtDiTybI0LfmTw/o.jpg", "url": "https://www.yelp.com/biz/kraken-congee-seattle?adjust_creative=gBcvfFpabk3CnzmXKdYe3w&utm_campaign=yelp_api_v3&utm_medium=api_v3_business_search&utm_source=gBcvfFpabk3CnzmXKdYe3w", "phone": "+12067489999", "coordinates": {"longitude": -122.334723599332, "latitude": 47.6018366775535}, "categories": [{"alias": "korean", "title": "Korean"}, {"alias": "filipino", "title": "Filipino"}, {"alias": "chinese", "title": "Chinese"}], "review_count": 243, "location": {"city": "Seattle", "address1": "88 Yesler Way", "address3": "", "address2": "", "zip_code": "98104", "country": "US", "display_address": ["88 Yesler Way", "Seattle, WA 98104"], "state": "WA"}, "price": "$$", "transactions": [], "display_phone": "(206) 748-9999"}, {"rating": 4.0, "is_closed": false, "distance": 2958.9991506759998, "name": "Saba Ethiopian Cuisine", "id": "saba-ethiopian-cuisine-seattle", "image_url": "https://s3-media2.fl.yelpcdn.com/bphoto/F55xCJIOqvQ90T5q8hfPWA/o.jpg", "url": "https://www.yelp.com/biz/saba-ethiopian-cuisine-seattle?adjust_creative=gBcvfFpabk3CnzmXKdYe3w&utm_campaign=yelp_api_v3&utm_medium=api_v3_business_search&utm_source=gBcvfFpabk3CnzmXKdYe3w", "phone": "+12063282290", "coordinates": {"longitude": -122.31653, "latitude": 47.60215}, "categories": [{"alias": "ethiopian", "title": "Ethiopian"}, {"alias": "beer_and_wine", "title": "Beer, Wine & Spirits"}, {"alias": "cafes", "title": "Cafes"}], "review_count": 196, "location": {"city": "Seattle", "address1": "110 12th Ave", "address3": "", "address2": "", "zip_code": "98122", "country": "US", "display_address": ["110 12th Ave", "Seattle, WA 98122"], "state": "WA"}, "price": "$$", "transactions": [], "display_phone": "(206) 328-2290"}, {"rating": 4.0, "is_closed": false, "distance": 1259.294790143, "name": "Highline Bar", "id": "highline-bar-seattle", "image_url": "https://s3-media2.fl.yelpcdn.com/bphoto/PnWMHdVJZtl6Z-IgO305Dg/o.jpg", "url": "https://www.yelp.com/biz/highline-bar-seattle?adjust_creative=gBcvfFpabk3CnzmXKdYe3w&utm_campaign=yelp_api_v3&utm_medium=api_v3_business_search&utm_source=gBcvfFpabk3CnzmXKdYe3w", "phone": "+12063287837", "coordinates": {"longitude": -122.32067, "latitude": 47.6203}, "categories": [{"alias": "vegan", "title": "Vegan"}, {"alias": "divebars", "title": "Dive Bars"}], "review_count": 257, "location": {"city": "Seattle", "address1": "210 Broadway E", "address3": "", "address2": "", "zip_code": "98102", "country": "US", "display_address": ["210 Broadway E", "Seattle, WA 98102"], "state": "WA"}, "price": "$$", "transactions": [], "display_phone": "(206) 328-7837"}, {"rating": 4.0, "is_closed": false, "distance": 2652.8870720779996, "name": "Caf\u00e9 Paloma", "id": "caf\u00e9-paloma-seattle-2", "image_url": "https://s3-media1.fl.yelpcdn.com/bphoto/xogNG6LSU1wO-4c3VuDU6A/o.jpg", "url": "https://www.yelp.com/biz/caf%C3%A9-paloma-seattle-2?adjust_creative=gBcvfFpabk3CnzmXKdYe3w&utm_campaign=yelp_api_v3&utm_medium=api_v3_business_search&utm_source=gBcvfFpabk3CnzmXKdYe3w", "phone": "+12064051920", "coordinates": {"longitude": -122.3347, "latitude": 47.60158}, "categories": [{"alias": "mediterranean", "title": "Mediterranean"}, {"alias": "turkish", "title": "Turkish"}], "review_count": 144, "location": {"city": "Seattle", "address1": "93 Yesler Way", "address3": "", "address2": "", "zip_code": "98104", "country": "US", "display_address": ["93 Yesler Way", "Seattle, WA 98104"], "state": "WA"}, "price": "$$", "transactions": [], "display_phone": "(206) 405-1920"}, {"rating": 4.0, "is_closed": false, "distance": 1196.80580775, "name": "Home Remedy", "id": "home-remedy-seattle", "image_url": "https://s3-media2.fl.yelpcdn.com/bphoto/7IGD8XZTzMZDMZD7lkv08g/o.jpg", "url": "https://www.yelp.com/biz/home-remedy-seattle?adjust_creative=gBcvfFpabk3CnzmXKdYe3w&utm_campaign=yelp_api_v3&utm_medium=api_v3_business_search&utm_source=gBcvfFpabk3CnzmXKdYe3w", "phone": "+12068128407", "coordinates": {"longitude": -122.340164, "latitude": 47.615122}, "categories": [{"alias": "delis", "title": "Delis"}, {"alias": "convenience", "title": "Convenience Stores"}], "review_count": 75, "location": {"city": "Seattle", "address1": "2121 6th Ave", "address3": "", "address2": "", "zip_code": "98121", "country": "US", "display_address": ["2121 6th Ave", "Seattle, WA 98121"], "state": "WA"}, "price": "$$", "transactions": [], "display_phone": "(206) 812-8407"}, {"rating": 4.0, "is_closed": false, "distance": 1180.3006742044, "name": "Redwood", "id": "redwood-seattle", "image_url": "https://s3-media2.fl.yelpcdn.com/bphoto/czk9LCcnCue863jid3ZK9Q/o.jpg", "url": "https://www.yelp.com/biz/redwood-seattle?adjust_creative=gBcvfFpabk3CnzmXKdYe3w&utm_campaign=yelp_api_v3&utm_medium=api_v3_business_search&utm_source=gBcvfFpabk3CnzmXKdYe3w", "phone": "+12063291952", "coordinates": {"longitude": -122.324511988491, "latitude": 47.6178243720052}, "categories": [{"alias": "bars", "title": "Bars"}, {"alias": "burgers", "title": "Burgers"}], "review_count": 207, "location": {"city": "Seattle", "address1": "514 E Howell St", "address3": "", "address2": null, "zip_code": "98122", "country": "US", "display_address": ["514 E Howell St", "Seattle, WA 98122"], "state": "WA"}, "price": "$", "transactions": [], "display_phone": "(206) 329-1952"}, {"rating": 4.0, "is_closed": false, "distance": 3391.331926408, "name": "Pagliacci Pizza", "id": "pagliacci-pizza-seattle-3", "image_url": "https://s3-media3.fl.yelpcdn.com/bphoto/W6838USOXb0yXDcC9fFLpA/o.jpg", "url": "https://www.yelp.com/biz/pagliacci-pizza-seattle-3?adjust_creative=gBcvfFpabk3CnzmXKdYe3w&utm_campaign=yelp_api_v3&utm_medium=api_v3_business_search&utm_source=gBcvfFpabk3CnzmXKdYe3w", "phone": "+12067261717", "coordinates": {"longitude": -122.342827, "latitude": 47.655519}, "categories": [{"alias": "pizza", "title": "Pizza"}], "review_count": 81, "location": {"city": "Seattle", "address1": "4003 Stone Way N", "address3": "", "address2": "", "zip_code": "98103", "country": "US", "display_address": ["4003 Stone Way N", "Seattle, WA 98103"], "state": "WA"}, "price": "$", "transactions": [], "display_phone": "(206) 726-1717"}, {"rating": 4.0, "is_closed": false, "distance": 4482.732240584, "name": "WOW Bubble Tea", "id": "wow-bubble-tea-seattle", "image_url": "https://s3-media4.fl.yelpcdn.com/bphoto/tXGcZHm1AMGUhwArHpYYMw/o.jpg", "url": "https://www.yelp.com/biz/wow-bubble-tea-seattle?adjust_creative=gBcvfFpabk3CnzmXKdYe3w&utm_campaign=yelp_api_v3&utm_medium=api_v3_business_search&utm_source=gBcvfFpabk3CnzmXKdYe3w", "phone": "+12066331229", "coordinates": {"longitude": -122.3132573, "latitude": 47.6628435}, "categories": [{"alias": "coffee", "title": "Coffee & Tea"}, {"alias": "icecream", "title": "Ice Cream & Frozen Yogurt"}, {"alias": "bubbletea", "title": "Bubble Tea"}], "review_count": 234, "location": {"city": "Seattle", "address1": "4553 University Way NE", "address3": "", "address2": null, "zip_code": "98105", "country": "US", "display_address": ["4553 University Way NE", "Seattle, WA 98105"], "state": "WA"}, "price": "$", "transactions": [], "display_phone": "(206) 633-1229"}, {"rating": 4.0, "is_closed": false, "distance": 3978.1436393999993, "name": "Saigon Deli", "id": "saigon-deli-seattle-2", "image_url": "https://s3-media4.fl.yelpcdn.com/bphoto/1ze16zD1oedB1DlViXE5-w/o.jpg", "url": "https://www.yelp.com/biz/saigon-deli-seattle-2?adjust_creative=gBcvfFpabk3CnzmXKdYe3w&utm_campaign=yelp_api_v3&utm_medium=api_v3_business_search&utm_source=gBcvfFpabk3CnzmXKdYe3w", "phone": "+12066342866", "coordinates": {"longitude": -122.314018249512, "latitude": 47.6581344604492}, "categories": [{"alias": "vietnamese", "title": "Vietnamese"}, {"alias": "chinese", "title": "Chinese"}, {"alias": "delis", "title": "Delis"}], "review_count": 157, "location": {"city": "Seattle", "address1": "4142 Brooklyn Ave NE", "address3": "", "address2": "", "zip_code": "98105", "country": "US", "display_address": ["4142 Brooklyn Ave NE", "Seattle, WA 98105"], "state": "WA"}, "price": "$", "transactions": [], "display_phone": "(206) 634-2866"}, {"rating": 4.0, "is_closed": false, "distance": 2350.642076566, "name": "Starbucks", "id": "starbucks-seattle-80", "image_url": "https://s3-media2.fl.yelpcdn.com/bphoto/6LvgD_CU7tV7Zm2IkXjgXQ/o.jpg", "url": "https://www.yelp.com/biz/starbucks-seattle-80?adjust_creative=gBcvfFpabk3CnzmXKdYe3w&utm_campaign=yelp_api_v3&utm_medium=api_v3_business_search&utm_source=gBcvfFpabk3CnzmXKdYe3w", "phone": "+12062640152", "coordinates": {"longitude": -122.330482231461, "latitude": 47.6045541430237}, "categories": [{"alias": "coffee", "title": "Coffee & Tea"}], "review_count": 68, "location": {"city": "Seattle", "address1": "701 5th Ave", "address3": "", "address2": "Ste 4020", "zip_code": "98101", "country": "US", "display_address": ["701 5th Ave", "Ste 4020", "Seattle, WA 98101"], "state": "WA"}, "price": "$", "transactions": [], "display_phone": "(206) 264-0152"}, {"rating": 4.0, "is_closed": false, "distance": 3994.92261824, "name": "San Fernando Roasted Chicken", "id": "san-fernando-roasted-chicken-seattle", "image_url": "https://s3-media3.fl.yelpcdn.com/bphoto/gcdKbCfkqLjGaCv5JUK8RA/o.jpg", "url": "https://www.yelp.com/biz/san-fernando-roasted-chicken-seattle?adjust_creative=gBcvfFpabk3CnzmXKdYe3w&utm_campaign=yelp_api_v3&utm_medium=api_v3_business_search&utm_source=gBcvfFpabk3CnzmXKdYe3w", "phone": "+12063313763", "coordinates": {"longitude": -122.309692382812, "latitude": 47.5940132141113}, "categories": [{"alias": "peruvian", "title": "Peruvian"}, {"alias": "bbq", "title": "Barbeque"}, {"alias": "chickenshop", "title": "Chicken Shop"}], "review_count": 234, "location": {"city": "Seattle", "address1": "900 Rainier Ave S", "address3": "", "address2": "", "zip_code": "98144", "country": "US", "display_address": ["900 Rainier Ave S", "Seattle, WA 98144"], "state": "WA"}, "price": "$$", "transactions": [], "display_phone": "(206) 331-3763"}, {"rating": 4.0, "is_closed": false, "distance": 1476.9844505058, "name": "Andaluca Restaurant", "id": "andaluca-restaurant-seattle-2", "image_url": "https://s3-media3.fl.yelpcdn.com/bphoto/Bm2P-H4eeqS-qEzIrxoN1A/o.jpg", "url": "https://www.yelp.com/biz/andaluca-restaurant-seattle-2?adjust_creative=gBcvfFpabk3CnzmXKdYe3w&utm_campaign=yelp_api_v3&utm_medium=api_v3_business_search&utm_source=gBcvfFpabk3CnzmXKdYe3w", "phone": "+12063826999", "coordinates": {"longitude": -122.3380508, "latitude": 47.6122365}, "categories": [{"alias": "mediterranean", "title": "Mediterranean"}, {"alias": "gluten_free", "title": "Gluten-Free"}, {"alias": "breakfast_brunch", "title": "Breakfast & Brunch"}], "review_count": 200, "location": {"city": "Seattle", "address1": "407 Olive Way", "address3": "", "address2": "", "zip_code": "98101", "country": "US", "display_address": ["407 Olive Way", "Seattle, WA 98101"], "state": "WA"}, "price": "$$$", "transactions": [], "display_phone": "(206) 382-6999"}, {"rating": 4.0, "is_closed": false, "distance": 3659.424152176, "name": "Moonlight Cafe", "id": "moonlight-cafe-seattle", "image_url": "https://s3-media3.fl.yelpcdn.com/bphoto/DNEcPz6pYA5ZxmzpopeBpA/o.jpg", "url": "https://www.yelp.com/biz/moonlight-cafe-seattle?adjust_creative=gBcvfFpabk3CnzmXKdYe3w&utm_campaign=yelp_api_v3&utm_medium=api_v3_business_search&utm_source=gBcvfFpabk3CnzmXKdYe3w", "phone": "+12063223378", "coordinates": {"longitude": -122.30672, "latitude": 47.59901}, "categories": [{"alias": "vegetarian", "title": "Vegetarian"}, {"alias": "vietnamese", "title": "Vietnamese"}, {"alias": "noodles", "title": "Noodles"}], "review_count": 318, "location": {"city": "Seattle", "address1": "1919 S Jackson St", "address3": "", "address2": "", "zip_code": "98144", "country": "US", "display_address": ["1919 S Jackson St", "Seattle, WA 98144"], "state": "WA"}, "price": "$", "transactions": [], "display_phone": "(206) 322-3378"}, {"rating": 3.5, "is_closed": false, "distance": 1760.3306928099998, "name": "Seatown Seabar & Rotisserie", "id": "seatown-seabar-and-rotisserie-seattle", "image_url": "https://s3-media1.fl.yelpcdn.com/bphoto/pf25uL-l7zYREFSMLWaRxQ/o.jpg", "url": "https://www.yelp.com/biz/seatown-seabar-and-rotisserie-seattle?adjust_creative=gBcvfFpabk3CnzmXKdYe3w&utm_campaign=yelp_api_v3&utm_medium=api_v3_business_search&utm_source=gBcvfFpabk3CnzmXKdYe3w", "phone": "+12064360390", "coordinates": {"longitude": -122.343445173541, "latitude": 47.610519540689}, "categories": [{"alias": "newamerican", "title": "American (New)"}, {"alias": "seafood", "title": "Seafood"}, {"alias": "breakfast_brunch", "title": "Breakfast & Brunch"}], "review_count": 527, "location": {"city": "Seattle", "address1": "2010 Western Ave", "address3": "", "address2": "", "zip_code": "98121", "country": "US", "display_address": ["2010 Western Ave", "Seattle, WA 98121"], "state": "WA"}, "price": "$$", "transactions": [], "display_phone": "(206) 436-0390"}, {"rating": 3.5, "is_closed": false, "distance": 1068.4637751884, "name": "Glo's", "id": "glos-seattle", "image_url": "https://s3-media2.fl.yelpcdn.com/bphoto/s9iFnwRTzXC-sMHj8uSzjA/o.jpg", "url": "https://www.yelp.com/biz/glos-seattle?adjust_creative=gBcvfFpabk3CnzmXKdYe3w&utm_campaign=yelp_api_v3&utm_medium=api_v3_business_search&utm_source=gBcvfFpabk3CnzmXKdYe3w", "phone": "+12063242577", "coordinates": {"longitude": -122.32453, "latitude": 47.61929}, "categories": [{"alias": "diners", "title": "Diners"}, {"alias": "breakfast_brunch", "title": "Breakfast & Brunch"}], "review_count": 658, "location": {"city": "Seattle", "address1": "1621 E Olive Way", "address3": "", "address2": "", "zip_code": "98102", "country": "US", "display_address": ["1621 E Olive Way", "Seattle, WA 98102"], "state": "WA"}, "price": "$$", "transactions": [], "display_phone": "(206) 324-2577"}, {"rating": 4.0, "is_closed": false, "distance": 1434.3349449241998, "name": "Rendezvous", "id": "rendezvous-seattle", "image_url": "https://s3-media2.fl.yelpcdn.com/bphoto/oHOUp8KX9NqA2AzqtGipag/o.jpg", "url": "https://www.yelp.com/biz/rendezvous-seattle?adjust_creative=gBcvfFpabk3CnzmXKdYe3w&utm_campaign=yelp_api_v3&utm_medium=api_v3_business_search&utm_source=gBcvfFpabk3CnzmXKdYe3w", "phone": "+12064415823", "coordinates": {"longitude": -122.34613, "latitude": 47.61468}, "categories": [{"alias": "bars", "title": "Bars"}, {"alias": "theater", "title": "Performing Arts"}, {"alias": "newamerican", "title": "American (New)"}], "review_count": 137, "location": {"city": "Seattle", "address1": "2322 2nd Ave", "address3": "", "address2": "", "zip_code": "98121", "country": "US", "display_address": ["2322 2nd Ave", "Seattle, WA 98121"], "state": "WA"}, "price": "$$", "transactions": [], "display_phone": "(206) 441-5823"}, {"rating": 4.0, "is_closed": false, "distance": 3988.369224826, "name": "Pam's Kitchen", "id": "pams-kitchen-seattle-4", "image_url": "https://s3-media3.fl.yelpcdn.com/bphoto/e2nkle8Xo6Eby1Iyv42aNw/o.jpg", "url": "https://www.yelp.com/biz/pams-kitchen-seattle-4?adjust_creative=gBcvfFpabk3CnzmXKdYe3w&utm_campaign=yelp_api_v3&utm_medium=api_v3_business_search&utm_source=gBcvfFpabk3CnzmXKdYe3w", "phone": "+12066967010", "coordinates": {"longitude": -122.336774915457, "latitude": 47.6612766002491}, "categories": [{"alias": "trinidadian", "title": "Trinidadian"}, {"alias": "cocktailbars", "title": "Cocktail Bars"}], "review_count": 159, "location": {"city": "Seattle", "address1": "1715 N 45th St", "address3": "", "address2": "", "zip_code": "98103", "country": "US", "display_address": ["1715 N 45th St", "Seattle, WA 98103"], "state": "WA"}, "price": "$$", "transactions": ["pickup"], "display_phone": "(206) 696-7010"}, {"rating": 4.0, "is_closed": false, "distance": 4813.816287028, "name": "Pecos Pit Bar-B-Que", "id": "pecos-pit-bar-b-que-seattle-3", "image_url": "https://s3-media4.fl.yelpcdn.com/bphoto/lPm3LmINAoHkGA_I_0jAzA/o.jpg", "url": "https://www.yelp.com/biz/pecos-pit-bar-b-que-seattle-3?adjust_creative=gBcvfFpabk3CnzmXKdYe3w&utm_campaign=yelp_api_v3&utm_medium=api_v3_business_search&utm_source=gBcvfFpabk3CnzmXKdYe3w", "phone": "+12066230629", "coordinates": {"longitude": -122.3338, "latitude": 47.58215}, "categories": [{"alias": "bbq", "title": "Barbeque"}], "review_count": 327, "location": {"city": "Seattle", "address1": "2260 1st Ave S", "address3": "", "address2": "", "zip_code": "98134", "country": "US", "display_address": ["2260 1st Ave S", "Seattle, WA 98134"], "state": "WA"}, "price": "$", "transactions": [], "display_phone": "(206) 623-0629"}, {"rating": 4.0, "is_closed": false, "distance": 2704.530953612, "name": "Damn the Weather", "id": "damn-the-weather-seattle", "image_url": "https://s3-media1.fl.yelpcdn.com/bphoto/_VVxwaPyEMNyfHpt9jYYhw/o.jpg", "url": "https://www.yelp.com/biz/damn-the-weather-seattle?adjust_creative=gBcvfFpabk3CnzmXKdYe3w&utm_campaign=yelp_api_v3&utm_medium=api_v3_business_search&utm_source=gBcvfFpabk3CnzmXKdYe3w", "phone": "+12069461283", "coordinates": {"longitude": -122.3340814, "latitude": 47.6011167}, "categories": [{"alias": "bars", "title": "Bars"}, {"alias": "newamerican", "title": "American (New)"}], "review_count": 239, "location": {"city": "Seattle", "address1": "116 1st Ave S", "address3": "", "address2": "", "zip_code": "98104", "country": "US", "display_address": ["116 1st Ave S", "Seattle, WA 98104"], "state": "WA"}, "price": "$$", "transactions": [], "display_phone": "(206) 946-1283"}, {"rating": 4.5, "is_closed": false, "distance": 6877.943379109999, "name": "Blackboard Bistro", "id": "blackboard-bistro-seattle", "image_url": "https://s3-media4.fl.yelpcdn.com/bphoto/5uhJwDFOQ7EqWp9cL_LXzw/o.jpg", "url": "https://www.yelp.com/biz/blackboard-bistro-seattle?adjust_creative=gBcvfFpabk3CnzmXKdYe3w&utm_campaign=yelp_api_v3&utm_medium=api_v3_business_search&utm_source=gBcvfFpabk3CnzmXKdYe3w", "phone": "+12062574832", "coordinates": {"longitude": -122.387145996094, "latitude": 47.5742950439453}, "categories": [{"alias": "newamerican", "title": "American (New)"}], "review_count": 218, "location": {"city": "Seattle", "address1": "3247 California Ave SW", "address3": "", "address2": "", "zip_code": "98116", "country": "US", "display_address": ["3247 California Ave SW", "Seattle, WA 98116"], "state": "WA"}, "price": "$$", "transactions": [], "display_phone": "(206) 257-4832"}, {"rating": 4.0, "is_closed": false, "distance": 4479.785378109999, "name": "The Leary Traveler", "id": "the-leary-traveler-seattle", "image_url": "https://s3-media3.fl.yelpcdn.com/bphoto/v3RJlUbmrRRrhpFKn97LZQ/o.jpg", "url": "https://www.yelp.com/biz/the-leary-traveler-seattle?adjust_creative=gBcvfFpabk3CnzmXKdYe3w&utm_campaign=yelp_api_v3&utm_medium=api_v3_business_search&utm_source=gBcvfFpabk3CnzmXKdYe3w", "phone": "+12067834805", "coordinates": {"longitude": -122.36568, "latitude": 47.66023}, "categories": [{"alias": "pubs", "title": "Pubs"}, {"alias": "newamerican", "title": "American (New)"}], "review_count": 204, "location": {"city": "Seattle", "address1": "4354 Leary Way NW", "address3": "", "address2": "", "zip_code": "98107", "country": "US", "display_address": ["4354 Leary Way NW", "Seattle, WA 98107"], "state": "WA"}, "price": "$$", "transactions": [], "display_phone": "(206) 783-4805"}, {"rating": 4.0, "is_closed": false, "distance": 1400.247787972, "name": "Foreign National", "id": "foreign-national-seattle-2", "image_url": "https://s3-media3.fl.yelpcdn.com/bphoto/LwfzpbVexZRJmAsvD56_7Q/o.jpg", "url": "https://www.yelp.com/biz/foreign-national-seattle-2?adjust_creative=gBcvfFpabk3CnzmXKdYe3w&utm_campaign=yelp_api_v3&utm_medium=api_v3_business_search&utm_source=gBcvfFpabk3CnzmXKdYe3w", "phone": "", "coordinates": {"longitude": -122.327613830566, "latitude": 47.6142234802246}, "categories": [{"alias": "cocktailbars", "title": "Cocktail Bars"}], "review_count": 52, "location": {"city": "Seattle", "address1": "300 E Pike St", "address3": "", "address2": "Ste 1200", "zip_code": "98122", "country": "US", "display_address": ["300 E Pike St", "Ste 1200", "Seattle, WA 98122"], "state": "WA"}, "price": "$$", "transactions": [], "display_phone": ""}, {"rating": 4.0, "is_closed": false, "distance": 1951.5606792439999, "name": "Regent Bakery & Cafe", "id": "regent-bakery-and-cafe-seattle", "image_url": "https://s3-media1.fl.yelpcdn.com/bphoto/rP1MrvO7LHukItHUbkghaA/o.jpg", "url": "https://www.yelp.com/biz/regent-bakery-and-cafe-seattle?adjust_creative=gBcvfFpabk3CnzmXKdYe3w&utm_campaign=yelp_api_v3&utm_medium=api_v3_business_search&utm_source=gBcvfFpabk3CnzmXKdYe3w", "phone": "+12067438866", "coordinates": {"longitude": -122.314095, "latitude": 47.615436}, "categories": [{"alias": "bakeries", "title": "Bakeries"}, {"alias": "cantonese", "title": "Cantonese"}, {"alias": "cakeshop", "title": "Patisserie/Cake Shop"}], "review_count": 229, "location": {"city": "Seattle", "address1": "1404 E Pine St", "address3": "", "address2": "", "zip_code": "98122", "country": "US", "display_address": ["1404 E Pine St", "Seattle, WA 98122"], "state": "WA"}, "price": "$$", "transactions": [], "display_phone": "(206) 743-8866"}, {"rating": 4.0, "is_closed": false, "distance": 1555.623288546, "name": "Cure", "id": "cure-seattle", "image_url": "https://s3-media4.fl.yelpcdn.com/bphoto/-EoiBAFW7oladQFHTFOjgQ/o.jpg", "url": "https://www.yelp.com/biz/cure-seattle?adjust_creative=gBcvfFpabk3CnzmXKdYe3w&utm_campaign=yelp_api_v3&utm_medium=api_v3_business_search&utm_source=gBcvfFpabk3CnzmXKdYe3w", "phone": "+12065685475", "coordinates": {"longitude": -122.320139, "latitude": 47.6160185}, "categories": [{"alias": "bars", "title": "Bars"}, {"alias": "newamerican", "title": "American (New)"}, {"alias": "tapasmallplates", "title": "Tapas/Small Plates"}], "review_count": 79, "location": {"city": "Seattle", "address1": "1641 Nagle Pl", "address3": "", "address2": "", "zip_code": "98122", "country": "US", "display_address": ["1641 Nagle Pl", "Seattle, WA 98122"], "state": "WA"}, "price": "$$", "transactions": [], "display_phone": "(206) 568-5475"}, {"rating": 4.0, "is_closed": false, "distance": 4157.195267252, "name": "Cedars of Lebanon", "id": "cedars-of-lebanon-seattle-2", "image_url": "https://s3-media3.fl.yelpcdn.com/bphoto/oDYLhsQ7QfXHM6amFd2vOQ/o.jpg", "url": "https://www.yelp.com/biz/cedars-of-lebanon-seattle-2?adjust_creative=gBcvfFpabk3CnzmXKdYe3w&utm_campaign=yelp_api_v3&utm_medium=api_v3_business_search&utm_source=gBcvfFpabk3CnzmXKdYe3w", "phone": "+12066327708", "coordinates": {"longitude": -122.313968092203, "latitude": 47.6597488671541}, "categories": [{"alias": "mideastern", "title": "Middle Eastern"}, {"alias": "mediterranean", "title": "Mediterranean"}], "review_count": 150, "location": {"city": "Seattle", "address1": "1319 NE 43rd St", "address3": "", "address2": "", "zip_code": "98105", "country": "US", "display_address": ["1319 NE 43rd St", "Seattle, WA 98105"], "state": "WA"}, "price": "$", "transactions": [], "display_phone": "(206) 632-7708"}, {"rating": 4.0, "is_closed": false, "distance": 1628.4914678679997, "name": "Shiki Japanese Restaurant", "id": "shiki-japanese-restaurant-seattle", "image_url": "https://s3-media4.fl.yelpcdn.com/bphoto/GljSypE0oY12lKJklOW3iA/o.jpg", "url": "https://www.yelp.com/biz/shiki-japanese-restaurant-seattle?adjust_creative=gBcvfFpabk3CnzmXKdYe3w&utm_campaign=yelp_api_v3&utm_medium=api_v3_business_search&utm_source=gBcvfFpabk3CnzmXKdYe3w", "phone": "+12062811352", "coordinates": {"longitude": -122.35714, "latitude": 47.6258399}, "categories": [{"alias": "japanese", "title": "Japanese"}, {"alias": "sushi", "title": "Sushi Bars"}], "review_count": 312, "location": {"city": "Seattle", "address1": "4 W Roy St", "address3": "", "address2": "", "zip_code": "98119", "country": "US", "display_address": ["4 W Roy St", "Seattle, WA 98119"], "state": "WA"}, "price": "$$", "transactions": [], "display_phone": "(206) 281-1352"}, {"rating": 4.0, "is_closed": false, "distance": 6194.530388881999, "name": "La Isla Cuisine", "id": "la-isla-cuisine-seattle", "image_url": "https://s3-media4.fl.yelpcdn.com/bphoto/SK2_I9mNa0rvGG3f02ZMQA/o.jpg", "url": "https://www.yelp.com/biz/la-isla-cuisine-seattle?adjust_creative=gBcvfFpabk3CnzmXKdYe3w&utm_campaign=yelp_api_v3&utm_medium=api_v3_business_search&utm_source=gBcvfFpabk3CnzmXKdYe3w", "phone": "+12067890516", "coordinates": {"longitude": -122.38729704946, "latitude": 47.668848643842}, "categories": [{"alias": "latin", "title": "Latin American"}, {"alias": "lounges", "title": "Lounges"}, {"alias": "puertorican", "title": "Puerto Rican"}], "review_count": 949, "location": {"city": "Seattle", "address1": "2320 NW Market St", "address3": "", "address2": "", "zip_code": "98107", "country": "US", "display_address": ["2320 NW Market St", "Seattle, WA 98107"], "state": "WA"}, "price": "$$", "transactions": [], "display_phone": "(206) 789-0516"}, {"rating": 4.0, "is_closed": false, "distance": 2086.744434574, "name": "Monsoon Seattle", "id": "monsoon-seattle-seattle", "image_url": "https://s3-media4.fl.yelpcdn.com/bphoto/w_XF9tePOex78h4eITPLmA/o.jpg", "url": "https://www.yelp.com/biz/monsoon-seattle-seattle?adjust_creative=gBcvfFpabk3CnzmXKdYe3w&utm_campaign=yelp_api_v3&utm_medium=api_v3_business_search&utm_source=gBcvfFpabk3CnzmXKdYe3w", "phone": "+12063252111", "coordinates": {"longitude": -122.3076, "latitude": 47.62493}, "categories": [{"alias": "vietnamese", "title": "Vietnamese"}, {"alias": "asianfusion", "title": "Asian Fusion"}, {"alias": "dimsum", "title": "Dim Sum"}], "review_count": 456, "location": {"city": "Seattle", "address1": "615 19th Ave E", "address3": "", "address2": "", "zip_code": "98112", "country": "US", "display_address": ["615 19th Ave E", "Seattle, WA 98112"], "state": "WA"}, "price": "$$", "transactions": [], "display_phone": "(206) 325-2111"}, {"rating": 4.0, "is_closed": false, "distance": 1064.741275208, "name": "The Hillside Bar", "id": "the-hillside-bar-seattle", "image_url": "https://s3-media1.fl.yelpcdn.com/bphoto/1ariDxxudv7yYFs4kzsnsQ/o.jpg", "url": "https://www.yelp.com/biz/the-hillside-bar-seattle?adjust_creative=gBcvfFpabk3CnzmXKdYe3w&utm_campaign=yelp_api_v3&utm_medium=api_v3_business_search&utm_source=gBcvfFpabk3CnzmXKdYe3w", "phone": "+12063240154", "coordinates": {"longitude": -122.326, "latitude": 47.61833}, "categories": [{"alias": "bars", "title": "Bars"}], "review_count": 52, "location": {"city": "Seattle", "address1": "1520 E Olive Way", "address3": "", "address2": null, "zip_code": "98122", "country": "US", "display_address": ["1520 E Olive Way", "Seattle, WA 98122"], "state": "WA"}, "price": "$", "transactions": [], "display_phone": "(206) 324-0154"}, {"rating": 4.0, "is_closed": false, "distance": 2967.365304666, "name": "Red Lantern", "id": "red-lantern-seattle", "image_url": "https://s3-media2.fl.yelpcdn.com/bphoto/GhtClT-eYZKplomKnh9k3w/o.jpg", "url": "https://www.yelp.com/biz/red-lantern-seattle?adjust_creative=gBcvfFpabk3CnzmXKdYe3w&utm_campaign=yelp_api_v3&utm_medium=api_v3_business_search&utm_source=gBcvfFpabk3CnzmXKdYe3w", "phone": "+12066827211", "coordinates": {"longitude": -122.32673, "latitude": 47.59939}, "categories": [{"alias": "chinese", "title": "Chinese"}, {"alias": "asianfusion", "title": "Asian Fusion"}, {"alias": "korean", "title": "Korean"}], "review_count": 436, "location": {"city": "Seattle", "address1": "520 S Jackson St", "address3": "", "address2": "", "zip_code": "98104", "country": "US", "display_address": ["520 S Jackson St", "Seattle, WA 98104"], "state": "WA"}, "price": "$$", "transactions": [], "display_phone": "(206) 682-7211"}, {"rating": 4.0, "is_closed": false, "distance": 1883.68579914, "name": "Mercury at Machinewerks", "id": "mercury-at-machinewerks-seattle", "image_url": "https://s3-media1.fl.yelpcdn.com/bphoto/vXJgKK2Jrj4yKJRbJMhfig/o.jpg", "url": "https://www.yelp.com/biz/mercury-at-machinewerks-seattle?adjust_creative=gBcvfFpabk3CnzmXKdYe3w&utm_campaign=yelp_api_v3&utm_medium=api_v3_business_search&utm_source=gBcvfFpabk3CnzmXKdYe3w", "phone": "+12063289481", "coordinates": {"longitude": -122.31891, "latitude": 47.61271}, "categories": [{"alias": "lounges", "title": "Lounges"}, {"alias": "musicvenues", "title": "Music Venues"}, {"alias": "danceclubs", "title": "Dance Clubs"}], "review_count": 71, "location": {"city": "Seattle", "address1": "1009 E Union St", "address3": "", "address2": "", "zip_code": "98122", "country": "US", "display_address": ["1009 E Union St", "Seattle, WA 98122"], "state": "WA"}, "price": "$", "transactions": [], "display_phone": "(206) 328-9481"}, {"rating": 5.0, "is_closed": false, "distance": 2762.3032018659997, "name": "Squirrel Chops", "id": "squirrel-chops-seattle", "image_url": "https://s3-media2.fl.yelpcdn.com/bphoto/0fA2ebtcBXd5Qi6UE6iUTA/o.jpg", "url": "https://www.yelp.com/biz/squirrel-chops-seattle?adjust_creative=gBcvfFpabk3CnzmXKdYe3w&utm_campaign=yelp_api_v3&utm_medium=api_v3_business_search&utm_source=gBcvfFpabk3CnzmXKdYe3w", "phone": "+12064857017", "coordinates": {"longitude": -122.303463891149, "latitude": 47.6129094511271}, "categories": [{"alias": "coffee", "title": "Coffee & Tea"}], "review_count": 15, "location": {"city": "Seattle", "address1": "2201 E Union St", "address3": null, "address2": "", "zip_code": "98122", "country": "US", "display_address": ["2201 E Union St", "Seattle, WA 98122"], "state": "WA"}, "price": "$", "transactions": [], "display_phone": "(206) 485-7017"}, {"rating": 4.0, "is_closed": false, "distance": 1594.118540412, "name": "The Grill From Ipanema", "id": "the-grill-from-ipanema-seattle", "image_url": "https://s3-media1.fl.yelpcdn.com/bphoto/hiMxdExN6errVs_1GKYMaQ/o.jpg", "url": "https://www.yelp.com/biz/the-grill-from-ipanema-seattle?adjust_creative=gBcvfFpabk3CnzmXKdYe3w&utm_campaign=yelp_api_v3&utm_medium=api_v3_business_search&utm_source=gBcvfFpabk3CnzmXKdYe3w", "phone": "+12064574885", "coordinates": {"longitude": -122.34702, "latitude": 47.61348}, "categories": [{"alias": "brazilian", "title": "Brazilian"}, {"alias": "steak", "title": "Steakhouses"}, {"alias": "buffets", "title": "Buffets"}], "review_count": 662, "location": {"city": "Seattle", "address1": "2313 1st Ave", "address3": "", "address2": "", "zip_code": "98121", "country": "US", "display_address": ["2313 1st Ave", "Seattle, WA 98121"], "state": "WA"}, "price": "$$$", "transactions": ["pickup"], "display_phone": "(206) 457-4885"}, {"rating": 3.5, "is_closed": false, "distance": 2277.850501828, "name": "Nijo Sushi Bar & Grill", "id": "nijo-sushi-bar-and-grill-seattle", "image_url": "https://s3-media4.fl.yelpcdn.com/bphoto/8__CJ-tWEZiu1flWFySRvQ/o.jpg", "url": "https://www.yelp.com/biz/nijo-sushi-bar-and-grill-seattle?adjust_creative=gBcvfFpabk3CnzmXKdYe3w&utm_campaign=yelp_api_v3&utm_medium=api_v3_business_search&utm_source=gBcvfFpabk3CnzmXKdYe3w", "phone": "+12063408880", "coordinates": {"longitude": -122.33762, "latitude": 47.60492}, "categories": [{"alias": "sushi", "title": "Sushi Bars"}, {"alias": "japanese", "title": "Japanese"}], "review_count": 718, "location": {"city": "Seattle", "address1": "83 Spring St", "address3": "", "address2": "", "zip_code": "98104", "country": "US", "display_address": ["83 Spring St", "Seattle, WA 98104"], "state": "WA"}, "price": "$$", "transactions": ["pickup"], "display_phone": "(206) 340-8880"}, {"rating": 4.0, "is_closed": false, "distance": 3922.666149052, "name": "Pecado Bueno", "id": "pecado-bueno-seattle-6", "image_url": "https://s3-media3.fl.yelpcdn.com/bphoto/1vjZyiVG5BZ8YygBXGESJg/o.jpg", "url": "https://www.yelp.com/biz/pecado-bueno-seattle-6?adjust_creative=gBcvfFpabk3CnzmXKdYe3w&utm_campaign=yelp_api_v3&utm_medium=api_v3_business_search&utm_source=gBcvfFpabk3CnzmXKdYe3w", "phone": "+12064578837", "coordinates": {"longitude": -122.350311279297, "latitude": 47.6592445373535}, "categories": [{"alias": "mexican", "title": "Mexican"}], "review_count": 426, "location": {"city": "Seattle", "address1": "4307 Fremont Ave N", "address3": "", "address2": null, "zip_code": "98103", "country": "US", "display_address": ["4307 Fremont Ave N", "Seattle, WA 98103"], "state": "WA"}, "price": "$$", "transactions": [], "display_phone": "(206) 457-8837"}, {"rating": 4.0, "is_closed": false, "distance": 1207.2087424439999, "name": "Sushi Maki", "id": "sushi-maki-seattle", "image_url": "https://s3-media1.fl.yelpcdn.com/bphoto/Trhh9en11fACCeqAIk5oOQ/o.jpg", "url": "https://www.yelp.com/biz/sushi-maki-seattle?adjust_creative=gBcvfFpabk3CnzmXKdYe3w&utm_campaign=yelp_api_v3&utm_medium=api_v3_business_search&utm_source=gBcvfFpabk3CnzmXKdYe3w", "phone": "+12062640725", "coordinates": {"longitude": -122.32728, "latitude": 47.6161699}, "categories": [{"alias": "sushi", "title": "Sushi Bars"}], "review_count": 250, "location": {"city": "Seattle", "address1": "1633 Bellevue Ave", "address3": "", "address2": "", "zip_code": "98122", "country": "US", "display_address": ["1633 Bellevue Ave", "Seattle, WA 98122"], "state": "WA"}, "price": "$$", "transactions": ["pickup"], "display_phone": "(206) 264-0725"}, {"rating": 4.0, "is_closed": false, "distance": 5969.9988126299995, "name": "El Quetzal", "id": "el-quetzal-seattle", "image_url": "https://s3-media3.fl.yelpcdn.com/bphoto/vt8eGI8iNLVIbj8ly4WChg/o.jpg", "url": "https://www.yelp.com/biz/el-quetzal-seattle?adjust_creative=gBcvfFpabk3CnzmXKdYe3w&utm_campaign=yelp_api_v3&utm_medium=api_v3_business_search&utm_source=gBcvfFpabk3CnzmXKdYe3w", "phone": "+12063292970", "coordinates": {"longitude": -122.30934, "latitude": 47.57474}, "categories": [{"alias": "mexican", "title": "Mexican"}], "review_count": 227, "location": {"city": "Seattle", "address1": "3209 Beacon Ave S", "address3": "", "address2": null, "zip_code": "98144", "country": "US", "display_address": ["3209 Beacon Ave S", "Seattle, WA 98144"], "state": "WA"}, "price": "$$", "transactions": [], "display_phone": "(206) 329-2970"}, {"rating": 4.0, "is_closed": false, "distance": 6182.158426698, "name": "Oliver's Twist", "id": "olivers-twist-seattle", "image_url": "https://s3-media4.fl.yelpcdn.com/bphoto/akhjV6WsLfleI1O7z1WfNg/o.jpg", "url": "https://www.yelp.com/biz/olivers-twist-seattle?adjust_creative=gBcvfFpabk3CnzmXKdYe3w&utm_campaign=yelp_api_v3&utm_medium=api_v3_business_search&utm_source=gBcvfFpabk3CnzmXKdYe3w", "phone": "+12067066673", "coordinates": {"longitude": -122.35517042395, "latitude": 47.67941535736}, "categories": [{"alias": "tapas", "title": "Tapas Bars"}, {"alias": "newamerican", "title": "American (New)"}], "review_count": 291, "location": {"city": "Seattle", "address1": "6822 Greenwood Ave N", "address3": "", "address2": "", "zip_code": "98103", "country": "US", "display_address": ["6822 Greenwood Ave N", "Seattle, WA 98103"], "state": "WA"}, "price": "$$", "transactions": [], "display_phone": "(206) 706-6673"}, {"rating": 4.0, "is_closed": false, "distance": 1647.253797324, "name": "Outer Planet Craft Brewing", "id": "outer-planet-craft-brewing-seattle", "image_url": "https://s3-media2.fl.yelpcdn.com/bphoto/4IPKVFmSsO-ulaRJpi3tbA/o.jpg", "url": "https://www.yelp.com/biz/outer-planet-craft-brewing-seattle?adjust_creative=gBcvfFpabk3CnzmXKdYe3w&utm_campaign=yelp_api_v3&utm_medium=api_v3_business_search&utm_source=gBcvfFpabk3CnzmXKdYe3w", "phone": "+12067637000", "coordinates": {"longitude": -122.316505432129, "latitude": 47.6180229187012}, "categories": [{"alias": "breweries", "title": "Breweries"}, {"alias": "pubs", "title": "Pubs"}], "review_count": 46, "location": {"city": "Seattle", "address1": "1812 12th Ave", "address3": "", "address2": "Ste 100", "zip_code": "98122", "country": "US", "display_address": ["1812 12th Ave", "Ste 100", "Seattle, WA 98122"], "state": "WA"}, "price": "$", "transactions": [], "display_phone": "(206) 763-7000"}]}