{"total": 36019, "region": {"center": {"longitude": -122.33551025390625, "latitude": 47.62541904760501}}, "businesses": [{"rating": 4.0, "is_closed": false, "distance": 1284.70473987, "name": "Ristorante Machiavelli", "id": "ristorante-machiavelli-seattle-2", "image_url": "https://s3-media1.fl.yelpcdn.com/bphoto/ptrnUAE1RYydDzKSQUnLLQ/o.jpg", "url": "https://www.yelp.com/biz/ristorante-machiavelli-seattle-2?adjust_creative=gBcvfFpabk3CnzmXKdYe3w&utm_campaign=yelp_api_v3&utm_medium=api_v3_business_search&utm_source=gBcvfFpabk3CnzmXKdYe3w", "phone": "+12066217941", "coordinates": {"longitude": -122.32809, "latitude": 47.615}, "categories": [{"alias": "italian", "title": "Italian"}, {"alias": "pizza", "title": "Pizza"}], "review_count": 671, "location": {"city": "Seattle", "address1": "1215 Pine St", "address3": "", "address2": "", "zip_code": "98101", "country": "US", "display_address": ["1215 Pine St", "Seattle, WA 98101"], "state": "WA"}, "price": "$$", "transactions": [], "display_phone": "(206) 621-7941"}, {"rating": 4.0, "is_closed": false, "distance": 4040.8346744299997, "name": "Musashi's", "id": "musashis-seattle", "image_url": "https://s3-media3.fl.yelpcdn.com/bphoto/q0x50cS2xbkTqOanrNTn0g/o.jpg", "url": "https://www.yelp.com/biz/musashis-seattle?adjust_creative=gBcvfFpabk3CnzmXKdYe3w&utm_campaign=yelp_api_v3&utm_medium=api_v3_business_search&utm_source=gBcvfFpabk3CnzmXKdYe3w", "phone": "+12066330212", "coordinates": {"longitude": -122.34047, "latitude": 47.66161}, "categories": [{"alias": "sushi", "title": "Sushi Bars"}, {"alias": "japanese", "title": "Japanese"}], "review_count": 913, "location": {"city": "Seattle", "address1": "1400 N 45th St", "address3": "", "address2": "", "zip_code": "98103", "country": "US", "display_address": ["1400 N 45th St", "Seattle, WA 98103"], "state": "WA"}, "price": "$$", "transactions": [], "display_phone": "(206) 633-0212"}, {"rating": 4.0, "is_closed": false, "distance": 1533.658694358, "name": "Macrina Bakery & Cafe", "id": "macrina-bakery-and-cafe-seattle-2", "image_url": "https://s3-media1.fl.yelpcdn.com/bphoto/FfUBlnMMuxjBjtNfdYpNBg/o.jpg", "url": "https://www.yelp.com/biz/macrina-bakery-and-cafe-seattle-2?adjust_creative=gBcvfFpabk3CnzmXKdYe3w&utm_campaign=yelp_api_v3&utm_medium=api_v3_business_search&utm_source=gBcvfFpabk3CnzmXKdYe3w", "phone": "+12064484032", "coordinates": {"longitude": -122.34798, "latitude": 47.61447}, "categories": [{"alias": "bakeries", "title": "Bakeries"}, {"alias": "cafes", "title": "Cafes"}, {"alias": "cakeshop", "title": "Patisserie/Cake Shop"}], "review_count": 787, "location": {"city": "Seattle", "address1": "2408 1st Ave", "address3": "", "address2": "", "zip_code": "98121", "country": "US", "display_address": ["2408 1st Ave", "Seattle, WA 98121"], "state": "WA"}, "price": "$$", "transactions": [], "display_phone": "(206) 448-4032"}, {"rating": 4.0, "is_closed": false, "distance": 2001.392765806, "name": "Pok\u00e9works", "id": "pok\u00e9works-seattle", "image_url": "https://s3-media1.fl.yelpcdn.com/bphoto/FI3z9BJ--Xw29Dxf2LJxiQ/o.jpg", "url": "https://www.yelp.com/biz/pok%C3%A9works-seattle?adjust_creative=gBcvfFpabk3CnzmXKdYe3w&utm_campaign=yelp_api_v3&utm_medium=api_v3_business_search&utm_source=gBcvfFpabk3CnzmXKdYe3w", "phone": "+12069625123", "coordinates": {"longitude": -122.33519, "latitude": 47.60741}, "categories": [{"alias": "poke", "title": "Poke"}, {"alias": "seafood", "title": "Seafood"}, {"alias": "hawaiian", "title": "Hawaiian"}], "review_count": 144, "location": {"city": "Seattle", "address1": "1200 Third Ave", "address3": "", "address2": "Ste 100", "zip_code": "98101", "country": "US", "display_address": ["1200 Third Ave", "Ste 100", "Seattle, WA 98101"], "state": "WA"}, "price": "$$", "transactions": ["delivery", "pickup"], "display_phone": "(206) 962-5123"}, {"rating": 4.0, "is_closed": false, "distance": 1566.0755334176, "name": "CJ's Eatery", "id": "cjs-eatery-seattle", "image_url": "https://s3-media4.fl.yelpcdn.com/bphoto/a04_87AhuaufzpuU_gnuvA/o.jpg", "url": "https://www.yelp.com/biz/cjs-eatery-seattle?adjust_creative=gBcvfFpabk3CnzmXKdYe3w&utm_campaign=yelp_api_v3&utm_medium=api_v3_business_search&utm_source=gBcvfFpabk3CnzmXKdYe3w", "phone": "+12067281648", "coordinates": {"longitude": -122.350629476196, "latitude": 47.6156985166871}, "categories": [{"alias": "tradamerican", "title": "American (Traditional)"}, {"alias": "breakfast_brunch", "title": "Breakfast & Brunch"}, {"alias": "diners", "title": "Diners"}], "review_count": 490, "location": {"city": "Seattle", "address1": "2619 1st Ave", "address3": "", "address2": "", "zip_code": "98121", "country": "US", "display_address": ["2619 1st Ave", "Seattle, WA 98121"], "state": "WA"}, "price": "$$", "transactions": [], "display_phone": "(206) 728-1648"}, {"rating": 4.0, "is_closed": false, "distance": 3065.3977679639997, "name": "Pie", "id": "pie-seattle", "image_url": "https://s3-media2.fl.yelpcdn.com/bphoto/3mwDKPB6gTe_a3V0SDzc9Q/o.jpg", "url": "https://www.yelp.com/biz/pie-seattle?adjust_creative=gBcvfFpabk3CnzmXKdYe3w&utm_campaign=yelp_api_v3&utm_medium=api_v3_business_search&utm_source=gBcvfFpabk3CnzmXKdYe3w", "phone": "+12064368590", "coordinates": {"longitude": -122.35022, "latitude": 47.65114}, "categories": [{"alias": "desserts", "title": "Desserts"}, {"alias": "coffee", "title": "Coffee & Tea"}, {"alias": "bakeries", "title": "Bakeries"}], "review_count": 605, "location": {"city": "Seattle", "address1": "3515 Fremont Ave N", "address3": "", "address2": "Ste B", "zip_code": "98103", "country": "US", "display_address": ["3515 Fremont Ave N", "Ste B", "Seattle, WA 98103"], "state": "WA"}, "price": "$", "transactions": [], "display_phone": "(206) 436-8590"}, {"rating": 4.0, "is_closed": false, "distance": 1209.452645206, "name": "Americana", "id": "americana-seattle", "image_url": "https://s3-media1.fl.yelpcdn.com/bphoto/YPEsHK3jZ-fJiJ4lNz-GPw/o.jpg", "url": "https://www.yelp.com/biz/americana-seattle?adjust_creative=gBcvfFpabk3CnzmXKdYe3w&utm_campaign=yelp_api_v3&utm_medium=api_v3_business_search&utm_source=gBcvfFpabk3CnzmXKdYe3w", "phone": "+12063284604", "coordinates": {"longitude": -122.321047782898, "latitude": 47.6205993717064}, "categories": [{"alias": "newamerican", "title": "American (New)"}, {"alias": "breakfast_brunch", "title": "Breakfast & Brunch"}, {"alias": "cocktailbars", "title": "Cocktail Bars"}], "review_count": 740, "location": {"city": "Seattle", "address1": "219 Broadway E", "address3": "", "address2": "", "zip_code": "98102", "country": "US", "display_address": ["219 Broadway E", "Seattle, WA 98102"], "state": "WA"}, "price": "$$", "transactions": [], "display_phone": "(206) 328-4604"}, {"rating": 4.5, "is_closed": false, "distance": 3486.8692689699997, "name": "Lotus Thai Cuisine", "id": "lotus-thai-cuisine-seattle-2", "image_url": "https://s3-media4.fl.yelpcdn.com/bphoto/4qK8Sj_yKASthv-HW_M57Q/o.jpg", "url": "https://www.yelp.com/biz/lotus-thai-cuisine-seattle-2?adjust_creative=gBcvfFpabk3CnzmXKdYe3w&utm_campaign=yelp_api_v3&utm_medium=api_v3_business_search&utm_source=gBcvfFpabk3CnzmXKdYe3w", "phone": "+12063239445", "coordinates": {"longitude": -122.2966784, "latitude": 47.6081545}, "categories": [{"alias": "thai", "title": "Thai"}], "review_count": 153, "location": {"city": "Seattle", "address1": "2724 E Cherry St", "address3": "", "address2": "", "zip_code": "98122", "country": "US", "display_address": ["2724 E Cherry St", "Seattle, WA 98122"], "state": "WA"}, "price": "$", "transactions": [], "display_phone": "(206) 323-9445"}, {"rating": 4.0, "is_closed": false, "distance": 1601.335223307, "name": "The Golden Olive", "id": "the-golden-olive-seattle-2", "image_url": "https://s3-media1.fl.yelpcdn.com/bphoto/7lwmJAwaY5kZ_RN5JrrvDw/o.jpg", "url": "https://www.yelp.com/biz/the-golden-olive-seattle-2?adjust_creative=gBcvfFpabk3CnzmXKdYe3w&utm_campaign=yelp_api_v3&utm_medium=api_v3_business_search&utm_source=gBcvfFpabk3CnzmXKdYe3w", "phone": "+12062164674", "coordinates": {"longitude": -122.3567067, "latitude": 47.6235936}, "categories": [{"alias": "mediterranean", "title": "Mediterranean"}, {"alias": "greek", "title": "Greek"}, {"alias": "lebanese", "title": "Lebanese"}], "review_count": 159, "location": {"city": "Seattle", "address1": "521 Queen Anne Ave N", "address3": "", "address2": "", "zip_code": "98109", "country": "US", "display_address": ["521 Queen Anne Ave N", "Seattle, WA 98109"], "state": "WA"}, "price": "$", "transactions": ["pickup", "delivery"], "display_phone": "(206) 216-4674"}, {"rating": 5.0, "is_closed": false, "distance": 7173.787546639999, "name": "Valhalla Sandwiches", "id": "valhalla-sandwiches-seattle", "image_url": "https://s3-media2.fl.yelpcdn.com/bphoto/Ot0PSXm0kTtaOAG8XzoVVA/o.jpg", "url": "https://www.yelp.com/biz/valhalla-sandwiches-seattle?adjust_creative=gBcvfFpabk3CnzmXKdYe3w&utm_campaign=yelp_api_v3&utm_medium=api_v3_business_search&utm_source=gBcvfFpabk3CnzmXKdYe3w", "phone": "+12062570658", "coordinates": {"longitude": -122.355018615723, "latitude": 47.6885414123535}, "categories": [{"alias": "sandwiches", "title": "Sandwiches"}], "review_count": 68, "location": {"city": "Seattle", "address1": "8202 Greenwood Ave N", "address3": null, "address2": "", "zip_code": "98103", "country": "US", "display_address": ["8202 Greenwood Ave N", "Seattle, WA 98103"], "state": "WA"}, "price": "$$", "transactions": [], "display_phone": "(206) 257-0658"}, {"rating": 4.5, "is_closed": false, "distance": 2707.58419346, "name": "Sake Nomi", "id": "sake-nomi-seattle", "image_url": "https://s3-media1.fl.yelpcdn.com/bphoto/zOCKqu6iomUdym_sEEsBWA/o.jpg", "url": "https://www.yelp.com/biz/sake-nomi-seattle?adjust_creative=gBcvfFpabk3CnzmXKdYe3w&utm_campaign=yelp_api_v3&utm_medium=api_v3_business_search&utm_source=gBcvfFpabk3CnzmXKdYe3w", "phone": "+12064677253", "coordinates": {"longitude": -122.3352336, "latitude": 47.6010711}, "categories": [{"alias": "japanese", "title": "Japanese"}, {"alias": "bars", "title": "Bars"}], "review_count": 63, "location": {"city": "Seattle", "address1": "76 S Washington St", "address3": "", "address2": "", "zip_code": "98104", "country": "US", "display_address": ["76 S Washington St", "Seattle, WA 98104"], "state": "WA"}, "price": "$$", "transactions": [], "display_phone": "(206) 467-7253"}, {"rating": 4.0, "is_closed": false, "distance": 1996.3956041719998, "name": "Mammoth", "id": "mammoth-seattle-2", "image_url": "https://s3-media4.fl.yelpcdn.com/bphoto/giPzM73Iuh0A_mJz0mZkHg/o.jpg", "url": "https://www.yelp.com/biz/mammoth-seattle-2?adjust_creative=gBcvfFpabk3CnzmXKdYe3w&utm_campaign=yelp_api_v3&utm_medium=api_v3_business_search&utm_source=gBcvfFpabk3CnzmXKdYe3w", "phone": "+12069461065", "coordinates": {"longitude": -122.32625579834, "latitude": 47.6422500610352}, "categories": [{"alias": "sandwiches", "title": "Sandwiches"}, {"alias": "beerbar", "title": "Beer Bar"}], "review_count": 230, "location": {"city": "Seattle", "address1": "2501 Eastlake Ave E", "address3": "", "address2": "", "zip_code": "98102", "country": "US", "display_address": ["2501 Eastlake Ave E", "Seattle, WA 98102"], "state": "WA"}, "price": "$$", "transactions": [], "display_phone": "(206) 946-1065"}, {"rating": 4.0, "is_closed": false, "distance": 1608.65200715, "name": "Dog In The Park", "id": "dog-in-the-park-seattle", "image_url": "https://s3-media1.fl.yelpcdn.com/bphoto/Ewdwiu7gW070g15ZaR0KRQ/o.jpg", "url": "https://www.yelp.com/biz/dog-in-the-park-seattle?adjust_creative=gBcvfFpabk3CnzmXKdYe3w&utm_campaign=yelp_api_v3&utm_medium=api_v3_business_search&utm_source=gBcvfFpabk3CnzmXKdYe3w", "phone": "+12062540943", "coordinates": {"longitude": -122.336851358414, "latitude": 47.6109804179377}, "categories": [{"alias": "hotdog", "title": "Hot Dogs"}, {"alias": "foodstands", "title": "Food Stands"}], "review_count": 194, "location": {"city": "Seattle", "address1": "1520 4th Ave", "address3": "", "address2": "Ste 100", "zip_code": "98101", "country": "US", "display_address": ["1520 4th Ave", "Ste 100", "Seattle, WA 98101"], "state": "WA"}, "price": "$", "transactions": [], "display_phone": "(206) 254-0943"}, {"rating": 4.5, "is_closed": false, "distance": 1828.1870655039997, "name": "cycene", "id": "cycene-seattle-2", "image_url": "https://s3-media1.fl.yelpcdn.com/bphoto/13I6-K0ZoBnWCqMXlIGz0A/o.jpg", "url": "https://www.yelp.com/biz/cycene-seattle-2?adjust_creative=gBcvfFpabk3CnzmXKdYe3w&utm_campaign=yelp_api_v3&utm_medium=api_v3_business_search&utm_source=gBcvfFpabk3CnzmXKdYe3w", "phone": "+12066176838", "coordinates": {"longitude": -122.3408, "latitude": 47.60939}, "categories": [{"alias": "southern", "title": "Southern"}, {"alias": "sandwiches", "title": "Sandwiches"}, {"alias": "breakfast_brunch", "title": "Breakfast & Brunch"}], "review_count": 65, "location": {"city": "Seattle", "address1": "1523 1st Ave", "address3": "", "address2": null, "zip_code": "98101", "country": "US", "display_address": ["1523 1st Ave", "Seattle, WA 98101"], "state": "WA"}, "price": "$$", "transactions": [], "display_phone": "(206) 617-6838"}, {"rating": 4.0, "is_closed": false, "distance": 1717.6038423479997, "name": "Olympic Sculpture Park", "id": "olympic-sculpture-park-seattle", "image_url": "https://s3-media1.fl.yelpcdn.com/bphoto/IEN0relpL1j1t42D66vnxg/o.jpg", "url": "https://www.yelp.com/biz/olympic-sculpture-park-seattle?adjust_creative=gBcvfFpabk3CnzmXKdYe3w&utm_campaign=yelp_api_v3&utm_medium=api_v3_business_search&utm_source=gBcvfFpabk3CnzmXKdYe3w", "phone": "+12066543100", "coordinates": {"longitude": -122.35493, "latitude": 47.61663}, "categories": [{"alias": "parks", "title": "Parks"}, {"alias": "artmuseums", "title": "Art Museums"}], "review_count": 384, "location": {"city": "Seattle", "address1": "2901 Western Ave", "address3": "", "address2": "", "zip_code": "98121", "country": "US", "display_address": ["2901 Western Ave", "Seattle, WA 98121"], "state": "WA"}, "transactions": [], "display_phone": "(206) 654-3100"}, {"rating": 4.0, "is_closed": false, "distance": 749.262676876, "name": "Top Pot Doughnuts", "id": "top-pot-doughnuts-seattle-2", "image_url": "https://s3-media1.fl.yelpcdn.com/bphoto/QCLWliQ61u_BWK1iTGGTWw/o.jpg", "url": "https://www.yelp.com/biz/top-pot-doughnuts-seattle-2?adjust_creative=gBcvfFpabk3CnzmXKdYe3w&utm_campaign=yelp_api_v3&utm_medium=api_v3_business_search&utm_source=gBcvfFpabk3CnzmXKdYe3w", "phone": "+12063237841", "coordinates": {"longitude": -122.32559, "latitude": 47.62467}, "categories": [{"alias": "bakeries", "title": "Bakeries"}, {"alias": "coffee", "title": "Coffee & Tea"}, {"alias": "donuts", "title": "Donuts"}], "review_count": 389, "location": {"city": "Seattle", "address1": "609 Summit Ave E", "address3": "", "address2": "", "zip_code": "98102", "country": "US", "display_address": ["609 Summit Ave E", "Seattle, WA 98102"], "state": "WA"}, "price": "$", "transactions": [], "display_phone": "(206) 323-7841"}, {"rating": 4.0, "is_closed": false, "distance": 1789.1608923719998, "name": "U:Don", "id": "u-don-seattle-3", "image_url": "https://s3-media4.fl.yelpcdn.com/bphoto/ORp36vMyGSIFWMJdUawHNA/o.jpg", "url": "https://www.yelp.com/biz/u-don-seattle-3?adjust_creative=gBcvfFpabk3CnzmXKdYe3w&utm_campaign=yelp_api_v3&utm_medium=api_v3_business_search&utm_source=gBcvfFpabk3CnzmXKdYe3w", "phone": "+12064661471", "coordinates": {"longitude": -122.31655, "latitude": 47.61588}, "categories": [{"alias": "japanese", "title": "Japanese"}, {"alias": "noodles", "title": "Noodles"}, {"alias": "desserts", "title": "Desserts"}], "review_count": 156, "location": {"city": "Seattle", "address1": "1640 12th Ave", "address3": "", "address2": "", "zip_code": "98122", "country": "US", "display_address": ["1640 12th Ave", "Seattle, WA 98122"], "state": "WA"}, "price": "$", "transactions": [], "display_phone": "(206) 466-1471"}, {"rating": 4.5, "is_closed": false, "distance": 3405.391764384, "name": "Jackson's Catfish Corner", "id": "jacksons-catfish-corner-seattle", "image_url": "https://s3-media2.fl.yelpcdn.com/bphoto/rleZ8UO_y0n9jkWVyiSW-g/o.jpg", "url": "https://www.yelp.com/biz/jacksons-catfish-corner-seattle?adjust_creative=gBcvfFpabk3CnzmXKdYe3w&utm_campaign=yelp_api_v3&utm_medium=api_v3_business_search&utm_source=gBcvfFpabk3CnzmXKdYe3w", "phone": "+12063234330", "coordinates": {"longitude": -122.305682037066, "latitude": 47.6023220658225}, "categories": [{"alias": "southern", "title": "Southern"}, {"alias": "fishnchips", "title": "Fish & Chips"}], "review_count": 59, "location": {"city": "Seattle", "address1": "123 21st Ave S", "address3": "", "address2": "", "zip_code": "98122", "country": "US", "display_address": ["123 21st Ave S", "Seattle, WA 98122"], "state": "WA"}, "price": "$$", "transactions": ["pickup"], "display_phone": "(206) 323-4330"}, {"rating": 4.0, "is_closed": false, "distance": 1620.412098266, "name": "The Juicy Caf\u00e9", "id": "the-juicy-caf\u00e9-seattle", "image_url": "https://s3-media2.fl.yelpcdn.com/bphoto/gxAus-d-opqqF60_m-Q0Mw/o.jpg", "url": "https://www.yelp.com/biz/the-juicy-caf%C3%A9-seattle?adjust_creative=gBcvfFpabk3CnzmXKdYe3w&utm_campaign=yelp_api_v3&utm_medium=api_v3_business_search&utm_source=gBcvfFpabk3CnzmXKdYe3w", "phone": "+12066826960", "coordinates": {"longitude": -122.331657931209, "latitude": 47.6110789669424}, "categories": [{"alias": "juicebars", "title": "Juice Bars & Smoothies"}, {"alias": "salad", "title": "Salad"}], "review_count": 210, "location": {"city": "Seattle", "address1": "725 Pike St", "address3": "", "address2": "Fl 2", "zip_code": "98101", "country": "US", "display_address": ["725 Pike St", "Fl 2", "Seattle, WA 98101"], "state": "WA"}, "price": "$", "transactions": [], "display_phone": "(206) 682-6960"}, {"rating": 4.0, "is_closed": false, "distance": 1991.1747442779997, "name": "Tulio", "id": "tulio-seattle", "image_url": "https://s3-media3.fl.yelpcdn.com/bphoto/EreCZm2XnxhNZodZA-Xflg/o.jpg", "url": "https://www.yelp.com/biz/tulio-seattle?adjust_creative=gBcvfFpabk3CnzmXKdYe3w&utm_campaign=yelp_api_v3&utm_medium=api_v3_business_search&utm_source=gBcvfFpabk3CnzmXKdYe3w", "phone": "+12066245500", "coordinates": {"longitude": -122.33233, "latitude": 47.60762}, "categories": [{"alias": "italian", "title": "Italian"}, {"alias": "bars", "title": "Bars"}, {"alias": "breakfast_brunch", "title": "Breakfast & Brunch"}], "review_count": 494, "location": {"city": "Seattle", "address1": "1100 5th Ave", "address3": "", "address2": "", "zip_code": "98101", "country": "US", "display_address": ["1100 5th Ave", "Seattle, WA 98101"], "state": "WA"}, "price": "$$$", "transactions": [], "display_phone": "(206) 624-5500"}, {"rating": 4.0, "is_closed": false, "distance": 1491.686946224, "name": "Bedlam Coffee", "id": "bedlam-coffee-seattle", "image_url": "https://s3-media1.fl.yelpcdn.com/bphoto/H-s2jFBGJLg9uknQQ1W5Tg/o.jpg", "url": "https://www.yelp.com/biz/bedlam-coffee-seattle?adjust_creative=gBcvfFpabk3CnzmXKdYe3w&utm_campaign=yelp_api_v3&utm_medium=api_v3_business_search&utm_source=gBcvfFpabk3CnzmXKdYe3w", "phone": "+12069102300", "coordinates": {"longitude": -122.3454629, "latitude": 47.6138034}, "categories": [{"alias": "coffee", "title": "Coffee & Tea"}], "review_count": 367, "location": {"city": "Seattle", "address1": "2231 2nd Ave", "address3": "", "address2": "", "zip_code": "98121", "country": "US", "display_address": ["2231 2nd Ave", "Seattle, WA 98121"], "state": "WA"}, "price": "$", "transactions": [], "display_phone": "(206) 910-2300"}, {"rating": 4.0, "is_closed": false, "distance": 1577.8510741976, "name": "Cicchetti", "id": "cicchetti-seattle", "image_url": "https://s3-media4.fl.yelpcdn.com/bphoto/2KiloudZr9yjqszalCnoYQ/o.jpg", "url": "https://www.yelp.com/biz/cicchetti-seattle?adjust_creative=gBcvfFpabk3CnzmXKdYe3w&utm_campaign=yelp_api_v3&utm_medium=api_v3_business_search&utm_source=gBcvfFpabk3CnzmXKdYe3w", "phone": "+12068594155", "coordinates": {"longitude": -122.326172, "latitude": 47.6381371}, "categories": [{"alias": "mediterranean", "title": "Mediterranean"}, {"alias": "tapasmallplates", "title": "Tapas/Small Plates"}], "review_count": 269, "location": {"city": "Seattle", "address1": "121 E Boston St", "address3": "", "address2": "", "zip_code": "98102", "country": "US", "display_address": ["121 E Boston St", "Seattle, WA 98102"], "state": "WA"}, "price": "$$", "transactions": [], "display_phone": "(206) 859-4155"}, {"rating": 4.5, "is_closed": false, "distance": 3190.2151206179997, "name": "Song Phang Kong", "id": "song-phang-kong-seattle", "image_url": "https://s3-media1.fl.yelpcdn.com/bphoto/CClWV4-HPkmCT4LyrMDcyw/o.jpg", "url": "https://www.yelp.com/biz/song-phang-kong-seattle?adjust_creative=gBcvfFpabk3CnzmXKdYe3w&utm_campaign=yelp_api_v3&utm_medium=api_v3_business_search&utm_source=gBcvfFpabk3CnzmXKdYe3w", "phone": "+12063231782", "coordinates": {"longitude": -122.31881, "latitude": 47.599}, "categories": [{"alias": "laotian", "title": "Laotian"}, {"alias": "thai", "title": "Thai"}], "review_count": 144, "location": {"city": "Seattle", "address1": "1017 S Jackson St", "address3": "", "address2": "", "zip_code": "98104", "country": "US", "display_address": ["1017 S Jackson St", "Seattle, WA 98104"], "state": "WA"}, "price": "$", "transactions": [], "display_phone": "(206) 323-1782"}, {"rating": 4.0, "is_closed": false, "distance": 2256.33008548, "name": "Elliott's Oyster House", "id": "elliotts-oyster-house-seattle-2", "image_url": "https://s3-media3.fl.yelpcdn.com/bphoto/Am6AabmBhkHHqrGRSg2clQ/o.jpg", "url": "https://www.yelp.com/biz/elliotts-oyster-house-seattle-2?adjust_creative=gBcvfFpabk3CnzmXKdYe3w&utm_campaign=yelp_api_v3&utm_medium=api_v3_business_search&utm_source=gBcvfFpabk3CnzmXKdYe3w", "phone": "+12066234340", "coordinates": {"longitude": -122.340225, "latitude": 47.605056}, "categories": [{"alias": "seafood", "title": "Seafood"}, {"alias": "raw_food", "title": "Live/Raw Food"}, {"alias": "cafes", "title": "Cafes"}], "review_count": 2227, "location": {"city": "Seattle", "address1": "1201 Alaskan Way", "address3": "Pier 56", "address2": "", "zip_code": "98101", "country": "US", "display_address": ["1201 Alaskan Way", "Pier 56", "Seattle, WA 98101"], "state": "WA"}, "price": "$$$", "transactions": [], "display_phone": "(206) 623-4340"}, {"rating": 4.5, "is_closed": false, "distance": 2475.989063014, "name": "Biscuit Bitch", "id": "biscuit-bitch-seattle-5", "image_url": "https://s3-media2.fl.yelpcdn.com/bphoto/gNzdCKUAOqoVvWFx8yvshQ/o.jpg", "url": "https://www.yelp.com/biz/biscuit-bitch-seattle-5?adjust_creative=gBcvfFpabk3CnzmXKdYe3w&utm_campaign=yelp_api_v3&utm_medium=api_v3_business_search&utm_source=gBcvfFpabk3CnzmXKdYe3w", "phone": "+12066231859", "coordinates": {"longitude": -122.3321, "latitude": 47.60324}, "categories": [{"alias": "southern", "title": "Southern"}, {"alias": "breakfast_brunch", "title": "Breakfast & Brunch"}], "review_count": 164, "location": {"city": "Seattle", "address1": "621 3rd Ave", "address3": "", "address2": "", "zip_code": "98104", "country": "US", "display_address": ["621 3rd Ave", "Seattle, WA 98104"], "state": "WA"}, "price": "$", "transactions": [], "display_phone": "(206) 623-1859"}, {"rating": 4.5, "is_closed": false, "distance": 2095.031409036, "name": "Ancient Grounds", "id": "ancient-grounds-seattle-2", "image_url": "https://s3-media2.fl.yelpcdn.com/bphoto/Y0Gkx7fMAWaFtz06hsAs_A/o.jpg", "url": "https://www.yelp.com/biz/ancient-grounds-seattle-2?adjust_creative=gBcvfFpabk3CnzmXKdYe3w&utm_campaign=yelp_api_v3&utm_medium=api_v3_business_search&utm_source=gBcvfFpabk3CnzmXKdYe3w", "phone": "+12067490747", "coordinates": {"longitude": -122.33782, "latitude": 47.60675}, "categories": [{"alias": "coffee", "title": "Coffee & Tea"}, {"alias": "galleries", "title": "Art Galleries"}], "review_count": 65, "location": {"city": "Seattle", "address1": "1220 1st Ave", "address3": "", "address2": null, "zip_code": "98101", "country": "US", "display_address": ["1220 1st Ave", "Seattle, WA 98101"], "state": "WA"}, "price": "$", "transactions": [], "display_phone": "(206) 749-0747"}, {"rating": 4.0, "is_closed": false, "distance": 3267.470038912, "name": "Hue Ky Mi Gia", "id": "hue-ky-mi-gia-seattle", "image_url": "https://s3-media2.fl.yelpcdn.com/bphoto/nOwwxTRF1SrynQMzkj3GfA/o.jpg", "url": "https://www.yelp.com/biz/hue-ky-mi-gia-seattle?adjust_creative=gBcvfFpabk3CnzmXKdYe3w&utm_campaign=yelp_api_v3&utm_medium=api_v3_business_search&utm_source=gBcvfFpabk3CnzmXKdYe3w", "phone": "+12065681268", "coordinates": {"longitude": -122.316223301189, "latitude": 47.5990692269986}, "categories": [{"alias": "vietnamese", "title": "Vietnamese"}, {"alias": "chinese", "title": "Chinese"}, {"alias": "noodles", "title": "Noodles"}], "review_count": 413, "location": {"city": "Seattle", "address1": "1207 S Jackson St", "address3": "", "address2": "Ste 101", "zip_code": "98144", "country": "US", "display_address": ["1207 S Jackson St", "Ste 101", "Seattle, WA 98144"], "state": "WA"}, "price": "$", "transactions": [], "display_phone": "(206) 568-1268"}, {"rating": 4.0, "is_closed": false, "distance": 1375.3121912099998, "name": "Local Pho", "id": "local-pho-seattle", "image_url": "https://s3-media2.fl.yelpcdn.com/bphoto/CuUVH9dnXLFhBmMxzxOzOA/o.jpg", "url": "https://www.yelp.com/biz/local-pho-seattle?adjust_creative=gBcvfFpabk3CnzmXKdYe3w&utm_campaign=yelp_api_v3&utm_medium=api_v3_business_search&utm_source=gBcvfFpabk3CnzmXKdYe3w", "phone": "+12064415995", "coordinates": {"longitude": -122.344533008587, "latitude": 47.6146521760056}, "categories": [{"alias": "vietnamese", "title": "Vietnamese"}, {"alias": "sandwiches", "title": "Sandwiches"}, {"alias": "noodles", "title": "Noodles"}], "review_count": 340, "location": {"city": "Seattle", "address1": "2230 3rd Ave", "address3": "", "address2": "", "zip_code": "98121", "country": "US", "display_address": ["2230 3rd Ave", "Seattle, WA 98121"], "state": "WA"}, "price": "$", "transactions": [], "display_phone": "(206) 441-5995"}, {"rating": 4.5, "is_closed": false, "distance": 3064.051555054, "name": "A + Hong Kong Kitchen", "id": "a-hong-kong-kitchen-seattle", "image_url": "https://s3-media1.fl.yelpcdn.com/bphoto/pvlTk3wB8iP31REbgqPOLQ/o.jpg", "url": "https://www.yelp.com/biz/a-hong-kong-kitchen-seattle?adjust_creative=gBcvfFpabk3CnzmXKdYe3w&utm_campaign=yelp_api_v3&utm_medium=api_v3_business_search&utm_source=gBcvfFpabk3CnzmXKdYe3w", "phone": "+12066821267", "coordinates": {"longitude": -122.32652, "latitude": 47.59854}, "categories": [{"alias": "desserts", "title": "Desserts"}, {"alias": "cantonese", "title": "Cantonese"}, {"alias": "hkcafe", "title": "Hong Kong Style Cafe"}], "review_count": 159, "location": {"city": "Seattle", "address1": "419 6th Ave S", "address3": "", "address2": null, "zip_code": "98104", "country": "US", "display_address": ["419 6th Ave S", "Seattle, WA 98104"], "state": "WA"}, "price": "$", "transactions": [], "display_phone": "(206) 682-1267"}, {"rating": 4.5, "is_closed": false, "distance": 1986.127210302, "name": "Myrtle Edwards Park", "id": "myrtle-edwards-park-seattle", "image_url": "https://s3-media3.fl.yelpcdn.com/bphoto/5xeT7gKJuo0ZwlL7qnHDXw/o.jpg", "url": "https://www.yelp.com/biz/myrtle-edwards-park-seattle?adjust_creative=gBcvfFpabk3CnzmXKdYe3w&utm_campaign=yelp_api_v3&utm_medium=api_v3_business_search&utm_source=gBcvfFpabk3CnzmXKdYe3w", "phone": "+12066844075", "coordinates": {"longitude": -122.359920754578, "latitude": 47.6184730161495}, "categories": [{"alias": "parks", "title": "Parks"}, {"alias": "beaches", "title": "Beaches"}], "review_count": 64, "location": {"city": "Seattle", "address1": "3130 Alaskan Way", "address3": "", "address2": null, "zip_code": "98121", "country": "US", "display_address": ["3130 Alaskan Way", "Seattle, WA 98121"], "state": "WA"}, "transactions": [], "display_phone": "(206) 684-4075"}, {"rating": 4.0, "is_closed": false, "distance": 1635.856451444, "name": "Bang Bang Caf\u00e9", "id": "bang-bang-caf\u00e9-seattle-2", "image_url": "https://s3-media4.fl.yelpcdn.com/bphoto/iG0pZ3vsIZxAilAS6rxP8Q/o.jpg", "url": "https://www.yelp.com/biz/bang-bang-caf%C3%A9-seattle-2?adjust_creative=gBcvfFpabk3CnzmXKdYe3w&utm_campaign=yelp_api_v3&utm_medium=api_v3_business_search&utm_source=gBcvfFpabk3CnzmXKdYe3w", "phone": "+12064482233", "coordinates": {"longitude": -122.3493, "latitude": 47.6140199}, "categories": [{"alias": "breakfast_brunch", "title": "Breakfast & Brunch"}, {"alias": "vegan", "title": "Vegan"}, {"alias": "cafes", "title": "Cafes"}], "review_count": 414, "location": {"city": "Seattle", "address1": "2460 Western Ave", "address3": "", "address2": "", "zip_code": "98121", "country": "US", "display_address": ["2460 Western Ave", "Seattle, WA 98121"], "state": "WA"}, "price": "$", "transactions": [], "display_phone": "(206) 448-2233"}, {"rating": 4.5, "is_closed": false, "distance": 1482.8343853124, "name": "Revolution Wine", "id": "revolution-wine-seattle-2", "image_url": "https://s3-media1.fl.yelpcdn.com/bphoto/8P4Fkp7bIC21wc9yvCh9YQ/o.jpg", "url": "https://www.yelp.com/biz/revolution-wine-seattle-2?adjust_creative=gBcvfFpabk3CnzmXKdYe3w&utm_campaign=yelp_api_v3&utm_medium=api_v3_business_search&utm_source=gBcvfFpabk3CnzmXKdYe3w", "phone": "+14252839085", "coordinates": {"longitude": -122.3249563, "latitude": 47.6142149}, "categories": [{"alias": "wine_bars", "title": "Wine Bars"}, {"alias": "beer_and_wine", "title": "Beer, Wine & Spirits"}, {"alias": "winetastingroom", "title": "Wine Tasting Room"}], "review_count": 31, "location": {"city": "Seattle", "address1": "518 E Pike St", "address3": "", "address2": "", "zip_code": "98122", "country": "US", "display_address": ["518 E Pike St", "Seattle, WA 98122"], "state": "WA"}, "price": "$$", "transactions": [], "display_phone": "(425) 283-9085"}, {"rating": 4.5, "is_closed": false, "distance": 4875.706514474, "name": "Teriyaki 1st", "id": "teriyaki-1st-seattle-2", "image_url": "https://s3-media1.fl.yelpcdn.com/bphoto/jUZ7kPhi8ggU35AqAcERqw/o.jpg", "url": "https://www.yelp.com/biz/teriyaki-1st-seattle-2?adjust_creative=gBcvfFpabk3CnzmXKdYe3w&utm_campaign=yelp_api_v3&utm_medium=api_v3_business_search&utm_source=gBcvfFpabk3CnzmXKdYe3w", "phone": "+12065261661", "coordinates": {"longitude": -122.3134, "latitude": 47.66671}, "categories": [{"alias": "japanese", "title": "Japanese"}, {"alias": "korean", "title": "Korean"}], "review_count": 244, "location": {"city": "Seattle", "address1": "5201 University Way NE", "address3": "", "address2": "Ste B", "zip_code": "98105", "country": "US", "display_address": ["5201 University Way NE", "Ste B", "Seattle, WA 98105"], "state": "WA"}, "price": "$", "transactions": [], "display_phone": "(206) 526-1661"}, {"rating": 4.5, "is_closed": false, "distance": 4589.9075253559995, "name": "Meet the Moon", "id": "meet-the-moon-seattle", "image_url": "https://s3-media1.fl.yelpcdn.com/bphoto/c5OLRvmnBpW72XVpMEKPeA/o.jpg", "url": "https://www.yelp.com/biz/meet-the-moon-seattle?adjust_creative=gBcvfFpabk3CnzmXKdYe3w&utm_campaign=yelp_api_v3&utm_medium=api_v3_business_search&utm_source=gBcvfFpabk3CnzmXKdYe3w", "phone": "+12067079730", "coordinates": {"longitude": -122.2849313, "latitude": 47.6021513}, "categories": [{"alias": "desserts", "title": "Desserts"}, {"alias": "breakfast_brunch", "title": "Breakfast & Brunch"}, {"alias": "bars", "title": "Bars"}], "review_count": 166, "location": {"city": "Seattle", "address1": "120 Lakeside Ave", "address3": "", "address2": "", "zip_code": "98122", "country": "US", "display_address": ["120 Lakeside Ave", "Seattle, WA 98122"], "state": "WA"}, "price": "$$", "transactions": [], "display_phone": "(206) 707-9730"}, {"rating": 4.0, "is_closed": false, "distance": 1655.6748298079997, "name": "Plaza Garibaldi", "id": "plaza-garibaldi-seattle", "image_url": "https://s3-media2.fl.yelpcdn.com/bphoto/m1lXz4Fxch1eLRkxfrCK8A/o.jpg", "url": "https://www.yelp.com/biz/plaza-garibaldi-seattle?adjust_creative=gBcvfFpabk3CnzmXKdYe3w&utm_campaign=yelp_api_v3&utm_medium=api_v3_business_search&utm_source=gBcvfFpabk3CnzmXKdYe3w", "phone": "+12063974088", "coordinates": {"longitude": -122.355732115532, "latitude": 47.619432283316}, "categories": [{"alias": "mexican", "title": "Mexican"}, {"alias": "karaoke", "title": "Karaoke"}], "review_count": 233, "location": {"city": "Seattle", "address1": "129 1st Ave N", "address3": "", "address2": "", "zip_code": "98109", "country": "US", "display_address": ["129 1st Ave N", "Seattle, WA 98109"], "state": "WA"}, "price": "$$", "transactions": ["delivery", "pickup"], "display_phone": "(206) 397-4088"}, {"rating": 4.5, "is_closed": false, "distance": 1256.156979478, "name": "Midtown Espresso", "id": "midtown-espresso-seattle", "image_url": "https://s3-media3.fl.yelpcdn.com/bphoto/u-DBChCoVU8eZF-SL5QFBw/o.jpg", "url": "https://www.yelp.com/biz/midtown-espresso-seattle?adjust_creative=gBcvfFpabk3CnzmXKdYe3w&utm_campaign=yelp_api_v3&utm_medium=api_v3_business_search&utm_source=gBcvfFpabk3CnzmXKdYe3w", "phone": "+12064439070", "coordinates": {"longitude": -122.341842651367, "latitude": 47.6149482727051}, "categories": [{"alias": "coffee", "title": "Coffee & Tea"}, {"alias": "cafes", "title": "Cafes"}, {"alias": "tradamerican", "title": "American (Traditional)"}], "review_count": 42, "location": {"city": "Seattle", "address1": "2133 5th Ave", "address3": "", "address2": "Ste AA", "zip_code": "98121", "country": "US", "display_address": ["2133 5th Ave", "Ste AA", "Seattle, WA 98121"], "state": "WA"}, "price": "$", "transactions": [], "display_phone": "(206) 443-9070"}, {"rating": 4.0, "is_closed": false, "distance": 1920.9038787819998, "name": "The Hideout", "id": "the-hideout-seattle", "image_url": "https://s3-media3.fl.yelpcdn.com/bphoto/DX_VeFRAOi2D26zm8iRu0Q/o.jpg", "url": "https://www.yelp.com/biz/the-hideout-seattle?adjust_creative=gBcvfFpabk3CnzmXKdYe3w&utm_campaign=yelp_api_v3&utm_medium=api_v3_business_search&utm_source=gBcvfFpabk3CnzmXKdYe3w", "phone": "+12069038480", "coordinates": {"longitude": -122.32548, "latitude": 47.60946}, "categories": [{"alias": "lounges", "title": "Lounges"}], "review_count": 241, "location": {"city": "Seattle", "address1": "1005 Boren Ave", "address3": "", "address2": "", "zip_code": "98127", "country": "US", "display_address": ["1005 Boren Ave", "Seattle, WA 98127"], "state": "WA"}, "price": "$$", "transactions": [], "display_phone": "(206) 903-8480"}, {"rating": 5.0, "is_closed": false, "distance": 864.3732953199999, "name": "Great NW Soup", "id": "great-nw-soup-seattle", "image_url": "https://s3-media3.fl.yelpcdn.com/bphoto/fw_z6n2ChjjRzz-RL33Jcw/o.jpg", "url": "https://www.yelp.com/biz/great-nw-soup-seattle?adjust_creative=gBcvfFpabk3CnzmXKdYe3w&utm_campaign=yelp_api_v3&utm_medium=api_v3_business_search&utm_source=gBcvfFpabk3CnzmXKdYe3w", "phone": "+12065823503", "coordinates": {"longitude": -122.327419319811, "latitude": 47.6309632983408}, "categories": [{"alias": "soup", "title": "Soup"}], "review_count": 23, "location": {"city": "Seattle", "address1": "1201 Eastlake Ave E", "address3": "", "address2": "", "zip_code": "98102", "country": "US", "display_address": ["1201 Eastlake Ave E", "Seattle, WA 98102"], "state": "WA"}, "price": "$", "transactions": ["pickup"], "display_phone": "(206) 582-3503"}, {"rating": 4.0, "is_closed": false, "distance": 1467.3111744743999, "name": "Orfeo", "id": "orfeo-seattle", "image_url": "https://s3-media1.fl.yelpcdn.com/bphoto/6vkLA_rcDg5bTMqp5rcKaQ/o.jpg", "url": "https://www.yelp.com/biz/orfeo-seattle?adjust_creative=gBcvfFpabk3CnzmXKdYe3w&utm_campaign=yelp_api_v3&utm_medium=api_v3_business_search&utm_source=gBcvfFpabk3CnzmXKdYe3w", "phone": "+12064431972", "coordinates": {"longitude": -122.342834472656, "latitude": 47.6131858825684}, "categories": [{"alias": "newamerican", "title": "American (New)"}, {"alias": "french", "title": "French"}, {"alias": "italian", "title": "Italian"}], "review_count": 200, "location": {"city": "Seattle", "address1": "2107 3rd Ave", "address3": "", "address2": "", "zip_code": "98121", "country": "US", "display_address": ["2107 3rd Ave", "Seattle, WA 98121"], "state": "WA"}, "price": "$$", "transactions": [], "display_phone": "(206) 443-1972"}, {"rating": 4.0, "is_closed": false, "distance": 1191.576418354, "name": "Sweetgrass Food", "id": "sweetgrass-food-seattle-3", "image_url": "https://s3-media4.fl.yelpcdn.com/bphoto/H850yamKl773JA9LaTndHQ/o.jpg", "url": "https://www.yelp.com/biz/sweetgrass-food-seattle-3?adjust_creative=gBcvfFpabk3CnzmXKdYe3w&utm_campaign=yelp_api_v3&utm_medium=api_v3_business_search&utm_source=gBcvfFpabk3CnzmXKdYe3w", "phone": "+12066026656", "coordinates": {"longitude": -122.33708, "latitude": 47.61461}, "categories": [{"alias": "juicebars", "title": "Juice Bars & Smoothies"}, {"alias": "salad", "title": "Salad"}, {"alias": "breakfast_brunch", "title": "Breakfast & Brunch"}], "review_count": 108, "location": {"city": "Seattle", "address1": "1923 7th Ave", "address3": "", "address2": "", "zip_code": "98101", "country": "US", "display_address": ["1923 7th Ave", "Seattle, WA 98101"], "state": "WA"}, "price": "$$", "transactions": ["pickup"], "display_phone": "(206) 602-6656"}, {"rating": 4.0, "is_closed": false, "distance": 3026.206476548, "name": "Thai Curry Simple", "id": "thai-curry-simple-seattle-5", "image_url": "https://s3-media3.fl.yelpcdn.com/bphoto/BkpQtARq06JEzkosdelG8g/o.jpg", "url": "https://www.yelp.com/biz/thai-curry-simple-seattle-5?adjust_creative=gBcvfFpabk3CnzmXKdYe3w&utm_campaign=yelp_api_v3&utm_medium=api_v3_business_search&utm_source=gBcvfFpabk3CnzmXKdYe3w", "phone": "+12063274838", "coordinates": {"longitude": -122.3275351, "latitude": 47.598675}, "categories": [{"alias": "thai", "title": "Thai"}], "review_count": 279, "location": {"city": "Seattle", "address1": "406 5th Ave S", "address3": "", "address2": "", "zip_code": "98104", "country": "US", "display_address": ["406 5th Ave S", "Seattle, WA 98104"], "state": "WA"}, "price": "$", "transactions": [], "display_phone": "(206) 327-4838"}, {"rating": 4.0, "is_closed": false, "distance": 1304.760978686, "name": "Sitka & Spruce", "id": "sitka-and-spruce-seattle", "image_url": "https://s3-media2.fl.yelpcdn.com/bphoto/XRvyDgD_mme6GDYZVpwbIQ/o.jpg", "url": "https://www.yelp.com/biz/sitka-and-spruce-seattle?adjust_creative=gBcvfFpabk3CnzmXKdYe3w&utm_campaign=yelp_api_v3&utm_medium=api_v3_business_search&utm_source=gBcvfFpabk3CnzmXKdYe3w", "phone": "+12063240662", "coordinates": {"longitude": -122.328212837817, "latitude": 47.6147656718268}, "categories": [{"alias": "newamerican", "title": "American (New)"}], "review_count": 617, "location": {"city": "Seattle", "address1": "1531 Melrose Ave", "address3": "", "address2": "", "zip_code": "98101", "country": "US", "display_address": ["1531 Melrose Ave", "Seattle, WA 98101"], "state": "WA"}, "price": "$$$", "transactions": [], "display_phone": "(206) 324-0662"}, {"rating": 4.0, "is_closed": false, "distance": 1234.8343510159998, "name": "La Cocina Oaxaquena", "id": "la-cocina-oaxaquena-seattle", "image_url": "https://s3-media4.fl.yelpcdn.com/bphoto/Y-FnZ-bLoS8qC5bILWGx5A/o.jpg", "url": "https://www.yelp.com/biz/la-cocina-oaxaquena-seattle?adjust_creative=gBcvfFpabk3CnzmXKdYe3w&utm_campaign=yelp_api_v3&utm_medium=api_v3_business_search&utm_source=gBcvfFpabk3CnzmXKdYe3w", "phone": "+12066238226", "coordinates": {"longitude": -122.328182, "latitude": 47.615475}, "categories": [{"alias": "mexican", "title": "Mexican"}, {"alias": "bars", "title": "Bars"}], "review_count": 295, "location": {"city": "Seattle", "address1": "1216 Pine St", "address3": "", "address2": "", "zip_code": "98101", "country": "US", "display_address": ["1216 Pine St", "Seattle, WA 98101"], "state": "WA"}, "price": "$$", "transactions": ["pickup"], "display_phone": "(206) 623-8226"}, {"rating": 4.0, "is_closed": false, "distance": 5039.435294318, "name": "Taste of India", "id": "taste-of-india-seattle", "image_url": "https://s3-media2.fl.yelpcdn.com/bphoto/StGZplXBRssesSByfIVbng/o.jpg", "url": "https://www.yelp.com/biz/taste-of-india-seattle?adjust_creative=gBcvfFpabk3CnzmXKdYe3w&utm_campaign=yelp_api_v3&utm_medium=api_v3_business_search&utm_source=gBcvfFpabk3CnzmXKdYe3w", "phone": "+12065281575", "coordinates": {"longitude": -122.317484, "latitude": 47.669083}, "categories": [{"alias": "indpak", "title": "Indian"}], "review_count": 1112, "location": {"city": "Seattle", "address1": "5517 Roosevelt Way NE", "address3": "", "address2": "", "zip_code": "98105", "country": "US", "display_address": ["5517 Roosevelt Way NE", "Seattle, WA 98105"], "state": "WA"}, "price": "$$", "transactions": ["pickup"], "display_phone": "(206) 528-1575"}, {"rating": 4.0, "is_closed": false, "distance": 1204.7321291179999, "name": "Barolo Ristorante", "id": "barolo-ristorante-seattle", "image_url": "https://s3-media1.fl.yelpcdn.com/bphoto/smQdvRzc_jDumg4fHQVZEg/o.jpg", "url": "https://www.yelp.com/biz/barolo-ristorante-seattle?adjust_creative=gBcvfFpabk3CnzmXKdYe3w&utm_campaign=yelp_api_v3&utm_medium=api_v3_business_search&utm_source=gBcvfFpabk3CnzmXKdYe3w", "phone": "+12067709000", "coordinates": {"longitude": -122.33755, "latitude": 47.61451}, "categories": [{"alias": "italian", "title": "Italian"}, {"alias": "wine_bars", "title": "Wine Bars"}], "review_count": 881, "location": {"city": "Seattle", "address1": "1940 Westlake Ave", "address3": "", "address2": "", "zip_code": "98101", "country": "US", "display_address": ["1940 Westlake Ave", "Seattle, WA 98101"], "state": "WA"}, "price": "$$", "transactions": [], "display_phone": "(206) 770-9000"}, {"rating": 4.5, "is_closed": false, "distance": 3333.9835783099998, "name": "Cloud 9 Hookah Lounge", "id": "cloud-9-hookah-lounge-seattle", "image_url": "https://s3-media4.fl.yelpcdn.com/bphoto/XfiJYppbrQwekLGCzezF3A/o.jpg", "url": "https://www.yelp.com/biz/cloud-9-hookah-lounge-seattle?adjust_creative=gBcvfFpabk3CnzmXKdYe3w&utm_campaign=yelp_api_v3&utm_medium=api_v3_business_search&utm_source=gBcvfFpabk3CnzmXKdYe3w", "phone": "+12064573263", "coordinates": {"longitude": -122.2991104, "latitude": 47.6081581}, "categories": [{"alias": "hookah_bars", "title": "Hookah Bars"}], "review_count": 34, "location": {"city": "Seattle", "address1": "2522 E Cherry St", "address3": "", "address2": null, "zip_code": "98122", "country": "US", "display_address": ["2522 E Cherry St", "Seattle, WA 98122"], "state": "WA"}, "price": "$", "transactions": [], "display_phone": "(206) 457-3263"}, {"rating": 4.0, "is_closed": false, "distance": 1928.1282060419999, "name": "Pike Place Market Gum Wall", "id": "pike-place-market-gum-wall-seattle", "image_url": "https://s3-media3.fl.yelpcdn.com/bphoto/iamKRDB32WhnWTpJt-ai0g/o.jpg", "url": "https://www.yelp.com/biz/pike-place-market-gum-wall-seattle?adjust_creative=gBcvfFpabk3CnzmXKdYe3w&utm_campaign=yelp_api_v3&utm_medium=api_v3_business_search&utm_source=gBcvfFpabk3CnzmXKdYe3w", "phone": "+12065872414", "coordinates": {"longitude": -122.340359687805, "latitude": 47.6083909536943}, "categories": [{"alias": "localflavor", "title": "Local Flavor"}], "review_count": 669, "location": {"city": "Seattle", "address1": "Pike St", "address3": "", "address2": "", "zip_code": "98101", "country": "US", "display_address": ["Pike St", "Seattle, WA 98101"], "state": "WA"}, "transactions": [], "display_phone": "(206) 587-2414"}, {"rating": 4.5, "is_closed": false, "distance": 2693.068268528, "name": "Bustle", "id": "bustle-seattle", "image_url": "https://s3-media4.fl.yelpcdn.com/bphoto/WW9MMvE06QP5wBHymZZ34A/o.jpg", "url": "https://www.yelp.com/biz/bustle-seattle?adjust_creative=gBcvfFpabk3CnzmXKdYe3w&utm_campaign=yelp_api_v3&utm_medium=api_v3_business_search&utm_source=gBcvfFpabk3CnzmXKdYe3w", "phone": "+12064534285", "coordinates": {"longitude": -122.3647659, "latitude": 47.6394829}, "categories": [{"alias": "coffee", "title": "Coffee & Tea"}, {"alias": "cafes", "title": "Cafes"}], "review_count": 108, "location": {"city": "Seattle", "address1": "535 W McGraw St", "address3": "", "address2": "", "zip_code": "98119", "country": "US", "display_address": ["535 W McGraw St", "Seattle, WA 98119"], "state": "WA"}, "price": "$", "transactions": [], "display_phone": "(206) 453-4285"}, {"rating": 4.0, "is_closed": false, "distance": 4621.555196456, "name": "Chaco Canyon Organic Cafe", "id": "chaco-canyon-organic-cafe-seattle", "image_url": "https://s3-media2.fl.yelpcdn.com/bphoto/cV6sd49nWcGUjCrIuHyDyw/o.jpg", "url": "https://www.yelp.com/biz/chaco-canyon-organic-cafe-seattle?adjust_creative=gBcvfFpabk3CnzmXKdYe3w&utm_campaign=yelp_api_v3&utm_medium=api_v3_business_search&utm_source=gBcvfFpabk3CnzmXKdYe3w", "phone": "+12065226966", "coordinates": {"longitude": -122.315559387207, "latitude": 47.6647415161133}, "categories": [{"alias": "juicebars", "title": "Juice Bars & Smoothies"}, {"alias": "vegan", "title": "Vegan"}, {"alias": "raw_food", "title": "Live/Raw Food"}], "review_count": 562, "location": {"city": "Seattle", "address1": "4757 12th Ave NE", "address3": "", "address2": "", "zip_code": "98105", "country": "US", "display_address": ["4757 12th Ave NE", "Seattle, WA 98105"], "state": "WA"}, "price": "$$", "transactions": [], "display_phone": "(206) 522-6966"}, {"rating": 4.0, "is_closed": false, "distance": 2425.86761712, "name": "Tougo Coffee Co", "id": "tougo-coffee-co-seattle-4", "image_url": "https://s3-media2.fl.yelpcdn.com/bphoto/mJ59tY-xt7chJJti72Hnag/o.jpg", "url": "https://www.yelp.com/biz/tougo-coffee-co-seattle-4?adjust_creative=gBcvfFpabk3CnzmXKdYe3w&utm_campaign=yelp_api_v3&utm_medium=api_v3_business_search&utm_source=gBcvfFpabk3CnzmXKdYe3w", "phone": "+12068603518", "coordinates": {"longitude": -122.30869, "latitude": 47.6132599}, "categories": [{"alias": "coffee", "title": "Coffee & Tea"}], "review_count": 144, "location": {"city": "Seattle", "address1": "1410 18th Ave", "address3": "", "address2": "", "zip_code": "98122", "country": "US", "display_address": ["1410 18th Ave", "Seattle, WA 98122"], "state": "WA"}, "price": "$", "transactions": [], "display_phone": "(206) 860-3518"}]}