{"total": 36019, "region": {"center": {"longitude": -122.33551025390625, "latitude": 47.62541904760501}}, "businesses": [{"rating": 4.5, "is_closed": false, "distance": 5840.52177694, "name": "Alison's Coastal Cafe & Bakery", "id": "alisons-coastal-cafe-and-bakery-seattle-2", "image_url": "https://s3-media2.fl.yelpcdn.com/bphoto/O4RZ5HWmv-w50jrxxBWUQA/o.jpg", "url": "https://www.yelp.com/biz/alisons-coastal-cafe-and-bakery-seattle-2?adjust_creative=gBcvfFpabk3CnzmXKdYe3w&utm_campaign=yelp_api_v3&utm_medium=api_v3_business_search&utm_source=gBcvfFpabk3CnzmXKdYe3w", "phone": "+12063225028", "coordinates": {"longitude": -122.382619903663, "latitude": 47.6672717622741}, "categories": [{"alias": "bakeries", "title": "Bakeries"}, {"alias": "breakfast_brunch", "title": "Breakfast & Brunch"}], "review_count": 82, "location": {"city": "Seattle", "address1": "5404 Leary Ave NW", "address3": "", "address2": "", "zip_code": "98107", "country": "US", "display_address": ["5404 Leary Ave NW", "Seattle, WA 98107"], "state": "WA"}, "price": "$", "transactions": ["pickup"], "display_phone": "(206) 322-5028"}, {"rating": 4.0, "is_closed": false, "distance": 4333.608543108, "name": "Perch\u00e9 No Pasta & Vino", "id": "perch\u00e9-no-pasta-and-vino-seattle-4", "image_url": "https://s3-media2.fl.yelpcdn.com/bphoto/kzVVXxuz0g8FAbznBIgxfw/o.jpg", "url": "https://www.yelp.com/biz/perch%C3%A9-no-pasta-and-vino-seattle-4?adjust_creative=gBcvfFpabk3CnzmXKdYe3w&utm_campaign=yelp_api_v3&utm_medium=api_v3_business_search&utm_source=gBcvfFpabk3CnzmXKdYe3w", "phone": "+12065470222", "coordinates": {"longitude": -122.3412, "latitude": 47.664202}, "categories": [{"alias": "italian", "title": "Italian"}], "review_count": 329, "location": {"city": "Seattle", "address1": "1319 N 49th St", "address3": "", "address2": "", "zip_code": "98103", "country": "US", "display_address": ["1319 N 49th St", "Seattle, WA 98103"], "state": "WA"}, "price": "$$", "transactions": [], "display_phone": "(206) 547-0222"}, {"rating": 4.5, "is_closed": false, "distance": 9299.064891635999, "name": "Family Donut Shop", "id": "family-donut-shop-seattle-2", "image_url": "https://s3-media3.fl.yelpcdn.com/bphoto/cVK1dhBeq1YCYEMQsPtILA/o.jpg", "url": "https://www.yelp.com/biz/family-donut-shop-seattle-2?adjust_creative=gBcvfFpabk3CnzmXKdYe3w&utm_campaign=yelp_api_v3&utm_medium=api_v3_business_search&utm_source=gBcvfFpabk3CnzmXKdYe3w", "phone": "+12063689107", "coordinates": {"longitude": -122.33349, "latitude": 47.70902}, "categories": [{"alias": "donuts", "title": "Donuts"}, {"alias": "bakeries", "title": "Bakeries"}, {"alias": "coffee", "title": "Coffee & Tea"}], "review_count": 147, "location": {"city": "Seattle", "address1": "2100 N Northgate Way", "address3": "", "address2": "Ste F", "zip_code": "98133", "country": "US", "display_address": ["2100 N Northgate Way", "Ste F", "Seattle, WA 98133"], "state": "WA"}, "price": "$", "transactions": [], "display_phone": "(206) 368-9107"}, {"rating": 4.0, "is_closed": false, "distance": 1472.9651721359999, "name": "Rabbit Hole", "id": "rabbit-hole-seattle", "image_url": "https://s3-media3.fl.yelpcdn.com/bphoto/z3GrOkriV0xoRpvVx2eyYA/o.jpg", "url": "https://www.yelp.com/biz/rabbit-hole-seattle?adjust_creative=gBcvfFpabk3CnzmXKdYe3w&utm_campaign=yelp_api_v3&utm_medium=api_v3_business_search&utm_source=gBcvfFpabk3CnzmXKdYe3w", "phone": "+12069564653", "coordinates": {"longitude": -122.3449326, "latitude": 47.6138306}, "categories": [{"alias": "lounges", "title": "Lounges"}], "review_count": 165, "location": {"city": "Seattle", "address1": "2222 2nd Ave", "address3": "", "address2": "", "zip_code": "98121", "country": "US", "display_address": ["2222 2nd Ave", "Seattle, WA 98121"], "state": "WA"}, "price": "$", "transactions": [], "display_phone": "(206) 956-4653"}, {"rating": 4.5, "is_closed": false, "distance": 7564.064244822001, "name": "Preserve and Gather", "id": "preserve-and-gather-seattle", "image_url": "https://s3-media4.fl.yelpcdn.com/bphoto/0FfxCBhyTj-nHntmzQxHKw/o.jpg", "url": "https://www.yelp.com/biz/preserve-and-gather-seattle?adjust_creative=gBcvfFpabk3CnzmXKdYe3w&utm_campaign=yelp_api_v3&utm_medium=api_v3_business_search&utm_source=gBcvfFpabk3CnzmXKdYe3w", "phone": "+12064031149", "coordinates": {"longitude": -122.36309, "latitude": 47.69086}, "categories": [{"alias": "coffee", "title": "Coffee & Tea"}, {"alias": "bakeries", "title": "Bakeries"}, {"alias": "beer_and_wine", "title": "Beer, Wine & Spirits"}], "review_count": 57, "location": {"city": "Seattle", "address1": "358 NW 85th St", "address3": "", "address2": null, "zip_code": "98117", "country": "US", "display_address": ["358 NW 85th St", "Seattle, WA 98117"], "state": "WA"}, "price": "$", "transactions": [], "display_phone": "(206) 403-1149"}, {"rating": 4.0, "is_closed": false, "distance": 5845.949276089999, "name": "The Noble Fir", "id": "the-noble-fir-seattle", "image_url": "https://s3-media4.fl.yelpcdn.com/bphoto/S3rRdmTDHexk2VsBjZ1pbA/o.jpg", "url": "https://www.yelp.com/biz/the-noble-fir-seattle?adjust_creative=gBcvfFpabk3CnzmXKdYe3w&utm_campaign=yelp_api_v3&utm_medium=api_v3_business_search&utm_source=gBcvfFpabk3CnzmXKdYe3w", "phone": "+12064207425", "coordinates": {"longitude": -122.38338, "latitude": 47.66688}, "categories": [{"alias": "bars", "title": "Bars"}, {"alias": "tapasmallplates", "title": "Tapas/Small Plates"}], "review_count": 184, "location": {"city": "Seattle", "address1": "5316 Ballard Ave NW", "address3": "", "address2": "", "zip_code": "98107", "country": "US", "display_address": ["5316 Ballard Ave NW", "Seattle, WA 98107"], "state": "WA"}, "price": "$$", "transactions": [], "display_phone": "(206) 420-7425"}, {"rating": 4.0, "is_closed": false, "distance": 6168.360428339999, "name": "Ocho", "id": "ocho-seattle", "image_url": "https://s3-media2.fl.yelpcdn.com/bphoto/n9XF-zoQG4YKliHMBgl49Q/o.jpg", "url": "https://www.yelp.com/biz/ocho-seattle?adjust_creative=gBcvfFpabk3CnzmXKdYe3w&utm_campaign=yelp_api_v3&utm_medium=api_v3_business_search&utm_source=gBcvfFpabk3CnzmXKdYe3w", "phone": "+12067840699", "coordinates": {"longitude": -122.38734, "latitude": 47.66849}, "categories": [{"alias": "tapas", "title": "Tapas Bars"}, {"alias": "cocktailbars", "title": "Cocktail Bars"}, {"alias": "breakfast_brunch", "title": "Breakfast & Brunch"}], "review_count": 511, "location": {"city": "Seattle", "address1": "2325 NW Market St", "address3": "", "address2": "", "zip_code": "98107", "country": "US", "display_address": ["2325 NW Market St", "Seattle, WA 98107"], "state": "WA"}, "price": "$$", "transactions": [], "display_phone": "(206) 784-0699"}, {"rating": 4.0, "is_closed": false, "distance": 4493.3955664899995, "name": "The Dish", "id": "the-dish-seattle", "image_url": "https://s3-media1.fl.yelpcdn.com/bphoto/xOtYCrRGCqiHIRFY639KNA/o.jpg", "url": "https://www.yelp.com/biz/the-dish-seattle?adjust_creative=gBcvfFpabk3CnzmXKdYe3w&utm_campaign=yelp_api_v3&utm_medium=api_v3_business_search&utm_source=gBcvfFpabk3CnzmXKdYe3w", "phone": "+12067829985", "coordinates": {"longitude": -122.36567, "latitude": 47.66027}, "categories": [{"alias": "tradamerican", "title": "American (Traditional)"}, {"alias": "breakfast_brunch", "title": "Breakfast & Brunch"}], "review_count": 419, "location": {"city": "Seattle", "address1": "4358 Leary Way NW", "address3": "", "address2": "", "zip_code": "98107", "country": "US", "display_address": ["4358 Leary Way NW", "Seattle, WA 98107"], "state": "WA"}, "price": "$$", "transactions": [], "display_phone": "(206) 782-9985"}, {"rating": 3.5, "is_closed": false, "distance": 1473.331618854, "name": "Linda's Tavern", "id": "lindas-tavern-seattle", "image_url": "https://s3-media2.fl.yelpcdn.com/bphoto/CMqBwGzuc2sMWrBwnx5vLQ/o.jpg", "url": "https://www.yelp.com/biz/lindas-tavern-seattle?adjust_creative=gBcvfFpabk3CnzmXKdYe3w&utm_campaign=yelp_api_v3&utm_medium=api_v3_business_search&utm_source=gBcvfFpabk3CnzmXKdYe3w", "phone": "+12063251220", "coordinates": {"longitude": -122.3229372, "latitude": 47.6152355}, "categories": [{"alias": "bars", "title": "Bars"}, {"alias": "tradamerican", "title": "American (Traditional)"}, {"alias": "breakfast_brunch", "title": "Breakfast & Brunch"}], "review_count": 511, "location": {"city": "Seattle", "address1": "707 E Pine St", "address3": "", "address2": "", "zip_code": "98122", "country": "US", "display_address": ["707 E Pine St", "Seattle, WA 98122"], "state": "WA"}, "price": "$", "transactions": [], "display_phone": "(206) 325-1220"}, {"rating": 4.0, "is_closed": false, "distance": 6435.310666443999, "name": "Kimchi House", "id": "kimchi-house-seattle", "image_url": "https://s3-media4.fl.yelpcdn.com/bphoto/nOzUL56dCWAie175bxBtuA/o.jpg", "url": "https://www.yelp.com/biz/kimchi-house-seattle?adjust_creative=gBcvfFpabk3CnzmXKdYe3w&utm_campaign=yelp_api_v3&utm_medium=api_v3_business_search&utm_source=gBcvfFpabk3CnzmXKdYe3w", "phone": "+12067845322", "coordinates": {"longitude": -122.3878017, "latitude": 47.6713381}, "categories": [{"alias": "korean", "title": "Korean"}, {"alias": "sandwiches", "title": "Sandwiches"}], "review_count": 155, "location": {"city": "Seattle", "address1": "5809 24th Ave NW", "address3": "", "address2": "", "zip_code": "98107", "country": "US", "display_address": ["5809 24th Ave NW", "Seattle, WA 98107"], "state": "WA"}, "price": "$", "transactions": [], "display_phone": "(206) 784-5322"}, {"rating": 5.0, "is_closed": false, "distance": 7189.95658562, "name": "Thunderbird Tavern", "id": "thunderbird-tavern-seattle", "image_url": "https://s3-media3.fl.yelpcdn.com/bphoto/PuJlhoII2fCkM8TeZCveNw/o.jpg", "url": "https://www.yelp.com/biz/thunderbird-tavern-seattle?adjust_creative=gBcvfFpabk3CnzmXKdYe3w&utm_campaign=yelp_api_v3&utm_medium=api_v3_business_search&utm_source=gBcvfFpabk3CnzmXKdYe3w", "phone": "+12067812473", "coordinates": {"longitude": -122.37701, "latitude": 47.68371}, "categories": [{"alias": "divebars", "title": "Dive Bars"}], "review_count": 14, "location": {"city": "Seattle", "address1": "7515 15th Ave NW", "address3": "", "address2": "", "zip_code": "98117", "country": "US", "display_address": ["7515 15th Ave NW", "Seattle, WA 98117"], "state": "WA"}, "price": "$", "transactions": [], "display_phone": "(206) 781-2473"}, {"rating": 4.0, "is_closed": false, "distance": 1689.789619128, "name": "Pita Bite", "id": "pita-bite-seattle", "image_url": "https://s3-media4.fl.yelpcdn.com/bphoto/ndCC3nmIFdWybB7l0ynKCg/o.jpg", "url": "https://www.yelp.com/biz/pita-bite-seattle?adjust_creative=gBcvfFpabk3CnzmXKdYe3w&utm_campaign=yelp_api_v3&utm_medium=api_v3_business_search&utm_source=gBcvfFpabk3CnzmXKdYe3w", "phone": "+12066217482", "coordinates": {"longitude": -122.339097, "latitude": 47.610416}, "categories": [{"alias": "sandwiches", "title": "Sandwiches"}, {"alias": "greek", "title": "Greek"}, {"alias": "halal", "title": "Halal"}], "review_count": 73, "location": {"city": "Seattle", "address1": "215 Pine St", "address3": "", "address2": "", "zip_code": "98101", "country": "US", "display_address": ["215 Pine St", "Seattle, WA 98101"], "state": "WA"}, "price": "$", "transactions": ["delivery", "pickup"], "display_phone": "(206) 621-7482"}, {"rating": 4.0, "is_closed": false, "distance": 6039.394840902, "name": "Mai Thaiku", "id": "mai-thaiku-seattle", "image_url": "https://s3-media1.fl.yelpcdn.com/bphoto/9qSLQ4tzOxxU73J8A3iR9A/o.jpg", "url": "https://www.yelp.com/biz/mai-thaiku-seattle?adjust_creative=gBcvfFpabk3CnzmXKdYe3w&utm_campaign=yelp_api_v3&utm_medium=api_v3_business_search&utm_source=gBcvfFpabk3CnzmXKdYe3w", "phone": "+12067067807", "coordinates": {"longitude": -122.3553749, "latitude": 47.6780594}, "categories": [{"alias": "thai", "title": "Thai"}], "review_count": 183, "location": {"city": "Seattle", "address1": "6705 Greenwood Ave N", "address3": "", "address2": "", "zip_code": "98103", "country": "US", "display_address": ["6705 Greenwood Ave N", "Seattle, WA 98103"], "state": "WA"}, "price": "$$", "transactions": [], "display_phone": "(206) 706-7807"}, {"rating": 4.0, "is_closed": false, "distance": 6203.521932395999, "name": "8 Oz Burger & Co", "id": "8-oz-burger-and-co-seattle-2", "image_url": "https://s3-media3.fl.yelpcdn.com/bphoto/ehFhbKLa0OKn6iVaVV30fg/o.jpg", "url": "https://www.yelp.com/biz/8-oz-burger-and-co-seattle-2?adjust_creative=gBcvfFpabk3CnzmXKdYe3w&utm_campaign=yelp_api_v3&utm_medium=api_v3_business_search&utm_source=gBcvfFpabk3CnzmXKdYe3w", "phone": "+12067822491", "coordinates": {"longitude": -122.38816, "latitude": 47.66844}, "categories": [{"alias": "burgers", "title": "Burgers"}], "review_count": 254, "location": {"city": "Seattle", "address1": "2409 NW Market St", "address3": "", "address2": "", "zip_code": "98107", "country": "US", "display_address": ["2409 NW Market St", "Seattle, WA 98107"], "state": "WA"}, "price": "$$", "transactions": [], "display_phone": "(206) 782-2491"}, {"rating": 4.0, "is_closed": false, "distance": 5675.709267539999, "name": "Bol Pho Bistro", "id": "bol-pho-bistro-seattle", "image_url": "https://s3-media2.fl.yelpcdn.com/bphoto/4c_aqiXOjYOkLNh1g0s1pA/o.jpg", "url": "https://www.yelp.com/biz/bol-pho-bistro-seattle?adjust_creative=gBcvfFpabk3CnzmXKdYe3w&utm_campaign=yelp_api_v3&utm_medium=api_v3_business_search&utm_source=gBcvfFpabk3CnzmXKdYe3w", "phone": "+12063974782", "coordinates": {"longitude": -122.317849110312, "latitude": 47.6750566807395}, "categories": [{"alias": "vietnamese", "title": "Vietnamese"}, {"alias": "noodles", "title": "Noodles"}, {"alias": "salad", "title": "Salad"}], "review_count": 290, "location": {"city": "Seattle", "address1": "918 NE 64th St", "address3": "", "address2": "", "zip_code": "98115", "country": "US", "display_address": ["918 NE 64th St", "Seattle, WA 98115"], "state": "WA"}, "price": "$$", "transactions": ["pickup"], "display_phone": "(206) 397-4782"}, {"rating": 4.5, "is_closed": false, "distance": 8302.674700238, "name": "Warren G Magnuson Park", "id": "warren-g-magnuson-park-seattle", "image_url": "https://s3-media1.fl.yelpcdn.com/bphoto/JqwTWEPCC7sgsOvfiRTozg/o.jpg", "url": "https://www.yelp.com/biz/warren-g-magnuson-park-seattle?adjust_creative=gBcvfFpabk3CnzmXKdYe3w&utm_campaign=yelp_api_v3&utm_medium=api_v3_business_search&utm_source=gBcvfFpabk3CnzmXKdYe3w", "phone": "+12066844946", "coordinates": {"longitude": -122.263281047344, "latitude": 47.682060089922}, "categories": [{"alias": "parks", "title": "Parks"}], "review_count": 108, "location": {"city": "Seattle", "address1": "7400 Sand Point Way NE", "address3": "", "address2": null, "zip_code": "98115", "country": "US", "display_address": ["7400 Sand Point Way NE", "Seattle, WA 98115"], "state": "WA"}, "transactions": [], "display_phone": "(206) 684-4946"}, {"rating": 3.5, "is_closed": false, "distance": 1715.6105138239998, "name": "Coastal Kitchen", "id": "coastal-kitchen-seattle", "image_url": "https://s3-media2.fl.yelpcdn.com/bphoto/ZrnLYAtEIol6QLqGoeyxzg/o.jpg", "url": "https://www.yelp.com/biz/coastal-kitchen-seattle?adjust_creative=gBcvfFpabk3CnzmXKdYe3w&utm_campaign=yelp_api_v3&utm_medium=api_v3_business_search&utm_source=gBcvfFpabk3CnzmXKdYe3w", "phone": "+12063221145", "coordinates": {"longitude": -122.31281, "latitude": 47.62277}, "categories": [{"alias": "breakfast_brunch", "title": "Breakfast & Brunch"}, {"alias": "seafood", "title": "Seafood"}], "review_count": 861, "location": {"city": "Seattle", "address1": "429 15th Ave E", "address3": "", "address2": "", "zip_code": "98112", "country": "US", "display_address": ["429 15th Ave E", "Seattle, WA 98112"], "state": "WA"}, "price": "$$", "transactions": [], "display_phone": "(206) 322-1145"}, {"rating": 4.0, "is_closed": false, "distance": 1210.54232932, "name": "Le Faux", "id": "le-faux-seattle-3", "image_url": "https://s3-media3.fl.yelpcdn.com/bphoto/rp1qF4_DgMvhFlfcxyB48g/o.jpg", "url": "https://www.yelp.com/biz/le-faux-seattle-3?adjust_creative=gBcvfFpabk3CnzmXKdYe3w&utm_campaign=yelp_api_v3&utm_medium=api_v3_business_search&utm_source=gBcvfFpabk3CnzmXKdYe3w", "phone": "+12063340513", "coordinates": {"longitude": -122.3205877, "latitude": 47.6212525}, "categories": [{"alias": "theater", "title": "Performing Arts"}, {"alias": "bars", "title": "Bars"}, {"alias": "cabaret", "title": "Cabaret"}], "review_count": 102, "location": {"city": "Seattle", "address1": "300 Broadway E", "address3": "Julia's on Broadway", "address2": "", "zip_code": "98122", "country": "US", "display_address": ["300 Broadway E", "Julia's on Broadway", "Seattle, WA 98122"], "state": "WA"}, "price": "$$", "transactions": [], "display_phone": "(206) 334-0513"}, {"rating": 3.5, "is_closed": false, "distance": 2261.68114098, "name": "BOKA Restaurant + Bar", "id": "boka-restaurant-bar-seattle-3", "image_url": "https://s3-media2.fl.yelpcdn.com/bphoto/jwj1-NW5Oj_i2wkqa2PcOw/o.jpg", "url": "https://www.yelp.com/biz/boka-restaurant-bar-seattle-3?adjust_creative=gBcvfFpabk3CnzmXKdYe3w&utm_campaign=yelp_api_v3&utm_medium=api_v3_business_search&utm_source=gBcvfFpabk3CnzmXKdYe3w", "phone": "+12063579000", "coordinates": {"longitude": -122.336081, "latitude": 47.605085}, "categories": [{"alias": "newamerican", "title": "American (New)"}, {"alias": "breakfast_brunch", "title": "Breakfast & Brunch"}, {"alias": "cocktailbars", "title": "Cocktail Bars"}], "review_count": 687, "location": {"city": "Seattle", "address1": "1010 1st Ave", "address3": "", "address2": null, "zip_code": "98104", "country": "US", "display_address": ["1010 1st Ave", "Seattle, WA 98104"], "state": "WA"}, "price": "$$", "transactions": [], "display_phone": "(206) 357-9000"}, {"rating": 3.5, "is_closed": false, "distance": 1786.928898726, "name": "Cutters Crabhouse", "id": "cutters-crabhouse-seattle", "image_url": "https://s3-media2.fl.yelpcdn.com/bphoto/5Oi5SU0NhjK3ECqZZula1w/o.jpg", "url": "https://www.yelp.com/biz/cutters-crabhouse-seattle?adjust_creative=gBcvfFpabk3CnzmXKdYe3w&utm_campaign=yelp_api_v3&utm_medium=api_v3_business_search&utm_source=gBcvfFpabk3CnzmXKdYe3w", "phone": "+12064484884", "coordinates": {"longitude": -122.34439, "latitude": 47.61052}, "categories": [{"alias": "seafood", "title": "Seafood"}, {"alias": "steak", "title": "Steakhouses"}, {"alias": "tradamerican", "title": "American (Traditional)"}], "review_count": 887, "location": {"city": "Seattle", "address1": "2001 Western Ave", "address3": "", "address2": "", "zip_code": "98121", "country": "US", "display_address": ["2001 Western Ave", "Seattle, WA 98121"], "state": "WA"}, "price": "$$", "transactions": [], "display_phone": "(206) 448-4884"}, {"rating": 3.5, "is_closed": false, "distance": 421.76391808399995, "name": "Portage Bay Cafe - South Lake Union", "id": "portage-bay-cafe-south-lake-union-seattle", "image_url": "https://s3-media2.fl.yelpcdn.com/bphoto/anWlmCTyukEZrt_yMaXrPQ/o.jpg", "url": "https://www.yelp.com/biz/portage-bay-cafe-south-lake-union-seattle?adjust_creative=gBcvfFpabk3CnzmXKdYe3w&utm_campaign=yelp_api_v3&utm_medium=api_v3_business_search&utm_source=gBcvfFpabk3CnzmXKdYe3w", "phone": "+12064626400", "coordinates": {"longitude": -122.337210103869, "latitude": 47.621810361743}, "categories": [{"alias": "breakfast_brunch", "title": "Breakfast & Brunch"}, {"alias": "newamerican", "title": "American (New)"}, {"alias": "cafes", "title": "Cafes"}], "review_count": 1289, "location": {"city": "Seattle", "address1": "391 Terry Ave N", "address3": "", "address2": "", "zip_code": "98109", "country": "US", "display_address": ["391 Terry Ave N", "Seattle, WA 98109"], "state": "WA"}, "price": "$$", "transactions": [], "display_phone": "(206) 462-6400"}, {"rating": 4.0, "is_closed": false, "distance": 4801.87224835, "name": "Kisaku Sushi", "id": "kisaku-sushi-seattle", "image_url": "https://s3-media3.fl.yelpcdn.com/bphoto/Neiez5TkFIXDDbch8wRX3A/o.jpg", "url": "https://www.yelp.com/biz/kisaku-sushi-seattle?adjust_creative=gBcvfFpabk3CnzmXKdYe3w&utm_campaign=yelp_api_v3&utm_medium=api_v3_business_search&utm_source=gBcvfFpabk3CnzmXKdYe3w", "phone": "+12065459050", "coordinates": {"longitude": -122.333174272694, "latitude": 47.6685751279974}, "categories": [{"alias": "sushi", "title": "Sushi Bars"}, {"alias": "japanese", "title": "Japanese"}], "review_count": 570, "location": {"city": "Seattle", "address1": "2101 N 55th St", "address3": "", "address2": "Ste 100", "zip_code": "98103", "country": "US", "display_address": ["2101 N 55th St", "Ste 100", "Seattle, WA 98103"], "state": "WA"}, "price": "$$", "transactions": [], "display_phone": "(206) 545-9050"}, {"rating": 4.0, "is_closed": false, "distance": 2860.678615518, "name": "Radici", "id": "radici-seattle", "image_url": "https://s3-media2.fl.yelpcdn.com/bphoto/XRCkJJvwCvN29R4wjwgdMQ/o.jpg", "url": "https://www.yelp.com/biz/radici-seattle?adjust_creative=gBcvfFpabk3CnzmXKdYe3w&utm_campaign=yelp_api_v3&utm_medium=api_v3_business_search&utm_source=gBcvfFpabk3CnzmXKdYe3w", "phone": "+12064674541", "coordinates": {"longitude": -122.331511080265, "latitude": 47.5998343527317}, "categories": [{"alias": "italian", "title": "Italian"}, {"alias": "gluten_free", "title": "Gluten-Free"}], "review_count": 124, "location": {"city": "Seattle", "address1": "314 2nd Ave S", "address3": "", "address2": null, "zip_code": "98104", "country": "US", "display_address": ["314 2nd Ave S", "Seattle, WA 98104"], "state": "WA"}, "price": "$$", "transactions": [], "display_phone": "(206) 467-4541"}, {"rating": 4.0, "is_closed": false, "distance": 1824.2045927399997, "name": "Market Fresh RS", "id": "market-fresh-rs-seattle-2", "image_url": "https://s3-media2.fl.yelpcdn.com/bphoto/f51Wyy37XCE1KwPbhdvctA/o.jpg", "url": "https://www.yelp.com/biz/market-fresh-rs-seattle-2?adjust_creative=gBcvfFpabk3CnzmXKdYe3w&utm_campaign=yelp_api_v3&utm_medium=api_v3_business_search&utm_source=gBcvfFpabk3CnzmXKdYe3w", "phone": "+12066230480", "coordinates": {"longitude": -122.33365139787, "latitude": 47.6090633903158}, "categories": [{"alias": "buffets", "title": "Buffets"}, {"alias": "salad", "title": "Salad"}, {"alias": "breakfast_brunch", "title": "Breakfast & Brunch"}], "review_count": 61, "location": {"city": "Seattle", "address1": "1301 5th Ave", "address3": "", "address2": "", "zip_code": "98101", "country": "US", "display_address": ["1301 5th Ave", "Seattle, WA 98101"], "state": "WA"}, "price": "$", "transactions": [], "display_phone": "(206) 623-0480"}, {"rating": 3.5, "is_closed": false, "distance": 1704.4985039259998, "name": "Loulay Kitchen & Bar", "id": "loulay-kitchen-and-bar-seattle", "image_url": "https://s3-media1.fl.yelpcdn.com/bphoto/o3vTKnNek-lfUsHGtaH4TA/o.jpg", "url": "https://www.yelp.com/biz/loulay-kitchen-and-bar-seattle?adjust_creative=gBcvfFpabk3CnzmXKdYe3w&utm_campaign=yelp_api_v3&utm_medium=api_v3_business_search&utm_source=gBcvfFpabk3CnzmXKdYe3w", "phone": "+12064024588", "coordinates": {"longitude": -122.333461716771, "latitude": 47.610239982605}, "categories": [{"alias": "french", "title": "French"}, {"alias": "bars", "title": "Bars"}, {"alias": "breakfast_brunch", "title": "Breakfast & Brunch"}], "review_count": 414, "location": {"city": "Seattle", "address1": "600 Union St", "address3": "", "address2": "", "zip_code": "98101", "country": "US", "display_address": ["600 Union St", "Seattle, WA 98101"], "state": "WA"}, "price": "$$", "transactions": [], "display_phone": "(206) 402-4588"}, {"rating": 4.5, "is_closed": false, "distance": 1450.668329705, "name": "Craftworks Coffee", "id": "craftworks-coffee-seattle", "image_url": "https://s3-media2.fl.yelpcdn.com/bphoto/PK9x-4boSz9BQOi5NhsCKw/o.jpg", "url": "https://www.yelp.com/biz/craftworks-coffee-seattle?adjust_creative=gBcvfFpabk3CnzmXKdYe3w&utm_campaign=yelp_api_v3&utm_medium=api_v3_business_search&utm_source=gBcvfFpabk3CnzmXKdYe3w", "phone": "+14252380336", "coordinates": {"longitude": -122.35486, "latitude": 47.62343}, "categories": [{"alias": "coffee", "title": "Coffee & Tea"}], "review_count": 39, "location": {"city": "Seattle", "address1": "110 Republican St", "address3": "", "address2": null, "zip_code": "98109", "country": "US", "display_address": ["110 Republican St", "Seattle, WA 98109"], "state": "WA"}, "price": "$", "transactions": [], "display_phone": "(425) 238-0336"}, {"rating": 4.0, "is_closed": false, "distance": 5292.096041628, "name": "Peddler Brewing Company", "id": "peddler-brewing-company-seattle", "image_url": "https://s3-media3.fl.yelpcdn.com/bphoto/5QZ9HgL_pf7y_z8cUADvag/o.jpg", "url": "https://www.yelp.com/biz/peddler-brewing-company-seattle?adjust_creative=gBcvfFpabk3CnzmXKdYe3w&utm_campaign=yelp_api_v3&utm_medium=api_v3_business_search&utm_source=gBcvfFpabk3CnzmXKdYe3w", "phone": "+13603620002", "coordinates": {"longitude": -122.3770908, "latitude": 47.6638963}, "categories": [{"alias": "breweries", "title": "Breweries"}, {"alias": "beerbar", "title": "Beer Bar"}, {"alias": "venues", "title": "Venues & Event Spaces"}], "review_count": 116, "location": {"city": "Seattle", "address1": "1514 NW Leary Way", "address3": "", "address2": null, "zip_code": "98107", "country": "US", "display_address": ["1514 NW Leary Way", "Seattle, WA 98107"], "state": "WA"}, "price": "$", "transactions": [], "display_phone": "(360) 362-0002"}, {"rating": 4.0, "is_closed": false, "distance": 2652.499543006, "name": "Julie's Garden", "id": "julies-garden-seattle", "image_url": "https://s3-media3.fl.yelpcdn.com/bphoto/BaqBCU0wIL09K6yzCaChLg/o.jpg", "url": "https://www.yelp.com/biz/julies-garden-seattle?adjust_creative=gBcvfFpabk3CnzmXKdYe3w&utm_campaign=yelp_api_v3&utm_medium=api_v3_business_search&utm_source=gBcvfFpabk3CnzmXKdYe3w", "phone": "+12062233690", "coordinates": {"longitude": -122.3351543, "latitude": 47.601566}, "categories": [{"alias": "chinese", "title": "Chinese"}, {"alias": "vietnamese", "title": "Vietnamese"}, {"alias": "noodles", "title": "Noodles"}], "review_count": 154, "location": {"city": "Seattle", "address1": "81 Yesler Way", "address3": "", "address2": "", "zip_code": "98104", "country": "US", "display_address": ["81 Yesler Way", "Seattle, WA 98104"], "state": "WA"}, "price": "$", "transactions": ["pickup"], "display_phone": "(206) 223-3690"}, {"rating": 4.0, "is_closed": false, "distance": 6824.229242599999, "name": "Pete's Egg Nest", "id": "petes-egg-nest-seattle", "image_url": "https://s3-media3.fl.yelpcdn.com/bphoto/uStRJSxFH369F9AMNF6VQQ/o.jpg", "url": "https://www.yelp.com/biz/petes-egg-nest-seattle?adjust_creative=gBcvfFpabk3CnzmXKdYe3w&utm_campaign=yelp_api_v3&utm_medium=api_v3_business_search&utm_source=gBcvfFpabk3CnzmXKdYe3w", "phone": "+12067845348", "coordinates": {"longitude": -122.35554, "latitude": 47.6853}, "categories": [{"alias": "breakfast_brunch", "title": "Breakfast & Brunch"}], "review_count": 573, "location": {"city": "Seattle", "address1": "7717 Greenwood Ave N", "address3": "", "address2": "", "zip_code": "98103", "country": "US", "display_address": ["7717 Greenwood Ave N", "Seattle, WA 98103"], "state": "WA"}, "price": "$$", "transactions": [], "display_phone": "(206) 784-5348"}, {"rating": 4.0, "is_closed": false, "distance": 6360.911200111999, "name": "El Cami\u00f3n", "id": "el-cami\u00f3n-seattle-7", "image_url": "https://s3-media1.fl.yelpcdn.com/bphoto/V1HQMRrGDOtK8ShhnR4RgQ/o.jpg", "url": "https://www.yelp.com/biz/el-cami%C3%B3n-seattle-7?adjust_creative=gBcvfFpabk3CnzmXKdYe3w&utm_campaign=yelp_api_v3&utm_medium=api_v3_business_search&utm_source=gBcvfFpabk3CnzmXKdYe3w", "phone": "+12067845411", "coordinates": {"longitude": -122.375950636922, "latitude": 47.6757183480542}, "categories": [{"alias": "mexican", "title": "Mexican"}], "review_count": 640, "location": {"city": "Seattle", "address1": "6416 15th Ave NW", "address3": "", "address2": "", "zip_code": "98107", "country": "US", "display_address": ["6416 15th Ave NW", "Seattle, WA 98107"], "state": "WA"}, "price": "$", "transactions": [], "display_phone": "(206) 784-5411"}, {"rating": 3.5, "is_closed": false, "distance": 3055.010765736, "name": "Chiso Restaurant", "id": "chiso-restaurant-seattle", "image_url": "https://s3-media4.fl.yelpcdn.com/bphoto/I_Oc0rzFfhpZjjEyfFrUlg/o.jpg", "url": "https://www.yelp.com/biz/chiso-restaurant-seattle?adjust_creative=gBcvfFpabk3CnzmXKdYe3w&utm_campaign=yelp_api_v3&utm_medium=api_v3_business_search&utm_source=gBcvfFpabk3CnzmXKdYe3w", "phone": "+12066323430", "coordinates": {"longitude": -122.34968, "latitude": 47.65113}, "categories": [{"alias": "sushi", "title": "Sushi Bars"}, {"alias": "japanese", "title": "Japanese"}], "review_count": 478, "location": {"city": "Seattle", "address1": "3520 Fremont Ave N", "address3": "", "address2": "", "zip_code": "98103", "country": "US", "display_address": ["3520 Fremont Ave N", "Seattle, WA 98103"], "state": "WA"}, "price": "$$", "transactions": [], "display_phone": "(206) 632-3430"}, {"rating": 4.0, "is_closed": false, "distance": 5804.45646754, "name": "Teddy's Tavern", "id": "teddys-tavern-seattle", "image_url": "https://s3-media2.fl.yelpcdn.com/bphoto/etLIq54pE1M4ZwOtbBacIg/o.jpg", "url": "https://www.yelp.com/biz/teddys-tavern-seattle?adjust_creative=gBcvfFpabk3CnzmXKdYe3w&utm_campaign=yelp_api_v3&utm_medium=api_v3_business_search&utm_source=gBcvfFpabk3CnzmXKdYe3w", "phone": "+12065224950", "coordinates": {"longitude": -122.31677, "latitude": 47.67602}, "categories": [{"alias": "pubs", "title": "Pubs"}], "review_count": 107, "location": {"city": "Seattle", "address1": "1012 NE 65th St", "address3": "", "address2": "", "zip_code": "98115", "country": "US", "display_address": ["1012 NE 65th St", "Seattle, WA 98115"], "state": "WA"}, "price": "$", "transactions": [], "display_phone": "(206) 522-4950"}, {"rating": 4.0, "is_closed": false, "distance": 2156.202422436, "name": "Grappa", "id": "grappa-seattle", "image_url": "https://s3-media2.fl.yelpcdn.com/bphoto/-B5Fr33koGwUbzEUajlxew/o.jpg", "url": "https://www.yelp.com/biz/grappa-seattle?adjust_creative=gBcvfFpabk3CnzmXKdYe3w&utm_campaign=yelp_api_v3&utm_medium=api_v3_business_search&utm_source=gBcvfFpabk3CnzmXKdYe3w", "phone": "+12064661027", "coordinates": {"longitude": -122.35676, "latitude": 47.63857}, "categories": [{"alias": "mediterranean", "title": "Mediterranean"}, {"alias": "lounges", "title": "Lounges"}, {"alias": "wine_bars", "title": "Wine Bars"}], "review_count": 95, "location": {"city": "Seattle", "address1": "2 Boston St", "address3": "", "address2": null, "zip_code": "98109", "country": "US", "display_address": ["2 Boston St", "Seattle, WA 98109"], "state": "WA"}, "price": "$$", "transactions": [], "display_phone": "(206) 466-1027"}, {"rating": 4.0, "is_closed": false, "distance": 3769.640284878, "name": "Restaurant Roux", "id": "restaurant-roux-seattle", "image_url": "https://s3-media2.fl.yelpcdn.com/bphoto/3AjvbrlYpiCo3c3l4r0RsA/o.jpg", "url": "https://www.yelp.com/biz/restaurant-roux-seattle?adjust_creative=gBcvfFpabk3CnzmXKdYe3w&utm_campaign=yelp_api_v3&utm_medium=api_v3_business_search&utm_source=gBcvfFpabk3CnzmXKdYe3w", "phone": "+12065475420", "coordinates": {"longitude": -122.35019632992, "latitude": 47.6578443872883}, "categories": [{"alias": "cajun", "title": "Cajun/Creole"}, {"alias": "southern", "title": "Southern"}, {"alias": "soulfood", "title": "Soul Food"}], "review_count": 524, "location": {"city": "Seattle", "address1": "4201 Fremont Ave N", "address3": "", "address2": "", "zip_code": "98103", "country": "US", "display_address": ["4201 Fremont Ave N", "Seattle, WA 98103"], "state": "WA"}, "price": "$$", "transactions": [], "display_phone": "(206) 547-5420"}, {"rating": 3.5, "is_closed": false, "distance": 1646.262122016, "name": "Capitol Cider", "id": "capitol-cider-seattle", "image_url": "https://s3-media4.fl.yelpcdn.com/bphoto/LOR5msF1hfK9cmOgBpMCBg/o.jpg", "url": "https://www.yelp.com/biz/capitol-cider-seattle?adjust_creative=gBcvfFpabk3CnzmXKdYe3w&utm_campaign=yelp_api_v3&utm_medium=api_v3_business_search&utm_source=gBcvfFpabk3CnzmXKdYe3w", "phone": "+12063973564", "coordinates": {"longitude": -122.3211482, "latitude": 47.6142164}, "categories": [{"alias": "pubs", "title": "Pubs"}, {"alias": "cocktailbars", "title": "Cocktail Bars"}, {"alias": "gluten_free", "title": "Gluten-Free"}], "review_count": 529, "location": {"city": "Seattle", "address1": "818 E Pike St", "address3": "", "address2": "", "zip_code": "98122", "country": "US", "display_address": ["818 E Pike St", "Seattle, WA 98122"], "state": "WA"}, "price": "$$", "transactions": ["pickup"], "display_phone": "(206) 397-3564"}, {"rating": 4.0, "is_closed": false, "distance": 1123.540121448, "name": "The Crescent Lounge", "id": "the-crescent-lounge-seattle", "image_url": "https://s3-media1.fl.yelpcdn.com/bphoto/vSoMs9lZZ1--ECLVW8EJ4A/o.jpg", "url": "https://www.yelp.com/biz/the-crescent-lounge-seattle?adjust_creative=gBcvfFpabk3CnzmXKdYe3w&utm_campaign=yelp_api_v3&utm_medium=api_v3_business_search&utm_source=gBcvfFpabk3CnzmXKdYe3w", "phone": "+12066594476", "coordinates": {"longitude": -122.326286, "latitude": 47.617456}, "categories": [{"alias": "karaoke", "title": "Karaoke"}, {"alias": "gaybars", "title": "Gay Bars"}], "review_count": 166, "location": {"city": "Seattle", "address1": "1413 E Olive Way", "address3": "", "address2": "", "zip_code": "98122", "country": "US", "display_address": ["1413 E Olive Way", "Seattle, WA 98122"], "state": "WA"}, "price": "$", "transactions": [], "display_phone": "(206) 659-4476"}, {"rating": 3.5, "is_closed": false, "distance": 2498.187816172, "name": "Ba Bar", "id": "ba-bar-seattle", "image_url": "https://s3-media2.fl.yelpcdn.com/bphoto/8FPjBmEo__mlZfBgTrBjFg/o.jpg", "url": "https://www.yelp.com/biz/ba-bar-seattle?adjust_creative=gBcvfFpabk3CnzmXKdYe3w&utm_campaign=yelp_api_v3&utm_medium=api_v3_business_search&utm_source=gBcvfFpabk3CnzmXKdYe3w", "phone": "+12063282030", "coordinates": {"longitude": -122.3164825, "latitude": 47.6069908}, "categories": [{"alias": "vietnamese", "title": "Vietnamese"}, {"alias": "bars", "title": "Bars"}, {"alias": "bakeries", "title": "Bakeries"}], "review_count": 920, "location": {"city": "Seattle", "address1": "550 12th Ave", "address3": "", "address2": "", "zip_code": "98122", "country": "US", "display_address": ["550 12th Ave", "Seattle, WA 98122"], "state": "WA"}, "price": "$$", "transactions": [], "display_phone": "(206) 328-2030"}, {"rating": 5.0, "is_closed": false, "distance": 4651.94371994, "name": "Street Bean Coffee", "id": "street-bean-coffee-seattle-3", "image_url": "https://s3-media4.fl.yelpcdn.com/bphoto/6Yngy0tTb0Zz743lLZFWcg/o.jpg", "url": "https://www.yelp.com/biz/street-bean-coffee-seattle-3?adjust_creative=gBcvfFpabk3CnzmXKdYe3w&utm_campaign=yelp_api_v3&utm_medium=api_v3_business_search&utm_source=gBcvfFpabk3CnzmXKdYe3w", "phone": "+12067086803", "coordinates": {"longitude": -122.317479103804, "latitude": 47.6656094938517}, "categories": [{"alias": "coffee", "title": "Coffee & Tea"}, {"alias": "coffeeroasteries", "title": "Coffee Roasteries"}], "review_count": 10, "location": {"city": "Seattle", "address1": "5015 Roosevelt Way NE", "address3": "", "address2": null, "zip_code": "98105", "country": "US", "display_address": ["5015 Roosevelt Way NE", "Seattle, WA 98105"], "state": "WA"}, "price": "$", "transactions": [], "display_phone": "(206) 708-6803"}, {"rating": 4.0, "is_closed": false, "distance": 1789.308146982, "name": "Kanak Cuisine of India", "id": "kanak-cuisine-of-india-seattle", "image_url": "https://s3-media3.fl.yelpcdn.com/bphoto/USI8IjIQH8uvs56rnmuHug/o.jpg", "url": "https://www.yelp.com/biz/kanak-cuisine-of-india-seattle?adjust_creative=gBcvfFpabk3CnzmXKdYe3w&utm_campaign=yelp_api_v3&utm_medium=api_v3_business_search&utm_source=gBcvfFpabk3CnzmXKdYe3w", "phone": "+12069069968", "coordinates": {"longitude": -122.31229, "latitude": 47.62167}, "categories": [{"alias": "indpak", "title": "Indian"}], "review_count": 107, "location": {"city": "Seattle", "address1": "340 15th Ave E", "address3": "", "address2": "", "zip_code": "98112", "country": "US", "display_address": ["340 15th Ave E", "Seattle, WA 98112"], "state": "WA"}, "price": "$$", "transactions": ["pickup", "delivery"], "display_phone": "(206) 906-9968"}, {"rating": 3.5, "is_closed": false, "distance": 2879.76748006, "name": "Fuji Sushi", "id": "fuji-sushi-seattle", "image_url": "https://s3-media4.fl.yelpcdn.com/bphoto/OpP2IoHOZAqX0OCqWJs4-A/o.jpg", "url": "https://www.yelp.com/biz/fuji-sushi-seattle?adjust_creative=gBcvfFpabk3CnzmXKdYe3w&utm_campaign=yelp_api_v3&utm_medium=api_v3_business_search&utm_source=gBcvfFpabk3CnzmXKdYe3w", "phone": "+12066241201", "coordinates": {"longitude": -122.326736450195, "latitude": 47.6002044677734}, "categories": [{"alias": "sushi", "title": "Sushi Bars"}, {"alias": "japanese", "title": "Japanese"}], "review_count": 375, "location": {"city": "Seattle", "address1": "520 S Main St", "address3": "", "address2": "", "zip_code": "98104", "country": "US", "display_address": ["520 S Main St", "Seattle, WA 98104"], "state": "WA"}, "price": "$$", "transactions": ["pickup", "delivery"], "display_phone": "(206) 624-1201"}, {"rating": 4.0, "is_closed": false, "distance": 2808.736362348, "name": "The Berliner D\u00f6ner Kebab", "id": "the-berliner-d\u00f6ner-kebab-seattle-3", "image_url": "https://s3-media2.fl.yelpcdn.com/bphoto/k8Svfe3Onqsu9TRL76VK6g/o.jpg", "url": "https://www.yelp.com/biz/the-berliner-d%C3%B6ner-kebab-seattle-3?adjust_creative=gBcvfFpabk3CnzmXKdYe3w&utm_campaign=yelp_api_v3&utm_medium=api_v3_business_search&utm_source=gBcvfFpabk3CnzmXKdYe3w", "phone": "+12068380339", "coordinates": {"longitude": -122.3345795, "latitude": 47.6002007}, "categories": [{"alias": "sandwiches", "title": "Sandwiches"}, {"alias": "german", "title": "German"}, {"alias": "turkish", "title": "Turkish"}], "review_count": 191, "location": {"city": "Seattle", "address1": "221 1st Ave S", "address3": "", "address2": "", "zip_code": "98104", "country": "US", "display_address": ["221 1st Ave S", "Seattle, WA 98104"], "state": "WA"}, "price": "$", "transactions": [], "display_phone": "(206) 838-0339"}, {"rating": 4.5, "is_closed": false, "distance": 8293.87531192, "name": "Billiard Hoang", "id": "billiard-hoang-seattle-2", "image_url": "https://s3-media3.fl.yelpcdn.com/bphoto/HHwcDHWVTaJMUMSEd8aS4g/o.jpg", "url": "https://www.yelp.com/biz/billiard-hoang-seattle-2?adjust_creative=gBcvfFpabk3CnzmXKdYe3w&utm_campaign=yelp_api_v3&utm_medium=api_v3_business_search&utm_source=gBcvfFpabk3CnzmXKdYe3w", "phone": "+12067232054", "coordinates": {"longitude": -122.29015, "latitude": 47.5573}, "categories": [{"alias": "vietnamese", "title": "Vietnamese"}, {"alias": "poolhalls", "title": "Pool Halls"}, {"alias": "sandwiches", "title": "Sandwiches"}], "review_count": 78, "location": {"city": "Seattle", "address1": "3220 S Hudson St", "address3": "", "address2": "", "zip_code": "98118", "country": "US", "display_address": ["3220 S Hudson St", "Seattle, WA 98118"], "state": "WA"}, "price": "$", "transactions": [], "display_phone": "(206) 723-2054"}, {"rating": 4.5, "is_closed": false, "distance": 2664.2791071359998, "name": "Pink's Ice Cream", "id": "pinks-ice-cream-seattle", "image_url": "https://s3-media3.fl.yelpcdn.com/bphoto/FYT5YzbxP-w5wLzJjTjxMw/o.jpg", "url": "https://www.yelp.com/biz/pinks-ice-cream-seattle?adjust_creative=gBcvfFpabk3CnzmXKdYe3w&utm_campaign=yelp_api_v3&utm_medium=api_v3_business_search&utm_source=gBcvfFpabk3CnzmXKdYe3w", "phone": "+13235190211", "coordinates": {"longitude": -122.32879, "latitude": 47.60209}, "categories": [{"alias": "icecream", "title": "Ice Cream & Frozen Yogurt"}, {"alias": "foodstands", "title": "Food Stands"}], "review_count": 15, "location": {"city": "Seattle", "address1": "", "address3": "", "address2": "", "zip_code": "98104", "country": "US", "display_address": ["Seattle, WA 98104"], "state": "WA"}, "price": "$", "transactions": [], "display_phone": "(323) 519-0211"}, {"rating": 3.5, "is_closed": false, "distance": 1850.2662446999998, "name": "Wild Ginger", "id": "wild-ginger-seattle", "image_url": "https://s3-media2.fl.yelpcdn.com/bphoto/U9mjgOnDgxHq-TD9llK2Ag/o.jpg", "url": "https://www.yelp.com/biz/wild-ginger-seattle?adjust_creative=gBcvfFpabk3CnzmXKdYe3w&utm_campaign=yelp_api_v3&utm_medium=api_v3_business_search&utm_source=gBcvfFpabk3CnzmXKdYe3w", "phone": "+12066234450", "coordinates": {"longitude": -122.337421, "latitude": 47.608831}, "categories": [{"alias": "thai", "title": "Thai"}, {"alias": "chinese", "title": "Chinese"}, {"alias": "panasian", "title": "Pan Asian"}], "review_count": 1224, "location": {"city": "Seattle", "address1": "1401 3rd Ave", "address3": "", "address2": "", "zip_code": "98101", "country": "US", "display_address": ["1401 3rd Ave", "Seattle, WA 98101"], "state": "WA"}, "price": "$$", "transactions": [], "display_phone": "(206) 623-4450"}, {"rating": 4.0, "is_closed": false, "distance": 5711.015451261999, "name": "Macleod's Fish & Chips Scottish Pub", "id": "macleods-fish-and-chips-scottish-pub-seattle", "image_url": "https://s3-media3.fl.yelpcdn.com/bphoto/_5Ttnl5x7lBcKsNAZvcjqg/o.jpg", "url": "https://www.yelp.com/biz/macleods-fish-and-chips-scottish-pub-seattle?adjust_creative=gBcvfFpabk3CnzmXKdYe3w&utm_campaign=yelp_api_v3&utm_medium=api_v3_business_search&utm_source=gBcvfFpabk3CnzmXKdYe3w", "phone": "+12066877115", "coordinates": {"longitude": -122.38233, "latitude": 47.6659}, "categories": [{"alias": "pubs", "title": "Pubs"}, {"alias": "scottish", "title": "Scottish"}, {"alias": "fishnchips", "title": "Fish & Chips"}], "review_count": 129, "location": {"city": "Seattle", "address1": "5200 Ballard Ave NW", "address3": "", "address2": null, "zip_code": "98107", "country": "US", "display_address": ["5200 Ballard Ave NW", "Seattle, WA 98107"], "state": "WA"}, "price": "$$", "transactions": [], "display_phone": "(206) 687-7115"}, {"rating": 4.5, "is_closed": false, "distance": 1459.901837488, "name": "Habitant", "id": "habitant-seattle-3", "image_url": "https://s3-media1.fl.yelpcdn.com/bphoto/X4mTOYvfxo9AZFZKDPDgGA/o.jpg", "url": "https://www.yelp.com/biz/habitant-seattle-3?adjust_creative=gBcvfFpabk3CnzmXKdYe3w&utm_campaign=yelp_api_v3&utm_medium=api_v3_business_search&utm_source=gBcvfFpabk3CnzmXKdYe3w", "phone": "+12066281635", "coordinates": {"longitude": -122.336288452148, "latitude": 47.6122932434082}, "categories": [{"alias": "newamerican", "title": "American (New)"}, {"alias": "tapasmallplates", "title": "Tapas/Small Plates"}, {"alias": "tapas", "title": "Tapas Bars"}], "review_count": 29, "location": {"city": "Seattle", "address1": "Nordstrom", "address3": null, "address2": "500 Pine St", "zip_code": "98101", "country": "US", "display_address": ["Nordstrom", "500 Pine St", "Seattle, WA 98101"], "state": "WA"}, "price": "$$", "transactions": [], "display_phone": "(206) 628-1635"}, {"rating": 3.5, "is_closed": false, "distance": 1098.2490858535998, "name": "Rom Mai Thai", "id": "rom-mai-thai-seattle", "image_url": "https://s3-media1.fl.yelpcdn.com/bphoto/DIRjw_jwZRM5jvkJg2SXXw/o.jpg", "url": "https://www.yelp.com/biz/rom-mai-thai-seattle?adjust_creative=gBcvfFpabk3CnzmXKdYe3w&utm_campaign=yelp_api_v3&utm_medium=api_v3_business_search&utm_source=gBcvfFpabk3CnzmXKdYe3w", "phone": "+12067269058", "coordinates": {"longitude": -122.3209299, "latitude": 47.6244253}, "categories": [{"alias": "thai", "title": "Thai"}], "review_count": 409, "location": {"city": "Seattle", "address1": "613 Broadway E", "address3": "", "address2": "", "zip_code": "98102", "country": "US", "display_address": ["613 Broadway E", "Seattle, WA 98102"], "state": "WA"}, "price": "$$", "transactions": [], "display_phone": "(206) 726-9058"}, {"rating": 4.0, "is_closed": false, "distance": 1770.448774324, "name": "Zaina Food Drinks & Friends", "id": "zaina-food-drinks-and-friends-seattle-2", "image_url": "https://s3-media1.fl.yelpcdn.com/bphoto/FX3wgp1qmkz7vp1ZiM0Qkw/o.jpg", "url": "https://www.yelp.com/biz/zaina-food-drinks-and-friends-seattle-2?adjust_creative=gBcvfFpabk3CnzmXKdYe3w&utm_campaign=yelp_api_v3&utm_medium=api_v3_business_search&utm_source=gBcvfFpabk3CnzmXKdYe3w", "phone": "+12066231730", "coordinates": {"longitude": -122.34044, "latitude": 47.60987}, "categories": [{"alias": "mediterranean", "title": "Mediterranean"}, {"alias": "greek", "title": "Greek"}], "review_count": 171, "location": {"city": "Seattle", "address1": "109 Pine St", "address3": "", "address2": "", "zip_code": "98101", "country": "US", "display_address": ["109 Pine St", "Seattle, WA 98101"], "state": "WA"}, "price": "$", "transactions": [], "display_phone": "(206) 623-1730"}, {"rating": 4.0, "is_closed": false, "distance": 5001.587318999999, "name": "Veggie Grill", "id": "veggie-grill-seattle-4", "image_url": "https://s3-media3.fl.yelpcdn.com/bphoto/FSHDlbligsjV7EgjTxOHMA/o.jpg", "url": "https://www.yelp.com/biz/veggie-grill-seattle-4?adjust_creative=gBcvfFpabk3CnzmXKdYe3w&utm_campaign=yelp_api_v3&utm_medium=api_v3_business_search&utm_source=gBcvfFpabk3CnzmXKdYe3w", "phone": "+12065231961", "coordinates": {"longitude": -122.2986458, "latitude": 47.6632151}, "categories": [{"alias": "newamerican", "title": "American (New)"}, {"alias": "vegan", "title": "Vegan"}, {"alias": "vegetarian", "title": "Vegetarian"}], "review_count": 282, "location": {"city": "Seattle", "address1": "2681 NE University Village St", "address3": "", "address2": "", "zip_code": "98105", "country": "US", "display_address": ["2681 NE University Village St", "Seattle, WA 98105"], "state": "WA"}, "price": "$$", "transactions": ["pickup"], "display_phone": "(206) 523-1961"}, {"rating": 4.0, "is_closed": false, "distance": 3282.251665878, "name": "Pho So 1", "id": "pho-so-1-seattle", "image_url": "https://s3-media1.fl.yelpcdn.com/bphoto/pnaZOoIVWLdJ1m6lfRAmCQ/o.jpg", "url": "https://www.yelp.com/biz/pho-so-1-seattle?adjust_creative=gBcvfFpabk3CnzmXKdYe3w&utm_campaign=yelp_api_v3&utm_medium=api_v3_business_search&utm_source=gBcvfFpabk3CnzmXKdYe3w", "phone": "+12068602824", "coordinates": {"longitude": -122.316787719727, "latitude": 47.5989074707031}, "categories": [{"alias": "vietnamese", "title": "Vietnamese"}, {"alias": "noodles", "title": "Noodles"}], "review_count": 137, "location": {"city": "Seattle", "address1": "1207 S Jackson St", "address3": "", "address2": "Ste 107", "zip_code": "98144", "country": "US", "display_address": ["1207 S Jackson St", "Ste 107", "Seattle, WA 98144"], "state": "WA"}, "price": "$", "transactions": [], "display_phone": "(206) 860-2824"}]}