{"total": 36020, "region": {"center": {"longitude": -122.33551025390625, "latitude": 47.62541904760501}}, "businesses": [{"rating": 4.0, "is_closed": false, "distance": 1617.2096726, "name": "Rock Box", "id": "rock-box-seattle", "image_url": "https://s3-media2.fl.yelpcdn.com/bphoto/pFvP0ZCVEmMgqt2S5HOy6Q/o.jpg", "url": "https://www.yelp.com/biz/rock-box-seattle?adjust_creative=gBcvfFpabk3CnzmXKdYe3w&utm_campaign=yelp_api_v3&utm_medium=api_v3_business_search&utm_source=gBcvfFpabk3CnzmXKdYe3w", "phone": "+12063027625", "coordinates": {"longitude": -122.320031, "latitude": 47.615287}, "categories": [{"alias": "karaoke", "title": "Karaoke"}, {"alias": "bars", "title": "Bars"}], "review_count": 412, "location": {"city": "Seattle", "address1": "1603 Nagle Pl", "address3": "", "address2": "", "zip_code": "98122", "country": "US", "display_address": ["1603 Nagle Pl", "Seattle, WA 98122"], "state": "WA"}, "price": "$$", "transactions": [], "display_phone": "(206) 302-7625"}, {"rating": 4.0, "is_closed": false, "distance": 1736.4627322039998, "name": "Biscuit Bitch", "id": "biscuit-bitch-seattle", "image_url": "https://s3-media4.fl.yelpcdn.com/bphoto/z1xwuEXyQyAqmAlJzWH8sg/o.jpg", "url": "https://www.yelp.com/biz/biscuit-bitch-seattle?adjust_creative=gBcvfFpabk3CnzmXKdYe3w&utm_campaign=yelp_api_v3&utm_medium=api_v3_business_search&utm_source=gBcvfFpabk3CnzmXKdYe3w", "phone": "+12064417999", "coordinates": {"longitude": -122.34167, "latitude": 47.61034}, "categories": [{"alias": "breakfast_brunch", "title": "Breakfast & Brunch"}, {"alias": "coffee", "title": "Coffee & Tea"}, {"alias": "sandwiches", "title": "Sandwiches"}], "review_count": 1749, "location": {"city": "Seattle", "address1": "1909 1st Ave", "address3": "", "address2": "", "zip_code": "98101", "country": "US", "display_address": ["1909 1st Ave", "Seattle, WA 98101"], "state": "WA"}, "price": "$", "transactions": [], "display_phone": "(206) 441-7999"}, {"rating": 4.5, "is_closed": false, "distance": 2940.20302508, "name": "Rain Shadow Meats Squared", "id": "rain-shadow-meats-squared-seattle", "image_url": "https://s3-media2.fl.yelpcdn.com/bphoto/tj0ivfk7qRqVwLYtap6-wQ/o.jpg", "url": "https://www.yelp.com/biz/rain-shadow-meats-squared-seattle?adjust_creative=gBcvfFpabk3CnzmXKdYe3w&utm_campaign=yelp_api_v3&utm_medium=api_v3_business_search&utm_source=gBcvfFpabk3CnzmXKdYe3w", "phone": "+12064674854", "coordinates": {"longitude": -122.3327216, "latitude": 47.5990433}, "categories": [{"alias": "sandwiches", "title": "Sandwiches"}, {"alias": "meats", "title": "Meat Shops"}, {"alias": "butcher", "title": "Butcher"}], "review_count": 215, "location": {"city": "Seattle", "address1": "404 Occidental Ave S", "address3": "", "address2": "", "zip_code": "98104", "country": "US", "display_address": ["404 Occidental Ave S", "Seattle, WA 98104"], "state": "WA"}, "price": "$$", "transactions": [], "display_phone": "(206) 467-4854"}, {"rating": 4.5, "is_closed": false, "distance": 2810.415708638, "name": "Waterfall Garden", "id": "waterfall-garden-seattle", "image_url": "https://s3-media1.fl.yelpcdn.com/bphoto/Wa6AU4rlj-wxLj31gw6YOg/o.jpg", "url": "https://www.yelp.com/biz/waterfall-garden-seattle?adjust_creative=gBcvfFpabk3CnzmXKdYe3w&utm_campaign=yelp_api_v3&utm_medium=api_v3_business_search&utm_source=gBcvfFpabk3CnzmXKdYe3w", "phone": "+12066246096", "coordinates": {"longitude": -122.332151074236, "latitude": 47.6002476387003}, "categories": [{"alias": "parks", "title": "Parks"}], "review_count": 132, "location": {"city": "Seattle", "address1": "219 2nd Ave S", "address3": "", "address2": "", "zip_code": "98104", "country": "US", "display_address": ["219 2nd Ave S", "Seattle, WA 98104"], "state": "WA"}, "transactions": [], "display_phone": "(206) 624-6096"}, {"rating": 4.5, "is_closed": false, "distance": 2973.2368207219997, "name": "The Fremont Troll", "id": "the-fremont-troll-seattle", "image_url": "https://s3-media1.fl.yelpcdn.com/bphoto/FAbipZS_j_kU0HE04juoaw/o.jpg", "url": "https://www.yelp.com/biz/the-fremont-troll-seattle?adjust_creative=gBcvfFpabk3CnzmXKdYe3w&utm_campaign=yelp_api_v3&utm_medium=api_v3_business_search&utm_source=gBcvfFpabk3CnzmXKdYe3w", "phone": "", "coordinates": {"longitude": -122.347334772348, "latitude": 47.6509455561676}, "categories": [{"alias": "publicart", "title": "Public Art"}], "review_count": 547, "location": {"city": "Seattle", "address1": "North Troll Ave", "address3": "", "address2": null, "zip_code": "98103", "country": "US", "display_address": ["North Troll Ave", "Seattle, WA 98103"], "state": "WA"}, "transactions": [], "display_phone": ""}, {"rating": 4.5, "is_closed": false, "distance": 4825.507498392, "name": "Mighty-O Donuts", "id": "mighty-o-donuts-seattle", "image_url": "https://s3-media1.fl.yelpcdn.com/bphoto/nEYkzrZNDBa-hlpdDyypOQ/o.jpg", "url": "https://www.yelp.com/biz/mighty-o-donuts-seattle?adjust_creative=gBcvfFpabk3CnzmXKdYe3w&utm_campaign=yelp_api_v3&utm_medium=api_v3_business_search&utm_source=gBcvfFpabk3CnzmXKdYe3w", "phone": "+12065475431", "coordinates": {"longitude": -122.333216, "latitude": 47.6687887}, "categories": [{"alias": "donuts", "title": "Donuts"}, {"alias": "vegan", "title": "Vegan"}, {"alias": "bakeries", "title": "Bakeries"}], "review_count": 663, "location": {"city": "Seattle", "address1": "2110 N 55th St", "address3": "", "address2": "", "zip_code": "98103", "country": "US", "display_address": ["2110 N 55th St", "Seattle, WA 98103"], "state": "WA"}, "price": "$", "transactions": [], "display_phone": "(206) 547-5431"}, {"rating": 4.5, "is_closed": false, "distance": 6002.827417422, "name": "Biscuit and Bean", "id": "biscuit-and-bean-seattle-4", "image_url": "https://s3-media4.fl.yelpcdn.com/bphoto/bAMw0ZjVSR9gdTKiEIvC2g/o.jpg", "url": "https://www.yelp.com/biz/biscuit-and-bean-seattle-4?adjust_creative=gBcvfFpabk3CnzmXKdYe3w&utm_campaign=yelp_api_v3&utm_medium=api_v3_business_search&utm_source=gBcvfFpabk3CnzmXKdYe3w", "phone": "+12064575735", "coordinates": {"longitude": -122.37657, "latitude": 47.67184}, "categories": [{"alias": "coffee", "title": "Coffee & Tea"}, {"alias": "breakfast_brunch", "title": "Breakfast & Brunch"}], "review_count": 412, "location": {"city": "Seattle", "address1": "5905 15th Ave NW", "address3": "", "address2": null, "zip_code": "98107", "country": "US", "display_address": ["5905 15th Ave NW", "Seattle, WA 98107"], "state": "WA"}, "price": "$", "transactions": [], "display_phone": "(206) 457-5735"}, {"rating": 4.5, "is_closed": false, "distance": 3050.593449304, "name": "Simply Soulful", "id": "simply-soulful-seattle", "image_url": "https://s3-media2.fl.yelpcdn.com/bphoto/wGYsOwrBM0XlMbEpYd9LGQ/o.jpg", "url": "https://www.yelp.com/biz/simply-soulful-seattle?adjust_creative=gBcvfFpabk3CnzmXKdYe3w&utm_campaign=yelp_api_v3&utm_medium=api_v3_business_search&utm_source=gBcvfFpabk3CnzmXKdYe3w", "phone": "+12064749841", "coordinates": {"longitude": -122.294851, "latitude": 47.624083}, "categories": [{"alias": "desserts", "title": "Desserts"}, {"alias": "soulfood", "title": "Soul Food"}, {"alias": "southern", "title": "Southern"}], "review_count": 138, "location": {"city": "Seattle", "address1": "2909-B E Madison Ave", "address3": "", "address2": null, "zip_code": "98112", "country": "US", "display_address": ["2909-B E Madison Ave", "Seattle, WA 98112"], "state": "WA"}, "price": "$$", "transactions": [], "display_phone": "(206) 474-9841"}, {"rating": 4.0, "is_closed": false, "distance": 1388.460177142, "name": "Biscuit Bitch", "id": "biscuit-bitch-seattle-9", "image_url": "https://s3-media2.fl.yelpcdn.com/bphoto/aRhATcNpf8KVMvZzslR3vw/o.jpg", "url": "https://www.yelp.com/biz/biscuit-bitch-seattle-9?adjust_creative=gBcvfFpabk3CnzmXKdYe3w&utm_campaign=yelp_api_v3&utm_medium=api_v3_business_search&utm_source=gBcvfFpabk3CnzmXKdYe3w", "phone": "+12067282219", "coordinates": {"longitude": -122.345560369663, "latitude": 47.6149304538179}, "categories": [{"alias": "breakfast_brunch", "title": "Breakfast & Brunch"}, {"alias": "southern", "title": "Southern"}, {"alias": "comfortfood", "title": "Comfort Food"}], "review_count": 363, "location": {"city": "Seattle", "address1": "2303 3rd Ave", "address3": null, "address2": "", "zip_code": "98121", "country": "US", "display_address": ["2303 3rd Ave", "Seattle, WA 98121"], "state": "WA"}, "price": "$", "transactions": [], "display_phone": "(206) 728-2219"}, {"rating": 5.0, "is_closed": false, "distance": 5125.801973824, "name": "QED Coffee", "id": "qed-coffee-seattle", "image_url": "https://s3-media2.fl.yelpcdn.com/bphoto/Cy39tEgcsHfnOB4aCI-meQ/o.jpg", "url": "https://www.yelp.com/biz/qed-coffee-seattle?adjust_creative=gBcvfFpabk3CnzmXKdYe3w&utm_campaign=yelp_api_v3&utm_medium=api_v3_business_search&utm_source=gBcvfFpabk3CnzmXKdYe3w", "phone": "+12069543071", "coordinates": {"longitude": -122.292320034476, "latitude": 47.5896816513796}, "categories": [{"alias": "coffee", "title": "Coffee & Tea"}], "review_count": 43, "location": {"city": "Seattle", "address1": "1418 31st Ave S", "address3": "", "address2": "", "zip_code": "98144", "country": "US", "display_address": ["1418 31st Ave S", "Seattle, WA 98144"], "state": "WA"}, "price": "$", "transactions": [], "display_phone": "(206) 954-3071"}, {"rating": 4.5, "is_closed": false, "distance": 298.7814383376, "name": "Xplosive Mobile Food Truck", "id": "xplosive-mobile-food-truck-seattle", "image_url": "https://s3-media3.fl.yelpcdn.com/bphoto/M_6xA3oumCMfpqgIKdHjlA/o.jpg", "url": "https://www.yelp.com/biz/xplosive-mobile-food-truck-seattle?adjust_creative=gBcvfFpabk3CnzmXKdYe3w&utm_campaign=yelp_api_v3&utm_medium=api_v3_business_search&utm_source=gBcvfFpabk3CnzmXKdYe3w", "phone": "+12066124739", "coordinates": {"longitude": -122.337403201697, "latitude": 47.6230539111287}, "categories": [{"alias": "vietnamese", "title": "Vietnamese"}, {"alias": "foodtrucks", "title": "Food Trucks"}, {"alias": "filipino", "title": "Filipino"}], "review_count": 69, "location": {"city": "Seattle", "address1": "425 Terry Ave N", "address3": "", "address2": "", "zip_code": "98109", "country": "US", "display_address": ["425 Terry Ave N", "Seattle, WA 98109"], "state": "WA"}, "price": "$", "transactions": [], "display_phone": "(206) 612-4739"}, {"rating": 4.0, "is_closed": false, "distance": 1875.9004559559999, "name": "Calozzi's Cheesesteaks", "id": "calozzis-cheesesteaks-seattle", "image_url": "https://s3-media3.fl.yelpcdn.com/bphoto/0f6rYUu7eH9I-2m7_36_4g/o.jpg", "url": "https://www.yelp.com/biz/calozzis-cheesesteaks-seattle?adjust_creative=gBcvfFpabk3CnzmXKdYe3w&utm_campaign=yelp_api_v3&utm_medium=api_v3_business_search&utm_source=gBcvfFpabk3CnzmXKdYe3w", "phone": "+12066231330", "coordinates": {"longitude": -122.3350067, "latitude": 47.6086693}, "categories": [{"alias": "cheesesteaks", "title": "Cheesesteaks"}, {"alias": "sandwiches", "title": "Sandwiches"}], "review_count": 494, "location": {"city": "Seattle", "address1": "1306 4th Ave", "address3": "", "address2": "", "zip_code": "98101", "country": "US", "display_address": ["1306 4th Ave", "Seattle, WA 98101"], "state": "WA"}, "price": "$", "transactions": [], "display_phone": "(206) 623-1330"}, {"rating": 4.5, "is_closed": false, "distance": 1166.679445752, "name": "Dueminuti Healthy Pasta", "id": "dueminuti-healthy-pasta-seattle", "image_url": "https://s3-media4.fl.yelpcdn.com/bphoto/4t2X09rvYzj8EHPx2X7vmA/o.jpg", "url": "https://www.yelp.com/biz/dueminuti-healthy-pasta-seattle?adjust_creative=gBcvfFpabk3CnzmXKdYe3w&utm_campaign=yelp_api_v3&utm_medium=api_v3_business_search&utm_source=gBcvfFpabk3CnzmXKdYe3w", "phone": "+12063974375", "coordinates": {"longitude": -122.32064, "latitude": 47.62245}, "categories": [{"alias": "italian", "title": "Italian"}], "review_count": 99, "location": {"city": "Seattle", "address1": "412 Broadway E", "address3": null, "address2": "", "zip_code": "98102", "country": "US", "display_address": ["412 Broadway E", "Seattle, WA 98102"], "state": "WA"}, "price": "$$", "transactions": [], "display_phone": "(206) 397-4375"}, {"rating": 4.5, "is_closed": false, "distance": 1920.871531048, "name": "Bottega Italiana", "id": "bottega-italiana-seattle-4", "image_url": "https://s3-media2.fl.yelpcdn.com/bphoto/3rf1JVneb71Rb88Pl6Rj7g/o.jpg", "url": "https://www.yelp.com/biz/bottega-italiana-seattle-4?adjust_creative=gBcvfFpabk3CnzmXKdYe3w&utm_campaign=yelp_api_v3&utm_medium=api_v3_business_search&utm_source=gBcvfFpabk3CnzmXKdYe3w", "phone": "+12063430200", "coordinates": {"longitude": -122.33995, "latitude": 47.60844}, "categories": [{"alias": "icecream", "title": "Ice Cream & Frozen Yogurt"}, {"alias": "gelato", "title": "Gelato"}, {"alias": "coffee", "title": "Coffee & Tea"}], "review_count": 256, "location": {"city": "Seattle", "address1": "1425 1st Ave", "address3": "", "address2": "", "zip_code": "98101", "country": "US", "display_address": ["1425 1st Ave", "Seattle, WA 98101"], "state": "WA"}, "price": "$", "transactions": [], "display_phone": "(206) 343-0200"}, {"rating": 4.0, "is_closed": false, "distance": 1443.5519086919999, "name": "Serious Pie", "id": "serious-pie-seattle", "image_url": "https://s3-media3.fl.yelpcdn.com/bphoto/lxOPztcQq9URv7h4K2juOA/o.jpg", "url": "https://www.yelp.com/biz/serious-pie-seattle?adjust_creative=gBcvfFpabk3CnzmXKdYe3w&utm_campaign=yelp_api_v3&utm_medium=api_v3_business_search&utm_source=gBcvfFpabk3CnzmXKdYe3w", "phone": "+12068387388", "coordinates": {"longitude": -122.34047, "latitude": 47.61296}, "categories": [{"alias": "pizza", "title": "Pizza"}], "review_count": 3243, "location": {"city": "Seattle", "address1": "316 Virginia St", "address3": "", "address2": null, "zip_code": "98121", "country": "US", "display_address": ["316 Virginia St", "Seattle, WA 98121"], "state": "WA"}, "price": "$$", "transactions": [], "display_phone": "(206) 838-7388"}, {"rating": 4.5, "is_closed": false, "distance": 4019.7988303559996, "name": "Seattle Meowtropolitan", "id": "seattle-meowtropolitan-seattle", "image_url": "https://s3-media4.fl.yelpcdn.com/bphoto/YluTMzEe70hq4si8XTLeLw/o.jpg", "url": "https://www.yelp.com/biz/seattle-meowtropolitan-seattle?adjust_creative=gBcvfFpabk3CnzmXKdYe3w&utm_campaign=yelp_api_v3&utm_medium=api_v3_business_search&utm_source=gBcvfFpabk3CnzmXKdYe3w", "phone": "+12066322330", "coordinates": {"longitude": -122.3429162, "latitude": 47.6612236}, "categories": [{"alias": "cafes", "title": "Cafes"}], "review_count": 135, "location": {"city": "Seattle", "address1": "1225 N 45th St", "address3": "", "address2": "", "zip_code": "98103", "country": "US", "display_address": ["1225 N 45th St", "Seattle, WA 98103"], "state": "WA"}, "price": "$", "transactions": [], "display_phone": "(206) 632-2330"}, {"rating": 4.5, "is_closed": false, "distance": 3067.5982185459998, "name": "ETG Coffee and Bakery", "id": "etg-coffee-and-bakery-seattle", "image_url": "https://s3-media1.fl.yelpcdn.com/bphoto/OeF8aI1YIfxnFEazGOe4UQ/o.jpg", "url": "https://www.yelp.com/biz/etg-coffee-and-bakery-seattle?adjust_creative=gBcvfFpabk3CnzmXKdYe3w&utm_campaign=yelp_api_v3&utm_medium=api_v3_business_search&utm_source=gBcvfFpabk3CnzmXKdYe3w", "phone": "+12066333685", "coordinates": {"longitude": -122.35026, "latitude": 47.6508899}, "categories": [{"alias": "coffee", "title": "Coffee & Tea"}, {"alias": "bakeries", "title": "Bakeries"}], "review_count": 105, "location": {"city": "Seattle", "address1": "3512 Fremont Pl N", "address3": "", "address2": null, "zip_code": "98103", "country": "US", "display_address": ["3512 Fremont Pl N", "Seattle, WA 98103"], "state": "WA"}, "price": "$", "transactions": [], "display_phone": "(206) 633-3685"}, {"rating": 4.5, "is_closed": false, "distance": 2664.2791071359998, "name": "Papa Bois", "id": "papa-bois-seattle", "image_url": "https://s3-media2.fl.yelpcdn.com/bphoto/2r1kKb0yoGF3zkATqw29bw/o.jpg", "url": "https://www.yelp.com/biz/papa-bois-seattle?adjust_creative=gBcvfFpabk3CnzmXKdYe3w&utm_campaign=yelp_api_v3&utm_medium=api_v3_business_search&utm_source=gBcvfFpabk3CnzmXKdYe3w", "phone": "+14253413657", "coordinates": {"longitude": -122.32879, "latitude": 47.60209}, "categories": [{"alias": "foodtrucks", "title": "Food Trucks"}, {"alias": "caribbean", "title": "Caribbean"}, {"alias": "sandwiches", "title": "Sandwiches"}], "review_count": 115, "location": {"city": "Seattle", "address1": "", "address3": "", "address2": "", "zip_code": "98104", "country": "US", "display_address": ["Seattle, WA 98104"], "state": "WA"}, "price": "$", "transactions": [], "display_phone": "(425) 341-3657"}, {"rating": 4.5, "is_closed": false, "distance": 653.0975307799999, "name": "Cafe Barjot", "id": "cafe-barjot-seattle", "image_url": "https://s3-media2.fl.yelpcdn.com/bphoto/W-WMs2F68LIxr91NV-U05A/o.jpg", "url": "https://www.yelp.com/biz/cafe-barjot-seattle?adjust_creative=gBcvfFpabk3CnzmXKdYe3w&utm_campaign=yelp_api_v3&utm_medium=api_v3_business_search&utm_source=gBcvfFpabk3CnzmXKdYe3w", "phone": "+12064575424", "coordinates": {"longitude": -122.326807157255, "latitude": 47.6256957788825}, "categories": [{"alias": "cafes", "title": "Cafes"}, {"alias": "newamerican", "title": "American (New)"}, {"alias": "cocktailbars", "title": "Cocktail Bars"}], "review_count": 99, "location": {"city": "Seattle", "address1": "711 Bellevue Ave E", "address3": "", "address2": "", "zip_code": "98102", "country": "US", "display_address": ["711 Bellevue Ave E", "Seattle, WA 98102"], "state": "WA"}, "price": "$$", "transactions": [], "display_phone": "(206) 457-5424"}, {"rating": 4.5, "is_closed": false, "distance": 1793.4486569339997, "name": "Lovage", "id": "lovage-seattle-3", "image_url": "https://s3-media1.fl.yelpcdn.com/bphoto/U31Mf4u437Xg5wbA48e8mQ/o.jpg", "url": "https://www.yelp.com/biz/lovage-seattle-3?adjust_creative=gBcvfFpabk3CnzmXKdYe3w&utm_campaign=yelp_api_v3&utm_medium=api_v3_business_search&utm_source=gBcvfFpabk3CnzmXKdYe3w", "phone": "+12064862160", "coordinates": {"longitude": -122.34048, "latitude": 47.60965}, "categories": [{"alias": "salad", "title": "Salad"}, {"alias": "vegetarian", "title": "Vegetarian"}, {"alias": "pizza", "title": "Pizza"}], "review_count": 149, "location": {"city": "Seattle", "address1": "1526 1st Ave", "address3": "", "address2": "", "zip_code": "98101", "country": "US", "display_address": ["1526 1st Ave", "Seattle, WA 98101"], "state": "WA"}, "price": "$", "transactions": ["pickup"], "display_phone": "(206) 486-2160"}, {"rating": 4.5, "is_closed": false, "distance": 1340.092268112, "name": "Anchorhead Coffee", "id": "anchorhead-coffee-seattle", "image_url": "https://s3-media2.fl.yelpcdn.com/bphoto/w7kAF7anW3mSSPUFOwVfEw/o.jpg", "url": "https://www.yelp.com/biz/anchorhead-coffee-seattle?adjust_creative=gBcvfFpabk3CnzmXKdYe3w&utm_campaign=yelp_api_v3&utm_medium=api_v3_business_search&utm_source=gBcvfFpabk3CnzmXKdYe3w", "phone": "+12061111111", "coordinates": {"longitude": -122.334691182469, "latitude": 47.6133808022766}, "categories": [{"alias": "coffee", "title": "Coffee & Tea"}], "review_count": 66, "location": {"city": "Seattle", "address1": "1600 7th Ave", "address3": null, "address2": "Ste 105", "zip_code": "98101", "country": "US", "display_address": ["1600 7th Ave", "Ste 105", "Seattle, WA 98101"], "state": "WA"}, "price": "$$", "transactions": [], "display_phone": "(206) 111-1111"}, {"rating": 4.0, "is_closed": false, "distance": 1040.8404840659998, "name": "Joe Bar", "id": "joe-bar-seattle", "image_url": "https://s3-media2.fl.yelpcdn.com/bphoto/DYHTKp65YEmIp6_CTsiY9g/o.jpg", "url": "https://www.yelp.com/biz/joe-bar-seattle?adjust_creative=gBcvfFpabk3CnzmXKdYe3w&utm_campaign=yelp_api_v3&utm_medium=api_v3_business_search&utm_source=gBcvfFpabk3CnzmXKdYe3w", "phone": "+12063240407", "coordinates": {"longitude": -122.32161, "latitude": 47.62522}, "categories": [{"alias": "coffee", "title": "Coffee & Tea"}, {"alias": "creperies", "title": "Creperies"}, {"alias": "bars", "title": "Bars"}], "review_count": 258, "location": {"city": "Seattle", "address1": "810 E Roy St", "address3": "", "address2": "", "zip_code": "98102", "country": "US", "display_address": ["810 E Roy St", "Seattle, WA 98102"], "state": "WA"}, "price": "$", "transactions": [], "display_phone": "(206) 324-0407"}, {"rating": 4.5, "is_closed": false, "distance": 1833.353529706, "name": "LoPriore Bros Pasta Bar", "id": "lopriore-bros-pasta-bar-seattle", "image_url": "https://s3-media1.fl.yelpcdn.com/bphoto/jmr7RpUuUmI0fXTLMqv5Tg/o.jpg", "url": "https://www.yelp.com/biz/lopriore-bros-pasta-bar-seattle?adjust_creative=gBcvfFpabk3CnzmXKdYe3w&utm_campaign=yelp_api_v3&utm_medium=api_v3_business_search&utm_source=gBcvfFpabk3CnzmXKdYe3w", "phone": "+12066217545", "coordinates": {"longitude": -122.341095, "latitude": 47.609366}, "categories": [{"alias": "pizza", "title": "Pizza"}, {"alias": "italian", "title": "Italian"}, {"alias": "sandwiches", "title": "Sandwiches"}], "review_count": 199, "location": {"city": "Seattle", "address1": "1530 Post Aly", "address3": "", "address2": "", "zip_code": "98101", "country": "US", "display_address": ["1530 Post Aly", "Seattle, WA 98101"], "state": "WA"}, "price": "$", "transactions": [], "display_phone": "(206) 621-7545"}, {"rating": 4.0, "is_closed": false, "distance": 2944.342891296, "name": "Maneki", "id": "maneki-seattle", "image_url": "https://s3-media4.fl.yelpcdn.com/bphoto/Go1vixD9rlA9baMZhJxW_Q/o.jpg", "url": "https://www.yelp.com/biz/maneki-seattle?adjust_creative=gBcvfFpabk3CnzmXKdYe3w&utm_campaign=yelp_api_v3&utm_medium=api_v3_business_search&utm_source=gBcvfFpabk3CnzmXKdYe3w", "phone": "+12066222631", "coordinates": {"longitude": -122.32614, "latitude": 47.59974}, "categories": [{"alias": "japanese", "title": "Japanese"}, {"alias": "sushi", "title": "Sushi Bars"}], "review_count": 933, "location": {"city": "Seattle", "address1": "304 6th Ave S", "address3": "", "address2": "", "zip_code": "98104", "country": "US", "display_address": ["304 6th Ave S", "Seattle, WA 98104"], "state": "WA"}, "price": "$$", "transactions": [], "display_phone": "(206) 622-2631"}, {"rating": 4.5, "is_closed": false, "distance": 2763.3042113459996, "name": "Stone Way Cafe", "id": "stone-way-cafe-seattle", "image_url": "https://s3-media1.fl.yelpcdn.com/bphoto/cUGqVj5lKHwS6H8eWdFg9w/o.jpg", "url": "https://www.yelp.com/biz/stone-way-cafe-seattle?adjust_creative=gBcvfFpabk3CnzmXKdYe3w&utm_campaign=yelp_api_v3&utm_medium=api_v3_business_search&utm_source=gBcvfFpabk3CnzmXKdYe3w", "phone": "+12064204435", "coordinates": {"longitude": -122.342511254987, "latitude": 47.6498178631503}, "categories": [{"alias": "coffee", "title": "Coffee & Tea"}, {"alias": "sandwiches", "title": "Sandwiches"}], "review_count": 124, "location": {"city": "Seattle", "address1": "3510 Stone Way N", "address3": "", "address2": "", "zip_code": "98103", "country": "US", "display_address": ["3510 Stone Way N", "Seattle, WA 98103"], "state": "WA"}, "price": "$", "transactions": [], "display_phone": "(206) 420-4435"}, {"rating": 4.5, "is_closed": false, "distance": 748.9320862531999, "name": "Single Shot", "id": "single-shot-seattle", "image_url": "https://s3-media3.fl.yelpcdn.com/bphoto/TUlylOIgrZlTXYhmTa2AyA/o.jpg", "url": "https://www.yelp.com/biz/single-shot-seattle?adjust_creative=gBcvfFpabk3CnzmXKdYe3w&utm_campaign=yelp_api_v3&utm_medium=api_v3_business_search&utm_source=gBcvfFpabk3CnzmXKdYe3w", "phone": "+12064202238", "coordinates": {"longitude": -122.32562, "latitude": 47.62459}, "categories": [{"alias": "bars", "title": "Bars"}, {"alias": "newamerican", "title": "American (New)"}, {"alias": "breakfast_brunch", "title": "Breakfast & Brunch"}], "review_count": 149, "location": {"city": "Seattle", "address1": "611 Summit Ave E", "address3": "", "address2": "", "zip_code": "98102", "country": "US", "display_address": ["611 Summit Ave E", "Seattle, WA 98102"], "state": "WA"}, "price": "$$", "transactions": [], "display_phone": "(206) 420-2238"}, {"rating": 4.5, "is_closed": false, "distance": 5770.947433795999, "name": "Bongos", "id": "bongos-seattle", "image_url": "https://s3-media4.fl.yelpcdn.com/bphoto/8AZ24MmbOX93SrVf6TiY4g/o.jpg", "url": "https://www.yelp.com/biz/bongos-seattle?adjust_creative=gBcvfFpabk3CnzmXKdYe3w&utm_campaign=yelp_api_v3&utm_medium=api_v3_business_search&utm_source=gBcvfFpabk3CnzmXKdYe3w", "phone": "+12064208548", "coordinates": {"longitude": -122.346925400198, "latitude": 47.6767449533551}, "categories": [{"alias": "cuban", "title": "Cuban"}, {"alias": "caribbean", "title": "Caribbean"}], "review_count": 456, "location": {"city": "Seattle", "address1": "6501 Aurora Ave N", "address3": "", "address2": "", "zip_code": "98103", "country": "US", "display_address": ["6501 Aurora Ave N", "Seattle, WA 98103"], "state": "WA"}, "price": "$", "transactions": [], "display_phone": "(206) 420-8548"}, {"rating": 4.5, "is_closed": false, "distance": 427.52680368999995, "name": "Nollie's Cafe", "id": "nollies-cafe-seattle", "image_url": "https://s3-media3.fl.yelpcdn.com/bphoto/Zkpg_tuv-7zx7KJa2wnXxg/o.jpg", "url": "https://www.yelp.com/biz/nollies-cafe-seattle?adjust_creative=gBcvfFpabk3CnzmXKdYe3w&utm_campaign=yelp_api_v3&utm_medium=api_v3_business_search&utm_source=gBcvfFpabk3CnzmXKdYe3w", "phone": "+12064026724", "coordinates": {"longitude": -122.33349609375, "latitude": 47.6218070983887}, "categories": [{"alias": "cafes", "title": "Cafes"}, {"alias": "breakfast_brunch", "title": "Breakfast & Brunch"}], "review_count": 176, "location": {"city": "Seattle", "address1": "1165 Harrison St", "address3": null, "address2": null, "zip_code": "98109", "country": "US", "display_address": ["1165 Harrison St", "Seattle, WA 98109"], "state": "WA"}, "price": "$", "transactions": [], "display_phone": "(206) 402-6724"}, {"rating": 4.5, "is_closed": false, "distance": 1816.652442922, "name": "Shug's Soda Fountain + Ice Cream", "id": "shugs-soda-fountain-ice-cream-seattle", "image_url": "https://s3-media2.fl.yelpcdn.com/bphoto/nMMsfL9P7qczQfYf6rHKSA/o.jpg", "url": "https://www.yelp.com/biz/shugs-soda-fountain-ice-cream-seattle?adjust_creative=gBcvfFpabk3CnzmXKdYe3w&utm_campaign=yelp_api_v3&utm_medium=api_v3_business_search&utm_source=gBcvfFpabk3CnzmXKdYe3w", "phone": "+12066026420", "coordinates": {"longitude": -122.34086, "latitude": 47.60945}, "categories": [{"alias": "desserts", "title": "Desserts"}, {"alias": "wine_bars", "title": "Wine Bars"}, {"alias": "icecream", "title": "Ice Cream & Frozen Yogurt"}], "review_count": 135, "location": {"city": "Seattle", "address1": "1525 1st Ave", "address3": "", "address2": null, "zip_code": "98101", "country": "US", "display_address": ["1525 1st Ave", "Seattle, WA 98101"], "state": "WA"}, "price": "$", "transactions": [], "display_phone": "(206) 602-6420"}, {"rating": 4.0, "is_closed": false, "distance": 2826.810377086, "name": "Cafe Turko", "id": "cafe-turko-seattle-4", "image_url": "https://s3-media2.fl.yelpcdn.com/bphoto/x7rUnVPydlzcycGH8pXLtg/o.jpg", "url": "https://www.yelp.com/biz/cafe-turko-seattle-4?adjust_creative=gBcvfFpabk3CnzmXKdYe3w&utm_campaign=yelp_api_v3&utm_medium=api_v3_business_search&utm_source=gBcvfFpabk3CnzmXKdYe3w", "phone": "+12062849954", "coordinates": {"longitude": -122.347989527251, "latitude": 47.6494089483896}, "categories": [{"alias": "halal", "title": "Halal"}, {"alias": "turkish", "title": "Turkish"}, {"alias": "mediterranean", "title": "Mediterranean"}], "review_count": 605, "location": {"city": "Seattle", "address1": "900 N 34th St", "address3": "", "address2": "", "zip_code": "98103", "country": "US", "display_address": ["900 N 34th St", "Seattle, WA 98103"], "state": "WA"}, "price": "$$", "transactions": ["pickup"], "display_phone": "(206) 284-9954"}, {"rating": 4.0, "is_closed": false, "distance": 1774.3308242719997, "name": "Quinn's", "id": "quinns-seattle", "image_url": "https://s3-media2.fl.yelpcdn.com/bphoto/fN8cEHmZ4ZqocvFKFzRLGg/o.jpg", "url": "https://www.yelp.com/biz/quinns-seattle?adjust_creative=gBcvfFpabk3CnzmXKdYe3w&utm_campaign=yelp_api_v3&utm_medium=api_v3_business_search&utm_source=gBcvfFpabk3CnzmXKdYe3w", "phone": "+12063257711", "coordinates": {"longitude": -122.31922, "latitude": 47.61386}, "categories": [{"alias": "newamerican", "title": "American (New)"}, {"alias": "pubs", "title": "Pubs"}], "review_count": 1197, "location": {"city": "Seattle", "address1": "1001 E Pike St", "address3": "", "address2": "", "zip_code": "98122", "country": "US", "display_address": ["1001 E Pike St", "Seattle, WA 98122"], "state": "WA"}, "price": "$$", "transactions": [], "display_phone": "(206) 325-7711"}, {"rating": 4.5, "is_closed": false, "distance": 1619.164537898, "name": "Volunteer Park Water Tower", "id": "volunteer-park-water-tower-seattle", "image_url": "https://s3-media3.fl.yelpcdn.com/bphoto/uobGZintDVJDu85zfs7MgQ/o.jpg", "url": "https://www.yelp.com/biz/volunteer-park-water-tower-seattle?adjust_creative=gBcvfFpabk3CnzmXKdYe3w&utm_campaign=yelp_api_v3&utm_medium=api_v3_business_search&utm_source=gBcvfFpabk3CnzmXKdYe3w", "phone": "+12066844555", "coordinates": {"longitude": -122.3126449, "latitude": 47.6314277}, "categories": [{"alias": "landmarks", "title": "Landmarks & Historical Buildings"}], "review_count": 62, "location": {"city": "Seattle", "address1": "1247 15th Ave E", "address3": "", "address2": "", "zip_code": "98102", "country": "US", "display_address": ["1247 15th Ave E", "Seattle, WA 98102"], "state": "WA"}, "transactions": [], "display_phone": "(206) 684-4555"}, {"rating": 4.0, "is_closed": false, "distance": 2026.3684351339998, "name": "Caf\u00e9 Presse", "id": "caf\u00e9-presse-seattle-2", "image_url": "https://s3-media3.fl.yelpcdn.com/bphoto/Ghd9TSDZYAztJOQ1c9VqrQ/o.jpg", "url": "https://www.yelp.com/biz/caf%C3%A9-presse-seattle-2?adjust_creative=gBcvfFpabk3CnzmXKdYe3w&utm_campaign=yelp_api_v3&utm_medium=api_v3_business_search&utm_source=gBcvfFpabk3CnzmXKdYe3w", "phone": "+12067097674", "coordinates": {"longitude": -122.317108154297, "latitude": 47.6120529174805}, "categories": [{"alias": "french", "title": "French"}, {"alias": "bars", "title": "Bars"}, {"alias": "breakfast_brunch", "title": "Breakfast & Brunch"}], "review_count": 1026, "location": {"city": "Seattle", "address1": "1117 12th Ave", "address3": "", "address2": "", "zip_code": "98122", "country": "US", "display_address": ["1117 12th Ave", "Seattle, WA 98122"], "state": "WA"}, "price": "$$", "transactions": [], "display_phone": "(206) 709-7674"}, {"rating": 4.0, "is_closed": false, "distance": 1051.90405283, "name": "In The Bowl Vegetarian Noodle Bistro", "id": "in-the-bowl-vegetarian-noodle-bistro-seattle", "image_url": "https://s3-media3.fl.yelpcdn.com/bphoto/-PGAQHUvxUNLl9WpSkpj2Q/o.jpg", "url": "https://www.yelp.com/biz/in-the-bowl-vegetarian-noodle-bistro-seattle?adjust_creative=gBcvfFpabk3CnzmXKdYe3w&utm_campaign=yelp_api_v3&utm_medium=api_v3_business_search&utm_source=gBcvfFpabk3CnzmXKdYe3w", "phone": "+12065682343", "coordinates": {"longitude": -122.325665, "latitude": 47.618676}, "categories": [{"alias": "vegetarian", "title": "Vegetarian"}, {"alias": "noodles", "title": "Noodles"}], "review_count": 579, "location": {"city": "Seattle", "address1": "1554 E Olive Way", "address3": "", "address2": "", "zip_code": "98102", "country": "US", "display_address": ["1554 E Olive Way", "Seattle, WA 98102"], "state": "WA"}, "price": "$", "transactions": [], "display_phone": "(206) 568-2343"}, {"rating": 4.0, "is_closed": false, "distance": 1621.053903058, "name": "Toulouse Petit", "id": "toulouse-petit-seattle", "image_url": "https://s3-media1.fl.yelpcdn.com/bphoto/UmEDw1vIvHMNagxlZspJ9A/o.jpg", "url": "https://www.yelp.com/biz/toulouse-petit-seattle?adjust_creative=gBcvfFpabk3CnzmXKdYe3w&utm_campaign=yelp_api_v3&utm_medium=api_v3_business_search&utm_source=gBcvfFpabk3CnzmXKdYe3w", "phone": "+12064329069", "coordinates": {"longitude": -122.357127, "latitude": 47.624851}, "categories": [{"alias": "cajun", "title": "Cajun/Creole"}, {"alias": "breakfast_brunch", "title": "Breakfast & Brunch"}, {"alias": "bars", "title": "Bars"}], "review_count": 2898, "location": {"city": "Seattle", "address1": "601 Queen Anne Ave N", "address3": "", "address2": "", "zip_code": "98109", "country": "US", "display_address": ["601 Queen Anne Ave N", "Seattle, WA 98109"], "state": "WA"}, "price": "$$", "transactions": [], "display_phone": "(206) 432-9069"}, {"rating": 4.5, "is_closed": false, "distance": 2966.253089792, "name": "Taylor Shellfish Oyster Bar", "id": "taylor-shellfish-oyster-bar-seattle-2", "image_url": "https://s3-media1.fl.yelpcdn.com/bphoto/PZ8V8k_EYTT0XvQpAdXgeA/o.jpg", "url": "https://www.yelp.com/biz/taylor-shellfish-oyster-bar-seattle-2?adjust_creative=gBcvfFpabk3CnzmXKdYe3w&utm_campaign=yelp_api_v3&utm_medium=api_v3_business_search&utm_source=gBcvfFpabk3CnzmXKdYe3w", "phone": "+12065014060", "coordinates": {"longitude": -122.33268, "latitude": 47.59884}, "categories": [{"alias": "seafood", "title": "Seafood"}, {"alias": "raw_food", "title": "Live/Raw Food"}], "review_count": 285, "location": {"city": "Seattle", "address1": "410 Occidental Ave S", "address3": "", "address2": "", "zip_code": "98104", "country": "US", "display_address": ["410 Occidental Ave S", "Seattle, WA 98104"], "state": "WA"}, "price": "$$", "transactions": [], "display_phone": "(206) 501-4060"}, {"rating": 4.5, "is_closed": false, "distance": 1951.866614778, "name": "JarrBar", "id": "jarrbar-seattle", "image_url": "https://s3-media1.fl.yelpcdn.com/bphoto/Sawla5bFyKtLPTvRxPMS2g/o.jpg", "url": "https://www.yelp.com/biz/jarrbar-seattle?adjust_creative=gBcvfFpabk3CnzmXKdYe3w&utm_campaign=yelp_api_v3&utm_medium=api_v3_business_search&utm_source=gBcvfFpabk3CnzmXKdYe3w", "phone": "+12062092239", "coordinates": {"longitude": -122.34073, "latitude": 47.60825}, "categories": [{"alias": "cocktailbars", "title": "Cocktail Bars"}, {"alias": "spanish", "title": "Spanish"}, {"alias": "portuguese", "title": "Portuguese"}], "review_count": 43, "location": {"city": "Seattle", "address1": "1432 Western Ave", "address3": "", "address2": "", "zip_code": "98101", "country": "US", "display_address": ["1432 Western Ave", "Seattle, WA 98101"], "state": "WA"}, "price": "$$", "transactions": [], "display_phone": "(206) 209-2239"}, {"rating": 4.5, "is_closed": false, "distance": 1124.6583552536, "name": "Herb & Bitter Public House", "id": "herb-and-bitter-public-house-seattle", "image_url": "https://s3-media3.fl.yelpcdn.com/bphoto/XEvg9nKZ9OQ8S9TocehHgQ/o.jpg", "url": "https://www.yelp.com/biz/herb-and-bitter-public-house-seattle?adjust_creative=gBcvfFpabk3CnzmXKdYe3w&utm_campaign=yelp_api_v3&utm_medium=api_v3_business_search&utm_source=gBcvfFpabk3CnzmXKdYe3w", "phone": "+12067086468", "coordinates": {"longitude": -122.320748173641, "latitude": 47.6236055711029}, "categories": [{"alias": "tapasmallplates", "title": "Tapas/Small Plates"}], "review_count": 177, "location": {"city": "Seattle", "address1": "516 Broadway E", "address3": "", "address2": "", "zip_code": "98102", "country": "US", "display_address": ["516 Broadway E", "Seattle, WA 98102"], "state": "WA"}, "price": "$$", "transactions": [], "display_phone": "(206) 708-6468"}, {"rating": 4.0, "is_closed": false, "distance": 1558.206601114, "name": "Umi Sake House", "id": "umi-sake-house-seattle", "image_url": "https://s3-media3.fl.yelpcdn.com/bphoto/c-XwgpadB530bjPUAL7oFw/o.jpg", "url": "https://www.yelp.com/biz/umi-sake-house-seattle?adjust_creative=gBcvfFpabk3CnzmXKdYe3w&utm_campaign=yelp_api_v3&utm_medium=api_v3_business_search&utm_source=gBcvfFpabk3CnzmXKdYe3w", "phone": "+12063748717", "coordinates": {"longitude": -122.34597, "latitude": 47.61339}, "categories": [{"alias": "sushi", "title": "Sushi Bars"}, {"alias": "japanese", "title": "Japanese"}], "review_count": 2709, "location": {"city": "Seattle", "address1": "2230 1st Ave", "address3": "", "address2": null, "zip_code": "98121", "country": "US", "display_address": ["2230 1st Ave", "Seattle, WA 98121"], "state": "WA"}, "price": "$$", "transactions": [], "display_phone": "(206) 374-8717"}, {"rating": 4.5, "is_closed": false, "distance": 3999.380811908, "name": "Wood Shop BBQ", "id": "wood-shop-bbq-seattle", "image_url": "https://s3-media1.fl.yelpcdn.com/bphoto/_CEXiluUTUHBayVuGahhlw/o.jpg", "url": "https://www.yelp.com/biz/wood-shop-bbq-seattle?adjust_creative=gBcvfFpabk3CnzmXKdYe3w&utm_campaign=yelp_api_v3&utm_medium=api_v3_business_search&utm_source=gBcvfFpabk3CnzmXKdYe3w", "phone": "+12065578090", "coordinates": {"longitude": -122.29914, "latitude": 47.59906}, "categories": [{"alias": "foodtrucks", "title": "Food Trucks"}, {"alias": "bbq", "title": "Barbeque"}, {"alias": "sandwiches", "title": "Sandwiches"}], "review_count": 64, "location": {"city": "Seattle", "address1": "2513 S Jackson St", "address3": "", "address2": "", "zip_code": "98144", "country": "US", "display_address": ["2513 S Jackson St", "Seattle, WA 98144"], "state": "WA"}, "price": "$$", "transactions": [], "display_phone": "(206) 557-8090"}, {"rating": 4.5, "is_closed": false, "distance": 1933.8403974379999, "name": "Piroshki On Madison", "id": "piroshki-on-madison-seattle", "image_url": "https://s3-media3.fl.yelpcdn.com/bphoto/bxQi3BgeU2-dgcAHX6rN6Q/o.jpg", "url": "https://www.yelp.com/biz/piroshki-on-madison-seattle?adjust_creative=gBcvfFpabk3CnzmXKdYe3w&utm_campaign=yelp_api_v3&utm_medium=api_v3_business_search&utm_source=gBcvfFpabk3CnzmXKdYe3w", "phone": "+12066241295", "coordinates": {"longitude": -122.323609255678, "latitude": 47.609987326443}, "categories": [{"alias": "bakeries", "title": "Bakeries"}, {"alias": "russian", "title": "Russian"}], "review_count": 148, "location": {"city": "Seattle", "address1": "1219 Madison St", "address3": "", "address2": "", "zip_code": "98104", "country": "US", "display_address": ["1219 Madison St", "Seattle, WA 98104"], "state": "WA"}, "price": "$", "transactions": [], "display_phone": "(206) 624-1295"}, {"rating": 4.0, "is_closed": false, "distance": 1767.778074594, "name": "White Horse Trading Company", "id": "white-horse-trading-company-seattle", "image_url": "https://s3-media2.fl.yelpcdn.com/bphoto/M__Xjd_q-5Ga70wESK7fxw/o.jpg", "url": "https://www.yelp.com/biz/white-horse-trading-company-seattle?adjust_creative=gBcvfFpabk3CnzmXKdYe3w&utm_campaign=yelp_api_v3&utm_medium=api_v3_business_search&utm_source=gBcvfFpabk3CnzmXKdYe3w", "phone": "+12064417767", "coordinates": {"longitude": -122.3420371, "latitude": 47.6101424}, "categories": [{"alias": "bookstores", "title": "Bookstores"}, {"alias": "wine_bars", "title": "Wine Bars"}], "review_count": 223, "location": {"city": "Seattle", "address1": "1908 Post Aly", "address3": "", "address2": null, "zip_code": "98101", "country": "US", "display_address": ["1908 Post Aly", "Seattle, WA 98101"], "state": "WA"}, "price": "$$", "transactions": [], "display_phone": "(206) 441-7767"}, {"rating": 4.0, "is_closed": false, "distance": 1993.970811594, "name": "Nue", "id": "nue-seattle", "image_url": "https://s3-media3.fl.yelpcdn.com/bphoto/z33cHqzqJa8sUFcWsxK_Lg/o.jpg", "url": "https://www.yelp.com/biz/nue-seattle?adjust_creative=gBcvfFpabk3CnzmXKdYe3w&utm_campaign=yelp_api_v3&utm_medium=api_v3_business_search&utm_source=gBcvfFpabk3CnzmXKdYe3w", "phone": "+12062570312", "coordinates": {"longitude": -122.314304038882, "latitude": 47.614434286952}, "categories": [{"alias": "tapasmallplates", "title": "Tapas/Small Plates"}, {"alias": "asianfusion", "title": "Asian Fusion"}, {"alias": "cocktailbars", "title": "Cocktail Bars"}], "review_count": 325, "location": {"city": "Seattle", "address1": "1519 14th Ave", "address3": "", "address2": "", "zip_code": "98122", "country": "US", "display_address": ["1519 14th Ave", "Seattle, WA 98122"], "state": "WA"}, "price": "$$", "transactions": ["pickup"], "display_phone": "(206) 257-0312"}, {"rating": 4.5, "is_closed": false, "distance": 1768.164798996, "name": "Turkish Delight", "id": "turkish-delight-seattle", "image_url": "https://s3-media2.fl.yelpcdn.com/bphoto/Twg2aq5JQuBUnfYTZ_V6oQ/o.jpg", "url": "https://www.yelp.com/biz/turkish-delight-seattle?adjust_creative=gBcvfFpabk3CnzmXKdYe3w&utm_campaign=yelp_api_v3&utm_medium=api_v3_business_search&utm_source=gBcvfFpabk3CnzmXKdYe3w", "phone": "+12064431387", "coordinates": {"longitude": -122.34312, "latitude": 47.61038}, "categories": [{"alias": "delis", "title": "Delis"}, {"alias": "turkish", "title": "Turkish"}], "review_count": 167, "location": {"city": "Seattle", "address1": "1930 Pike Pl", "address3": "", "address2": "", "zip_code": "98101", "country": "US", "display_address": ["1930 Pike Pl", "Seattle, WA 98101"], "state": "WA"}, "price": "$", "transactions": [], "display_phone": "(206) 443-1387"}, {"rating": 4.0, "is_closed": false, "distance": 1503.362868858, "name": "La Marzocco Caf\u00e9 & Showroom", "id": "la-marzocco-caf\u00e9-and-showroom-seattle-2", "image_url": "https://s3-media3.fl.yelpcdn.com/bphoto/sXVpWww7x2RWlS7sy64pbg/o.jpg", "url": "https://www.yelp.com/biz/la-marzocco-caf%C3%A9-and-showroom-seattle-2?adjust_creative=gBcvfFpabk3CnzmXKdYe3w&utm_campaign=yelp_api_v3&utm_medium=api_v3_business_search&utm_source=gBcvfFpabk3CnzmXKdYe3w", "phone": "+12063883500", "coordinates": {"longitude": -122.355202347553, "latitude": 47.6228406329505}, "categories": [{"alias": "coffee", "title": "Coffee & Tea"}, {"alias": "cafes", "title": "Cafes"}], "review_count": 92, "location": {"city": "Seattle", "address1": "472 1st Ave N", "address3": "", "address2": "", "zip_code": "98109", "country": "US", "display_address": ["472 1st Ave N", "Seattle, WA 98109"], "state": "WA"}, "price": "$", "transactions": [], "display_phone": "(206) 388-3500"}, {"rating": 4.5, "is_closed": false, "distance": 1026.444696365, "name": "Mashawi Mediterranean Cuisine", "id": "mashawi-mediterranean-cuisine-seattle", "image_url": "https://s3-media1.fl.yelpcdn.com/bphoto/j7FEJGOuKbQe5fGDNF8ApQ/o.jpg", "url": "https://www.yelp.com/biz/mashawi-mediterranean-cuisine-seattle?adjust_creative=gBcvfFpabk3CnzmXKdYe3w&utm_campaign=yelp_api_v3&utm_medium=api_v3_business_search&utm_source=gBcvfFpabk3CnzmXKdYe3w", "phone": "+12062820078", "coordinates": {"longitude": -122.349206, "latitude": 47.625564}, "categories": [{"alias": "mediterranean", "title": "Mediterranean"}, {"alias": "lebanese", "title": "Lebanese"}, {"alias": "vegetarian", "title": "Vegetarian"}], "review_count": 234, "location": {"city": "Seattle", "address1": "366 Roy St", "address3": "", "address2": "", "zip_code": "98109", "country": "US", "display_address": ["366 Roy St", "Seattle, WA 98109"], "state": "WA"}, "price": "$$", "transactions": ["pickup"], "display_phone": "(206) 282-0078"}, {"rating": 4.5, "is_closed": false, "distance": 1484.3459418139998, "name": "Cal Anderson Park", "id": "cal-anderson-park-seattle", "image_url": "https://s3-media3.fl.yelpcdn.com/bphoto/ejeUB7Kwj9JDxed5YJ_g0Q/o.jpg", "url": "https://www.yelp.com/biz/cal-anderson-park-seattle?adjust_creative=gBcvfFpabk3CnzmXKdYe3w&utm_campaign=yelp_api_v3&utm_medium=api_v3_business_search&utm_source=gBcvfFpabk3CnzmXKdYe3w", "phone": "+12066844075", "coordinates": {"longitude": -122.31909753016, "latitude": 47.617947324051}, "categories": [{"alias": "parks", "title": "Parks"}, {"alias": "playgrounds", "title": "Playgrounds"}], "review_count": 147, "location": {"city": "Seattle", "address1": "1635 11th Ave", "address3": "", "address2": "", "zip_code": "98122", "country": "US", "display_address": ["1635 11th Ave", "Seattle, WA 98122"], "state": "WA"}, "transactions": [], "display_phone": "(206) 684-4075"}, {"rating": 4.0, "is_closed": false, "distance": 1943.499012382, "name": "Purple Caf\u00e9 and Wine Bar", "id": "purple-caf\u00e9-and-wine-bar-seattle-3", "image_url": "https://s3-media3.fl.yelpcdn.com/bphoto/yK8b6N3ymhCGSR5EFN6tHQ/o.jpg", "url": "https://www.yelp.com/biz/purple-caf%C3%A9-and-wine-bar-seattle-3?adjust_creative=gBcvfFpabk3CnzmXKdYe3w&utm_campaign=yelp_api_v3&utm_medium=api_v3_business_search&utm_source=gBcvfFpabk3CnzmXKdYe3w", "phone": "+12068292280", "coordinates": {"longitude": -122.33508, "latitude": 47.60795}, "categories": [{"alias": "newamerican", "title": "American (New)"}, {"alias": "wine_bars", "title": "Wine Bars"}, {"alias": "desserts", "title": "Desserts"}], "review_count": 1821, "location": {"city": "Seattle", "address1": "1225 4th Ave", "address3": "", "address2": null, "zip_code": "98101", "country": "US", "display_address": ["1225 4th Ave", "Seattle, WA 98101"], "state": "WA"}, "price": "$$$", "transactions": [], "display_phone": "(206) 829-2280"}, {"rating": 4.5, "is_closed": false, "distance": 1968.9687490899998, "name": "Seattle Beer", "id": "seattle-beer-seattle-5", "image_url": "https://s3-media2.fl.yelpcdn.com/bphoto/D7WeTP8mJoZ5_gLJlBZsgg/o.jpg", "url": "https://www.yelp.com/biz/seattle-beer-seattle-5?adjust_creative=gBcvfFpabk3CnzmXKdYe3w&utm_campaign=yelp_api_v3&utm_medium=api_v3_business_search&utm_source=gBcvfFpabk3CnzmXKdYe3w", "phone": "+12062499858", "coordinates": {"longitude": -122.34114, "latitude": 47.60813}, "categories": [{"alias": "beerbar", "title": "Beer Bar"}, {"alias": "venues", "title": "Venues & Event Spaces"}, {"alias": "breweries", "title": "Breweries"}], "review_count": 37, "location": {"city": "Seattle", "address1": "1427 Western Ave", "address3": "", "address2": null, "zip_code": "98101", "country": "US", "display_address": ["1427 Western Ave", "Seattle, WA 98101"], "state": "WA"}, "price": "$", "transactions": [], "display_phone": "(206) 249-9858"}, {"rating": 4.5, "is_closed": false, "distance": 1816.796156984, "name": "Jemil's Big Easy", "id": "jemils-big-easy-seattle-2", "image_url": "https://s3-media3.fl.yelpcdn.com/bphoto/_pvv_w7pU4htVi2gwf1tFQ/o.jpg", "url": "https://www.yelp.com/biz/jemils-big-easy-seattle-2?adjust_creative=gBcvfFpabk3CnzmXKdYe3w&utm_campaign=yelp_api_v3&utm_medium=api_v3_business_search&utm_source=gBcvfFpabk3CnzmXKdYe3w", "phone": "+12066416551", "coordinates": {"longitude": -122.338734138623, "latitude": 47.6092261344008}, "categories": [{"alias": "cajun", "title": "Cajun/Creole"}, {"alias": "foodtrucks", "title": "Food Trucks"}, {"alias": "catering", "title": "Caterers"}], "review_count": 177, "location": {"city": "Seattle", "address1": "", "address3": "", "address2": null, "zip_code": "98112", "country": "US", "display_address": ["Seattle, WA 98112"], "state": "WA"}, "price": "$$", "transactions": [], "display_phone": "(206) 641-6551"}]}