{"total": 36019, "region": {"center": {"longitude": -122.33551025390625, "latitude": 47.62541904760501}}, "businesses": [{"rating": 4.0, "is_closed": false, "distance": 1806.940880692, "name": "Vermillion", "id": "vermillion-seattle", "image_url": "https://s3-media2.fl.yelpcdn.com/bphoto/a4zp36moS1q5RCnanKBJ8Q/o.jpg", "url": "https://www.yelp.com/biz/vermillion-seattle?adjust_creative=gBcvfFpabk3CnzmXKdYe3w&utm_campaign=yelp_api_v3&utm_medium=api_v3_business_search&utm_source=gBcvfFpabk3CnzmXKdYe3w", "phone": "+12067099797", "coordinates": {"longitude": -122.317755, "latitude": 47.614424}, "categories": [{"alias": "galleries", "title": "Art Galleries"}, {"alias": "bars", "title": "Bars"}], "review_count": 102, "location": {"city": "Seattle", "address1": "1508 11th Ave", "address3": "", "address2": "", "zip_code": "98122", "country": "US", "display_address": ["1508 11th Ave", "Seattle, WA 98122"], "state": "WA"}, "price": "$", "transactions": [], "display_phone": "(206) 709-9797"}, {"rating": 4.0, "is_closed": false, "distance": 1343.6666766256, "name": "Terra Plata", "id": "terra-plata-seattle", "image_url": "https://s3-media3.fl.yelpcdn.com/bphoto/7TnVwAhmipsuMexUJpvgEg/o.jpg", "url": "https://www.yelp.com/biz/terra-plata-seattle?adjust_creative=gBcvfFpabk3CnzmXKdYe3w&utm_campaign=yelp_api_v3&utm_medium=api_v3_business_search&utm_source=gBcvfFpabk3CnzmXKdYe3w", "phone": "+12063251501", "coordinates": {"longitude": -122.3280716, "latitude": 47.6144905}, "categories": [{"alias": "newamerican", "title": "American (New)"}, {"alias": "cocktailbars", "title": "Cocktail Bars"}, {"alias": "wine_bars", "title": "Wine Bars"}], "review_count": 620, "location": {"city": "Seattle", "address1": "1501 Melrose Ave", "address3": "", "address2": "", "zip_code": "98122", "country": "US", "display_address": ["1501 Melrose Ave", "Seattle, WA 98122"], "state": "WA"}, "price": "$$$", "transactions": [], "display_phone": "(206) 325-1501"}, {"rating": 4.0, "is_closed": false, "distance": 1192.5028027382, "name": "Vaca Loca The Latin Taste", "id": "vaca-loca-the-latin-taste-seattle", "image_url": "https://s3-media2.fl.yelpcdn.com/bphoto/IGZee5T8LKgib4aNNNsgrw/o.jpg", "url": "https://www.yelp.com/biz/vaca-loca-the-latin-taste-seattle?adjust_creative=gBcvfFpabk3CnzmXKdYe3w&utm_campaign=yelp_api_v3&utm_medium=api_v3_business_search&utm_source=gBcvfFpabk3CnzmXKdYe3w", "phone": "+12065952018", "coordinates": {"longitude": -122.3213137, "latitude": 47.6205787}, "categories": [{"alias": "latin", "title": "Latin American"}, {"alias": "sandwiches", "title": "Sandwiches"}, {"alias": "caribbean", "title": "Caribbean"}], "review_count": 104, "location": {"city": "Seattle", "address1": "219 Broadway E", "address3": "", "address2": "Ste 14", "zip_code": "98102", "country": "US", "display_address": ["219 Broadway E", "Ste 14", "Seattle, WA 98102"], "state": "WA"}, "price": "$$", "transactions": ["delivery", "pickup"], "display_phone": "(206) 595-2018"}, {"rating": 4.0, "is_closed": false, "distance": 1657.940941462, "name": "Long Provincial Vietnamese", "id": "long-provincial-vietnamese-seattle", "image_url": "https://s3-media1.fl.yelpcdn.com/bphoto/QycrFxjZbZu9lhmIpIkCZg/o.jpg", "url": "https://www.yelp.com/biz/long-provincial-vietnamese-seattle?adjust_creative=gBcvfFpabk3CnzmXKdYe3w&utm_campaign=yelp_api_v3&utm_medium=api_v3_business_search&utm_source=gBcvfFpabk3CnzmXKdYe3w", "phone": "+12064436266", "coordinates": {"longitude": -122.34081, "latitude": 47.61096}, "categories": [{"alias": "vietnamese", "title": "Vietnamese"}], "review_count": 741, "location": {"city": "Seattle", "address1": "1901 2nd Ave", "address3": "", "address2": "", "zip_code": "98101", "country": "US", "display_address": ["1901 2nd Ave", "Seattle, WA 98101"], "state": "WA"}, "price": "$$", "transactions": [], "display_phone": "(206) 443-6266"}, {"rating": 4.0, "is_closed": false, "distance": 1429.736368528, "name": "Vittles Neighborhood Bistro & Bar", "id": "vittles-neighborhood-bistro-and-bar-seattle-2", "image_url": "https://s3-media2.fl.yelpcdn.com/bphoto/C4cTC9M7dK5Nw0JPlHNr6w/o.jpg", "url": "https://www.yelp.com/biz/vittles-neighborhood-bistro-and-bar-seattle-2?adjust_creative=gBcvfFpabk3CnzmXKdYe3w&utm_campaign=yelp_api_v3&utm_medium=api_v3_business_search&utm_source=gBcvfFpabk3CnzmXKdYe3w", "phone": "+12064483348", "coordinates": {"longitude": -122.3464273, "latitude": 47.6148746}, "categories": [{"alias": "bars", "title": "Bars"}, {"alias": "newamerican", "title": "American (New)"}, {"alias": "breakfast_brunch", "title": "Breakfast & Brunch"}], "review_count": 167, "location": {"city": "Seattle", "address1": "2330 2nd Ave", "address3": "", "address2": "", "zip_code": "98121", "country": "US", "display_address": ["2330 2nd Ave", "Seattle, WA 98121"], "state": "WA"}, "price": "$$", "transactions": ["delivery", "pickup"], "display_phone": "(206) 448-3348"}, {"rating": 4.5, "is_closed": false, "distance": 1566.5016222759998, "name": "Jimi Hendrix Statue", "id": "jimi-hendrix-statue-seattle", "image_url": "https://s3-media1.fl.yelpcdn.com/bphoto/r_4Tq4buKAb3VDNiYa4-ng/o.jpg", "url": "https://www.yelp.com/biz/jimi-hendrix-statue-seattle?adjust_creative=gBcvfFpabk3CnzmXKdYe3w&utm_campaign=yelp_api_v3&utm_medium=api_v3_business_search&utm_source=gBcvfFpabk3CnzmXKdYe3w", "phone": "", "coordinates": {"longitude": -122.320737317204, "latitude": 47.6155480742455}, "categories": [{"alias": "publicart", "title": "Public Art"}], "review_count": 45, "location": {"city": "Seattle", "address1": "1604 Broadway", "address3": "", "address2": "", "zip_code": "98127", "country": "US", "display_address": ["1604 Broadway", "Seattle, WA 98127"], "state": "WA"}, "transactions": [], "display_phone": ""}, {"rating": 4.0, "is_closed": false, "distance": 2932.9326706959996, "name": "Panama Hotel Tea & Coffee House", "id": "panama-hotel-tea-and-coffee-house-seattle", "image_url": "https://s3-media4.fl.yelpcdn.com/bphoto/WkU819ENGA4uXacRoSuNPw/o.jpg", "url": "https://www.yelp.com/biz/panama-hotel-tea-and-coffee-house-seattle?adjust_creative=gBcvfFpabk3CnzmXKdYe3w&utm_campaign=yelp_api_v3&utm_medium=api_v3_business_search&utm_source=gBcvfFpabk3CnzmXKdYe3w", "phone": "+12065154000", "coordinates": {"longitude": -122.32595, "latitude": 47.59991}, "categories": [{"alias": "coffee", "title": "Coffee & Tea"}], "review_count": 144, "location": {"city": "Seattle", "address1": "607 S Main St", "address3": "", "address2": "", "zip_code": "98104", "country": "US", "display_address": ["607 S Main St", "Seattle, WA 98104"], "state": "WA"}, "price": "$", "transactions": [], "display_phone": "(206) 515-4000"}, {"rating": 4.0, "is_closed": false, "distance": 1786.950463882, "name": "MOD Pizza", "id": "mod-pizza-seattle-7", "image_url": "https://s3-media4.fl.yelpcdn.com/bphoto/-TyWNrxvtDu-t0EZBiHgjw/o.jpg", "url": "https://www.yelp.com/biz/mod-pizza-seattle-7?adjust_creative=gBcvfFpabk3CnzmXKdYe3w&utm_campaign=yelp_api_v3&utm_medium=api_v3_business_search&utm_source=gBcvfFpabk3CnzmXKdYe3w", "phone": "+12063320200", "coordinates": {"longitude": -122.3326287, "latitude": 47.6093525}, "categories": [{"alias": "pizza", "title": "Pizza"}, {"alias": "hotdogs", "title": "Fast Food"}], "review_count": 438, "location": {"city": "Seattle", "address1": "1302 6th Ave", "address3": "", "address2": "", "zip_code": "98101", "country": "US", "display_address": ["1302 6th Ave", "Seattle, WA 98101"], "state": "WA"}, "price": "$", "transactions": [], "display_phone": "(206) 332-0200"}, {"rating": 4.0, "is_closed": false, "distance": 1928.722052502, "name": "Georgian Restaurant", "id": "georgian-restaurant-seattle", "image_url": "https://s3-media1.fl.yelpcdn.com/bphoto/vvspbgLZlmPCtSzlNc5fXA/o.jpg", "url": "https://www.yelp.com/biz/georgian-restaurant-seattle?adjust_creative=gBcvfFpabk3CnzmXKdYe3w&utm_campaign=yelp_api_v3&utm_medium=api_v3_business_search&utm_source=gBcvfFpabk3CnzmXKdYe3w", "phone": "+12066217889", "coordinates": {"longitude": -122.33414, "latitude": 47.60819}, "categories": [{"alias": "french", "title": "French"}, {"alias": "newamerican", "title": "American (New)"}, {"alias": "tea", "title": "Tea Rooms"}], "review_count": 296, "location": {"city": "Seattle", "address1": "411 University Street", "address3": "", "address2": "", "zip_code": "98101", "country": "US", "display_address": ["411 University Street", "Seattle, WA 98101"], "state": "WA"}, "price": "$$$", "transactions": [], "display_phone": "(206) 621-7889"}, {"rating": 4.5, "is_closed": false, "distance": 2354.63903339, "name": "Piroshky Piroshky", "id": "piroshky-piroshky-seattle-5", "image_url": "https://s3-media3.fl.yelpcdn.com/bphoto/l98FcOPt2I3pEo75WQlMqg/o.jpg", "url": "https://www.yelp.com/biz/piroshky-piroshky-seattle-5?adjust_creative=gBcvfFpabk3CnzmXKdYe3w&utm_campaign=yelp_api_v3&utm_medium=api_v3_business_search&utm_source=gBcvfFpabk3CnzmXKdYe3w", "phone": "+12064671319", "coordinates": {"longitude": -122.33061, "latitude": 47.6045299}, "categories": [{"alias": "russian", "title": "Russian"}, {"alias": "bakeries", "title": "Bakeries"}], "review_count": 31, "location": {"city": "Seattle", "address1": "701 5th Ave", "address3": "", "address2": null, "zip_code": "98104", "country": "US", "display_address": ["701 5th Ave", "Seattle, WA 98104"], "state": "WA"}, "price": "$", "transactions": [], "display_phone": "(206) 467-1319"}, {"rating": 4.0, "is_closed": false, "distance": 3991.0658349299997, "name": "Aladdin Gyro-Cery", "id": "aladdin-gyro-cery-seattle", "image_url": "https://s3-media2.fl.yelpcdn.com/bphoto/qV7RU9BoFdqyNnEQaVeXew/o.jpg", "url": "https://www.yelp.com/biz/aladdin-gyro-cery-seattle?adjust_creative=gBcvfFpabk3CnzmXKdYe3w&utm_campaign=yelp_api_v3&utm_medium=api_v3_business_search&utm_source=gBcvfFpabk3CnzmXKdYe3w", "phone": "+12066325253", "coordinates": {"longitude": -122.31346, "latitude": 47.65805}, "categories": [{"alias": "greek", "title": "Greek"}, {"alias": "mediterranean", "title": "Mediterranean"}, {"alias": "halal", "title": "Halal"}], "review_count": 366, "location": {"city": "Seattle", "address1": "4139 University Way NE", "address3": "", "address2": "", "zip_code": "98105", "country": "US", "display_address": ["4139 University Way NE", "Seattle, WA 98105"], "state": "WA"}, "price": "$", "transactions": [], "display_phone": "(206) 632-5253"}, {"rating": 4.5, "is_closed": false, "distance": 6068.259963142, "name": "Sod House Bakery", "id": "sod-house-bakery-seattle", "image_url": "https://s3-media4.fl.yelpcdn.com/bphoto/1INxf0-Cb3Da4KmMj2oKfg/o.jpg", "url": "https://www.yelp.com/biz/sod-house-bakery-seattle?adjust_creative=gBcvfFpabk3CnzmXKdYe3w&utm_campaign=yelp_api_v3&utm_medium=api_v3_business_search&utm_source=gBcvfFpabk3CnzmXKdYe3w", "phone": "+12065223000", "coordinates": {"longitude": -122.3043976, "latitude": 47.6759109}, "categories": [{"alias": "cafes", "title": "Cafes"}, {"alias": "coffee", "title": "Coffee & Tea"}, {"alias": "bakeries", "title": "Bakeries"}], "review_count": 65, "location": {"city": "Seattle", "address1": "2114 NE 65th St", "address3": "", "address2": "", "zip_code": "98115", "country": "US", "display_address": ["2114 NE 65th St", "Seattle, WA 98115"], "state": "WA"}, "price": "$", "transactions": [], "display_phone": "(206) 522-3000"}, {"rating": 4.5, "is_closed": false, "distance": 2667.727439954, "name": "Tat's Truck", "id": "tats-truck-seattle", "image_url": "https://s3-media4.fl.yelpcdn.com/bphoto/6Q0LNvnAcBwOhNjQZjKfsw/o.jpg", "url": "https://www.yelp.com/biz/tats-truck-seattle?adjust_creative=gBcvfFpabk3CnzmXKdYe3w&utm_campaign=yelp_api_v3&utm_medium=api_v3_business_search&utm_source=gBcvfFpabk3CnzmXKdYe3w", "phone": "+12065382133", "coordinates": {"longitude": -122.332388162613, "latitude": 47.6015215617005}, "categories": [{"alias": "foodtrucks", "title": "Food Trucks"}, {"alias": "delis", "title": "Delis"}, {"alias": "cheesesteaks", "title": "Cheesesteaks"}], "review_count": 46, "location": {"city": "Seattle", "address1": "", "address3": "", "address2": "", "zip_code": "98104", "country": "US", "display_address": ["Seattle, WA 98104"], "state": "WA"}, "price": "$$", "transactions": [], "display_phone": "(206) 538-2133"}, {"rating": 4.0, "is_closed": false, "distance": 3873.6715630259996, "name": "Guanaco's Tacos Pupuseria", "id": "guanacos-tacos-pupuseria-seattle", "image_url": "https://s3-media3.fl.yelpcdn.com/bphoto/imUqUlJaGvLEQznQLGwE2Q/o.jpg", "url": "https://www.yelp.com/biz/guanacos-tacos-pupuseria-seattle?adjust_creative=gBcvfFpabk3CnzmXKdYe3w&utm_campaign=yelp_api_v3&utm_medium=api_v3_business_search&utm_source=gBcvfFpabk3CnzmXKdYe3w", "phone": "+12065472369", "coordinates": {"longitude": -122.31404, "latitude": 47.65714}, "categories": [{"alias": "mexican", "title": "Mexican"}, {"alias": "salvadoran", "title": "Salvadoran"}], "review_count": 266, "location": {"city": "Seattle", "address1": "4106 Brooklyn Ave NE", "address3": "", "address2": "Ste 102A", "zip_code": "98105", "country": "US", "display_address": ["4106 Brooklyn Ave NE", "Ste 102A", "Seattle, WA 98105"], "state": "WA"}, "price": "$", "transactions": [], "display_phone": "(206) 547-2369"}, {"rating": 4.0, "is_closed": false, "distance": 3234.243444338, "name": "Brouwer's Cafe", "id": "brouwers-cafe-seattle", "image_url": "https://s3-media1.fl.yelpcdn.com/bphoto/t6tAXHzqNv_G-F3Dtb8EEQ/o.jpg", "url": "https://www.yelp.com/biz/brouwers-cafe-seattle?adjust_creative=gBcvfFpabk3CnzmXKdYe3w&utm_campaign=yelp_api_v3&utm_medium=api_v3_business_search&utm_source=gBcvfFpabk3CnzmXKdYe3w", "phone": "+12062672437", "coordinates": {"longitude": -122.35423, "latitude": 47.65163}, "categories": [{"alias": "modern_european", "title": "Modern European"}, {"alias": "pubs", "title": "Pubs"}, {"alias": "belgian", "title": "Belgian"}], "review_count": 849, "location": {"city": "Seattle", "address1": "400 N 35th St", "address3": "", "address2": "", "zip_code": "98103", "country": "US", "display_address": ["400 N 35th St", "Seattle, WA 98103"], "state": "WA"}, "price": "$$", "transactions": [], "display_phone": "(206) 267-2437"}, {"rating": 4.5, "is_closed": false, "distance": 2365.4636151639997, "name": "Marshall Park", "id": "marshall-park-seattle", "image_url": "https://s3-media4.fl.yelpcdn.com/bphoto/o0s1Kr2rP3v3TGikrbGnwA/o.jpg", "url": "https://www.yelp.com/biz/marshall-park-seattle?adjust_creative=gBcvfFpabk3CnzmXKdYe3w&utm_campaign=yelp_api_v3&utm_medium=api_v3_business_search&utm_source=gBcvfFpabk3CnzmXKdYe3w", "phone": "+12066844075", "coordinates": {"longitude": -122.366501160178, "latitude": 47.629646168089}, "categories": [{"alias": "parks", "title": "Parks"}], "review_count": 19, "location": {"city": "Seattle", "address1": "7TH Ave W And W Highland Dr", "address3": "", "address2": "", "zip_code": "98119", "country": "US", "display_address": ["7TH Ave W And W Highland Dr", "Seattle, WA 98119"], "state": "WA"}, "transactions": [], "display_phone": "(206) 684-4075"}, {"rating": 4.0, "is_closed": false, "distance": 2138.592541354, "name": "Fuel", "id": "fuel-seattle", "image_url": "https://s3-media3.fl.yelpcdn.com/bphoto/r_l24H4jWwIxVdBWuMb4Dg/o.jpg", "url": "https://www.yelp.com/biz/fuel-seattle?adjust_creative=gBcvfFpabk3CnzmXKdYe3w&utm_campaign=yelp_api_v3&utm_medium=api_v3_business_search&utm_source=gBcvfFpabk3CnzmXKdYe3w", "phone": "+12063294700", "coordinates": {"longitude": -122.30717, "latitude": 47.62474}, "categories": [{"alias": "coffee", "title": "Coffee & Tea"}], "review_count": 92, "location": {"city": "Seattle", "address1": "610 19th Ave E", "address3": "", "address2": "", "zip_code": "98112", "country": "US", "display_address": ["610 19th Ave E", "Seattle, WA 98112"], "state": "WA"}, "price": "$", "transactions": [], "display_phone": "(206) 329-4700"}, {"rating": 4.0, "is_closed": false, "distance": 3063.17832717, "name": "Fuji Bakery", "id": "fuji-bakery-seattle", "image_url": "https://s3-media1.fl.yelpcdn.com/bphoto/Jlr_RmtR5pJeAaCQNWgBAw/o.jpg", "url": "https://www.yelp.com/biz/fuji-bakery-seattle?adjust_creative=gBcvfFpabk3CnzmXKdYe3w&utm_campaign=yelp_api_v3&utm_medium=api_v3_business_search&utm_source=gBcvfFpabk3CnzmXKdYe3w", "phone": "+12066234050", "coordinates": {"longitude": -122.3265381, "latitude": 47.5984917}, "categories": [{"alias": "bakeries", "title": "Bakeries"}, {"alias": "coffee", "title": "Coffee & Tea"}, {"alias": "cakeshop", "title": "Patisserie/Cake Shop"}], "review_count": 192, "location": {"city": "Seattle", "address1": "526 S King St", "address3": "", "address2": "", "zip_code": "98104", "country": "US", "display_address": ["526 S King St", "Seattle, WA 98104"], "state": "WA"}, "price": "$", "transactions": [], "display_phone": "(206) 623-4050"}, {"rating": 4.5, "is_closed": false, "distance": 7570.249421244, "name": "Geo's Cuban & Creole Cafe", "id": "geos-cuban-and-creole-cafe-seattle", "image_url": "https://s3-media1.fl.yelpcdn.com/bphoto/JhZ_SIKR6FUI_fTo_sRIlA/o.jpg", "url": "https://www.yelp.com/biz/geos-cuban-and-creole-cafe-seattle?adjust_creative=gBcvfFpabk3CnzmXKdYe3w&utm_campaign=yelp_api_v3&utm_medium=api_v3_business_search&utm_source=gBcvfFpabk3CnzmXKdYe3w", "phone": "+12067063117", "coordinates": {"longitude": -122.4063607, "latitude": 47.6739645}, "categories": [{"alias": "cajun", "title": "Cajun/Creole"}, {"alias": "cuban", "title": "Cuban"}], "review_count": 135, "location": {"city": "Seattle", "address1": "6301 Seaview Ave NW", "address3": "", "address2": "", "zip_code": "98107", "country": "US", "display_address": ["6301 Seaview Ave NW", "Seattle, WA 98107"], "state": "WA"}, "price": "$$", "transactions": ["pickup"], "display_phone": "(206) 706-3117"}, {"rating": 4.5, "is_closed": false, "distance": 6533.05779376, "name": "\u00dcber Tavern", "id": "\u00fcber-tavern-seattle-2", "image_url": "https://s3-media2.fl.yelpcdn.com/bphoto/-TaCSQFmpXx8US-hiqYVgg/o.jpg", "url": "https://www.yelp.com/biz/%C3%BCber-tavern-seattle-2?adjust_creative=gBcvfFpabk3CnzmXKdYe3w&utm_campaign=yelp_api_v3&utm_medium=api_v3_business_search&utm_source=gBcvfFpabk3CnzmXKdYe3w", "phone": "+12067822337", "coordinates": {"longitude": -122.344841, "latitude": 47.683826}, "categories": [{"alias": "beerbar", "title": "Beer Bar"}], "review_count": 193, "location": {"city": "Seattle", "address1": "7517 Aurora Ave N", "address3": "", "address2": null, "zip_code": "98103", "country": "US", "display_address": ["7517 Aurora Ave N", "Seattle, WA 98103"], "state": "WA"}, "price": "$$", "transactions": [], "display_phone": "(206) 782-2337"}, {"rating": 5.0, "is_closed": false, "distance": 2435.399577006, "name": "City Grind", "id": "city-grind-seattle", "image_url": "https://s3-media2.fl.yelpcdn.com/bphoto/zpTpNd_N-Qe6qIzu9PcuzQ/o.jpg", "url": "https://www.yelp.com/biz/city-grind-seattle?adjust_creative=gBcvfFpabk3CnzmXKdYe3w&utm_campaign=yelp_api_v3&utm_medium=api_v3_business_search&utm_source=gBcvfFpabk3CnzmXKdYe3w", "phone": "+12065528042", "coordinates": {"longitude": -122.33005, "latitude": 47.60382}, "categories": [{"alias": "coffee", "title": "Coffee & Tea"}], "review_count": 15, "location": {"city": "Seattle", "address1": "600 4th Ave", "address3": "", "address2": "", "zip_code": "98104", "country": "US", "display_address": ["600 4th Ave", "Seattle, WA 98104"], "state": "WA"}, "price": "$", "transactions": [], "display_phone": "(206) 552-8042"}, {"rating": 4.5, "is_closed": false, "distance": 4493.3955664899995, "name": "Bad Jimmy's Brewing", "id": "bad-jimmys-brewing-seattle", "image_url": "https://s3-media2.fl.yelpcdn.com/bphoto/WkC3ZwcmIC7FOWFBpOlrKw/o.jpg", "url": "https://www.yelp.com/biz/bad-jimmys-brewing-seattle?adjust_creative=gBcvfFpabk3CnzmXKdYe3w&utm_campaign=yelp_api_v3&utm_medium=api_v3_business_search&utm_source=gBcvfFpabk3CnzmXKdYe3w", "phone": "+12067891548", "coordinates": {"longitude": -122.365754842758, "latitude": 47.6603168879832}, "categories": [{"alias": "bars", "title": "Bars"}, {"alias": "breweries", "title": "Breweries"}], "review_count": 116, "location": {"city": "Seattle", "address1": "4358 B Leary Way NW", "address3": "", "address2": "", "zip_code": "98107", "country": "US", "display_address": ["4358 B Leary Way NW", "Seattle, WA 98107"], "state": "WA"}, "price": "$", "transactions": [], "display_phone": "(206) 789-1548"}, {"rating": 4.0, "is_closed": false, "distance": 1156.5814166144, "name": "Space Needle", "id": "space-needle-seattle", "image_url": "https://s3-media1.fl.yelpcdn.com/bphoto/3adq85lvMhX8Wnk720s74Q/o.jpg", "url": "https://www.yelp.com/biz/space-needle-seattle?adjust_creative=gBcvfFpabk3CnzmXKdYe3w&utm_campaign=yelp_api_v3&utm_medium=api_v3_business_search&utm_source=gBcvfFpabk3CnzmXKdYe3w", "phone": "+12069052100", "coordinates": {"longitude": -122.34923, "latitude": 47.62049}, "categories": [{"alias": "landmarks", "title": "Landmarks & Historical Buildings"}, {"alias": "observatories", "title": "Observatories"}], "review_count": 1833, "location": {"city": "Seattle", "address1": "400 Broad St", "address3": "", "address2": "", "zip_code": "98109", "country": "US", "display_address": ["400 Broad St", "Seattle, WA 98109"], "state": "WA"}, "transactions": [], "display_phone": "(206) 905-2100"}, {"rating": 4.0, "is_closed": false, "distance": 1078.2200287901999, "name": "Rooster's TEX-MEX-BBQ", "id": "roosters-tex-mex-bbq-seattle", "image_url": "https://s3-media2.fl.yelpcdn.com/bphoto/7o_cXIPSWv5EM8xKl7JXBg/o.jpg", "url": "https://www.yelp.com/biz/roosters-tex-mex-bbq-seattle?adjust_creative=gBcvfFpabk3CnzmXKdYe3w&utm_campaign=yelp_api_v3&utm_medium=api_v3_business_search&utm_source=gBcvfFpabk3CnzmXKdYe3w", "phone": "+12069223061", "coordinates": {"longitude": -122.321176376721, "latitude": 47.6245982461528}, "categories": [{"alias": "tex-mex", "title": "Tex-Mex"}, {"alias": "bbq", "title": "Barbeque"}], "review_count": 133, "location": {"city": "Seattle", "address1": "611 Broadway E", "address3": null, "address2": null, "zip_code": "98102", "country": "US", "display_address": ["611 Broadway E", "Seattle, WA 98102"], "state": "WA"}, "price": "$$", "transactions": [], "display_phone": "(206) 922-3061"}, {"rating": 4.0, "is_closed": false, "distance": 1250.1579071336, "name": "Mr. West Cafe Bar", "id": "mr-west-cafe-bar-seattle", "image_url": "https://s3-media4.fl.yelpcdn.com/bphoto/jlUPswHspYwEVVnKktoGug/o.jpg", "url": "https://www.yelp.com/biz/mr-west-cafe-bar-seattle?adjust_creative=gBcvfFpabk3CnzmXKdYe3w&utm_campaign=yelp_api_v3&utm_medium=api_v3_business_search&utm_source=gBcvfFpabk3CnzmXKdYe3w", "phone": "+12069009378", "coordinates": {"longitude": -122.33479, "latitude": 47.61422}, "categories": [{"alias": "cafes", "title": "Cafes"}, {"alias": "breakfast_brunch", "title": "Breakfast & Brunch"}, {"alias": "coffee", "title": "Coffee & Tea"}], "review_count": 124, "location": {"city": "Seattle", "address1": "720 Olive Way", "address3": "", "address2": "Ste 103", "zip_code": "98101", "country": "US", "display_address": ["720 Olive Way", "Ste 103", "Seattle, WA 98101"], "state": "WA"}, "price": "$$", "transactions": [], "display_phone": "(206) 900-9378"}, {"rating": 4.0, "is_closed": false, "distance": 2031.2799798799997, "name": "The Brooklyn Seafood, Steak & Oyster House", "id": "the-brooklyn-seafood-steak-and-oyster-house-seattle", "image_url": "https://s3-media1.fl.yelpcdn.com/bphoto/zR6Pu3zEDfntGUjR6GZTNw/o.jpg", "url": "https://www.yelp.com/biz/the-brooklyn-seafood-steak-and-oyster-house-seattle?adjust_creative=gBcvfFpabk3CnzmXKdYe3w&utm_campaign=yelp_api_v3&utm_medium=api_v3_business_search&utm_source=gBcvfFpabk3CnzmXKdYe3w", "phone": "+12062247000", "coordinates": {"longitude": -122.336951661377, "latitude": 47.6071761944115}, "categories": [{"alias": "seafood", "title": "Seafood"}, {"alias": "steak", "title": "Steakhouses"}, {"alias": "raw_food", "title": "Live/Raw Food"}], "review_count": 863, "location": {"city": "Seattle", "address1": "1212 2nd Ave", "address3": "", "address2": "", "zip_code": "98101", "country": "US", "display_address": ["1212 2nd Ave", "Seattle, WA 98101"], "state": "WA"}, "price": "$$$", "transactions": [], "display_phone": "(206) 224-7000"}, {"rating": 4.5, "is_closed": false, "distance": 4156.46173008, "name": "Wann Yen", "id": "wann-yen-seattle", "image_url": "https://s3-media2.fl.yelpcdn.com/bphoto/uhItsQzU5taT2r3PUKXInA/o.jpg", "url": "https://www.yelp.com/biz/wann-yen-seattle?adjust_creative=gBcvfFpabk3CnzmXKdYe3w&utm_campaign=yelp_api_v3&utm_medium=api_v3_business_search&utm_source=gBcvfFpabk3CnzmXKdYe3w", "phone": "+12064325902", "coordinates": {"longitude": -122.3137093, "latitude": 47.6597921}, "categories": [{"alias": "thai", "title": "Thai"}], "review_count": 65, "location": {"city": "Seattle", "address1": "1313 NE 43rd St", "address3": "", "address2": "", "zip_code": "98105", "country": "US", "display_address": ["1313 NE 43rd St", "Seattle, WA 98105"], "state": "WA"}, "price": "$", "transactions": [], "display_phone": "(206) 432-5902"}, {"rating": 4.5, "is_closed": false, "distance": 1724.2500946799998, "name": "Babirusa", "id": "babirusa-seattle", "image_url": "https://s3-media2.fl.yelpcdn.com/bphoto/D0DpcS7ZnmZfXWkonYo1_w/o.jpg", "url": "https://www.yelp.com/biz/babirusa-seattle?adjust_creative=gBcvfFpabk3CnzmXKdYe3w&utm_campaign=yelp_api_v3&utm_medium=api_v3_business_search&utm_source=gBcvfFpabk3CnzmXKdYe3w", "phone": "+12063292744", "coordinates": {"longitude": -122.3254135, "latitude": 47.6393564}, "categories": [{"alias": "newamerican", "title": "American (New)"}, {"alias": "cocktailbars", "title": "Cocktail Bars"}], "review_count": 61, "location": {"city": "Seattle", "address1": "2236 Eastlake Ave E", "address3": "", "address2": "", "zip_code": "98102", "country": "US", "display_address": ["2236 Eastlake Ave E", "Seattle, WA 98102"], "state": "WA"}, "price": "$$", "transactions": [], "display_phone": "(206) 329-2744"}, {"rating": 4.5, "is_closed": false, "distance": 7611.77908368, "name": "Chuck's Hop Shop", "id": "chucks-hop-shop-seattle", "image_url": "https://s3-media2.fl.yelpcdn.com/bphoto/QVRFHH_QTCObap3BX2VIaQ/o.jpg", "url": "https://www.yelp.com/biz/chucks-hop-shop-seattle?adjust_creative=gBcvfFpabk3CnzmXKdYe3w&utm_campaign=yelp_api_v3&utm_medium=api_v3_business_search&utm_source=gBcvfFpabk3CnzmXKdYe3w", "phone": "+12062976212", "coordinates": {"longitude": -122.36575460434, "latitude": 47.6907749003192}, "categories": [{"alias": "beerbar", "title": "Beer Bar"}], "review_count": 209, "location": {"city": "Seattle", "address1": "656 NW 85th St", "address3": "", "address2": "", "zip_code": "98117", "country": "US", "display_address": ["656 NW 85th St", "Seattle, WA 98117"], "state": "WA"}, "price": "$$", "transactions": [], "display_phone": "(206) 297-6212"}, {"rating": 4.0, "is_closed": false, "distance": 3069.40164495, "name": "Tofully", "id": "tofully-seattle-2", "image_url": "https://s3-media3.fl.yelpcdn.com/bphoto/1yIlhJ7Nu4i-d64swgsSAw/o.jpg", "url": "https://www.yelp.com/biz/tofully-seattle-2?adjust_creative=gBcvfFpabk3CnzmXKdYe3w&utm_campaign=yelp_api_v3&utm_medium=api_v3_business_search&utm_source=gBcvfFpabk3CnzmXKdYe3w", "phone": "+12066821300", "coordinates": {"longitude": -122.3273803, "latitude": 47.5983664}, "categories": [{"alias": "korean", "title": "Korean"}, {"alias": "bbq", "title": "Barbeque"}], "review_count": 145, "location": {"city": "Seattle", "address1": "502 S King St", "address3": "", "address2": "", "zip_code": "98104", "country": "US", "display_address": ["502 S King St", "Seattle, WA 98104"], "state": "WA"}, "price": "$$", "transactions": [], "display_phone": "(206) 682-1300"}, {"rating": 4.0, "is_closed": false, "distance": 1715.99578982, "name": "Caffe Ladro", "id": "caffe-ladro-seattle-13", "image_url": "https://s3-media3.fl.yelpcdn.com/bphoto/zRrwksGVKNUdLAxqe8hFBA/o.jpg", "url": "https://www.yelp.com/biz/caffe-ladro-seattle-13?adjust_creative=gBcvfFpabk3CnzmXKdYe3w&utm_campaign=yelp_api_v3&utm_medium=api_v3_business_search&utm_source=gBcvfFpabk3CnzmXKdYe3w", "phone": "+12062670551", "coordinates": {"longitude": -122.3128, "latitude": 47.62295}, "categories": [{"alias": "coffee", "title": "Coffee & Tea"}, {"alias": "coffeeroasteries", "title": "Coffee Roasteries"}], "review_count": 108, "location": {"city": "Seattle", "address1": "435 15th Ave E", "address3": "", "address2": "", "zip_code": "98102", "country": "US", "display_address": ["435 15th Ave E", "Seattle, WA 98102"], "state": "WA"}, "price": "$", "transactions": [], "display_phone": "(206) 267-0551"}, {"rating": 4.0, "is_closed": false, "distance": 5225.532290822, "name": "Brimmer & Heeltap", "id": "brimmer-and-heeltap-seattle", "image_url": "https://s3-media4.fl.yelpcdn.com/bphoto/SJBD-tDp460mzpUFf94gDg/o.jpg", "url": "https://www.yelp.com/biz/brimmer-and-heeltap-seattle?adjust_creative=gBcvfFpabk3CnzmXKdYe3w&utm_campaign=yelp_api_v3&utm_medium=api_v3_business_search&utm_source=gBcvfFpabk3CnzmXKdYe3w", "phone": "+12064202534", "coordinates": {"longitude": -122.363137557147, "latitude": 47.6685723625563}, "categories": [{"alias": "newamerican", "title": "American (New)"}, {"alias": "breakfast_brunch", "title": "Breakfast & Brunch"}, {"alias": "cocktailbars", "title": "Cocktail Bars"}], "review_count": 335, "location": {"city": "Seattle", "address1": "425 NW Market St", "address3": "", "address2": "", "zip_code": "98107", "country": "US", "display_address": ["425 NW Market St", "Seattle, WA 98107"], "state": "WA"}, "price": "$$", "transactions": [], "display_phone": "(206) 420-2534"}, {"rating": 4.0, "is_closed": false, "distance": 506.8355295052, "name": "Feierabend", "id": "feierabend-seattle", "image_url": "https://s3-media2.fl.yelpcdn.com/bphoto/cpSxrp4eGLQWj76mv5IkiQ/o.jpg", "url": "https://www.yelp.com/biz/feierabend-seattle?adjust_creative=gBcvfFpabk3CnzmXKdYe3w&utm_campaign=yelp_api_v3&utm_medium=api_v3_business_search&utm_source=gBcvfFpabk3CnzmXKdYe3w", "phone": "+12063402528", "coordinates": {"longitude": -122.330288567194, "latitude": 47.6225189844835}, "categories": [{"alias": "german", "title": "German"}, {"alias": "pubs", "title": "Pubs"}], "review_count": 422, "location": {"city": "Seattle", "address1": "422 Yale Ave N", "address3": "", "address2": "Ste A", "zip_code": "98109", "country": "US", "display_address": ["422 Yale Ave N", "Ste A", "Seattle, WA 98109"], "state": "WA"}, "price": "$$", "transactions": [], "display_phone": "(206) 340-2528"}, {"rating": 4.0, "is_closed": false, "distance": 3312.5824140559994, "name": "The Twilight Exit", "id": "the-twilight-exit-seattle-2", "image_url": "https://s3-media1.fl.yelpcdn.com/bphoto/KZ8sWdGnNEOFcnUfF4iYnA/o.jpg", "url": "https://www.yelp.com/biz/the-twilight-exit-seattle-2?adjust_creative=gBcvfFpabk3CnzmXKdYe3w&utm_campaign=yelp_api_v3&utm_medium=api_v3_business_search&utm_source=gBcvfFpabk3CnzmXKdYe3w", "phone": "+12063247462", "coordinates": {"longitude": -122.2994, "latitude": 47.60818}, "categories": [{"alias": "divebars", "title": "Dive Bars"}, {"alias": "tradamerican", "title": "American (Traditional)"}], "review_count": 186, "location": {"city": "Seattle", "address1": "2514 E Cherry St", "address3": "", "address2": "", "zip_code": "98122", "country": "US", "display_address": ["2514 E Cherry St", "Seattle, WA 98122"], "state": "WA"}, "price": "$$", "transactions": [], "display_phone": "(206) 324-7462"}, {"rating": 4.0, "is_closed": false, "distance": 1167.4343871459998, "name": "Observation Deck At the Space Needle", "id": "observation-deck-at-the-space-needle-seattle", "image_url": "https://s3-media4.fl.yelpcdn.com/bphoto/k2MJI1JAVZEHstt9EjeCjA/o.jpg", "url": "https://www.yelp.com/biz/observation-deck-at-the-space-needle-seattle?adjust_creative=gBcvfFpabk3CnzmXKdYe3w&utm_campaign=yelp_api_v3&utm_medium=api_v3_business_search&utm_source=gBcvfFpabk3CnzmXKdYe3w", "phone": "+18009379582", "coordinates": {"longitude": -122.349210015759, "latitude": 47.6204267816671}, "categories": [{"alias": "landmarks", "title": "Landmarks & Historical Buildings"}], "review_count": 153, "location": {"city": "Seattle", "address1": "400 Broad St", "address3": "", "address2": "", "zip_code": "98109", "country": "US", "display_address": ["400 Broad St", "Seattle, WA 98109"], "state": "WA"}, "transactions": [], "display_phone": "(800) 937-9582"}, {"rating": 4.5, "is_closed": false, "distance": 1223.166394615, "name": "Marination Mobile", "id": "marination-mobile-seattle-3", "image_url": "https://s3-media2.fl.yelpcdn.com/bphoto/lzi7gNa-Ii1QY_D9ETPz6w/o.jpg", "url": "https://www.yelp.com/biz/marination-mobile-seattle-3?adjust_creative=gBcvfFpabk3CnzmXKdYe3w&utm_campaign=yelp_api_v3&utm_medium=api_v3_business_search&utm_source=gBcvfFpabk3CnzmXKdYe3w", "phone": "", "coordinates": {"longitude": -122.33858794016, "latitude": 47.6146158658693}, "categories": [{"alias": "foodtrucks", "title": "Food Trucks"}, {"alias": "asianfusion", "title": "Asian Fusion"}, {"alias": "hawaiian", "title": "Hawaiian"}], "review_count": 46, "location": {"city": "Seattle", "address1": "309 Pontius Ave N", "address3": "", "address2": "", "zip_code": "98109", "country": "US", "display_address": ["309 Pontius Ave N", "Seattle, WA 98109"], "state": "WA"}, "price": "$", "transactions": [], "display_phone": ""}, {"rating": 4.5, "is_closed": false, "distance": 6513.216240899999, "name": "Freshy's", "id": "freshys-seattle", "image_url": "https://s3-media1.fl.yelpcdn.com/bphoto/FYvKAvpKNlvQuucpVGhLvw/o.jpg", "url": "https://www.yelp.com/biz/freshys-seattle?adjust_creative=gBcvfFpabk3CnzmXKdYe3w&utm_campaign=yelp_api_v3&utm_medium=api_v3_business_search&utm_source=gBcvfFpabk3CnzmXKdYe3w", "phone": "+12069374316", "coordinates": {"longitude": -122.387054443359, "latitude": 47.5782775878906}, "categories": [{"alias": "coffee", "title": "Coffee & Tea"}, {"alias": "soulfood", "title": "Soul Food"}, {"alias": "sandwiches", "title": "Sandwiches"}], "review_count": 114, "location": {"city": "Seattle", "address1": "2735 California Ave SW", "address3": "", "address2": "Ste 120", "zip_code": "98116", "country": "US", "display_address": ["2735 California Ave SW", "Ste 120", "Seattle, WA 98116"], "state": "WA"}, "price": "$", "transactions": [], "display_phone": "(206) 937-4316"}, {"rating": 4.0, "is_closed": false, "distance": 1715.86865196, "name": "RN74", "id": "rn74-seattle", "image_url": "https://s3-media2.fl.yelpcdn.com/bphoto/k7vz4hT6Q9dlE1zX_ptz_Q/o.jpg", "url": "https://www.yelp.com/biz/rn74-seattle?adjust_creative=gBcvfFpabk3CnzmXKdYe3w&utm_campaign=yelp_api_v3&utm_medium=api_v3_business_search&utm_source=gBcvfFpabk3CnzmXKdYe3w", "phone": "+12064567474", "coordinates": {"longitude": -122.3368073, "latitude": 47.6099701}, "categories": [{"alias": "newamerican", "title": "American (New)"}, {"alias": "french", "title": "French"}, {"alias": "wine_bars", "title": "Wine Bars"}], "review_count": 866, "location": {"city": "Seattle", "address1": "1433 4th Ave", "address3": "", "address2": "", "zip_code": "98101", "country": "US", "display_address": ["1433 4th Ave", "Seattle, WA 98101"], "state": "WA"}, "price": "$$$", "transactions": [], "display_phone": "(206) 456-7474"}, {"rating": 4.0, "is_closed": false, "distance": 2732.8765808999997, "name": "Sushi Kappo Tamura", "id": "sushi-kappo-tamura-seattle", "image_url": "https://s3-media3.fl.yelpcdn.com/bphoto/HP8r8x7g3JZSCT_H6sg1bw/o.jpg", "url": "https://www.yelp.com/biz/sushi-kappo-tamura-seattle?adjust_creative=gBcvfFpabk3CnzmXKdYe3w&utm_campaign=yelp_api_v3&utm_medium=api_v3_business_search&utm_source=gBcvfFpabk3CnzmXKdYe3w", "phone": "+12065470937", "coordinates": {"longitude": -122.323398, "latitude": 47.648602}, "categories": [{"alias": "sushi", "title": "Sushi Bars"}, {"alias": "japanese", "title": "Japanese"}], "review_count": 338, "location": {"city": "Seattle", "address1": "2968 Eastlake Ave E", "address3": "", "address2": "", "zip_code": "98102", "country": "US", "display_address": ["2968 Eastlake Ave E", "Seattle, WA 98102"], "state": "WA"}, "price": "$$$", "transactions": [], "display_phone": "(206) 547-0937"}, {"rating": 5.0, "is_closed": false, "distance": 5904.208671562, "name": "Little Tin Goods & Apothecary Cabinet", "id": "little-tin-goods-and-apothecary-cabinet-seattle", "image_url": "https://s3-media4.fl.yelpcdn.com/bphoto/ppJ6-zRDFDmSWHsKujWUaw/o.jpg", "url": "https://www.yelp.com/biz/little-tin-goods-and-apothecary-cabinet-seattle?adjust_creative=gBcvfFpabk3CnzmXKdYe3w&utm_campaign=yelp_api_v3&utm_medium=api_v3_business_search&utm_source=gBcvfFpabk3CnzmXKdYe3w", "phone": "+12062680143", "coordinates": {"longitude": -122.38433, "latitude": 47.667}, "categories": [{"alias": "cocktailbars", "title": "Cocktail Bars"}], "review_count": 32, "location": {"city": "Seattle", "address1": "5335 Ballard Ave NW", "address3": null, "address2": "", "zip_code": "98107", "country": "US", "display_address": ["5335 Ballard Ave NW", "Seattle, WA 98107"], "state": "WA"}, "price": "$$", "transactions": [], "display_phone": "(206) 268-0143"}, {"rating": 4.0, "is_closed": false, "distance": 2620.7883029759996, "name": "Shawn O'Donnell's American Grill & Irish Pub", "id": "shawn-o-donnells-american-grill-and-irish-pub-seattle-2", "image_url": "https://s3-media2.fl.yelpcdn.com/bphoto/Rzpi7xwcDGZJ0dOTVP-vdQ/o.jpg", "url": "https://www.yelp.com/biz/shawn-o-donnells-american-grill-and-irish-pub-seattle-2?adjust_creative=gBcvfFpabk3CnzmXKdYe3w&utm_campaign=yelp_api_v3&utm_medium=api_v3_business_search&utm_source=gBcvfFpabk3CnzmXKdYe3w", "phone": "+12066026380", "coordinates": {"longitude": -122.3318733, "latitude": 47.6019782}, "categories": [{"alias": "fishnchips", "title": "Fish & Chips"}, {"alias": "tradamerican", "title": "American (Traditional)"}, {"alias": "irish_pubs", "title": "Irish Pub"}], "review_count": 178, "location": {"city": "Seattle", "address1": "508 2nd Ave", "address3": "", "address2": "", "zip_code": "98104", "country": "US", "display_address": ["508 2nd Ave", "Seattle, WA 98104"], "state": "WA"}, "price": "$$", "transactions": ["pickup"], "display_phone": "(206) 602-6380"}, {"rating": 4.5, "is_closed": false, "distance": 6411.410197169999, "name": "Schooner Exact Brewing Company", "id": "schooner-exact-brewing-company-seattle", "image_url": "https://s3-media2.fl.yelpcdn.com/bphoto/0XvlfQvx8q9tP4BszLUilg/o.jpg", "url": "https://www.yelp.com/biz/schooner-exact-brewing-company-seattle?adjust_creative=gBcvfFpabk3CnzmXKdYe3w&utm_campaign=yelp_api_v3&utm_medium=api_v3_business_search&utm_source=gBcvfFpabk3CnzmXKdYe3w", "phone": "+12064329734", "coordinates": {"longitude": -122.335340227786, "latitude": 47.5677596618358}, "categories": [{"alias": "breweries", "title": "Breweries"}, {"alias": "newamerican", "title": "American (New)"}], "review_count": 193, "location": {"city": "Seattle", "address1": "3901 1st Ave S", "address3": "", "address2": "", "zip_code": "98134", "country": "US", "display_address": ["3901 1st Ave S", "Seattle, WA 98134"], "state": "WA"}, "price": "$$", "transactions": [], "display_phone": "(206) 432-9734"}, {"rating": 4.0, "is_closed": false, "distance": 2122.076206802, "name": "Canon", "id": "canon-seattle", "image_url": "https://s3-media2.fl.yelpcdn.com/bphoto/Gd9BdWc1Ze3jxw5MULhb5w/o.jpg", "url": "https://www.yelp.com/biz/canon-seattle?adjust_creative=gBcvfFpabk3CnzmXKdYe3w&utm_campaign=yelp_api_v3&utm_medium=api_v3_business_search&utm_source=gBcvfFpabk3CnzmXKdYe3w", "phone": "+12065529755", "coordinates": {"longitude": -122.3164673, "latitude": 47.6112595}, "categories": [{"alias": "newamerican", "title": "American (New)"}, {"alias": "cocktailbars", "title": "Cocktail Bars"}], "review_count": 595, "location": {"city": "Seattle", "address1": "928 12th Ave", "address3": "", "address2": "", "zip_code": "98122", "country": "US", "display_address": ["928 12th Ave", "Seattle, WA 98122"], "state": "WA"}, "price": "$$", "transactions": [], "display_phone": "(206) 552-9755"}, {"rating": 4.0, "is_closed": false, "distance": 1888.3411369579997, "name": "Plum Vegan Bistro", "id": "plum-vegan-bistro-seattle", "image_url": "https://s3-media2.fl.yelpcdn.com/bphoto/b4XgzjaACEfAGJez4nW67A/o.jpg", "url": "https://www.yelp.com/biz/plum-vegan-bistro-seattle?adjust_creative=gBcvfFpabk3CnzmXKdYe3w&utm_campaign=yelp_api_v3&utm_medium=api_v3_business_search&utm_source=gBcvfFpabk3CnzmXKdYe3w", "phone": "+12068385333", "coordinates": {"longitude": -122.3171839, "latitude": 47.6137675}, "categories": [{"alias": "vegan", "title": "Vegan"}], "review_count": 977, "location": {"city": "Seattle", "address1": "1429 12th Ave", "address3": "", "address2": "", "zip_code": "98122", "country": "US", "display_address": ["1429 12th Ave", "Seattle, WA 98122"], "state": "WA"}, "price": "$$", "transactions": [], "display_phone": "(206) 838-5333"}, {"rating": 4.5, "is_closed": false, "distance": 5037.74597012, "name": "Heyday", "id": "heyday-seattle", "image_url": "https://s3-media3.fl.yelpcdn.com/bphoto/CsvuL2KKdux2adlLYQzA4Q/o.jpg", "url": "https://www.yelp.com/biz/heyday-seattle?adjust_creative=gBcvfFpabk3CnzmXKdYe3w&utm_campaign=yelp_api_v3&utm_medium=api_v3_business_search&utm_source=gBcvfFpabk3CnzmXKdYe3w", "phone": "+12068299816", "coordinates": {"longitude": -122.292328700423, "latitude": 47.590743675828}, "categories": [{"alias": "burgers", "title": "Burgers"}, {"alias": "cocktailbars", "title": "Cocktail Bars"}, {"alias": "breakfast_brunch", "title": "Breakfast & Brunch"}], "review_count": 125, "location": {"city": "Seattle", "address1": "1372 31st Ave S", "address3": "", "address2": "", "zip_code": "98144", "country": "US", "display_address": ["1372 31st Ave S", "Seattle, WA 98144"], "state": "WA"}, "price": "$$", "transactions": [], "display_phone": "(206) 829-9816"}, {"rating": 4.0, "is_closed": false, "distance": 1438.8127242599999, "name": "Pike Place Chowder", "id": "pike-place-chowder-seattle-4", "image_url": "https://s3-media1.fl.yelpcdn.com/bphoto/qKZhApTt6j7NXHts68tiPg/o.jpg", "url": "https://www.yelp.com/biz/pike-place-chowder-seattle-4?adjust_creative=gBcvfFpabk3CnzmXKdYe3w&utm_campaign=yelp_api_v3&utm_medium=api_v3_business_search&utm_source=gBcvfFpabk3CnzmXKdYe3w", "phone": "+12068385680", "coordinates": {"longitude": -122.33503818512, "latitude": 47.6124848522455}, "categories": [{"alias": "seafood", "title": "Seafood"}, {"alias": "soup", "title": "Soup"}, {"alias": "tradamerican", "title": "American (Traditional)"}], "review_count": 580, "location": {"city": "Seattle", "address1": "600 Pine St", "address3": "", "address2": "Fl 4", "zip_code": "98101", "country": "US", "display_address": ["600 Pine St", "Fl 4", "Seattle, WA 98101"], "state": "WA"}, "price": "$$", "transactions": ["delivery", "pickup"], "display_phone": "(206) 838-5680"}, {"rating": 4.0, "is_closed": false, "distance": 2647.3416083059997, "name": "Smith Tower", "id": "smith-tower-seattle", "image_url": "https://s3-media3.fl.yelpcdn.com/bphoto/epItGCW2aZwGVofkASbw9Q/o.jpg", "url": "https://www.yelp.com/biz/smith-tower-seattle?adjust_creative=gBcvfFpabk3CnzmXKdYe3w&utm_campaign=yelp_api_v3&utm_medium=api_v3_business_search&utm_source=gBcvfFpabk3CnzmXKdYe3w", "phone": "+12066240414", "coordinates": {"longitude": -122.3319885, "latitude": 47.6017286}, "categories": [{"alias": "landmarks", "title": "Landmarks & Historical Buildings"}, {"alias": "observatories", "title": "Observatories"}], "review_count": 111, "location": {"city": "Seattle", "address1": "500 2nd Ave", "address3": "", "address2": "", "zip_code": "98104", "country": "US", "display_address": ["500 2nd Ave", "Seattle, WA 98104"], "state": "WA"}, "transactions": [], "display_phone": "(206) 624-0414"}, {"rating": 4.0, "is_closed": false, "distance": 1451.44201991, "name": "Sun Liquor Distillery", "id": "sun-liquor-distillery-seattle", "image_url": "https://s3-media2.fl.yelpcdn.com/bphoto/N7KMIIeA7NBxc-9_2tIHdQ/o.jpg", "url": "https://www.yelp.com/biz/sun-liquor-distillery-seattle?adjust_creative=gBcvfFpabk3CnzmXKdYe3w&utm_campaign=yelp_api_v3&utm_medium=api_v3_business_search&utm_source=gBcvfFpabk3CnzmXKdYe3w", "phone": "+12067201600", "coordinates": {"longitude": -122.324914, "latitude": 47.614496}, "categories": [{"alias": "burgers", "title": "Burgers"}, {"alias": "cocktailbars", "title": "Cocktail Bars"}, {"alias": "distilleries", "title": "Distilleries"}], "review_count": 186, "location": {"city": "Seattle", "address1": "514 E Pike St", "address3": "", "address2": "", "zip_code": "98122", "country": "US", "display_address": ["514 E Pike St", "Seattle, WA 98122"], "state": "WA"}, "price": "$$", "transactions": [], "display_phone": "(206) 720-1600"}, {"rating": 4.0, "is_closed": false, "distance": 1944.467835062, "name": "Sugar Bakery & Cafe", "id": "sugar-bakery-and-cafe-seattle-3", "image_url": "https://s3-media2.fl.yelpcdn.com/bphoto/Sbh1E4_MZmc8lrmlqESHeg/o.jpg", "url": "https://www.yelp.com/biz/sugar-bakery-and-cafe-seattle-3?adjust_creative=gBcvfFpabk3CnzmXKdYe3w&utm_campaign=yelp_api_v3&utm_medium=api_v3_business_search&utm_source=gBcvfFpabk3CnzmXKdYe3w", "phone": "+12067494105", "coordinates": {"longitude": -122.32589, "latitude": 47.60919}, "categories": [{"alias": "bakeries", "title": "Bakeries"}, {"alias": "desserts", "title": "Desserts"}, {"alias": "cafes", "title": "Cafes"}], "review_count": 170, "location": {"city": "Seattle", "address1": "1014 Madison St", "address3": "", "address2": "", "zip_code": "98104", "country": "US", "display_address": ["1014 Madison St", "Seattle, WA 98104"], "state": "WA"}, "price": "$", "transactions": [], "display_phone": "(206) 749-4105"}, {"rating": 4.0, "is_closed": false, "distance": 5263.73753962, "name": "Veraci Pizza", "id": "veraci-pizza-seattle", "image_url": "https://s3-media2.fl.yelpcdn.com/bphoto/0vpKtrBqMbAYpVuTqbIRyw/o.jpg", "url": "https://www.yelp.com/biz/veraci-pizza-seattle?adjust_creative=gBcvfFpabk3CnzmXKdYe3w&utm_campaign=yelp_api_v3&utm_medium=api_v3_business_search&utm_source=gBcvfFpabk3CnzmXKdYe3w", "phone": "+12065251813", "coordinates": {"longitude": -122.36328, "latitude": 47.66886}, "categories": [{"alias": "pizza", "title": "Pizza"}], "review_count": 404, "location": {"city": "Seattle", "address1": "500 NW Market St", "address3": "", "address2": "", "zip_code": "98107", "country": "US", "display_address": ["500 NW Market St", "Seattle, WA 98107"], "state": "WA"}, "price": "$$", "transactions": [], "display_phone": "(206) 525-1813"}]}