{"total": 36020, "region": {"center": {"longitude": -122.33551025390625, "latitude": 47.62541904760501}}, "businesses": [{"rating": 4.0, "is_closed": false, "distance": 3773.65124296, "name": "Chef Cafe", "id": "chef-cafe-seattle", "image_url": "https://s3-media2.fl.yelpcdn.com/bphoto/IJ0Zkxz9hLAgibWU3NO6uQ/o.jpg", "url": "https://www.yelp.com/biz/chef-cafe-seattle?adjust_creative=gBcvfFpabk3CnzmXKdYe3w&utm_campaign=yelp_api_v3&utm_medium=api_v3_business_search&utm_source=gBcvfFpabk3CnzmXKdYe3w", "phone": "+12065682681", "coordinates": {"longitude": -122.30306, "latitude": 47.59948}, "categories": [{"alias": "ethiopian", "title": "Ethiopian"}], "review_count": 123, "location": {"city": "Seattle", "address1": "2200 S Jackson St", "address3": "", "address2": "", "zip_code": "98144", "country": "US", "display_address": ["2200 S Jackson St", "Seattle, WA 98144"], "state": "WA"}, "price": "$", "transactions": [], "display_phone": "(206) 568-2681"}, {"rating": 4.0, "is_closed": false, "distance": 6780.781407818, "name": "The Swinery", "id": "the-swinery-seattle", "image_url": "https://s3-media2.fl.yelpcdn.com/bphoto/K7FEwMqkf11DbWaJ566q5w/o.jpg", "url": "https://www.yelp.com/biz/the-swinery-seattle?adjust_creative=gBcvfFpabk3CnzmXKdYe3w&utm_campaign=yelp_api_v3&utm_medium=api_v3_business_search&utm_source=gBcvfFpabk3CnzmXKdYe3w", "phone": "+12069324211", "coordinates": {"longitude": -122.387147, "latitude": 47.575356}, "categories": [{"alias": "meats", "title": "Meat Shops"}, {"alias": "burgers", "title": "Burgers"}, {"alias": "sandwiches", "title": "Sandwiches"}], "review_count": 258, "location": {"city": "Seattle", "address1": "3207 California Ave SW", "address3": "", "address2": "", "zip_code": "98116", "country": "US", "display_address": ["3207 California Ave SW", "Seattle, WA 98116"], "state": "WA"}, "price": "$$", "transactions": [], "display_phone": "(206) 932-4211"}, {"rating": 4.0, "is_closed": false, "distance": 3998.887871066, "name": "Lighthouse Roasters", "id": "lighthouse-roasters-seattle", "image_url": "https://s3-media2.fl.yelpcdn.com/bphoto/2UwfpP41DmfLg4mGHAAiEw/o.jpg", "url": "https://www.yelp.com/biz/lighthouse-roasters-seattle?adjust_creative=gBcvfFpabk3CnzmXKdYe3w&utm_campaign=yelp_api_v3&utm_medium=api_v3_business_search&utm_source=gBcvfFpabk3CnzmXKdYe3w", "phone": "+12066334444", "coordinates": {"longitude": -122.354164123535, "latitude": 47.6591110229492}, "categories": [{"alias": "coffee", "title": "Coffee & Tea"}, {"alias": "coffeeroasteries", "title": "Coffee Roasteries"}], "review_count": 185, "location": {"city": "Seattle", "address1": "400 N 43rd St", "address3": "", "address2": "", "zip_code": "98103", "country": "US", "display_address": ["400 N 43rd St", "Seattle, WA 98103"], "state": "WA"}, "price": "$", "transactions": [], "display_phone": "(206) 633-4444"}, {"rating": 4.0, "is_closed": false, "distance": 1733.971152016, "name": "Victrola Coffee & Art", "id": "victrola-coffee-and-art-seattle", "image_url": "https://s3-media3.fl.yelpcdn.com/bphoto/MnM8JMuudPk5VSmM5ypNFA/o.jpg", "url": "https://www.yelp.com/biz/victrola-coffee-and-art-seattle?adjust_creative=gBcvfFpabk3CnzmXKdYe3w&utm_campaign=yelp_api_v3&utm_medium=api_v3_business_search&utm_source=gBcvfFpabk3CnzmXKdYe3w", "phone": "+12063256520", "coordinates": {"longitude": -122.312783920868, "latitude": 47.6224997681791}, "categories": [{"alias": "coffee", "title": "Coffee & Tea"}], "review_count": 290, "location": {"city": "Seattle", "address1": "411 15th Ave E", "address3": "", "address2": "", "zip_code": "98112", "country": "US", "display_address": ["411 15th Ave E", "Seattle, WA 98112"], "state": "WA"}, "price": "$", "transactions": [], "display_phone": "(206) 325-6520"}, {"rating": 4.0, "is_closed": false, "distance": 1975.0956674039999, "name": "Shuckers Oyster Bar", "id": "shuckers-oyster-bar-seattle", "image_url": "https://s3-media3.fl.yelpcdn.com/bphoto/cFdc4O8-PpmMkhmK6negdQ/o.jpg", "url": "https://www.yelp.com/biz/shuckers-oyster-bar-seattle?adjust_creative=gBcvfFpabk3CnzmXKdYe3w&utm_campaign=yelp_api_v3&utm_medium=api_v3_business_search&utm_source=gBcvfFpabk3CnzmXKdYe3w", "phone": "+12066211984", "coordinates": {"longitude": -122.334140238098, "latitude": 47.607681597618}, "categories": [{"alias": "newamerican", "title": "American (New)"}, {"alias": "seafood", "title": "Seafood"}, {"alias": "raw_food", "title": "Live/Raw Food"}], "review_count": 356, "location": {"city": "Seattle", "address1": "411 University Street", "address3": "", "address2": "", "zip_code": "98101", "country": "US", "display_address": ["411 University Street", "Seattle, WA 98101"], "state": "WA"}, "price": "$$$", "transactions": [], "display_phone": "(206) 621-1984"}, {"rating": 4.0, "is_closed": false, "distance": 4210.56854555, "name": "Hooverville Bar", "id": "hooverville-bar-seattle", "image_url": "https://s3-media2.fl.yelpcdn.com/bphoto/57cQJm02weVGb3APBdz4yQ/o.jpg", "url": "https://www.yelp.com/biz/hooverville-bar-seattle?adjust_creative=gBcvfFpabk3CnzmXKdYe3w&utm_campaign=yelp_api_v3&utm_medium=api_v3_business_search&utm_source=gBcvfFpabk3CnzmXKdYe3w", "phone": "+12062642428", "coordinates": {"longitude": -122.33448, "latitude": 47.58756}, "categories": [{"alias": "bars", "title": "Bars"}, {"alias": "tradamerican", "title": "American (Traditional)"}], "review_count": 138, "location": {"city": "Seattle", "address1": "1721 1st Ave S", "address3": "", "address2": null, "zip_code": "98134", "country": "US", "display_address": ["1721 1st Ave S", "Seattle, WA 98134"], "state": "WA"}, "price": "$", "transactions": [], "display_phone": "(206) 264-2428"}, {"rating": 4.0, "is_closed": false, "distance": 1440.023269808, "name": "Suite 410", "id": "suite-410-seattle", "image_url": "https://s3-media2.fl.yelpcdn.com/bphoto/bZZH5PHol55TJ1TgH5TQNg/o.jpg", "url": "https://www.yelp.com/biz/suite-410-seattle?adjust_creative=gBcvfFpabk3CnzmXKdYe3w&utm_campaign=yelp_api_v3&utm_medium=api_v3_business_search&utm_source=gBcvfFpabk3CnzmXKdYe3w", "phone": "+12066824101", "coordinates": {"longitude": -122.33867, "latitude": 47.6126}, "categories": [{"alias": "lounges", "title": "Lounges"}, {"alias": "cocktailbars", "title": "Cocktail Bars"}], "review_count": 153, "location": {"city": "Seattle", "address1": "410 Stewart St", "address3": "", "address2": null, "zip_code": "98101", "country": "US", "display_address": ["410 Stewart St", "Seattle, WA 98101"], "state": "WA"}, "price": "$$", "transactions": [], "display_phone": "(206) 682-4101"}, {"rating": 4.0, "is_closed": false, "distance": 526.3793544652, "name": "Caff\u00e8 Torino", "id": "caff\u00e8-torino-seattle-2", "image_url": "https://s3-media3.fl.yelpcdn.com/bphoto/crXZcFiqphsyPA05w3G6Sw/o.jpg", "url": "https://www.yelp.com/biz/caff%C3%A8-torino-seattle-2?adjust_creative=gBcvfFpabk3CnzmXKdYe3w&utm_campaign=yelp_api_v3&utm_medium=api_v3_business_search&utm_source=gBcvfFpabk3CnzmXKdYe3w", "phone": "+12066822099", "coordinates": {"longitude": -122.3299137, "latitude": 47.6225625}, "categories": [{"alias": "cafes", "title": "Cafes"}, {"alias": "sandwiches", "title": "Sandwiches"}, {"alias": "coffee", "title": "Coffee & Tea"}], "review_count": 83, "location": {"city": "Seattle", "address1": "422 Yale Ave N", "address3": "", "address2": "Ste B", "zip_code": "98109", "country": "US", "display_address": ["422 Yale Ave N", "Ste B", "Seattle, WA 98109"], "state": "WA"}, "price": "$", "transactions": ["pickup"], "display_phone": "(206) 682-2099"}, {"rating": 4.0, "is_closed": false, "distance": 4494.381287239999, "name": "Cactus Restaurants", "id": "cactus-restaurants-seattle", "image_url": "https://s3-media4.fl.yelpcdn.com/bphoto/KEodftGayowZKod57d1P3A/o.jpg", "url": "https://www.yelp.com/biz/cactus-restaurants-seattle?adjust_creative=gBcvfFpabk3CnzmXKdYe3w&utm_campaign=yelp_api_v3&utm_medium=api_v3_business_search&utm_source=gBcvfFpabk3CnzmXKdYe3w", "phone": "+12063244140", "coordinates": {"longitude": -122.2776929, "latitude": 47.636175}, "categories": [{"alias": "tex-mex", "title": "Tex-Mex"}, {"alias": "mexican", "title": "Mexican"}, {"alias": "newmexican", "title": "New Mexican Cuisine"}], "review_count": 415, "location": {"city": "Seattle", "address1": "4220 E Madison St", "address3": "", "address2": "", "zip_code": "98112", "country": "US", "display_address": ["4220 E Madison St", "Seattle, WA 98112"], "state": "WA"}, "price": "$$", "transactions": [], "display_phone": "(206) 324-4140"}, {"rating": 4.0, "is_closed": false, "distance": 1737.669093468, "name": "Bamboo", "id": "bamboo-seattle", "image_url": "https://s3-media2.fl.yelpcdn.com/bphoto/MrVOQiCnNdTZTITHCetbMg/o.jpg", "url": "https://www.yelp.com/biz/bamboo-seattle?adjust_creative=gBcvfFpabk3CnzmXKdYe3w&utm_campaign=yelp_api_v3&utm_medium=api_v3_business_search&utm_source=gBcvfFpabk3CnzmXKdYe3w", "phone": "+12065673399", "coordinates": {"longitude": -122.312965393066, "latitude": 47.6217918395996}, "categories": [{"alias": "vietnamese", "title": "Vietnamese"}, {"alias": "noodles", "title": "Noodles"}, {"alias": "asianfusion", "title": "Asian Fusion"}], "review_count": 190, "location": {"city": "Seattle", "address1": "345 15th Ave E", "address3": "", "address2": "", "zip_code": "98112", "country": "US", "display_address": ["345 15th Ave E", "Seattle, WA 98112"], "state": "WA"}, "price": "$", "transactions": [], "display_phone": "(206) 567-3399"}, {"rating": 4.5, "is_closed": false, "distance": 5495.410240253999, "name": "Ravenna Brewing Company", "id": "ravenna-brewing-company-seattle", "image_url": "https://s3-media1.fl.yelpcdn.com/bphoto/l3yWiLCNAxgK_sb7ksk7Hg/o.jpg", "url": "https://www.yelp.com/biz/ravenna-brewing-company-seattle?adjust_creative=gBcvfFpabk3CnzmXKdYe3w&utm_campaign=yelp_api_v3&utm_medium=api_v3_business_search&utm_source=gBcvfFpabk3CnzmXKdYe3w", "phone": "+12067438450", "coordinates": {"longitude": -122.29925, "latitude": 47.668382}, "categories": [{"alias": "breweries", "title": "Breweries"}, {"alias": "beerbar", "title": "Beer Bar"}], "review_count": 37, "location": {"city": "Seattle", "address1": "5408 26th Ave NE", "address3": "", "address2": "", "zip_code": "98105", "country": "US", "display_address": ["5408 26th Ave NE", "Seattle, WA 98105"], "state": "WA"}, "price": "$", "transactions": [], "display_phone": "(206) 743-8450"}, {"rating": 4.0, "is_closed": false, "distance": 3048.06099188, "name": "BeanFish", "id": "beanfish-seattle-3", "image_url": "https://s3-media3.fl.yelpcdn.com/bphoto/GIK4FmdijM__5Oy-c7Ptag/o.jpg", "url": "https://www.yelp.com/biz/beanfish-seattle-3?adjust_creative=gBcvfFpabk3CnzmXKdYe3w&utm_campaign=yelp_api_v3&utm_medium=api_v3_business_search&utm_source=gBcvfFpabk3CnzmXKdYe3w", "phone": "+12028103474", "coordinates": {"longitude": -122.352953752531, "latitude": 47.6501840524394}, "categories": [{"alias": "foodtrucks", "title": "Food Trucks"}, {"alias": "japanese", "title": "Japanese"}, {"alias": "waffles", "title": "Waffles"}], "review_count": 74, "location": {"city": "Seattle", "address1": "3401 Evanston Ave N", "address3": "", "address2": null, "zip_code": "98103", "country": "US", "display_address": ["3401 Evanston Ave N", "Seattle, WA 98103"], "state": "WA"}, "price": "$", "transactions": [], "display_phone": "(202) 810-3474"}, {"rating": 4.0, "is_closed": false, "distance": 611.7054991008, "name": "Snout & Co.", "id": "snout-and-co-seattle-2", "image_url": "https://s3-media2.fl.yelpcdn.com/bphoto/u6MeGd3ingvclKOIjoYt0Q/o.jpg", "url": "https://www.yelp.com/biz/snout-and-co-seattle-2?adjust_creative=gBcvfFpabk3CnzmXKdYe3w&utm_campaign=yelp_api_v3&utm_medium=api_v3_business_search&utm_source=gBcvfFpabk3CnzmXKdYe3w", "phone": "+12068500941", "coordinates": {"longitude": -122.336797694907, "latitude": 47.6199865379172}, "categories": [{"alias": "cuban", "title": "Cuban"}, {"alias": "catering", "title": "Caterers"}, {"alias": "foodtrucks", "title": "Food Trucks"}], "review_count": 97, "location": {"city": "Seattle", "address1": "", "address3": "", "address2": "", "zip_code": "98109", "country": "US", "display_address": ["Seattle, WA 98109"], "state": "WA"}, "price": "$", "transactions": [], "display_phone": "(206) 850-0941"}, {"rating": 4.0, "is_closed": false, "distance": 2661.50959393, "name": "Delicatus", "id": "delicatus-seattle-3", "image_url": "https://s3-media2.fl.yelpcdn.com/bphoto/3TAiUE7O60YEewSg6HaePQ/o.jpg", "url": "https://www.yelp.com/biz/delicatus-seattle-3?adjust_creative=gBcvfFpabk3CnzmXKdYe3w&utm_campaign=yelp_api_v3&utm_medium=api_v3_business_search&utm_source=gBcvfFpabk3CnzmXKdYe3w", "phone": "+12066233780", "coordinates": {"longitude": -122.3344, "latitude": 47.60145}, "categories": [{"alias": "delis", "title": "Delis"}, {"alias": "sandwiches", "title": "Sandwiches"}, {"alias": "comfortfood", "title": "Comfort Food"}], "review_count": 317, "location": {"city": "Seattle", "address1": "103 1st Ave S", "address3": "", "address2": "", "zip_code": "98104", "country": "US", "display_address": ["103 1st Ave S", "Seattle, WA 98104"], "state": "WA"}, "price": "$$", "transactions": [], "display_phone": "(206) 623-3780"}, {"rating": 4.0, "is_closed": false, "distance": 3507.9215283119997, "name": "Humble Pie", "id": "humble-pie-seattle", "image_url": "https://s3-media2.fl.yelpcdn.com/bphoto/7WjmP4Bu47BJGDr9m6g9Ew/o.jpg", "url": "https://www.yelp.com/biz/humble-pie-seattle?adjust_creative=gBcvfFpabk3CnzmXKdYe3w&utm_campaign=yelp_api_v3&utm_medium=api_v3_business_search&utm_source=gBcvfFpabk3CnzmXKdYe3w", "phone": "+12063295133", "coordinates": {"longitude": -122.313305988361, "latitude": 47.5976491915013}, "categories": [{"alias": "pizza", "title": "Pizza"}, {"alias": "diners", "title": "Diners"}, {"alias": "bars", "title": "Bars"}], "review_count": 177, "location": {"city": "Seattle", "address1": "525 Rainier Ave S", "address3": "", "address2": "", "zip_code": "98144", "country": "US", "display_address": ["525 Rainier Ave S", "Seattle, WA 98144"], "state": "WA"}, "price": "$$", "transactions": [], "display_phone": "(206) 329-5133"}, {"rating": 4.0, "is_closed": false, "distance": 3046.93606322, "name": "The Barrel Thief", "id": "the-barrel-thief-seattle-2", "image_url": "https://s3-media4.fl.yelpcdn.com/bphoto/AT19Y3dgaa7_drfhYbbW4g/o.jpg", "url": "https://www.yelp.com/biz/the-barrel-thief-seattle-2?adjust_creative=gBcvfFpabk3CnzmXKdYe3w&utm_campaign=yelp_api_v3&utm_medium=api_v3_business_search&utm_source=gBcvfFpabk3CnzmXKdYe3w", "phone": "+12064025492", "coordinates": {"longitude": -122.35175, "latitude": 47.65053}, "categories": [{"alias": "coffee", "title": "Coffee & Tea"}, {"alias": "lounges", "title": "Lounges"}, {"alias": "wine_bars", "title": "Wine Bars"}], "review_count": 139, "location": {"city": "Seattle", "address1": "3417 Evanston Ave N", "address3": "", "address2": "Ste 102", "zip_code": "98103", "country": "US", "display_address": ["3417 Evanston Ave N", "Ste 102", "Seattle, WA 98103"], "state": "WA"}, "price": "$$", "transactions": [], "display_phone": "(206) 402-5492"}, {"rating": 4.0, "is_closed": false, "distance": 1845.0519831, "name": "LloydMartin", "id": "lloydmartin-seattle", "image_url": "https://s3-media1.fl.yelpcdn.com/bphoto/JDhy1c_qEvFnjWnZh_QWrg/o.jpg", "url": "https://www.yelp.com/biz/lloydmartin-seattle?adjust_creative=gBcvfFpabk3CnzmXKdYe3w&utm_campaign=yelp_api_v3&utm_medium=api_v3_business_search&utm_source=gBcvfFpabk3CnzmXKdYe3w", "phone": "+12064207602", "coordinates": {"longitude": -122.35725, "latitude": 47.63313}, "categories": [{"alias": "newamerican", "title": "American (New)"}, {"alias": "bars", "title": "Bars"}], "review_count": 141, "location": {"city": "Seattle", "address1": "1525 Queen Anne Ave N", "address3": "", "address2": "", "zip_code": "98109", "country": "US", "display_address": ["1525 Queen Anne Ave N", "Seattle, WA 98109"], "state": "WA"}, "price": "$$$", "transactions": [], "display_phone": "(206) 420-7602"}, {"rating": 4.0, "is_closed": false, "distance": 760.9265777402, "name": "Summit Public House", "id": "summit-public-house-seattle", "image_url": "https://s3-media1.fl.yelpcdn.com/bphoto/l3KQBJ8NleUy1m2VDWGcEw/o.jpg", "url": "https://www.yelp.com/biz/summit-public-house-seattle?adjust_creative=gBcvfFpabk3CnzmXKdYe3w&utm_campaign=yelp_api_v3&utm_medium=api_v3_business_search&utm_source=gBcvfFpabk3CnzmXKdYe3w", "phone": "+12063247611", "coordinates": {"longitude": -122.325471593869, "latitude": 47.6244017760816}, "categories": [{"alias": "pubs", "title": "Pubs"}, {"alias": "mexican", "title": "Mexican"}], "review_count": 95, "location": {"city": "Seattle", "address1": "601 Summit Ave E", "address3": "", "address2": "Ste 102", "zip_code": "98102", "country": "US", "display_address": ["601 Summit Ave E", "Ste 102", "Seattle, WA 98102"], "state": "WA"}, "price": "$", "transactions": [], "display_phone": "(206) 324-7611"}, {"rating": 4.0, "is_closed": false, "distance": 506.7173395756, "name": "Fresh Flours", "id": "fresh-flours-seattle-11", "image_url": "https://s3-media2.fl.yelpcdn.com/bphoto/bczAmM_fVTQrsAJkRr6Vyg/o.jpg", "url": "https://www.yelp.com/biz/fresh-flours-seattle-11?adjust_creative=gBcvfFpabk3CnzmXKdYe3w&utm_campaign=yelp_api_v3&utm_medium=api_v3_business_search&utm_source=gBcvfFpabk3CnzmXKdYe3w", "phone": "+12067063338", "coordinates": {"longitude": -122.34087, "latitude": 47.62305}, "categories": [{"alias": "bakeries", "title": "Bakeries"}, {"alias": "cafes", "title": "Cafes"}, {"alias": "coffee", "title": "Coffee & Tea"}], "review_count": 147, "location": {"city": "Seattle", "address1": "432 8th Ave N", "address3": "", "address2": "", "zip_code": "98109", "country": "US", "display_address": ["432 8th Ave N", "Seattle, WA 98109"], "state": "WA"}, "price": "$", "transactions": [], "display_phone": "(206) 706-3338"}, {"rating": 4.0, "is_closed": false, "distance": 1538.553662902, "name": "La Fontana Siciliana", "id": "la-fontana-siciliana-seattle", "image_url": "https://s3-media4.fl.yelpcdn.com/bphoto/ukS3Jv7GjOYLnZGc3pNolg/o.jpg", "url": "https://www.yelp.com/biz/la-fontana-siciliana-seattle?adjust_creative=gBcvfFpabk3CnzmXKdYe3w&utm_campaign=yelp_api_v3&utm_medium=api_v3_business_search&utm_source=gBcvfFpabk3CnzmXKdYe3w", "phone": "+12064411045", "coordinates": {"longitude": -122.3447479, "latitude": 47.6130655}, "categories": [{"alias": "italian", "title": "Italian"}], "review_count": 297, "location": {"city": "Seattle", "address1": "120 Blanchard St", "address3": "", "address2": "", "zip_code": "98121", "country": "US", "display_address": ["120 Blanchard St", "Seattle, WA 98121"], "state": "WA"}, "price": "$$", "transactions": [], "display_phone": "(206) 441-1045"}, {"rating": 4.0, "is_closed": false, "distance": 4000.129476876, "name": "The Grizzled Wizard", "id": "the-grizzled-wizard-seattle", "image_url": "https://s3-media1.fl.yelpcdn.com/bphoto/OcMAg8aIp127Kl-t4a28zg/o.jpg", "url": "https://www.yelp.com/biz/the-grizzled-wizard-seattle?adjust_creative=gBcvfFpabk3CnzmXKdYe3w&utm_campaign=yelp_api_v3&utm_medium=api_v3_business_search&utm_source=gBcvfFpabk3CnzmXKdYe3w", "phone": "+12068490062", "coordinates": {"longitude": -122.33053, "latitude": 47.66125}, "categories": [{"alias": "divebars", "title": "Dive Bars"}, {"alias": "sandwiches", "title": "Sandwiches"}], "review_count": 58, "location": {"city": "Seattle", "address1": "2317 N 45th St", "address3": "", "address2": "", "zip_code": "98103", "country": "US", "display_address": ["2317 N 45th St", "Seattle, WA 98103"], "state": "WA"}, "price": "$", "transactions": [], "display_phone": "(206) 849-0062"}, {"rating": 4.0, "is_closed": false, "distance": 1168.09840083, "name": "SkyCity at the Needle", "id": "skycity-at-the-needle-seattle-3", "image_url": "https://s3-media1.fl.yelpcdn.com/bphoto/rh1_PAnGCvn5pOpjUFJq1g/o.jpg", "url": "https://www.yelp.com/biz/skycity-at-the-needle-seattle-3?adjust_creative=gBcvfFpabk3CnzmXKdYe3w&utm_campaign=yelp_api_v3&utm_medium=api_v3_business_search&utm_source=gBcvfFpabk3CnzmXKdYe3w", "phone": "+12069052100", "coordinates": {"longitude": -122.349302035431, "latitude": 47.6205302474458}, "categories": [{"alias": "newamerican", "title": "American (New)"}, {"alias": "salad", "title": "Salad"}, {"alias": "seafood", "title": "Seafood"}], "review_count": 1376, "location": {"city": "Seattle", "address1": "400 Broad St", "address3": "", "address2": "", "zip_code": "98109", "country": "US", "display_address": ["400 Broad St", "Seattle, WA 98109"], "state": "WA"}, "price": "$$$", "transactions": [], "display_phone": "(206) 905-2100"}, {"rating": 4.0, "is_closed": false, "distance": 314.04580293, "name": "Duke's Chowder House", "id": "dukes-chowder-house-seattle-11", "image_url": "https://s3-media2.fl.yelpcdn.com/bphoto/Me0zfgUdP9uGx419LDTv8w/o.jpg", "url": "https://www.yelp.com/biz/dukes-chowder-house-seattle-11?adjust_creative=gBcvfFpabk3CnzmXKdYe3w&utm_campaign=yelp_api_v3&utm_medium=api_v3_business_search&utm_source=gBcvfFpabk3CnzmXKdYe3w", "phone": "+12063829963", "coordinates": {"longitude": -122.333892183964, "latitude": 47.6280260632239}, "categories": [{"alias": "seafood", "title": "Seafood"}, {"alias": "salad", "title": "Salad"}, {"alias": "burgers", "title": "Burgers"}], "review_count": 427, "location": {"city": "Seattle", "address1": "901 Fairview Ave N", "address3": "", "address2": "", "zip_code": "98109", "country": "US", "display_address": ["901 Fairview Ave N", "Seattle, WA 98109"], "state": "WA"}, "price": "$$", "transactions": [], "display_phone": "(206) 382-9963"}, {"rating": 4.5, "is_closed": false, "distance": 5995.953121611999, "name": "Stock", "id": "stock-seattle", "image_url": "https://s3-media3.fl.yelpcdn.com/bphoto/p0yB_DFhyYl7jtmTTBSNSA/o.jpg", "url": "https://www.yelp.com/biz/stock-seattle?adjust_creative=gBcvfFpabk3CnzmXKdYe3w&utm_campaign=yelp_api_v3&utm_medium=api_v3_business_search&utm_source=gBcvfFpabk3CnzmXKdYe3w", "phone": "+12064023281", "coordinates": {"longitude": -122.36281, "latitude": 47.6761399}, "categories": [{"alias": "vietnamese", "title": "Vietnamese"}, {"alias": "comfortfood", "title": "Comfort Food"}, {"alias": "soup", "title": "Soup"}], "review_count": 114, "location": {"city": "Seattle", "address1": "500 NW 65th St", "address3": "", "address2": "", "zip_code": "98117", "country": "US", "display_address": ["500 NW 65th St", "Seattle, WA 98117"], "state": "WA"}, "price": "$$", "transactions": [], "display_phone": "(206) 402-3281"}, {"rating": 4.5, "is_closed": false, "distance": 3431.9799923919995, "name": "Fremont Solstice Parade", "id": "fremont-solstice-parade-seattle", "image_url": "https://s3-media3.fl.yelpcdn.com/bphoto/AEVOa4QD-qeqqxq3ECNnsg/o.jpg", "url": "https://www.yelp.com/biz/fremont-solstice-parade-seattle?adjust_creative=gBcvfFpabk3CnzmXKdYe3w&utm_campaign=yelp_api_v3&utm_medium=api_v3_business_search&utm_source=gBcvfFpabk3CnzmXKdYe3w", "phone": "+12065477440", "coordinates": {"longitude": -122.34966, "latitude": 47.65477}, "categories": [{"alias": "localflavor", "title": "Local Flavor"}], "review_count": 42, "location": {"city": "Seattle", "address1": "3940 Fremont Ave N", "address3": "", "address2": "", "zip_code": "98103", "country": "US", "display_address": ["3940 Fremont Ave N", "Seattle, WA 98103"], "state": "WA"}, "transactions": [], "display_phone": "(206) 547-7440"}, {"rating": 4.0, "is_closed": false, "distance": 2086.0868582499998, "name": "Sushi Kanpai", "id": "sushi-kanpai-seattle", "image_url": "https://s3-media1.fl.yelpcdn.com/bphoto/rETgp71JuNVqcVkRWlwTLg/o.jpg", "url": "https://www.yelp.com/biz/sushi-kanpai-seattle?adjust_creative=gBcvfFpabk3CnzmXKdYe3w&utm_campaign=yelp_api_v3&utm_medium=api_v3_business_search&utm_source=gBcvfFpabk3CnzmXKdYe3w", "phone": "+12065882769", "coordinates": {"longitude": -122.327862605453, "latitude": 47.6073901355267}, "categories": [{"alias": "sushi", "title": "Sushi Bars"}, {"alias": "japanese", "title": "Japanese"}], "review_count": 279, "location": {"city": "Seattle", "address1": "900 8th Ave", "address3": "", "address2": "", "zip_code": "98104", "country": "US", "display_address": ["900 8th Ave", "Seattle, WA 98104"], "state": "WA"}, "price": "$$", "transactions": [], "display_phone": "(206) 588-2769"}, {"rating": 4.0, "is_closed": false, "distance": 1783.618003544, "name": "Starbucks", "id": "starbucks-seattle-88", "image_url": "https://s3-media3.fl.yelpcdn.com/bphoto/GJZUOcHjh76qIkQ-3G7OVA/o.jpg", "url": "https://www.yelp.com/biz/starbucks-seattle-88?adjust_creative=gBcvfFpabk3CnzmXKdYe3w&utm_campaign=yelp_api_v3&utm_medium=api_v3_business_search&utm_source=gBcvfFpabk3CnzmXKdYe3w", "phone": "+12064488762", "coordinates": {"longitude": -122.34254, "latitude": 47.61015}, "categories": [{"alias": "coffee", "title": "Coffee & Tea"}], "review_count": 941, "location": {"city": "Seattle", "address1": "1912 Pike Pl", "address3": "", "address2": null, "zip_code": "98101", "country": "US", "display_address": ["1912 Pike Pl", "Seattle, WA 98101"], "state": "WA"}, "price": "$", "transactions": [], "display_phone": "(206) 448-8762"}, {"rating": 4.5, "is_closed": false, "distance": 4179.619167076, "name": "Diva Espresso", "id": "diva-espresso-seattle-2", "image_url": "https://s3-media1.fl.yelpcdn.com/bphoto/dmPviuA550koR13OdEMpLA/o.jpg", "url": "https://www.yelp.com/biz/diva-espresso-seattle-2?adjust_creative=gBcvfFpabk3CnzmXKdYe3w&utm_campaign=yelp_api_v3&utm_medium=api_v3_business_search&utm_source=gBcvfFpabk3CnzmXKdYe3w", "phone": "+12066327019", "coordinates": {"longitude": -122.34199, "latitude": 47.66275}, "categories": [{"alias": "coffee", "title": "Coffee & Tea"}], "review_count": 48, "location": {"city": "Seattle", "address1": "4615 Stone Way N", "address3": "", "address2": "", "zip_code": "98103", "country": "US", "display_address": ["4615 Stone Way N", "Seattle, WA 98103"], "state": "WA"}, "price": "$", "transactions": [], "display_phone": "(206) 632-7019"}, {"rating": 4.0, "is_closed": false, "distance": 2962.423021526, "name": "PCC Natural Markets - Fremont", "id": "pcc-natural-markets-fremont-seattle", "image_url": "https://s3-media4.fl.yelpcdn.com/bphoto/SgrRtJKR7VP-WwyLkpMoaw/o.jpg", "url": "https://www.yelp.com/biz/pcc-natural-markets-fremont-seattle?adjust_creative=gBcvfFpabk3CnzmXKdYe3w&utm_campaign=yelp_api_v3&utm_medium=api_v3_business_search&utm_source=gBcvfFpabk3CnzmXKdYe3w", "phone": "+12066326811", "coordinates": {"longitude": -122.35101, "latitude": 47.64994}, "categories": [{"alias": "grocery", "title": "Grocery"}, {"alias": "healthmarkets", "title": "Health Markets"}, {"alias": "delis", "title": "Delis"}], "review_count": 203, "location": {"city": "Seattle", "address1": "600 N. 34th", "address3": "", "address2": "", "zip_code": "98103", "country": "US", "display_address": ["600 N. 34th", "Seattle, WA 98103"], "state": "WA"}, "price": "$$", "transactions": [], "display_phone": "(206) 632-6811"}, {"rating": 5.0, "is_closed": false, "distance": 2966.0937651319996, "name": "Little Gull Grocery", "id": "little-gull-grocery-seattle", "image_url": "https://s3-media2.fl.yelpcdn.com/bphoto/dW1zYTqgRqD1IhJW7rXmXw/o.jpg", "url": "https://www.yelp.com/biz/little-gull-grocery-seattle?adjust_creative=gBcvfFpabk3CnzmXKdYe3w&utm_campaign=yelp_api_v3&utm_medium=api_v3_business_search&utm_source=gBcvfFpabk3CnzmXKdYe3w", "phone": "+12065528215", "coordinates": {"longitude": -122.32879, "latitude": 47.65173}, "categories": [{"alias": "seafood", "title": "Seafood"}, {"alias": "grocery", "title": "Grocery"}, {"alias": "raw_food", "title": "Live/Raw Food"}], "review_count": 14, "location": {"city": "Seattle", "address1": "2501 N Northlake Way", "address3": "", "address2": "", "zip_code": "98103", "country": "US", "display_address": ["2501 N Northlake Way", "Seattle, WA 98103"], "state": "WA"}, "price": "$$$", "transactions": [], "display_phone": "(206) 552-8215"}, {"rating": 4.0, "is_closed": false, "distance": 4032.503443118, "name": "Rancho Bravo Tacos", "id": "rancho-bravo-tacos-seattle", "image_url": "https://s3-media1.fl.yelpcdn.com/bphoto/Ir9Rz3DzGt1FTcxfHNuHXA/o.jpg", "url": "https://www.yelp.com/biz/rancho-bravo-tacos-seattle?adjust_creative=gBcvfFpabk3CnzmXKdYe3w&utm_campaign=yelp_api_v3&utm_medium=api_v3_business_search&utm_source=gBcvfFpabk3CnzmXKdYe3w", "phone": "", "coordinates": {"longitude": -122.32651, "latitude": 47.66119}, "categories": [{"alias": "mexican", "title": "Mexican"}, {"alias": "foodtrucks", "title": "Food Trucks"}], "review_count": 418, "location": {"city": "Seattle", "address1": "211 NE 45th St", "address3": "", "address2": "", "zip_code": "98105", "country": "US", "display_address": ["211 NE 45th St", "Seattle, WA 98105"], "state": "WA"}, "price": "$", "transactions": [], "display_phone": ""}, {"rating": 4.5, "is_closed": false, "distance": 3558.8376662979995, "name": "Russell's", "id": "russells-seattle", "image_url": "https://s3-media2.fl.yelpcdn.com/bphoto/pRXFxaqmeNGKo581gHYq4Q/o.jpg", "url": "https://www.yelp.com/biz/russells-seattle?adjust_creative=gBcvfFpabk3CnzmXKdYe3w&utm_campaign=yelp_api_v3&utm_medium=api_v3_business_search&utm_source=gBcvfFpabk3CnzmXKdYe3w", "phone": "+12065471653", "coordinates": {"longitude": -122.342758178711, "latitude": 47.6570014953613}, "categories": [{"alias": "pubs", "title": "Pubs"}, {"alias": "tapasmallplates", "title": "Tapas/Small Plates"}], "review_count": 91, "location": {"city": "Seattle", "address1": "4111 Stone Way N", "address3": "", "address2": "", "zip_code": "98103", "country": "US", "display_address": ["4111 Stone Way N", "Seattle, WA 98103"], "state": "WA"}, "price": "$$", "transactions": [], "display_phone": "(206) 547-1653"}, {"rating": 4.0, "is_closed": false, "distance": 6047.703380519999, "name": "Hot Cakes Molten Chocolate Cakery", "id": "hot-cakes-molten-chocolate-cakery-seattle", "image_url": "https://s3-media2.fl.yelpcdn.com/bphoto/biDd6w-6c0sOV4Xvd5QnAg/o.jpg", "url": "https://www.yelp.com/biz/hot-cakes-molten-chocolate-cakery-seattle?adjust_creative=gBcvfFpabk3CnzmXKdYe3w&utm_campaign=yelp_api_v3&utm_medium=api_v3_business_search&utm_source=gBcvfFpabk3CnzmXKdYe3w", "phone": "+12064533792", "coordinates": {"longitude": -122.38557639577, "latitude": 47.6680853271588}, "categories": [{"alias": "bakeries", "title": "Bakeries"}, {"alias": "coffee", "title": "Coffee & Tea"}, {"alias": "cakeshop", "title": "Patisserie/Cake Shop"}], "review_count": 1006, "location": {"city": "Seattle", "address1": "5427 Ballard Ave NW", "address3": "", "address2": null, "zip_code": "98107", "country": "US", "display_address": ["5427 Ballard Ave NW", "Seattle, WA 98107"], "state": "WA"}, "price": "$$", "transactions": [], "display_phone": "(206) 453-3792"}, {"rating": 4.0, "is_closed": false, "distance": 2649.477524354, "name": "Seven Beef", "id": "seven-beef-seattle", "image_url": "https://s3-media3.fl.yelpcdn.com/bphoto/u_eFKP2lB7upFcz1JGAVPQ/o.jpg", "url": "https://www.yelp.com/biz/seven-beef-seattle?adjust_creative=gBcvfFpabk3CnzmXKdYe3w&utm_campaign=yelp_api_v3&utm_medium=api_v3_business_search&utm_source=gBcvfFpabk3CnzmXKdYe3w", "phone": "+12063287090", "coordinates": {"longitude": -122.315081, "latitude": 47.605976}, "categories": [{"alias": "steak", "title": "Steakhouses"}, {"alias": "vietnamese", "title": "Vietnamese"}, {"alias": "wine_bars", "title": "Wine Bars"}], "review_count": 129, "location": {"city": "Seattle", "address1": "1305 E Jefferson St", "address3": "", "address2": "", "zip_code": "98122", "country": "US", "display_address": ["1305 E Jefferson St", "Seattle, WA 98122"], "state": "WA"}, "price": "$$$", "transactions": [], "display_phone": "(206) 328-7090"}, {"rating": 4.0, "is_closed": false, "distance": 4035.3474687659996, "name": "Vif Wine|Coffee", "id": "vif-wine-coffee-seattle", "image_url": "https://s3-media2.fl.yelpcdn.com/bphoto/TQ3UKYdM152wTko9MGEZWA/o.jpg", "url": "https://www.yelp.com/biz/vif-wine-coffee-seattle?adjust_creative=gBcvfFpabk3CnzmXKdYe3w&utm_campaign=yelp_api_v3&utm_medium=api_v3_business_search&utm_source=gBcvfFpabk3CnzmXKdYe3w", "phone": "+12065577357", "coordinates": {"longitude": -122.3501369, "latitude": 47.6603469}, "categories": [{"alias": "cafes", "title": "Cafes"}, {"alias": "coffee", "title": "Coffee & Tea"}, {"alias": "beer_and_wine", "title": "Beer, Wine & Spirits"}], "review_count": 90, "location": {"city": "Seattle", "address1": "4401 Fremont Ave N", "address3": "", "address2": "", "zip_code": "98103", "country": "US", "display_address": ["4401 Fremont Ave N", "Seattle, WA 98103"], "state": "WA"}, "price": "$$", "transactions": [], "display_phone": "(206) 557-7357"}, {"rating": 4.0, "is_closed": false, "distance": 6705.363390199999, "name": "The Fat Hen", "id": "the-fat-hen-seattle", "image_url": "https://s3-media3.fl.yelpcdn.com/bphoto/auhvnT6SAMzVvOy4V5faHQ/o.jpg", "url": "https://www.yelp.com/biz/the-fat-hen-seattle?adjust_creative=gBcvfFpabk3CnzmXKdYe3w&utm_campaign=yelp_api_v3&utm_medium=api_v3_business_search&utm_source=gBcvfFpabk3CnzmXKdYe3w", "phone": "+12067825422", "coordinates": {"longitude": -122.374403, "latitude": 47.679733}, "categories": [{"alias": "cafes", "title": "Cafes"}, {"alias": "bakeries", "title": "Bakeries"}, {"alias": "breakfast_brunch", "title": "Breakfast & Brunch"}], "review_count": 537, "location": {"city": "Seattle", "address1": "1418 NW 70th St", "address3": "", "address2": "", "zip_code": "98117", "country": "US", "display_address": ["1418 NW 70th St", "Seattle, WA 98117"], "state": "WA"}, "price": "$$", "transactions": [], "display_phone": "(206) 782-5422"}, {"rating": 4.5, "is_closed": false, "distance": 3096.16738316, "name": "Dur Dur Cafe", "id": "dur-dur-cafe-seattle", "image_url": "https://s3-media4.fl.yelpcdn.com/bphoto/L0MOd89KkguZt-pMBZOgYQ/o.jpg", "url": "https://www.yelp.com/biz/dur-dur-cafe-seattle?adjust_creative=gBcvfFpabk3CnzmXKdYe3w&utm_campaign=yelp_api_v3&utm_medium=api_v3_business_search&utm_source=gBcvfFpabk3CnzmXKdYe3w", "phone": "", "coordinates": {"longitude": -122.30317, "latitude": 47.60818}, "categories": [{"alias": "cafes", "title": "Cafes"}, {"alias": "african", "title": "African"}], "review_count": 31, "location": {"city": "Seattle", "address1": "2212 E Cherry St", "address3": "", "address2": "", "zip_code": "98122", "country": "US", "display_address": ["2212 E Cherry St", "Seattle, WA 98122"], "state": "WA"}, "price": "$", "transactions": [], "display_phone": ""}, {"rating": 4.5, "is_closed": false, "distance": 7687.823617359999, "name": "Alki Beach Park", "id": "alki-beach-park-seattle", "image_url": "https://s3-media3.fl.yelpcdn.com/bphoto/t6avLtuAZwDilgDiFALWpA/o.jpg", "url": "https://www.yelp.com/biz/alki-beach-park-seattle?adjust_creative=gBcvfFpabk3CnzmXKdYe3w&utm_campaign=yelp_api_v3&utm_medium=api_v3_business_search&utm_source=gBcvfFpabk3CnzmXKdYe3w", "phone": "+12066844075", "coordinates": {"longitude": -122.3956707, "latitude": 47.587919}, "categories": [{"alias": "parks", "title": "Parks"}, {"alias": "beaches", "title": "Beaches"}], "review_count": 269, "location": {"city": "Seattle", "address1": "1702 Alki Ave SW", "address3": "", "address2": "", "zip_code": "98127", "country": "US", "display_address": ["1702 Alki Ave SW", "Seattle, WA 98127"], "state": "WA"}, "transactions": [], "display_phone": "(206) 684-4075"}, {"rating": 4.0, "is_closed": false, "distance": 440.6278612676, "name": "It's Bao Time", "id": "its-bao-time-seattle", "image_url": "https://s3-media2.fl.yelpcdn.com/bphoto/eNLzkh0KHnG6NaBRPDs-fg/o.jpg", "url": "https://www.yelp.com/biz/its-bao-time-seattle?adjust_creative=gBcvfFpabk3CnzmXKdYe3w&utm_campaign=yelp_api_v3&utm_medium=api_v3_business_search&utm_source=gBcvfFpabk3CnzmXKdYe3w", "phone": "+12062272815", "coordinates": {"longitude": -122.338220377577, "latitude": 47.62190433953}, "categories": [{"alias": "foodtrucks", "title": "Food Trucks"}, {"alias": "taiwanese", "title": "Taiwanese"}], "review_count": 45, "location": {"city": "Seattle", "address1": "320 Westlake Ave N", "address3": "", "address2": null, "zip_code": "98109", "country": "US", "display_address": ["320 Westlake Ave N", "Seattle, WA 98109"], "state": "WA"}, "price": "$", "transactions": [], "display_phone": "(206) 227-2815"}, {"rating": 4.5, "is_closed": false, "distance": 7165.184015, "name": "Now Make Me A Sandwich", "id": "now-make-me-a-sandwich-seattle", "image_url": "https://s3-media2.fl.yelpcdn.com/bphoto/RbO-JboJMd-KAK2Kxg7ySg/o.jpg", "url": "https://www.yelp.com/biz/now-make-me-a-sandwich-seattle?adjust_creative=gBcvfFpabk3CnzmXKdYe3w&utm_campaign=yelp_api_v3&utm_medium=api_v3_business_search&utm_source=gBcvfFpabk3CnzmXKdYe3w", "phone": "+12062570658", "coordinates": {"longitude": -122.355046294175, "latitude": 47.6885005863431}, "categories": [{"alias": "foodtrucks", "title": "Food Trucks"}, {"alias": "sandwiches", "title": "Sandwiches"}], "review_count": 87, "location": {"city": "Seattle", "address1": "8202 Greenwood Ave N", "address3": "", "address2": null, "zip_code": "98103", "country": "US", "display_address": ["8202 Greenwood Ave N", "Seattle, WA 98103"], "state": "WA"}, "price": "$", "transactions": [], "display_phone": "(206) 257-0658"}, {"rating": 4.0, "is_closed": false, "distance": 2077.701553114, "name": "Noi Thai Cuisine - Seattle", "id": "noi-thai-cuisine-seattle-seattle-2", "image_url": "https://s3-media4.fl.yelpcdn.com/bphoto/b9bGi5ewoDQDbRnUllg6pw/o.jpg", "url": "https://www.yelp.com/biz/noi-thai-cuisine-seattle-seattle-2?adjust_creative=gBcvfFpabk3CnzmXKdYe3w&utm_campaign=yelp_api_v3&utm_medium=api_v3_business_search&utm_source=gBcvfFpabk3CnzmXKdYe3w", "phone": "+12067878444", "coordinates": {"longitude": -122.3389654, "latitude": 47.606881}, "categories": [{"alias": "thai", "title": "Thai"}], "review_count": 189, "location": {"city": "Seattle", "address1": "1303 1st Ave", "address3": "Harbor Steps Building", "address2": "", "zip_code": "98101", "country": "US", "display_address": ["1303 1st Ave", "Harbor Steps Building", "Seattle, WA 98101"], "state": "WA"}, "price": "$$", "transactions": ["pickup"], "display_phone": "(206) 787-8444"}, {"rating": 4.0, "is_closed": false, "distance": 1736.4627322039998, "name": "Caffe Lieto", "id": "caffe-lieto-seattle-2", "image_url": "https://s3-media3.fl.yelpcdn.com/bphoto/Dzk0AidPt3H3fXP0cLcOmQ/o.jpg", "url": "https://www.yelp.com/biz/caffe-lieto-seattle-2?adjust_creative=gBcvfFpabk3CnzmXKdYe3w&utm_campaign=yelp_api_v3&utm_medium=api_v3_business_search&utm_source=gBcvfFpabk3CnzmXKdYe3w", "phone": "+12064417999", "coordinates": {"longitude": -122.34167, "latitude": 47.61034}, "categories": [{"alias": "coffee", "title": "Coffee & Tea"}, {"alias": "breakfast_brunch", "title": "Breakfast & Brunch"}, {"alias": "southern", "title": "Southern"}], "review_count": 84, "location": {"city": "Seattle", "address1": "1909 1st Ave", "address3": "", "address2": "", "zip_code": "98101", "country": "US", "display_address": ["1909 1st Ave", "Seattle, WA 98101"], "state": "WA"}, "price": "$", "transactions": [], "display_phone": "(206) 441-7999"}, {"rating": 4.0, "is_closed": false, "distance": 1064.8643253444, "name": "Tortas Condesa", "id": "tortas-condesa-seattle", "image_url": "https://s3-media4.fl.yelpcdn.com/bphoto/KQkNRlsmiFba0rJMDozmSg/o.jpg", "url": "https://www.yelp.com/biz/tortas-condesa-seattle?adjust_creative=gBcvfFpabk3CnzmXKdYe3w&utm_campaign=yelp_api_v3&utm_medium=api_v3_business_search&utm_source=gBcvfFpabk3CnzmXKdYe3w", "phone": "+13235773045", "coordinates": {"longitude": -122.3261, "latitude": 47.61826}, "categories": [{"alias": "mexican", "title": "Mexican"}], "review_count": 77, "location": {"city": "Seattle", "address1": "1510 E Olive Way", "address3": "", "address2": "", "zip_code": "98122", "country": "US", "display_address": ["1510 E Olive Way", "Seattle, WA 98122"], "state": "WA"}, "price": "$$", "transactions": [], "display_phone": "(323) 577-3045"}, {"rating": 4.0, "is_closed": false, "distance": 3431.76627204, "name": "Voula's Offshore Cafe", "id": "voulas-offshore-cafe-seattle", "image_url": "https://s3-media2.fl.yelpcdn.com/bphoto/rH8pT54fN5jnAc2rddMekg/o.jpg", "url": "https://www.yelp.com/biz/voulas-offshore-cafe-seattle?adjust_creative=gBcvfFpabk3CnzmXKdYe3w&utm_campaign=yelp_api_v3&utm_medium=api_v3_business_search&utm_source=gBcvfFpabk3CnzmXKdYe3w", "phone": "+12066340183", "coordinates": {"longitude": -122.3215, "latitude": 47.65473}, "categories": [{"alias": "breakfast_brunch", "title": "Breakfast & Brunch"}], "review_count": 506, "location": {"city": "Seattle", "address1": "658 NE Northlake Way", "address3": "", "address2": "", "zip_code": "98105", "country": "US", "display_address": ["658 NE Northlake Way", "Seattle, WA 98105"], "state": "WA"}, "price": "$$", "transactions": [], "display_phone": "(206) 634-0183"}, {"rating": 4.0, "is_closed": false, "distance": 1246.836165, "name": "Mantra", "id": "mantra-seattle", "image_url": "https://s3-media4.fl.yelpcdn.com/bphoto/7LT7XwkhAU3-FxrHKAz8yA/o.jpg", "url": "https://www.yelp.com/biz/mantra-seattle?adjust_creative=gBcvfFpabk3CnzmXKdYe3w&utm_campaign=yelp_api_v3&utm_medium=api_v3_business_search&utm_source=gBcvfFpabk3CnzmXKdYe3w", "phone": "+12066590466", "coordinates": {"longitude": -122.348531557074, "latitude": 47.6184417733982}, "categories": [{"alias": "thai", "title": "Thai"}, {"alias": "seafood", "title": "Seafood"}, {"alias": "salad", "title": "Salad"}], "review_count": 140, "location": {"city": "Seattle", "address1": "2720 4th Ave", "address3": "", "address2": "Ste 116", "zip_code": "98121", "country": "US", "display_address": ["2720 4th Ave", "Ste 116", "Seattle, WA 98121"], "state": "WA"}, "price": "$$", "transactions": ["delivery", "pickup"], "display_phone": "(206) 659-0466"}, {"rating": 4.0, "is_closed": false, "distance": 2138.49823403, "name": "Pagliacci Pizza", "id": "pagliacci-pizza-seattle-9", "image_url": "https://s3-media3.fl.yelpcdn.com/bphoto/a_akTh6MR4yF2PupV5cZeA/o.jpg", "url": "https://www.yelp.com/biz/pagliacci-pizza-seattle-9?adjust_creative=gBcvfFpabk3CnzmXKdYe3w&utm_campaign=yelp_api_v3&utm_medium=api_v3_business_search&utm_source=gBcvfFpabk3CnzmXKdYe3w", "phone": "+12067261717", "coordinates": {"longitude": -122.319732666016, "latitude": 47.6414985656738}, "categories": [{"alias": "pizza", "title": "Pizza"}], "review_count": 74, "location": {"city": "Seattle", "address1": "2400 10th Ave E", "address3": "", "address2": "", "zip_code": "98102", "country": "US", "display_address": ["2400 10th Ave E", "Seattle, WA 98102"], "state": "WA"}, "price": "$$", "transactions": [], "display_phone": "(206) 726-1717"}, {"rating": 4.0, "is_closed": false, "distance": 1087.090421189, "name": "The Saint", "id": "the-saint-seattle", "image_url": "https://s3-media1.fl.yelpcdn.com/bphoto/07417ddTRKA0olZKVBmYVg/o.jpg", "url": "https://www.yelp.com/biz/the-saint-seattle?adjust_creative=gBcvfFpabk3CnzmXKdYe3w&utm_campaign=yelp_api_v3&utm_medium=api_v3_business_search&utm_source=gBcvfFpabk3CnzmXKdYe3w", "phone": "+12063239922", "coordinates": {"longitude": -122.326872, "latitude": 47.6175669}, "categories": [{"alias": "mexican", "title": "Mexican"}, {"alias": "bars", "title": "Bars"}], "review_count": 407, "location": {"city": "Seattle", "address1": "1416 E Olive Way", "address3": "", "address2": "", "zip_code": "98122", "country": "US", "display_address": ["1416 E Olive Way", "Seattle, WA 98122"], "state": "WA"}, "price": "$$", "transactions": [], "display_phone": "(206) 323-9922"}, {"rating": 4.5, "is_closed": false, "distance": 6359.146076, "name": "Duck Island Ale House", "id": "duck-island-ale-house-seattle", "image_url": "https://s3-media2.fl.yelpcdn.com/bphoto/znCw61ajsqnvilovmaP-Dg/o.jpg", "url": "https://www.yelp.com/biz/duck-island-ale-house-seattle?adjust_creative=gBcvfFpabk3CnzmXKdYe3w&utm_campaign=yelp_api_v3&utm_medium=api_v3_business_search&utm_source=gBcvfFpabk3CnzmXKdYe3w", "phone": "+12067833360", "coordinates": {"longitude": -122.344844, "latitude": 47.6822609}, "categories": [{"alias": "pubs", "title": "Pubs"}, {"alias": "cocktailbars", "title": "Cocktail Bars"}], "review_count": 94, "location": {"city": "Seattle", "address1": "7317 Aurora Ave N", "address3": "", "address2": "", "zip_code": "98103", "country": "US", "display_address": ["7317 Aurora Ave N", "Seattle, WA 98103"], "state": "WA"}, "price": "$", "transactions": [], "display_phone": "(206) 783-3360"}, {"rating": 4.0, "is_closed": false, "distance": 5112.9250007480005, "name": "That's Amore! Italian Cafe", "id": "thats-amore-italian-cafe-seattle", "image_url": "https://s3-media1.fl.yelpcdn.com/bphoto/4Wx_kMeLaTtlF1b1qcp8Vw/o.jpg", "url": "https://www.yelp.com/biz/thats-amore-italian-cafe-seattle?adjust_creative=gBcvfFpabk3CnzmXKdYe3w&utm_campaign=yelp_api_v3&utm_medium=api_v3_business_search&utm_source=gBcvfFpabk3CnzmXKdYe3w", "phone": "+12063223677", "coordinates": {"longitude": -122.29267, "latitude": 47.58956}, "categories": [{"alias": "italian", "title": "Italian"}, {"alias": "pizza", "title": "Pizza"}], "review_count": 211, "location": {"city": "Seattle", "address1": "1425 31st Ave S", "address3": "", "address2": "", "zip_code": "98144", "country": "US", "display_address": ["1425 31st Ave S", "Seattle, WA 98144"], "state": "WA"}, "price": "$$", "transactions": [], "display_phone": "(206) 322-3677"}, {"rating": 4.0, "is_closed": false, "distance": 3240.048494652, "name": "Norm's Eatery & Ale House", "id": "norms-eatery-and-ale-house-seattle", "image_url": "https://s3-media2.fl.yelpcdn.com/bphoto/AhmwcQO0XYN5kvcYPsyUwg/o.jpg", "url": "https://www.yelp.com/biz/norms-eatery-and-ale-house-seattle?adjust_creative=gBcvfFpabk3CnzmXKdYe3w&utm_campaign=yelp_api_v3&utm_medium=api_v3_business_search&utm_source=gBcvfFpabk3CnzmXKdYe3w", "phone": "+12065471417", "coordinates": {"longitude": -122.35308, "latitude": 47.6522099}, "categories": [{"alias": "tradamerican", "title": "American (Traditional)"}, {"alias": "bars", "title": "Bars"}, {"alias": "breakfast_brunch", "title": "Breakfast & Brunch"}], "review_count": 488, "location": {"city": "Seattle", "address1": "460 N 36th St", "address3": "", "address2": "", "zip_code": "98103", "country": "US", "display_address": ["460 N 36th St", "Seattle, WA 98103"], "state": "WA"}, "price": "$$", "transactions": [], "display_phone": "(206) 547-1417"}]}