{"total": 36020, "region": {"center": {"longitude": -122.33551025390625, "latitude": 47.62541904760501}}, "businesses": [{"rating": 4.5, "is_closed": false, "distance": 6750.621249679999, "name": "Brunswick & Hunt", "id": "brunswick-and-hunt-seattle", "image_url": "https://s3-media3.fl.yelpcdn.com/bphoto/3lL2VyBV1cl5b_W1os7K-A/o.jpg", "url": "https://www.yelp.com/biz/brunswick-and-hunt-seattle?adjust_creative=gBcvfFpabk3CnzmXKdYe3w&utm_campaign=yelp_api_v3&utm_medium=api_v3_business_search&utm_source=gBcvfFpabk3CnzmXKdYe3w", "phone": "+12069461574", "coordinates": {"longitude": -122.3763019, "latitude": 47.6795534}, "categories": [{"alias": "newamerican", "title": "American (New)"}, {"alias": "breakfast_brunch", "title": "Breakfast & Brunch"}, {"alias": "cocktailbars", "title": "Cocktail Bars"}], "review_count": 176, "location": {"city": "Seattle", "address1": "1480 NW 70th St", "address3": "", "address2": "", "zip_code": "98117", "country": "US", "display_address": ["1480 NW 70th St", "Seattle, WA 98117"], "state": "WA"}, "price": "$$", "transactions": [], "display_phone": "(206) 946-1574"}, {"rating": 4.0, "is_closed": false, "distance": 5741.634915035999, "name": "Senor Moose Cafe", "id": "senor-moose-cafe-seattle-3", "image_url": "https://s3-media1.fl.yelpcdn.com/bphoto/4RCcNdF0JtiZMNiG8nUDnw/o.jpg", "url": "https://www.yelp.com/biz/senor-moose-cafe-seattle-3?adjust_creative=gBcvfFpabk3CnzmXKdYe3w&utm_campaign=yelp_api_v3&utm_medium=api_v3_business_search&utm_source=gBcvfFpabk3CnzmXKdYe3w", "phone": "+12067845568", "coordinates": {"longitude": -122.38163, "latitude": 47.66664}, "categories": [{"alias": "mexican", "title": "Mexican"}, {"alias": "breakfast_brunch", "title": "Breakfast & Brunch"}, {"alias": "diners", "title": "Diners"}], "review_count": 781, "location": {"city": "Seattle", "address1": "5242 Leary Ave NW", "address3": "", "address2": null, "zip_code": "98107", "country": "US", "display_address": ["5242 Leary Ave NW", "Seattle, WA 98107"], "state": "WA"}, "price": "$$", "transactions": [], "display_phone": "(206) 784-5568"}, {"rating": 4.0, "is_closed": false, "distance": 1886.30419532, "name": "Queen Anne Beerhall", "id": "queen-anne-beerhall-seattle", "image_url": "https://s3-media2.fl.yelpcdn.com/bphoto/F7_KKFR0UKVsDdmqjBKwNQ/o.jpg", "url": "https://www.yelp.com/biz/queen-anne-beerhall-seattle?adjust_creative=gBcvfFpabk3CnzmXKdYe3w&utm_campaign=yelp_api_v3&utm_medium=api_v3_business_search&utm_source=gBcvfFpabk3CnzmXKdYe3w", "phone": "+12066594043", "coordinates": {"longitude": -122.359725952148, "latitude": 47.620777130127}, "categories": [{"alias": "beergardens", "title": "Beer Gardens"}, {"alias": "german", "title": "German"}, {"alias": "modern_european", "title": "Modern European"}], "review_count": 180, "location": {"city": "Seattle", "address1": "203 W Thomas St", "address3": "", "address2": null, "zip_code": "98119", "country": "US", "display_address": ["203 W Thomas St", "Seattle, WA 98119"], "state": "WA"}, "price": "$$", "transactions": [], "display_phone": "(206) 659-4043"}, {"rating": 4.0, "is_closed": false, "distance": 1399.600913759, "name": "Caffe Ladro", "id": "caffe-ladro-seattle-15", "image_url": "https://s3-media1.fl.yelpcdn.com/bphoto/y2bEw-wadCiPrw_Jp9Tugw/o.jpg", "url": "https://www.yelp.com/biz/caffe-ladro-seattle-15?adjust_creative=gBcvfFpabk3CnzmXKdYe3w&utm_campaign=yelp_api_v3&utm_medium=api_v3_business_search&utm_source=gBcvfFpabk3CnzmXKdYe3w", "phone": "+12064051950", "coordinates": {"longitude": -122.332626342773, "latitude": 47.6129722595215}, "categories": [{"alias": "coffee", "title": "Coffee & Tea"}, {"alias": "bakeries", "title": "Bakeries"}, {"alias": "coffeeroasteries", "title": "Coffee Roasteries"}], "review_count": 108, "location": {"city": "Seattle", "address1": "801 Pine St", "address3": "", "address2": "", "zip_code": "98101", "country": "US", "display_address": ["801 Pine St", "Seattle, WA 98101"], "state": "WA"}, "price": "$", "transactions": [], "display_phone": "(206) 405-1950"}, {"rating": 3.5, "is_closed": false, "distance": 1172.0040115156, "name": "Pinto Thai Bistro & Sushi Bar", "id": "pinto-thai-bistro-and-sushi-bar-seattle", "image_url": "https://s3-media1.fl.yelpcdn.com/bphoto/ssw8IFKmBVKVOyiHO7cTpw/o.jpg", "url": "https://www.yelp.com/biz/pinto-thai-bistro-and-sushi-bar-seattle?adjust_creative=gBcvfFpabk3CnzmXKdYe3w&utm_campaign=yelp_api_v3&utm_medium=api_v3_business_search&utm_source=gBcvfFpabk3CnzmXKdYe3w", "phone": "+12067240559", "coordinates": {"longitude": -122.32065, "latitude": 47.6223}, "categories": [{"alias": "thai", "title": "Thai"}, {"alias": "sushi", "title": "Sushi Bars"}, {"alias": "japanese", "title": "Japanese"}], "review_count": 315, "location": {"city": "Seattle", "address1": "408 Broadway E", "address3": "", "address2": null, "zip_code": "98102", "country": "US", "display_address": ["408 Broadway E", "Seattle, WA 98102"], "state": "WA"}, "price": "$$", "transactions": ["delivery", "pickup"], "display_phone": "(206) 724-0559"}, {"rating": 4.0, "is_closed": false, "distance": 2703.0548669639998, "name": "Thackeray", "id": "thackeray-seattle-2", "image_url": "https://s3-media1.fl.yelpcdn.com/bphoto/A43WNiyEyrrWcYWJOVhmfg/o.jpg", "url": "https://www.yelp.com/biz/thackeray-seattle-2?adjust_creative=gBcvfFpabk3CnzmXKdYe3w&utm_campaign=yelp_api_v3&utm_medium=api_v3_business_search&utm_source=gBcvfFpabk3CnzmXKdYe3w", "phone": "+12067378743", "coordinates": {"longitude": -122.34252118102, "latitude": 47.6492660775549}, "categories": [{"alias": "bars", "title": "Bars"}, {"alias": "tradamerican", "title": "American (Traditional)"}, {"alias": "breakfast_brunch", "title": "Breakfast & Brunch"}], "review_count": 74, "location": {"city": "Seattle", "address1": "3400 Stone Way N", "address3": "", "address2": null, "zip_code": "98103", "country": "US", "display_address": ["3400 Stone Way N", "Seattle, WA 98103"], "state": "WA"}, "price": "$$", "transactions": [], "display_phone": "(206) 737-8743"}, {"rating": 5.0, "is_closed": false, "distance": 2823.5566134739997, "name": "Taqueria Sotelo", "id": "taqueria-sotelo-seattle", "image_url": "https://s3-media1.fl.yelpcdn.com/bphoto/AIy_kyZ5TEyNZBxnL0ce5A/o.jpg", "url": "https://www.yelp.com/biz/taqueria-sotelo-seattle?adjust_creative=gBcvfFpabk3CnzmXKdYe3w&utm_campaign=yelp_api_v3&utm_medium=api_v3_business_search&utm_source=gBcvfFpabk3CnzmXKdYe3w", "phone": "+12065355549", "coordinates": {"longitude": -122.302588149905, "latitude": 47.6130763524991}, "categories": [{"alias": "mexican", "title": "Mexican"}, {"alias": "foodtrucks", "title": "Food Trucks"}], "review_count": 17, "location": {"city": "Seattle", "address1": "2015 E Union St", "address3": "", "address2": "", "zip_code": "98122", "country": "US", "display_address": ["2015 E Union St", "Seattle, WA 98122"], "state": "WA"}, "price": "$", "transactions": ["pickup"], "display_phone": "(206) 535-5549"}, {"rating": 3.5, "is_closed": false, "distance": 1458.6025046521997, "name": "Lava Lounge", "id": "lava-lounge-seattle", "image_url": "https://s3-media1.fl.yelpcdn.com/bphoto/g8NK8qib7TIlVCwaNbQfrw/o.jpg", "url": "https://www.yelp.com/biz/lava-lounge-seattle?adjust_creative=gBcvfFpabk3CnzmXKdYe3w&utm_campaign=yelp_api_v3&utm_medium=api_v3_business_search&utm_source=gBcvfFpabk3CnzmXKdYe3w", "phone": "+12064415660", "coordinates": {"longitude": -122.34508, "latitude": 47.61397}, "categories": [{"alias": "lounges", "title": "Lounges"}, {"alias": "divebars", "title": "Dive Bars"}], "review_count": 163, "location": {"city": "Seattle", "address1": "2226 2nd Ave", "address3": "", "address2": "", "zip_code": "98121", "country": "US", "display_address": ["2226 2nd Ave", "Seattle, WA 98121"], "state": "WA"}, "price": "$", "transactions": [], "display_phone": "(206) 441-5660"}, {"rating": 4.0, "is_closed": false, "distance": 3167.109987172, "name": "Canton Wonton House", "id": "canton-wonton-house-seattle", "image_url": "https://s3-media4.fl.yelpcdn.com/bphoto/UcfJEUf_eP0ktHQEXShjhg/o.jpg", "url": "https://www.yelp.com/biz/canton-wonton-house-seattle?adjust_creative=gBcvfFpabk3CnzmXKdYe3w&utm_campaign=yelp_api_v3&utm_medium=api_v3_business_search&utm_source=gBcvfFpabk3CnzmXKdYe3w", "phone": "+12066825080", "coordinates": {"longitude": -122.32591, "latitude": 47.59766}, "categories": [{"alias": "cantonese", "title": "Cantonese"}, {"alias": "noodles", "title": "Noodles"}], "review_count": 223, "location": {"city": "Seattle", "address1": "608 S Weller St", "address3": "", "address2": "", "zip_code": "98104", "country": "US", "display_address": ["608 S Weller St", "Seattle, WA 98104"], "state": "WA"}, "price": "$", "transactions": ["pickup"], "display_phone": "(206) 682-5080"}, {"rating": 4.5, "is_closed": false, "distance": 2335.7149652639996, "name": "Hamlin Market and Deli", "id": "hamlin-market-and-deli-seattle", "image_url": "https://s3-media2.fl.yelpcdn.com/bphoto/woOgIJkHgRQ_FKXiNseydw/o.jpg", "url": "https://www.yelp.com/biz/hamlin-market-and-deli-seattle?adjust_creative=gBcvfFpabk3CnzmXKdYe3w&utm_campaign=yelp_api_v3&utm_medium=api_v3_business_search&utm_source=gBcvfFpabk3CnzmXKdYe3w", "phone": "+12063242888", "coordinates": {"longitude": -122.3261019, "latitude": 47.6450952}, "categories": [{"alias": "grocery", "title": "Grocery"}, {"alias": "delis", "title": "Delis"}], "review_count": 41, "location": {"city": "Seattle", "address1": "2729 Eastlake Ave E", "address3": "", "address2": "", "zip_code": "98127", "country": "US", "display_address": ["2729 Eastlake Ave E", "Seattle, WA 98127"], "state": "WA"}, "price": "$", "transactions": [], "display_phone": "(206) 324-2888"}, {"rating": 4.0, "is_closed": false, "distance": 2268.7754335679997, "name": "Homegrown", "id": "homegrown-seattle-5", "image_url": "https://s3-media3.fl.yelpcdn.com/bphoto/B5sm1fUTv0bxb4o6ORdfBA/o.jpg", "url": "https://www.yelp.com/biz/homegrown-seattle-5?adjust_creative=gBcvfFpabk3CnzmXKdYe3w&utm_campaign=yelp_api_v3&utm_medium=api_v3_business_search&utm_source=gBcvfFpabk3CnzmXKdYe3w", "phone": "+18775679240", "coordinates": {"longitude": -122.334244, "latitude": 47.605035}, "categories": [{"alias": "sandwiches", "title": "Sandwiches"}, {"alias": "salad", "title": "Salad"}, {"alias": "breakfast_brunch", "title": "Breakfast & Brunch"}], "review_count": 106, "location": {"city": "Seattle", "address1": "999 3rd Ave Plz", "address3": "", "address2": "Ste 2", "zip_code": "98104", "country": "US", "display_address": ["999 3rd Ave Plz", "Ste 2", "Seattle, WA 98104"], "state": "WA"}, "price": "$$", "transactions": [], "display_phone": "(877) 567-9240"}, {"rating": 4.0, "is_closed": false, "distance": 1026.807361134, "name": "Starbucks", "id": "starbucks-seattle-128", "image_url": "https://s3-media1.fl.yelpcdn.com/bphoto/H70L99lV1P5NyWpUpzyyug/o.jpg", "url": "https://www.yelp.com/biz/starbucks-seattle-128?adjust_creative=gBcvfFpabk3CnzmXKdYe3w&utm_campaign=yelp_api_v3&utm_medium=api_v3_business_search&utm_source=gBcvfFpabk3CnzmXKdYe3w", "phone": "+12065685185", "coordinates": {"longitude": -122.32498, "latitude": 47.61945}, "categories": [{"alias": "coffee", "title": "Coffee & Tea"}], "review_count": 133, "location": {"city": "Seattle", "address1": "1600 East Olive Way", "address3": "", "address2": "", "zip_code": "98102", "country": "US", "display_address": ["1600 East Olive Way", "Seattle, WA 98102"], "state": "WA"}, "price": "$", "transactions": [], "display_phone": "(206) 568-5185"}, {"rating": 4.0, "is_closed": false, "distance": 1911.905254172, "name": "Jimmy's On Broadway", "id": "jimmys-on-broadway-seattle", "image_url": "https://s3-media2.fl.yelpcdn.com/bphoto/8QYaPXIbIB2Ko1lh5kM1eQ/o.jpg", "url": "https://www.yelp.com/biz/jimmys-on-broadway-seattle?adjust_creative=gBcvfFpabk3CnzmXKdYe3w&utm_campaign=yelp_api_v3&utm_medium=api_v3_business_search&utm_source=gBcvfFpabk3CnzmXKdYe3w", "phone": "+12062041188", "coordinates": {"longitude": -122.32028, "latitude": 47.61166}, "categories": [{"alias": "newamerican", "title": "American (New)"}], "review_count": 127, "location": {"city": "Seattle", "address1": "1100 Broadway", "address3": "", "address2": "", "zip_code": "98122", "country": "US", "display_address": ["1100 Broadway", "Seattle, WA 98122"], "state": "WA"}, "price": "$$", "transactions": [], "display_phone": "(206) 204-1188"}, {"rating": 4.0, "is_closed": false, "distance": 3977.4500138599997, "name": "Little Thai Restaurant", "id": "little-thai-restaurant-seattle", "image_url": "https://s3-media1.fl.yelpcdn.com/bphoto/w5ZBnWf5krZlmySq1A8Ctg/o.jpg", "url": "https://www.yelp.com/biz/little-thai-restaurant-seattle?adjust_creative=gBcvfFpabk3CnzmXKdYe3w&utm_campaign=yelp_api_v3&utm_medium=api_v3_business_search&utm_source=gBcvfFpabk3CnzmXKdYe3w", "phone": "+12065488009", "coordinates": {"longitude": -122.314018249512, "latitude": 47.6581344604492}, "categories": [{"alias": "thai", "title": "Thai"}], "review_count": 270, "location": {"city": "Seattle", "address1": "4142 Brooklyn Ave NE", "address3": "", "address2": "", "zip_code": "98105", "country": "US", "display_address": ["4142 Brooklyn Ave NE", "Seattle, WA 98105"], "state": "WA"}, "price": "$", "transactions": ["pickup"], "display_phone": "(206) 548-8009"}, {"rating": 3.5, "is_closed": false, "distance": 2350.634673602, "name": "Evergreens Salad", "id": "evergreens-salad-seattle-2", "image_url": "https://s3-media4.fl.yelpcdn.com/bphoto/XCivHEVT7CdbGketllh2xQ/o.jpg", "url": "https://www.yelp.com/biz/evergreens-salad-seattle-2?adjust_creative=gBcvfFpabk3CnzmXKdYe3w&utm_campaign=yelp_api_v3&utm_medium=api_v3_business_search&utm_source=gBcvfFpabk3CnzmXKdYe3w", "phone": "+12069734400", "coordinates": {"longitude": -122.3328719, "latitude": 47.6043542}, "categories": [{"alias": "salad", "title": "Salad"}, {"alias": "wraps", "title": "Wraps"}], "review_count": 92, "location": {"city": "Seattle", "address1": "823 3rd Ave", "address3": "", "address2": "Ste 107", "zip_code": "98104", "country": "US", "display_address": ["823 3rd Ave", "Ste 107", "Seattle, WA 98104"], "state": "WA"}, "price": "$$", "transactions": ["pickup"], "display_phone": "(206) 973-4400"}, {"rating": 4.0, "is_closed": false, "distance": 2290.0967745579997, "name": "206 Burger Company", "id": "206-burger-company-seattle", "image_url": "https://s3-media3.fl.yelpcdn.com/bphoto/KMNWIAr2u7LLzDRXwnUuLQ/o.jpg", "url": "https://www.yelp.com/biz/206-burger-company-seattle?adjust_creative=gBcvfFpabk3CnzmXKdYe3w&utm_campaign=yelp_api_v3&utm_medium=api_v3_business_search&utm_source=gBcvfFpabk3CnzmXKdYe3w", "phone": "+12064674450", "coordinates": {"longitude": -122.333658004412, "latitude": 47.6048610579355}, "categories": [{"alias": "burgers", "title": "Burgers"}], "review_count": 52, "location": {"city": "Seattle", "address1": "823 3rd Ave", "address3": "", "address2": "Ste 106", "zip_code": "98104", "country": "US", "display_address": ["823 3rd Ave", "Ste 106", "Seattle, WA 98104"], "state": "WA"}, "price": "$", "transactions": ["pickup"], "display_phone": "(206) 467-4450"}, {"rating": 3.5, "is_closed": false, "distance": 2118.162452856, "name": "Tallulah's", "id": "tallulahs-seattle", "image_url": "https://s3-media3.fl.yelpcdn.com/bphoto/6ES391kI0GGfJuTNqzSiQQ/o.jpg", "url": "https://www.yelp.com/biz/tallulahs-seattle?adjust_creative=gBcvfFpabk3CnzmXKdYe3w&utm_campaign=yelp_api_v3&utm_medium=api_v3_business_search&utm_source=gBcvfFpabk3CnzmXKdYe3w", "phone": "+12068600077", "coordinates": {"longitude": -122.3072952, "latitude": 47.6242872}, "categories": [{"alias": "cafes", "title": "Cafes"}, {"alias": "newamerican", "title": "American (New)"}, {"alias": "breakfast_brunch", "title": "Breakfast & Brunch"}], "review_count": 290, "location": {"city": "Seattle", "address1": "550 19th Ave E", "address3": "", "address2": "", "zip_code": "98112", "country": "US", "display_address": ["550 19th Ave E", "Seattle, WA 98112"], "state": "WA"}, "price": "$$", "transactions": [], "display_phone": "(206) 860-0077"}, {"rating": 4.0, "is_closed": false, "distance": 4108.645341868, "name": "Tuk Tuk Thai Kitchen", "id": "tuk-tuk-thai-kitchen-seattle-3", "image_url": "https://s3-media3.fl.yelpcdn.com/bphoto/Q-Bn2MhqOpSrwbeq3biU_g/o.jpg", "url": "https://www.yelp.com/biz/tuk-tuk-thai-kitchen-seattle-3?adjust_creative=gBcvfFpabk3CnzmXKdYe3w&utm_campaign=yelp_api_v3&utm_medium=api_v3_business_search&utm_source=gBcvfFpabk3CnzmXKdYe3w", "phone": "+12064201284", "coordinates": {"longitude": -122.378583848476, "latitude": 47.6482864709817}, "categories": [{"alias": "thai", "title": "Thai"}], "review_count": 74, "location": {"city": "Seattle", "address1": "1625 W Dravus St", "address3": "", "address2": null, "zip_code": "98119", "country": "US", "display_address": ["1625 W Dravus St", "Seattle, WA 98119"], "state": "WA"}, "price": "$$", "transactions": ["delivery", "pickup"], "display_phone": "(206) 420-1284"}, {"rating": 3.5, "is_closed": false, "distance": 2939.8381877019997, "name": "Homegrown", "id": "homegrown-seattle-2", "image_url": "https://s3-media4.fl.yelpcdn.com/bphoto/UCzbMY2b6ixXIBhX_L76gA/o.jpg", "url": "https://www.yelp.com/biz/homegrown-seattle-2?adjust_creative=gBcvfFpabk3CnzmXKdYe3w&utm_campaign=yelp_api_v3&utm_medium=api_v3_business_search&utm_source=gBcvfFpabk3CnzmXKdYe3w", "phone": "+18775679240", "coordinates": {"longitude": -122.3495295, "latitude": 47.6501129}, "categories": [{"alias": "sandwiches", "title": "Sandwiches"}, {"alias": "salad", "title": "Salad"}, {"alias": "breakfast_brunch", "title": "Breakfast & Brunch"}], "review_count": 303, "location": {"city": "Seattle", "address1": "3416 Fremont Ave N", "address3": "", "address2": "", "zip_code": "98103", "country": "US", "display_address": ["3416 Fremont Ave N", "Seattle, WA 98103"], "state": "WA"}, "price": "$$", "transactions": [], "display_phone": "(877) 567-9240"}, {"rating": 4.0, "is_closed": false, "distance": 3090.5449929359997, "name": "Sinbad Express", "id": "sinbad-express-seattle", "image_url": "https://s3-media3.fl.yelpcdn.com/bphoto/0Ad6XKjfYF-Oad4kRH-gHg/o.jpg", "url": "https://www.yelp.com/biz/sinbad-express-seattle?adjust_creative=gBcvfFpabk3CnzmXKdYe3w&utm_campaign=yelp_api_v3&utm_medium=api_v3_business_search&utm_source=gBcvfFpabk3CnzmXKdYe3w", "phone": "+12066327426", "coordinates": {"longitude": -122.35078, "latitude": 47.6513}, "categories": [{"alias": "mediterranean", "title": "Mediterranean"}], "review_count": 190, "location": {"city": "Seattle", "address1": "3526 Fremont Pl N", "address3": "", "address2": "", "zip_code": "98103", "country": "US", "display_address": ["3526 Fremont Pl N", "Seattle, WA 98103"], "state": "WA"}, "price": "$", "transactions": ["pickup"], "display_phone": "(206) 632-7426"}, {"rating": 4.0, "is_closed": false, "distance": 1965.8912082079999, "name": "Omega Ouzeri", "id": "omega-ouzeri-seattle", "image_url": "https://s3-media2.fl.yelpcdn.com/bphoto/dYjUf0hsTe0ffa-7WVzPuQ/o.jpg", "url": "https://www.yelp.com/biz/omega-ouzeri-seattle?adjust_creative=gBcvfFpabk3CnzmXKdYe3w&utm_campaign=yelp_api_v3&utm_medium=api_v3_business_search&utm_source=gBcvfFpabk3CnzmXKdYe3w", "phone": "+12062574515", "coordinates": {"longitude": -122.314503831051, "latitude": 47.6148307778165}, "categories": [{"alias": "greek", "title": "Greek"}], "review_count": 120, "location": {"city": "Seattle", "address1": "1529 14th Ave", "address3": "", "address2": "", "zip_code": "98122", "country": "US", "display_address": ["1529 14th Ave", "Seattle, WA 98122"], "state": "WA"}, "price": "$$$", "transactions": [], "display_phone": "(206) 257-4515"}, {"rating": 4.0, "is_closed": false, "distance": 1940.0461734119997, "name": "Sarducci's Specialty Subs", "id": "sarduccis-specialty-subs-seattle", "image_url": "https://s3-media1.fl.yelpcdn.com/bphoto/vKAlBS3QGMk9-Jxkk41l2g/o.jpg", "url": "https://www.yelp.com/biz/sarduccis-specialty-subs-seattle?adjust_creative=gBcvfFpabk3CnzmXKdYe3w&utm_campaign=yelp_api_v3&utm_medium=api_v3_business_search&utm_source=gBcvfFpabk3CnzmXKdYe3w", "phone": "+12066827702", "coordinates": {"longitude": -122.322716787457, "latitude": 47.6103217899799}, "categories": [{"alias": "desserts", "title": "Desserts"}, {"alias": "creperies", "title": "Creperies"}, {"alias": "sandwiches", "title": "Sandwiches"}], "review_count": 117, "location": {"city": "Seattle", "address1": "1303 Madison St", "address3": "", "address2": "", "zip_code": "98104", "country": "US", "display_address": ["1303 Madison St", "Seattle, WA 98104"], "state": "WA"}, "price": "$", "transactions": ["delivery", "pickup"], "display_phone": "(206) 682-7702"}, {"rating": 4.0, "is_closed": false, "distance": 1115.376583364, "name": "CC Attle's", "id": "cc-attles-seattle-4", "image_url": "https://s3-media2.fl.yelpcdn.com/bphoto/qYkk6k9FbnI9DTVuuaJsrw/o.jpg", "url": "https://www.yelp.com/biz/cc-attles-seattle-4?adjust_creative=gBcvfFpabk3CnzmXKdYe3w&utm_campaign=yelp_api_v3&utm_medium=api_v3_business_search&utm_source=gBcvfFpabk3CnzmXKdYe3w", "phone": "+12067260565", "coordinates": {"longitude": -122.323321506729, "latitude": 47.6196675676299}, "categories": [{"alias": "gaybars", "title": "Gay Bars"}, {"alias": "newamerican", "title": "American (New)"}, {"alias": "cocktailbars", "title": "Cocktail Bars"}], "review_count": 70, "location": {"city": "Seattle", "address1": "1701 E Olive Way", "address3": "", "address2": "", "zip_code": "98102", "country": "US", "display_address": ["1701 E Olive Way", "Seattle, WA 98102"], "state": "WA"}, "price": "$", "transactions": [], "display_phone": "(206) 726-0565"}, {"rating": 4.0, "is_closed": false, "distance": 6016.946800978, "name": "Pasta Bella", "id": "pasta-bella-seattle", "image_url": "https://s3-media4.fl.yelpcdn.com/bphoto/EUrAybAXIWJhd-w6iP73qA/o.jpg", "url": "https://www.yelp.com/biz/pasta-bella-seattle?adjust_creative=gBcvfFpabk3CnzmXKdYe3w&utm_campaign=yelp_api_v3&utm_medium=api_v3_business_search&utm_source=gBcvfFpabk3CnzmXKdYe3w", "phone": "+12067894933", "coordinates": {"longitude": -122.37657, "latitude": 47.67222}, "categories": [{"alias": "italian", "title": "Italian"}], "review_count": 278, "location": {"city": "Seattle", "address1": "5909 15th Ave NW", "address3": "", "address2": "", "zip_code": "98107", "country": "US", "display_address": ["5909 15th Ave NW", "Seattle, WA 98107"], "state": "WA"}, "price": "$$", "transactions": [], "display_phone": "(206) 789-4933"}, {"rating": 3.5, "is_closed": false, "distance": 1195.2457135539998, "name": "Hana Restaurant", "id": "hana-restaurant-seattle", "image_url": "https://s3-media2.fl.yelpcdn.com/bphoto/bqDZIou9QVayo6sXFTd2Qg/o.jpg", "url": "https://www.yelp.com/biz/hana-restaurant-seattle?adjust_creative=gBcvfFpabk3CnzmXKdYe3w&utm_campaign=yelp_api_v3&utm_medium=api_v3_business_search&utm_source=gBcvfFpabk3CnzmXKdYe3w", "phone": "+12063281187", "coordinates": {"longitude": -122.321289, "latitude": 47.620571}, "categories": [{"alias": "japanese", "title": "Japanese"}, {"alias": "sushi", "title": "Sushi Bars"}, {"alias": "noodles", "title": "Noodles"}], "review_count": 383, "location": {"city": "Seattle", "address1": "219 Broadway E", "address3": "", "address2": "", "zip_code": "98102", "country": "US", "display_address": ["219 Broadway E", "Seattle, WA 98102"], "state": "WA"}, "price": "$$", "transactions": [], "display_phone": "(206) 328-1187"}, {"rating": 4.0, "is_closed": false, "distance": 5317.389716539999, "name": "Pinkaew Thai Cuisine", "id": "pinkaew-thai-cuisine-seattle-3", "image_url": "https://s3-media1.fl.yelpcdn.com/bphoto/tN1vkluWjK0X_9rMccAyqA/o.jpg", "url": "https://www.yelp.com/biz/pinkaew-thai-cuisine-seattle-3?adjust_creative=gBcvfFpabk3CnzmXKdYe3w&utm_campaign=yelp_api_v3&utm_medium=api_v3_business_search&utm_source=gBcvfFpabk3CnzmXKdYe3w", "phone": "+12065222200", "coordinates": {"longitude": -122.300933257008, "latitude": 47.6671832778846}, "categories": [{"alias": "thai", "title": "Thai"}, {"alias": "vegetarian", "title": "Vegetarian"}], "review_count": 118, "location": {"city": "Seattle", "address1": "5101 25th Ave NE", "address3": "", "address2": "", "zip_code": "98105", "country": "US", "display_address": ["5101 25th Ave NE", "Seattle, WA 98105"], "state": "WA"}, "price": "$$", "transactions": ["pickup"], "display_phone": "(206) 522-2200"}, {"rating": 4.5, "is_closed": false, "distance": 4317.751233286, "name": "Post Alley Cafe", "id": "post-alley-cafe-seattle-2", "image_url": "https://s3-media3.fl.yelpcdn.com/bphoto/p7GC9Y3qq21_i2QaXMVssw/o.jpg", "url": "https://www.yelp.com/biz/post-alley-cafe-seattle-2?adjust_creative=gBcvfFpabk3CnzmXKdYe3w&utm_campaign=yelp_api_v3&utm_medium=api_v3_business_search&utm_source=gBcvfFpabk3CnzmXKdYe3w", "phone": "+12065244918", "coordinates": {"longitude": -122.314605712891, "latitude": 47.6617813110352}, "categories": [{"alias": "coffee", "title": "Coffee & Tea"}, {"alias": "bakeries", "title": "Bakeries"}, {"alias": "beerbar", "title": "Beer Bar"}], "review_count": 28, "location": {"city": "Seattle", "address1": "4507 A Brooklyn Ave", "address3": "", "address2": "", "zip_code": "98105", "country": "US", "display_address": ["4507 A Brooklyn Ave", "Seattle, WA 98105"], "state": "WA"}, "price": "$", "transactions": [], "display_phone": "(206) 524-4918"}, {"rating": 4.0, "is_closed": false, "distance": 3131.8874891299997, "name": "Red Star Taco Bar", "id": "red-star-taco-bar-seattle", "image_url": "https://s3-media4.fl.yelpcdn.com/bphoto/a1bpo1EIgYq4Q5Z7o7xfMw/o.jpg", "url": "https://www.yelp.com/biz/red-star-taco-bar-seattle?adjust_creative=gBcvfFpabk3CnzmXKdYe3w&utm_campaign=yelp_api_v3&utm_medium=api_v3_business_search&utm_source=gBcvfFpabk3CnzmXKdYe3w", "phone": "+12062583087", "coordinates": {"longitude": -122.351609878242, "latitude": 47.6514130785983}, "categories": [{"alias": "mexican", "title": "Mexican"}, {"alias": "cocktailbars", "title": "Cocktail Bars"}], "review_count": 202, "location": {"city": "Seattle", "address1": "513 N 36th St", "address3": "", "address2": "Ste E", "zip_code": "98103", "country": "US", "display_address": ["513 N 36th St", "Ste E", "Seattle, WA 98103"], "state": "WA"}, "price": "$$", "transactions": [], "display_phone": "(206) 258-3087"}, {"rating": 4.0, "is_closed": false, "distance": 5725.153503162, "name": "The Gerald", "id": "the-gerald-seattle", "image_url": "https://s3-media3.fl.yelpcdn.com/bphoto/d4hYLT9a7fFIJzfJgrhf8w/o.jpg", "url": "https://www.yelp.com/biz/the-gerald-seattle?adjust_creative=gBcvfFpabk3CnzmXKdYe3w&utm_campaign=yelp_api_v3&utm_medium=api_v3_business_search&utm_source=gBcvfFpabk3CnzmXKdYe3w", "phone": "+12064329280", "coordinates": {"longitude": -122.38246, "latitude": 47.66601}, "categories": [{"alias": "newamerican", "title": "American (New)"}, {"alias": "gastropubs", "title": "Gastropubs"}, {"alias": "cocktailbars", "title": "Cocktail Bars"}], "review_count": 273, "location": {"city": "Seattle", "address1": "5210 Ballard Ave NW", "address3": "", "address2": "", "zip_code": "98107", "country": "US", "display_address": ["5210 Ballard Ave NW", "Seattle, WA 98107"], "state": "WA"}, "price": "$$", "transactions": [], "display_phone": "(206) 432-9280"}, {"rating": 4.5, "is_closed": false, "distance": 8200.27609752, "name": "Mashiko Japanese Restaurant & Sushi Bar", "id": "mashiko-japanese-restaurant-and-sushi-bar-seattle", "image_url": "https://s3-media3.fl.yelpcdn.com/bphoto/QRpIulxlfbBIuBIoCSucyA/o.jpg", "url": "https://www.yelp.com/biz/mashiko-japanese-restaurant-and-sushi-bar-seattle?adjust_creative=gBcvfFpabk3CnzmXKdYe3w&utm_campaign=yelp_api_v3&utm_medium=api_v3_business_search&utm_source=gBcvfFpabk3CnzmXKdYe3w", "phone": "+12069354339", "coordinates": {"longitude": -122.38698, "latitude": 47.56038}, "categories": [{"alias": "japanese", "title": "Japanese"}, {"alias": "sushi", "title": "Sushi Bars"}], "review_count": 564, "location": {"city": "Seattle", "address1": "4725 California Ave SW", "address3": "", "address2": "", "zip_code": "98116", "country": "US", "display_address": ["4725 California Ave SW", "Seattle, WA 98116"], "state": "WA"}, "price": "$$$", "transactions": [], "display_phone": "(206) 935-4339"}, {"rating": 4.0, "is_closed": false, "distance": 1839.638485208, "name": "Voxx Coffee", "id": "voxx-coffee-seattle-2", "image_url": "https://s3-media2.fl.yelpcdn.com/bphoto/zE29wCBsEQyXVfy68mrO9A/o.jpg", "url": "https://www.yelp.com/biz/voxx-coffee-seattle-2?adjust_creative=gBcvfFpabk3CnzmXKdYe3w&utm_campaign=yelp_api_v3&utm_medium=api_v3_business_search&utm_source=gBcvfFpabk3CnzmXKdYe3w", "phone": "+12066821242", "coordinates": {"longitude": -122.332016, "latitude": 47.608944}, "categories": [{"alias": "coffee", "title": "Coffee & Tea"}], "review_count": 67, "location": {"city": "Seattle", "address1": "1200 6th Ave", "address3": "", "address2": "", "zip_code": "98101", "country": "US", "display_address": ["1200 6th Ave", "Seattle, WA 98101"], "state": "WA"}, "price": "$", "transactions": [], "display_phone": "(206) 682-1242"}, {"rating": 4.0, "is_closed": false, "distance": 3975.9831004499997, "name": "Fuel", "id": "fuel-seattle-4", "image_url": "https://s3-media2.fl.yelpcdn.com/bphoto/WJLNz9EsCsxB4qDX_nVOAw/o.jpg", "url": "https://www.yelp.com/biz/fuel-seattle-4?adjust_creative=gBcvfFpabk3CnzmXKdYe3w&utm_campaign=yelp_api_v3&utm_medium=api_v3_business_search&utm_source=gBcvfFpabk3CnzmXKdYe3w", "phone": "+12066342700", "coordinates": {"longitude": -122.33694, "latitude": 47.6612099}, "categories": [{"alias": "coffee", "title": "Coffee & Tea"}, {"alias": "desserts", "title": "Desserts"}], "review_count": 138, "location": {"city": "Seattle", "address1": "1705 N 45th St", "address3": "", "address2": "", "zip_code": "98103", "country": "US", "display_address": ["1705 N 45th St", "Seattle, WA 98103"], "state": "WA"}, "price": "$", "transactions": [], "display_phone": "(206) 634-2700"}, {"rating": 3.5, "is_closed": false, "distance": 1529.311867018, "name": "Chutneys Queen Anne", "id": "chutneys-queen-anne-seattle", "image_url": "https://s3-media3.fl.yelpcdn.com/bphoto/r5PZ7cP8AKOOnIL3Rzx8wg/o.jpg", "url": "https://www.yelp.com/biz/chutneys-queen-anne-seattle?adjust_creative=gBcvfFpabk3CnzmXKdYe3w&utm_campaign=yelp_api_v3&utm_medium=api_v3_business_search&utm_source=gBcvfFpabk3CnzmXKdYe3w", "phone": "+12062846799", "coordinates": {"longitude": -122.35563, "latitude": 47.62388}, "categories": [{"alias": "indpak", "title": "Indian"}, {"alias": "seafood", "title": "Seafood"}, {"alias": "vegan", "title": "Vegan"}], "review_count": 274, "location": {"city": "Seattle", "address1": "519 1st Ave N", "address3": "", "address2": "", "zip_code": "98109", "country": "US", "display_address": ["519 1st Ave N", "Seattle, WA 98109"], "state": "WA"}, "price": "$$", "transactions": ["delivery", "pickup"], "display_phone": "(206) 284-6799"}, {"rating": 4.0, "is_closed": false, "distance": 1709.7636206700001, "name": "Sushi Kudasai", "id": "sushi-kudasai-seattle", "image_url": "https://s3-media3.fl.yelpcdn.com/bphoto/exKxYxWPDxu-g9LF3nPQQQ/o.jpg", "url": "https://www.yelp.com/biz/sushi-kudasai-seattle?adjust_creative=gBcvfFpabk3CnzmXKdYe3w&utm_campaign=yelp_api_v3&utm_medium=api_v3_business_search&utm_source=gBcvfFpabk3CnzmXKdYe3w", "phone": "+12068394016", "coordinates": {"longitude": -122.3375, "latitude": 47.61027}, "categories": [{"alias": "sushi", "title": "Sushi Bars"}], "review_count": 85, "location": {"city": "Seattle", "address1": "1501 4th Ave", "address3": "", "address2": "Ste 103", "zip_code": "98101", "country": "US", "display_address": ["1501 4th Ave", "Ste 103", "Seattle, WA 98101"], "state": "WA"}, "price": "$$", "transactions": [], "display_phone": "(206) 839-4016"}, {"rating": 4.5, "is_closed": false, "distance": 6766.269345301999, "name": "Mendoza's Mexican Mercado", "id": "mendozas-mexican-mercado-seattle", "image_url": "https://s3-media2.fl.yelpcdn.com/bphoto/uFQnqaVyZTjtTvluq24Rvg/o.jpg", "url": "https://www.yelp.com/biz/mendozas-mexican-mercado-seattle?adjust_creative=gBcvfFpabk3CnzmXKdYe3w&utm_campaign=yelp_api_v3&utm_medium=api_v3_business_search&utm_source=gBcvfFpabk3CnzmXKdYe3w", "phone": "+12062451089", "coordinates": {"longitude": -122.34491, "latitude": 47.68601}, "categories": [{"alias": "mexican", "title": "Mexican"}, {"alias": "grocery", "title": "Grocery"}, {"alias": "meats", "title": "Meat Shops"}], "review_count": 58, "location": {"city": "Seattle", "address1": "7811 Aurora Ave N", "address3": "", "address2": "", "zip_code": "98103", "country": "US", "display_address": ["7811 Aurora Ave N", "Seattle, WA 98103"], "state": "WA"}, "price": "$", "transactions": ["pickup"], "display_phone": "(206) 245-1089"}, {"rating": 3.5, "is_closed": false, "distance": 457.4920063804, "name": "Brave Horse Tavern", "id": "brave-horse-tavern-seattle", "image_url": "https://s3-media2.fl.yelpcdn.com/bphoto/mtXwpAk7uqP1XV25gCvykA/o.jpg", "url": "https://www.yelp.com/biz/brave-horse-tavern-seattle?adjust_creative=gBcvfFpabk3CnzmXKdYe3w&utm_campaign=yelp_api_v3&utm_medium=api_v3_business_search&utm_source=gBcvfFpabk3CnzmXKdYe3w", "phone": "+12069710717", "coordinates": {"longitude": -122.3370234, "latitude": 47.6214346}, "categories": [{"alias": "tradamerican", "title": "American (Traditional)"}, {"alias": "pubs", "title": "Pubs"}], "review_count": 708, "location": {"city": "Seattle", "address1": "310 Terry Ave N", "address3": "", "address2": "", "zip_code": "98109", "country": "US", "display_address": ["310 Terry Ave N", "Seattle, WA 98109"], "state": "WA"}, "price": "$$", "transactions": [], "display_phone": "(206) 971-0717"}, {"rating": 4.0, "is_closed": false, "distance": 4826.75184008, "name": "Leny's Place", "id": "lenys-place-seattle", "image_url": "https://s3-media1.fl.yelpcdn.com/bphoto/liV24lUdlF5DOnwItZsuPQ/o.jpg", "url": "https://www.yelp.com/biz/lenys-place-seattle?adjust_creative=gBcvfFpabk3CnzmXKdYe3w&utm_campaign=yelp_api_v3&utm_medium=api_v3_business_search&utm_source=gBcvfFpabk3CnzmXKdYe3w", "phone": "+12066329175", "coordinates": {"longitude": -122.332079300827, "latitude": 47.6687663911506}, "categories": [{"alias": "divebars", "title": "Dive Bars"}, {"alias": "pubs", "title": "Pubs"}], "review_count": 93, "location": {"city": "Seattle", "address1": "2219 N 56th St", "address3": "", "address2": "", "zip_code": "98103", "country": "US", "display_address": ["2219 N 56th St", "Seattle, WA 98103"], "state": "WA"}, "price": "$", "transactions": [], "display_phone": "(206) 632-9175"}, {"rating": 3.5, "is_closed": false, "distance": 1189.212458828, "name": "Golden Singha Thai Cuisine", "id": "golden-singha-thai-cuisine-seattle", "image_url": "https://s3-media1.fl.yelpcdn.com/bphoto/5V1C4qoZ68mqLOrhshyQKw/o.jpg", "url": "https://www.yelp.com/biz/golden-singha-thai-cuisine-seattle?adjust_creative=gBcvfFpabk3CnzmXKdYe3w&utm_campaign=yelp_api_v3&utm_medium=api_v3_business_search&utm_source=gBcvfFpabk3CnzmXKdYe3w", "phone": "+12067281532", "coordinates": {"longitude": -122.34727, "latitude": 47.61817}, "categories": [{"alias": "thai", "title": "Thai"}], "review_count": 288, "location": {"city": "Seattle", "address1": "425 Cedar St", "address3": "", "address2": "", "zip_code": "98121", "country": "US", "display_address": ["425 Cedar St", "Seattle, WA 98121"], "state": "WA"}, "price": "$$", "transactions": [], "display_phone": "(206) 728-1532"}, {"rating": 4.0, "is_closed": false, "distance": 2099.9312056, "name": "Bar Sue", "id": "bar-sue-seattle-2", "image_url": "https://s3-media4.fl.yelpcdn.com/bphoto/xVjEwnuQSzPfmJiDBueL0A/o.jpg", "url": "https://www.yelp.com/biz/bar-sue-seattle-2?adjust_creative=gBcvfFpabk3CnzmXKdYe3w&utm_campaign=yelp_api_v3&utm_medium=api_v3_business_search&utm_source=gBcvfFpabk3CnzmXKdYe3w", "phone": "+12063280888", "coordinates": {"longitude": -122.314258441329, "latitude": 47.6130817830563}, "categories": [{"alias": "bars", "title": "Bars"}, {"alias": "southern", "title": "Southern"}], "review_count": 47, "location": {"city": "Seattle", "address1": "1407 14th Ave", "address3": "", "address2": null, "zip_code": "98122", "country": "US", "display_address": ["1407 14th Ave", "Seattle, WA 98122"], "state": "WA"}, "price": "$", "transactions": [], "display_phone": "(206) 328-0888"}, {"rating": 4.0, "is_closed": false, "distance": 5911.74794666, "name": "Arashi Ramen", "id": "arashi-ramen-seattle", "image_url": "https://s3-media2.fl.yelpcdn.com/bphoto/ubd6oX1tKV9Ryf72Ej8eWg/o.jpg", "url": "https://www.yelp.com/biz/arashi-ramen-seattle?adjust_creative=gBcvfFpabk3CnzmXKdYe3w&utm_campaign=yelp_api_v3&utm_medium=api_v3_business_search&utm_source=gBcvfFpabk3CnzmXKdYe3w", "phone": "+12064927933", "coordinates": {"longitude": -122.3823, "latitude": 47.6682}, "categories": [{"alias": "ramen", "title": "Ramen"}, {"alias": "noodles", "title": "Noodles"}], "review_count": 122, "location": {"city": "Seattle", "address1": "5401 20th Ave NW", "address3": "", "address2": "", "zip_code": "98107", "country": "US", "display_address": ["5401 20th Ave NW", "Seattle, WA 98107"], "state": "WA"}, "price": "$$", "transactions": ["pickup"], "display_phone": "(206) 492-7933"}, {"rating": 4.0, "is_closed": false, "distance": 1960.506356568, "name": "DeliNoMore", "id": "delinomore-seattle", "image_url": "https://s3-media2.fl.yelpcdn.com/bphoto/x49tvOQ5LSszvwe0rqxS9w/o.jpg", "url": "https://www.yelp.com/biz/delinomore-seattle?adjust_creative=gBcvfFpabk3CnzmXKdYe3w&utm_campaign=yelp_api_v3&utm_medium=api_v3_business_search&utm_source=gBcvfFpabk3CnzmXKdYe3w", "phone": "+12064675311", "coordinates": {"longitude": -122.332588195801, "latitude": 47.6078987121582}, "categories": [{"alias": "asianfusion", "title": "Asian Fusion"}, {"alias": "hotdogs", "title": "Fast Food"}, {"alias": "delis", "title": "Delis"}], "review_count": 76, "location": {"city": "Seattle", "address1": "1118 5th Ave", "address3": "", "address2": "", "zip_code": "98101", "country": "US", "display_address": ["1118 5th Ave", "Seattle, WA 98101"], "state": "WA"}, "price": "$", "transactions": [], "display_phone": "(206) 467-5311"}, {"rating": 4.0, "is_closed": false, "distance": 1613.7800081259998, "name": "Pung Kang Noodle Place", "id": "pung-kang-noodle-place-seattle", "image_url": "https://s3-media1.fl.yelpcdn.com/bphoto/JKvrE-rm9rwv_WfjCiYlSA/o.jpg", "url": "https://www.yelp.com/biz/pung-kang-noodle-place-seattle?adjust_creative=gBcvfFpabk3CnzmXKdYe3w&utm_campaign=yelp_api_v3&utm_medium=api_v3_business_search&utm_source=gBcvfFpabk3CnzmXKdYe3w", "phone": "+12062843700", "coordinates": {"longitude": -122.356923889573, "latitude": 47.6239046835758}, "categories": [{"alias": "thai", "title": "Thai"}, {"alias": "noodles", "title": "Noodles"}], "review_count": 66, "location": {"city": "Seattle", "address1": "517 Queen Anne Ave N", "address3": "", "address2": "", "zip_code": "98109", "country": "US", "display_address": ["517 Queen Anne Ave N", "Seattle, WA 98109"], "state": "WA"}, "price": "$$", "transactions": ["pickup"], "display_phone": "(206) 284-3700"}, {"rating": 4.5, "is_closed": false, "distance": 8983.021736831999, "name": "Golden Gardens Park", "id": "golden-gardens-park-seattle", "image_url": "https://s3-media3.fl.yelpcdn.com/bphoto/ndiOEBT75zWkTLasUT9RAQ/o.jpg", "url": "https://www.yelp.com/biz/golden-gardens-park-seattle?adjust_creative=gBcvfFpabk3CnzmXKdYe3w&utm_campaign=yelp_api_v3&utm_medium=api_v3_business_search&utm_source=gBcvfFpabk3CnzmXKdYe3w", "phone": "+12066844075", "coordinates": {"longitude": -122.40173, "latitude": 47.68895}, "categories": [{"alias": "parks", "title": "Parks"}, {"alias": "beaches", "title": "Beaches"}, {"alias": "playgrounds", "title": "Playgrounds"}], "review_count": 262, "location": {"city": "Seattle", "address1": "8498 Seaview Pl NW", "address3": "", "address2": "", "zip_code": "98117", "country": "US", "display_address": ["8498 Seaview Pl NW", "Seattle, WA 98117"], "state": "WA"}, "transactions": [], "display_phone": "(206) 684-4075"}, {"rating": 4.5, "is_closed": false, "distance": 8992.519739644, "name": "Emma's BBQ", "id": "emmas-bbq-seattle-2", "image_url": "https://s3-media2.fl.yelpcdn.com/bphoto/KvYMpIFXWYSLaXGd-c3lcQ/o.jpg", "url": "https://www.yelp.com/biz/emmas-bbq-seattle-2?adjust_creative=gBcvfFpabk3CnzmXKdYe3w&utm_campaign=yelp_api_v3&utm_medium=api_v3_business_search&utm_source=gBcvfFpabk3CnzmXKdYe3w", "phone": "+12064131523", "coordinates": {"longitude": -122.28046, "latitude": 47.55354}, "categories": [{"alias": "southern", "title": "Southern"}, {"alias": "bbq", "title": "Barbeque"}], "review_count": 55, "location": {"city": "Seattle", "address1": "5303 Rainier Ave S", "address3": null, "address2": "", "zip_code": "98118", "country": "US", "display_address": ["5303 Rainier Ave S", "Seattle, WA 98118"], "state": "WA"}, "price": "$$", "transactions": [], "display_phone": "(206) 413-1523"}, {"rating": 4.0, "is_closed": false, "distance": 5317.070745351999, "name": "Jak's Grill", "id": "jaks-grill-seattle-2", "image_url": "https://s3-media4.fl.yelpcdn.com/bphoto/tfanyGXWqxmKWzyaQEGGlQ/o.jpg", "url": "https://www.yelp.com/biz/jaks-grill-seattle-2?adjust_creative=gBcvfFpabk3CnzmXKdYe3w&utm_campaign=yelp_api_v3&utm_medium=api_v3_business_search&utm_source=gBcvfFpabk3CnzmXKdYe3w", "phone": "+12069858545", "coordinates": {"longitude": -122.28799, "latitude": 47.66101}, "categories": [{"alias": "steak", "title": "Steakhouses"}, {"alias": "tradamerican", "title": "American (Traditional)"}], "review_count": 335, "location": {"city": "Seattle", "address1": "3701 NE 45th St", "address3": "", "address2": "", "zip_code": "98105", "country": "US", "display_address": ["3701 NE 45th St", "Seattle, WA 98105"], "state": "WA"}, "price": "$$$", "transactions": [], "display_phone": "(206) 985-8545"}, {"rating": 4.0, "is_closed": false, "distance": 2097.7820929639997, "name": "Top Pot Doughnuts", "id": "top-pot-doughnuts-seattle-5", "image_url": "https://s3-media3.fl.yelpcdn.com/bphoto/1H_dq3VCJb2jAUTBdsarDQ/o.jpg", "url": "https://www.yelp.com/biz/top-pot-doughnuts-seattle-5?adjust_creative=gBcvfFpabk3CnzmXKdYe3w&utm_campaign=yelp_api_v3&utm_medium=api_v3_business_search&utm_source=gBcvfFpabk3CnzmXKdYe3w", "phone": "+12066312120", "coordinates": {"longitude": -122.36165, "latitude": 47.63217}, "categories": [{"alias": "donuts", "title": "Donuts"}, {"alias": "bakeries", "title": "Bakeries"}, {"alias": "coffee", "title": "Coffee & Tea"}], "review_count": 130, "location": {"city": "Seattle", "address1": "325 W Galer St", "address3": "", "address2": "", "zip_code": "98119", "country": "US", "display_address": ["325 W Galer St", "Seattle, WA 98119"], "state": "WA"}, "price": "$", "transactions": [], "display_phone": "(206) 631-2120"}, {"rating": 4.5, "is_closed": false, "distance": 8314.464242275999, "name": "Tropicos Breeze", "id": "tropicos-breeze-seattle", "image_url": "https://s3-media3.fl.yelpcdn.com/bphoto/ZBsPQ24FvirZRHC1dcEYjA/o.jpg", "url": "https://www.yelp.com/biz/tropicos-breeze-seattle?adjust_creative=gBcvfFpabk3CnzmXKdYe3w&utm_campaign=yelp_api_v3&utm_medium=api_v3_business_search&utm_source=gBcvfFpabk3CnzmXKdYe3w", "phone": "+12065243046", "coordinates": {"longitude": -122.344303, "latitude": 47.699959}, "categories": [{"alias": "salvadoran", "title": "Salvadoran"}, {"alias": "seafood", "title": "Seafood"}, {"alias": "mexican", "title": "Mexican"}], "review_count": 232, "location": {"city": "Seattle", "address1": "9710 Aurora Ave N", "address3": "", "address2": "", "zip_code": "98103", "country": "US", "display_address": ["9710 Aurora Ave N", "Seattle, WA 98103"], "state": "WA"}, "price": "$$", "transactions": [], "display_phone": "(206) 524-3046"}, {"rating": 4.0, "is_closed": false, "distance": 3257.7311179020003, "name": "Caffe Ladro", "id": "caffe-ladro-seattle-14", "image_url": "https://s3-media2.fl.yelpcdn.com/bphoto/FQQHL43c64e5Wfe8D4mjGw/o.jpg", "url": "https://www.yelp.com/biz/caffe-ladro-seattle-14?adjust_creative=gBcvfFpabk3CnzmXKdYe3w&utm_campaign=yelp_api_v3&utm_medium=api_v3_business_search&utm_source=gBcvfFpabk3CnzmXKdYe3w", "phone": "+12066750854", "coordinates": {"longitude": -122.35308, "latitude": 47.65224}, "categories": [{"alias": "coffee", "title": "Coffee & Tea"}, {"alias": "bakeries", "title": "Bakeries"}], "review_count": 149, "location": {"city": "Seattle", "address1": "452 N 36th St", "address3": "", "address2": "", "zip_code": "98103", "country": "US", "display_address": ["452 N 36th St", "Seattle, WA 98103"], "state": "WA"}, "price": "$", "transactions": [], "display_phone": "(206) 675-0854"}, {"rating": 3.5, "is_closed": false, "distance": 2384.869036884, "name": "Ivar's Acres of Clams", "id": "ivars-acres-of-clams-seattle-7", "image_url": "https://s3-media4.fl.yelpcdn.com/bphoto/LXX-efzNg6PU7lJElp-8Jw/o.jpg", "url": "https://www.yelp.com/biz/ivars-acres-of-clams-seattle-7?adjust_creative=gBcvfFpabk3CnzmXKdYe3w&utm_campaign=yelp_api_v3&utm_medium=api_v3_business_search&utm_source=gBcvfFpabk3CnzmXKdYe3w", "phone": "+12066246852", "coordinates": {"longitude": -122.339360054271, "latitude": 47.6041312723551}, "categories": [{"alias": "seafood", "title": "Seafood"}, {"alias": "bars", "title": "Bars"}, {"alias": "tradamerican", "title": "American (Traditional)"}], "review_count": 879, "location": {"city": "Seattle", "address1": "1001 Alaskan Way", "address3": "", "address2": "", "zip_code": "98104", "country": "US", "display_address": ["1001 Alaskan Way", "Seattle, WA 98104"], "state": "WA"}, "price": "$$", "transactions": [], "display_phone": "(206) 624-6852"}, {"rating": 4.5, "is_closed": false, "distance": 1666.244331192, "name": "Little Oddfellows", "id": "little-oddfellows-seattle", "image_url": "https://s3-media2.fl.yelpcdn.com/bphoto/oGB8ywQqo9_vcqLVoYEdVA/o.jpg", "url": "https://www.yelp.com/biz/little-oddfellows-seattle?adjust_creative=gBcvfFpabk3CnzmXKdYe3w&utm_campaign=yelp_api_v3&utm_medium=api_v3_business_search&utm_source=gBcvfFpabk3CnzmXKdYe3w", "phone": "+12063231511", "coordinates": {"longitude": -122.319703, "latitude": 47.614883}, "categories": [{"alias": "cafes", "title": "Cafes"}, {"alias": "bars", "title": "Bars"}], "review_count": 34, "location": {"city": "Seattle", "address1": "1525 10th Ave", "address3": "Elliott Bay Books", "address2": "", "zip_code": "98122", "country": "US", "display_address": ["1525 10th Ave", "Elliott Bay Books", "Seattle, WA 98122"], "state": "WA"}, "price": "$", "transactions": [], "display_phone": "(206) 323-1511"}]}