{"total": 36020, "region": {"center": {"longitude": -122.33551025390625, "latitude": 47.62541904760501}}, "businesses": [{"rating": 4.0, "is_closed": false, "distance": 1160.2514842976, "name": "Wedgwood II Vegetarian Thai", "id": "wedgwood-ii-vegetarian-thai-seattle", "image_url": "https://s3-media2.fl.yelpcdn.com/bphoto/7KflJfQr4CLsqkT6ksiQNg/o.jpg", "url": "https://www.yelp.com/biz/wedgwood-ii-vegetarian-thai-seattle?adjust_creative=gBcvfFpabk3CnzmXKdYe3w&utm_campaign=yelp_api_v3&utm_medium=api_v3_business_search&utm_source=gBcvfFpabk3CnzmXKdYe3w", "phone": "+12067240655", "coordinates": {"longitude": -122.32065, "latitude": 47.62261}, "categories": [{"alias": "thai", "title": "Thai"}, {"alias": "vegetarian", "title": "Vegetarian"}], "review_count": 189, "location": {"city": "Seattle", "address1": "420 Broadway E", "address3": "", "address2": "", "zip_code": "98102", "country": "US", "display_address": ["420 Broadway E", "Seattle, WA 98102"], "state": "WA"}, "price": "$$", "transactions": ["pickup"], "display_phone": "(206) 724-0655"}, {"rating": 4.0, "is_closed": false, "distance": 3200.409484848, "name": "Young Tea", "id": "young-tea-seattle", "image_url": "https://s3-media4.fl.yelpcdn.com/bphoto/x_0X5265FHOi7Mos5o3E9A/o.jpg", "url": "https://www.yelp.com/biz/young-tea-seattle?adjust_creative=gBcvfFpabk3CnzmXKdYe3w&utm_campaign=yelp_api_v3&utm_medium=api_v3_business_search&utm_source=gBcvfFpabk3CnzmXKdYe3w", "phone": "+12066826688", "coordinates": {"longitude": -122.32597, "latitude": 47.59733}, "categories": [{"alias": "bubbletea", "title": "Bubble Tea"}, {"alias": "coffee", "title": "Coffee & Tea"}], "review_count": 155, "location": {"city": "Seattle", "address1": "609 S Weller St", "address3": "", "address2": "Unit B", "zip_code": "98104", "country": "US", "display_address": ["609 S Weller St", "Unit B", "Seattle, WA 98104"], "state": "WA"}, "price": "$", "transactions": ["pickup"], "display_phone": "(206) 682-6688"}, {"rating": 4.0, "is_closed": false, "distance": 1495.735321461, "name": "Tavolata", "id": "tavolata-seattle", "image_url": "https://s3-media4.fl.yelpcdn.com/bphoto/-fN0ZyCS-28YyAngXn0a6w/o.jpg", "url": "https://www.yelp.com/biz/tavolata-seattle?adjust_creative=gBcvfFpabk3CnzmXKdYe3w&utm_campaign=yelp_api_v3&utm_medium=api_v3_business_search&utm_source=gBcvfFpabk3CnzmXKdYe3w", "phone": "+12068388008", "coordinates": {"longitude": -122.346668243408, "latitude": 47.6142640792683}, "categories": [{"alias": "italian", "title": "Italian"}], "review_count": 726, "location": {"city": "Seattle", "address1": "2323 2nd Ave", "address3": "", "address2": "", "zip_code": "98121", "country": "US", "display_address": ["2323 2nd Ave", "Seattle, WA 98121"], "state": "WA"}, "price": "$$$", "transactions": [], "display_phone": "(206) 838-8008"}, {"rating": 4.0, "is_closed": false, "distance": 4090.464627888, "name": "Bizzarro Italian Caf\u00e9", "id": "bizzarro-italian-caf\u00e9-seattle-2", "image_url": "https://s3-media1.fl.yelpcdn.com/bphoto/qXCaM40NKB5DQdfK9SHbMg/o.jpg", "url": "https://www.yelp.com/biz/bizzarro-italian-caf%C3%A9-seattle-2?adjust_creative=gBcvfFpabk3CnzmXKdYe3w&utm_campaign=yelp_api_v3&utm_medium=api_v3_business_search&utm_source=gBcvfFpabk3CnzmXKdYe3w", "phone": "+12066327277", "coordinates": {"longitude": -122.34171, "latitude": 47.66196}, "categories": [{"alias": "italian", "title": "Italian"}], "review_count": 682, "location": {"city": "Seattle", "address1": "1307 N 46th St", "address3": "", "address2": "", "zip_code": "98103", "country": "US", "display_address": ["1307 N 46th St", "Seattle, WA 98103"], "state": "WA"}, "price": "$$", "transactions": ["pickup"], "display_phone": "(206) 632-7277"}, {"rating": 4.5, "is_closed": false, "distance": 6430.745129798, "name": "Hiram M Chittenden Locks", "id": "hiram-m-chittenden-locks-seattle", "image_url": "https://s3-media1.fl.yelpcdn.com/bphoto/0r-s_PcDFEiroDDltpIT9Q/o.jpg", "url": "https://www.yelp.com/biz/hiram-m-chittenden-locks-seattle?adjust_creative=gBcvfFpabk3CnzmXKdYe3w&utm_campaign=yelp_api_v3&utm_medium=api_v3_business_search&utm_source=gBcvfFpabk3CnzmXKdYe3w", "phone": "+12067802500", "coordinates": {"longitude": -122.394386254718, "latitude": 47.6675082488778}, "categories": [{"alias": "landmarks", "title": "Landmarks & Historical Buildings"}, {"alias": "lakes", "title": "Lakes"}], "review_count": 344, "location": {"city": "Seattle", "address1": "3015 NW 54th St", "address3": "", "address2": "", "zip_code": "98107", "country": "US", "display_address": ["3015 NW 54th St", "Seattle, WA 98107"], "state": "WA"}, "transactions": [], "display_phone": "(206) 780-2500"}, {"rating": 4.5, "is_closed": false, "distance": 1161.821089693, "name": "Pizzeria 88", "id": "pizzeria-88-seattle", "image_url": "https://s3-media1.fl.yelpcdn.com/bphoto/9dFUnSjKvOuBLDVGsuiV9Q/o.jpg", "url": "https://www.yelp.com/biz/pizzeria-88-seattle?adjust_creative=gBcvfFpabk3CnzmXKdYe3w&utm_campaign=yelp_api_v3&utm_medium=api_v3_business_search&utm_source=gBcvfFpabk3CnzmXKdYe3w", "phone": "+12063287817", "coordinates": {"longitude": -122.32059, "latitude": 47.6225499}, "categories": [{"alias": "bars", "title": "Bars"}, {"alias": "pizza", "title": "Pizza"}, {"alias": "italian", "title": "Italian"}], "review_count": 79, "location": {"city": "Seattle", "address1": "416 Broadway E", "address3": "", "address2": "", "zip_code": "98102", "country": "US", "display_address": ["416 Broadway E", "Seattle, WA 98102"], "state": "WA"}, "price": "$$", "transactions": [], "display_phone": "(206) 328-7817"}, {"rating": 4.5, "is_closed": false, "distance": 1780.6611631619999, "name": "The Shop Agora", "id": "the-shop-agora-seattle-2", "image_url": "https://s3-media1.fl.yelpcdn.com/bphoto/vto46xSA-IASNQ9gtqR8ag/o.jpg", "url": "https://www.yelp.com/biz/the-shop-agora-seattle-2?adjust_creative=gBcvfFpabk3CnzmXKdYe3w&utm_campaign=yelp_api_v3&utm_medium=api_v3_business_search&utm_source=gBcvfFpabk3CnzmXKdYe3w", "phone": "+12063221103", "coordinates": {"longitude": -122.312316, "latitude": 47.621879}, "categories": [{"alias": "wine_bars", "title": "Wine Bars"}, {"alias": "grocery", "title": "Grocery"}, {"alias": "mediterranean", "title": "Mediterranean"}], "review_count": 43, "location": {"city": "Seattle", "address1": "346 15th Ave E", "address3": "", "address2": "", "zip_code": "98112", "country": "US", "display_address": ["346 15th Ave E", "Seattle, WA 98112"], "state": "WA"}, "price": "$$", "transactions": [], "display_phone": "(206) 322-1103"}, {"rating": 4.0, "is_closed": false, "distance": 3118.767183846, "name": "World Pizza", "id": "world-pizza-seattle", "image_url": "https://s3-media1.fl.yelpcdn.com/bphoto/xwMTZivJ_aAi-YwwKe1Drw/o.jpg", "url": "https://www.yelp.com/biz/world-pizza-seattle?adjust_creative=gBcvfFpabk3CnzmXKdYe3w&utm_campaign=yelp_api_v3&utm_medium=api_v3_business_search&utm_source=gBcvfFpabk3CnzmXKdYe3w", "phone": "+12066824161", "coordinates": {"longitude": -122.324111536145, "latitude": 47.598394677043}, "categories": [{"alias": "pizza", "title": "Pizza"}, {"alias": "vegetarian", "title": "Vegetarian"}], "review_count": 206, "location": {"city": "Seattle", "address1": "672 S King St", "address3": "", "address2": "", "zip_code": "98104", "country": "US", "display_address": ["672 S King St", "Seattle, WA 98104"], "state": "WA"}, "price": "$", "transactions": [], "display_phone": "(206) 682-4161"}, {"rating": 4.0, "is_closed": false, "distance": 4855.415472952, "name": "Hiroki", "id": "hiroki-seattle", "image_url": "https://s3-media2.fl.yelpcdn.com/bphoto/TbIpwuC-s3M1FqWRHljiBQ/o.jpg", "url": "https://www.yelp.com/biz/hiroki-seattle?adjust_creative=gBcvfFpabk3CnzmXKdYe3w&utm_campaign=yelp_api_v3&utm_medium=api_v3_business_search&utm_source=gBcvfFpabk3CnzmXKdYe3w", "phone": "+12065474128", "coordinates": {"longitude": -122.332219038688, "latitude": 47.669028881738}, "categories": [{"alias": "bakeries", "title": "Bakeries"}, {"alias": "desserts", "title": "Desserts"}, {"alias": "tradamerican", "title": "American (Traditional)"}], "review_count": 269, "location": {"city": "Seattle", "address1": "2224 N 56th St", "address3": "", "address2": "", "zip_code": "98103", "country": "US", "display_address": ["2224 N 56th St", "Seattle, WA 98103"], "state": "WA"}, "price": "$$", "transactions": [], "display_phone": "(206) 547-4128"}, {"rating": 4.0, "is_closed": false, "distance": 3042.723293902, "name": "Silence-Heart-Nest", "id": "silence-heart-nest-seattle", "image_url": "https://s3-media1.fl.yelpcdn.com/bphoto/sNNNuNZF9iB3CfMRweSi4Q/o.jpg", "url": "https://www.yelp.com/biz/silence-heart-nest-seattle?adjust_creative=gBcvfFpabk3CnzmXKdYe3w&utm_campaign=yelp_api_v3&utm_medium=api_v3_business_search&utm_source=gBcvfFpabk3CnzmXKdYe3w", "phone": "+12066335169", "coordinates": {"longitude": -122.3502, "latitude": 47.65083}, "categories": [{"alias": "vegetarian", "title": "Vegetarian"}, {"alias": "breakfast_brunch", "title": "Breakfast & Brunch"}], "review_count": 390, "location": {"city": "Seattle", "address1": "3508 Fremont Pl N", "address3": "", "address2": "", "zip_code": "98103", "country": "US", "display_address": ["3508 Fremont Pl N", "Seattle, WA 98103"], "state": "WA"}, "price": "$$", "transactions": [], "display_phone": "(206) 633-5169"}, {"rating": 4.0, "is_closed": false, "distance": 2166.55305358, "name": "How To Cook a Wolf", "id": "how-to-cook-a-wolf-seattle", "image_url": "https://s3-media4.fl.yelpcdn.com/bphoto/cueM2F4flV-JySEhJ-q_wQ/o.jpg", "url": "https://www.yelp.com/biz/how-to-cook-a-wolf-seattle?adjust_creative=gBcvfFpabk3CnzmXKdYe3w&utm_campaign=yelp_api_v3&utm_medium=api_v3_business_search&utm_source=gBcvfFpabk3CnzmXKdYe3w", "phone": "+12068388090", "coordinates": {"longitude": -122.356887666769, "latitude": 47.6385402665478}, "categories": [{"alias": "italian", "title": "Italian"}, {"alias": "tapasmallplates", "title": "Tapas/Small Plates"}], "review_count": 728, "location": {"city": "Seattle", "address1": "2208 Queen Anne Ave N", "address3": "", "address2": "", "zip_code": "98109", "country": "US", "display_address": ["2208 Queen Anne Ave N", "Seattle, WA 98109"], "state": "WA"}, "price": "$$$", "transactions": [], "display_phone": "(206) 838-8090"}, {"rating": 4.0, "is_closed": false, "distance": 1524.9824849236, "name": "Black Bottle", "id": "black-bottle-seattle-2", "image_url": "https://s3-media1.fl.yelpcdn.com/bphoto/lOTDfwDSlkKua6b5VtXLJg/o.jpg", "url": "https://www.yelp.com/biz/black-bottle-seattle-2?adjust_creative=gBcvfFpabk3CnzmXKdYe3w&utm_campaign=yelp_api_v3&utm_medium=api_v3_business_search&utm_source=gBcvfFpabk3CnzmXKdYe3w", "phone": "+12064411500", "coordinates": {"longitude": -122.349617, "latitude": 47.615562}, "categories": [{"alias": "newamerican", "title": "American (New)"}, {"alias": "gastropubs", "title": "Gastropubs"}, {"alias": "tapasmallplates", "title": "Tapas/Small Plates"}], "review_count": 946, "location": {"city": "Seattle", "address1": "2600 1st Ave", "address3": "", "address2": "", "zip_code": "98121", "country": "US", "display_address": ["2600 1st Ave", "Seattle, WA 98121"], "state": "WA"}, "price": "$$", "transactions": [], "display_phone": "(206) 441-1500"}, {"rating": 4.5, "is_closed": false, "distance": 435.1748218918, "name": "Caravan Cr\u00eapes", "id": "caravan-cr\u00eapes-seattle", "image_url": "https://s3-media2.fl.yelpcdn.com/bphoto/LWr0JvH0Wyc525_nRNWnQw/o.jpg", "url": "https://www.yelp.com/biz/caravan-cr%C3%AApes-seattle?adjust_creative=gBcvfFpabk3CnzmXKdYe3w&utm_campaign=yelp_api_v3&utm_medium=api_v3_business_search&utm_source=gBcvfFpabk3CnzmXKdYe3w", "phone": "", "coordinates": {"longitude": -122.338485259961, "latitude": 47.6220576583034}, "categories": [{"alias": "creperies", "title": "Creperies"}, {"alias": "foodstands", "title": "Food Stands"}, {"alias": "foodtrucks", "title": "Food Trucks"}], "review_count": 36, "location": {"city": "Seattle", "address1": "", "address3": "", "address2": "", "zip_code": "98144", "country": "US", "display_address": ["Seattle, WA 98144"], "state": "WA"}, "price": "$", "transactions": [], "display_phone": ""}, {"rating": 4.0, "is_closed": false, "distance": 3035.07603209, "name": "Cafe Flora", "id": "cafe-flora-seattle", "image_url": "https://s3-media2.fl.yelpcdn.com/bphoto/axLcwCQdfbNMJyZuma4wfg/o.jpg", "url": "https://www.yelp.com/biz/cafe-flora-seattle?adjust_creative=gBcvfFpabk3CnzmXKdYe3w&utm_campaign=yelp_api_v3&utm_medium=api_v3_business_search&utm_source=gBcvfFpabk3CnzmXKdYe3w", "phone": "+12063259100", "coordinates": {"longitude": -122.29521, "latitude": 47.62397}, "categories": [{"alias": "vegetarian", "title": "Vegetarian"}, {"alias": "vegan", "title": "Vegan"}, {"alias": "gluten_free", "title": "Gluten-Free"}], "review_count": 876, "location": {"city": "Seattle", "address1": "2901 E Madison St", "address3": "", "address2": "", "zip_code": "98112", "country": "US", "display_address": ["2901 E Madison St", "Seattle, WA 98112"], "state": "WA"}, "price": "$$", "transactions": [], "display_phone": "(206) 325-9100"}, {"rating": 4.0, "is_closed": false, "distance": 1859.152698312, "name": "Three Girls Bakery", "id": "three-girls-bakery-seattle", "image_url": "https://s3-media3.fl.yelpcdn.com/bphoto/_enIAHeUDRv0XoJdi9DK8w/o.jpg", "url": "https://www.yelp.com/biz/three-girls-bakery-seattle?adjust_creative=gBcvfFpabk3CnzmXKdYe3w&utm_campaign=yelp_api_v3&utm_medium=api_v3_business_search&utm_source=gBcvfFpabk3CnzmXKdYe3w", "phone": "+12066221045", "coordinates": {"longitude": -122.341057580765, "latitude": 47.6091232279214}, "categories": [{"alias": "bakeries", "title": "Bakeries"}, {"alias": "sandwiches", "title": "Sandwiches"}], "review_count": 367, "location": {"city": "Seattle", "address1": "1514 Pike Pl", "address3": "Stall 1", "address2": "", "zip_code": "98101", "country": "US", "display_address": ["1514 Pike Pl", "Stall 1", "Seattle, WA 98101"], "state": "WA"}, "price": "$", "transactions": [], "display_phone": "(206) 622-1045"}, {"rating": 4.5, "is_closed": false, "distance": 6053.665019616, "name": "The Dray", "id": "the-dray-seattle", "image_url": "https://s3-media3.fl.yelpcdn.com/bphoto/BvzQdEC1BpMZFSFqy1BRMA/o.jpg", "url": "https://www.yelp.com/biz/the-dray-seattle?adjust_creative=gBcvfFpabk3CnzmXKdYe3w&utm_campaign=yelp_api_v3&utm_medium=api_v3_business_search&utm_source=gBcvfFpabk3CnzmXKdYe3w", "phone": "+12064534527", "coordinates": {"longitude": -122.36492002012, "latitude": 47.676127015582}, "categories": [{"alias": "beer_and_wine", "title": "Beer, Wine & Spirits"}, {"alias": "sandwiches", "title": "Sandwiches"}], "review_count": 179, "location": {"city": "Seattle", "address1": "708 NW 65th St", "address3": "", "address2": "", "zip_code": "98117", "country": "US", "display_address": ["708 NW 65th St", "Seattle, WA 98117"], "state": "WA"}, "price": "$$", "transactions": [], "display_phone": "(206) 453-4527"}, {"rating": 4.0, "is_closed": false, "distance": 1883.2717159579997, "name": "Off The Rez", "id": "off-the-rez-seattle", "image_url": "https://s3-media3.fl.yelpcdn.com/bphoto/bcMXsWE54JAaoWX5gQSo-g/o.jpg", "url": "https://www.yelp.com/biz/off-the-rez-seattle?adjust_creative=gBcvfFpabk3CnzmXKdYe3w&utm_campaign=yelp_api_v3&utm_medium=api_v3_business_search&utm_source=gBcvfFpabk3CnzmXKdYe3w", "phone": "+12064148226", "coordinates": {"longitude": -122.334594726563, "latitude": 47.6112937927246}, "categories": [{"alias": "newamerican", "title": "American (New)"}, {"alias": "foodstands", "title": "Food Stands"}, {"alias": "foodtrucks", "title": "Food Trucks"}], "review_count": 135, "location": {"city": "Seattle", "address1": "", "address3": "", "address2": "", "zip_code": "98101", "country": "US", "display_address": ["Seattle, WA 98101"], "state": "WA"}, "price": "$", "transactions": [], "display_phone": "(206) 414-8226"}, {"rating": 4.5, "is_closed": false, "distance": 5022.934731298, "name": "The Kraken Bar & Lounge", "id": "the-kraken-bar-and-lounge-seattle", "image_url": "https://s3-media3.fl.yelpcdn.com/bphoto/00TuzWNqUBTPBNhQkka1ZA/o.jpg", "url": "https://www.yelp.com/biz/the-kraken-bar-and-lounge-seattle?adjust_creative=gBcvfFpabk3CnzmXKdYe3w&utm_campaign=yelp_api_v3&utm_medium=api_v3_business_search&utm_source=gBcvfFpabk3CnzmXKdYe3w", "phone": "+12065225334", "coordinates": {"longitude": -122.31321, "latitude": 47.6680599}, "categories": [{"alias": "divebars", "title": "Dive Bars"}, {"alias": "tradamerican", "title": "American (Traditional)"}], "review_count": 38, "location": {"city": "Seattle", "address1": "5257 University Way NE", "address3": "", "address2": "", "zip_code": "98105", "country": "US", "display_address": ["5257 University Way NE", "Seattle, WA 98105"], "state": "WA"}, "price": "$", "transactions": [], "display_phone": "(206) 522-5334"}, {"rating": 4.0, "is_closed": false, "distance": 1796.957179068, "name": "Caf\u00e9 Campagne", "id": "caf\u00e9-campagne-seattle-3", "image_url": "https://s3-media2.fl.yelpcdn.com/bphoto/LW5QvJKROaSbJiFgf2mN4w/o.jpg", "url": "https://www.yelp.com/biz/caf%C3%A9-campagne-seattle-3?adjust_creative=gBcvfFpabk3CnzmXKdYe3w&utm_campaign=yelp_api_v3&utm_medium=api_v3_business_search&utm_source=gBcvfFpabk3CnzmXKdYe3w", "phone": "+12067282233", "coordinates": {"longitude": -122.341513708234, "latitude": 47.6097216457129}, "categories": [{"alias": "french", "title": "French"}, {"alias": "breakfast_brunch", "title": "Breakfast & Brunch"}, {"alias": "cafes", "title": "Cafes"}], "review_count": 905, "location": {"city": "Seattle", "address1": "1600 Post Aly", "address3": "", "address2": "", "zip_code": "98101", "country": "US", "display_address": ["1600 Post Aly", "Seattle, WA 98101"], "state": "WA"}, "price": "$$", "transactions": [], "display_phone": "(206) 728-2233"}, {"rating": 4.0, "is_closed": false, "distance": 151.3626595642, "name": "Daniel's Broiler", "id": "daniels-broiler-seattle-7", "image_url": "https://s3-media2.fl.yelpcdn.com/bphoto/Loi2G94-N0wX6RKzQbGKiQ/o.jpg", "url": "https://www.yelp.com/biz/daniels-broiler-seattle-7?adjust_creative=gBcvfFpabk3CnzmXKdYe3w&utm_campaign=yelp_api_v3&utm_medium=api_v3_business_search&utm_source=gBcvfFpabk3CnzmXKdYe3w", "phone": "+12066218262", "coordinates": {"longitude": -122.33499, "latitude": 47.62673}, "categories": [{"alias": "steak", "title": "Steakhouses"}, {"alias": "seafood", "title": "Seafood"}], "review_count": 543, "location": {"city": "Seattle", "address1": "809 Fairview Pl N", "address3": "", "address2": "", "zip_code": "98109", "country": "US", "display_address": ["809 Fairview Pl N", "Seattle, WA 98109"], "state": "WA"}, "price": "$$$$", "transactions": [], "display_phone": "(206) 621-8262"}, {"rating": 4.0, "is_closed": false, "distance": 2235.299874096, "name": "Polish Home Association", "id": "polish-home-association-seattle-2", "image_url": "https://s3-media3.fl.yelpcdn.com/bphoto/IN3cBqaq885EDHC728cvkQ/o.jpg", "url": "https://www.yelp.com/biz/polish-home-association-seattle-2?adjust_creative=gBcvfFpabk3CnzmXKdYe3w&utm_campaign=yelp_api_v3&utm_medium=api_v3_business_search&utm_source=gBcvfFpabk3CnzmXKdYe3w", "phone": "+12063223020", "coordinates": {"longitude": -122.308761253953, "latitude": 47.6166960597038}, "categories": [{"alias": "polish", "title": "Polish"}, {"alias": "culturalcenter", "title": "Cultural Center"}], "review_count": 74, "location": {"city": "Seattle", "address1": "1714 18th Ave", "address3": "", "address2": "", "zip_code": "98122", "country": "US", "display_address": ["1714 18th Ave", "Seattle, WA 98122"], "state": "WA"}, "price": "$$", "transactions": [], "display_phone": "(206) 322-3020"}, {"rating": 4.5, "is_closed": false, "distance": 5813.070781758, "name": "Asadero Ballard", "id": "asadero-ballard-seattle", "image_url": "https://s3-media4.fl.yelpcdn.com/bphoto/IjcAOzOrHzGmltp07mErkg/o.jpg", "url": "https://www.yelp.com/biz/asadero-ballard-seattle?adjust_creative=gBcvfFpabk3CnzmXKdYe3w&utm_campaign=yelp_api_v3&utm_medium=api_v3_business_search&utm_source=gBcvfFpabk3CnzmXKdYe3w", "phone": "+12066594499", "coordinates": {"longitude": -122.38282, "latitude": 47.66687}, "categories": [{"alias": "mexican", "title": "Mexican"}, {"alias": "bbq", "title": "Barbeque"}, {"alias": "steak", "title": "Steakhouses"}], "review_count": 123, "location": {"city": "Seattle", "address1": "5405 Leary Ave NW", "address3": null, "address2": "", "zip_code": "98107", "country": "US", "display_address": ["5405 Leary Ave NW", "Seattle, WA 98107"], "state": "WA"}, "price": "$$", "transactions": [], "display_phone": "(206) 659-4499"}, {"rating": 4.5, "is_closed": false, "distance": 5775.8166529, "name": "Rain City Burgers", "id": "rain-city-burgers-seattle", "image_url": "https://s3-media4.fl.yelpcdn.com/bphoto/ALJ9B_m18csu-K0p6yERRw/o.jpg", "url": "https://www.yelp.com/biz/rain-city-burgers-seattle?adjust_creative=gBcvfFpabk3CnzmXKdYe3w&utm_campaign=yelp_api_v3&utm_medium=api_v3_business_search&utm_source=gBcvfFpabk3CnzmXKdYe3w", "phone": "+12065253542", "coordinates": {"longitude": -122.3176159, "latitude": 47.6759439}, "categories": [{"alias": "burgers", "title": "Burgers"}, {"alias": "beerbar", "title": "Beer Bar"}], "review_count": 528, "location": {"city": "Seattle", "address1": "6501 Roosevelt Way NE", "address3": "", "address2": null, "zip_code": "98115", "country": "US", "display_address": ["6501 Roosevelt Way NE", "Seattle, WA 98115"], "state": "WA"}, "price": "$", "transactions": ["pickup"], "display_phone": "(206) 525-3542"}, {"rating": 4.0, "is_closed": false, "distance": 5401.0021715699995, "name": "The Walrus and the Carpenter", "id": "the-walrus-and-the-carpenter-seattle", "image_url": "https://s3-media1.fl.yelpcdn.com/bphoto/9CHgIvtAS-iryudEHt83Iw/o.jpg", "url": "https://www.yelp.com/biz/the-walrus-and-the-carpenter-seattle?adjust_creative=gBcvfFpabk3CnzmXKdYe3w&utm_campaign=yelp_api_v3&utm_medium=api_v3_business_search&utm_source=gBcvfFpabk3CnzmXKdYe3w", "phone": "+12063959227", "coordinates": {"longitude": -122.38022, "latitude": 47.66351}, "categories": [{"alias": "seafood", "title": "Seafood"}, {"alias": "raw_food", "title": "Live/Raw Food"}, {"alias": "tapasmallplates", "title": "Tapas/Small Plates"}], "review_count": 1246, "location": {"city": "Seattle", "address1": "4743 Ballard Ave NW", "address3": "", "address2": "", "zip_code": "98107", "country": "US", "display_address": ["4743 Ballard Ave NW", "Seattle, WA 98107"], "state": "WA"}, "price": "$$$", "transactions": [], "display_phone": "(206) 395-9227"}, {"rating": 4.0, "is_closed": false, "distance": 3100.3949584059997, "name": "Seattle Deli", "id": "seattle-deli-seattle", "image_url": "https://s3-media4.fl.yelpcdn.com/bphoto/oqdQnTFbIyO3Y349wxuiLw/o.jpg", "url": "https://www.yelp.com/biz/seattle-deli-seattle?adjust_creative=gBcvfFpabk3CnzmXKdYe3w&utm_campaign=yelp_api_v3&utm_medium=api_v3_business_search&utm_source=gBcvfFpabk3CnzmXKdYe3w", "phone": "+12063280106", "coordinates": {"longitude": -122.31745, "latitude": 47.60029}, "categories": [{"alias": "delis", "title": "Delis"}, {"alias": "vietnamese", "title": "Vietnamese"}, {"alias": "sandwiches", "title": "Sandwiches"}], "review_count": 280, "location": {"city": "Seattle", "address1": "225 12th Ave S", "address3": "", "address2": "", "zip_code": "98144", "country": "US", "display_address": ["225 12th Ave S", "Seattle, WA 98144"], "state": "WA"}, "price": "$", "transactions": [], "display_phone": "(206) 328-0106"}, {"rating": 4.0, "is_closed": false, "distance": 1000.4707373415999, "name": "Pho Bac", "id": "pho-bac-seattle-15", "image_url": "https://s3-media1.fl.yelpcdn.com/bphoto/bcZ6xLA9rE5gUglW8yCC_g/o.jpg", "url": "https://www.yelp.com/biz/pho-bac-seattle-15?adjust_creative=gBcvfFpabk3CnzmXKdYe3w&utm_campaign=yelp_api_v3&utm_medium=api_v3_business_search&utm_source=gBcvfFpabk3CnzmXKdYe3w", "phone": "+12066218816", "coordinates": {"longitude": -122.3310034, "latitude": 47.6169506}, "categories": [{"alias": "vietnamese", "title": "Vietnamese"}, {"alias": "sandwiches", "title": "Sandwiches"}, {"alias": "noodles", "title": "Noodles"}], "review_count": 320, "location": {"city": "Seattle", "address1": "1809 Minor Ave", "address3": "", "address2": "", "zip_code": "98101", "country": "US", "display_address": ["1809 Minor Ave", "Seattle, WA 98101"], "state": "WA"}, "price": "$", "transactions": ["pickup"], "display_phone": "(206) 621-8816"}, {"rating": 4.0, "is_closed": false, "distance": 2174.184704794, "name": "Mel's Market", "id": "mels-market-seattle", "image_url": "https://s3-media2.fl.yelpcdn.com/bphoto/ObPHrmKvy41OS6aTCf2pOQ/o.jpg", "url": "https://www.yelp.com/biz/mels-market-seattle?adjust_creative=gBcvfFpabk3CnzmXKdYe3w&utm_campaign=yelp_api_v3&utm_medium=api_v3_business_search&utm_source=gBcvfFpabk3CnzmXKdYe3w", "phone": "+12066236771", "coordinates": {"longitude": -122.334141146033, "latitude": 47.6058872126119}, "categories": [{"alias": "sandwiches", "title": "Sandwiches"}, {"alias": "salad", "title": "Salad"}], "review_count": 138, "location": {"city": "Seattle", "address1": "1001 4th Ave", "address3": "", "address2": "Ste 50", "zip_code": "98154", "country": "US", "display_address": ["1001 4th Ave", "Ste 50", "Seattle, WA 98154"], "state": "WA"}, "price": "$", "transactions": [], "display_phone": "(206) 623-6771"}, {"rating": 4.0, "is_closed": false, "distance": 2575.247682458, "name": "Chuck's Hole in the Wall BBQ", "id": "chucks-hole-in-the-wall-bbq-seattle", "image_url": "https://s3-media2.fl.yelpcdn.com/bphoto/aJa0VH2u8LEUkbHv2W9eLQ/o.jpg", "url": "https://www.yelp.com/biz/chucks-hole-in-the-wall-bbq-seattle?adjust_creative=gBcvfFpabk3CnzmXKdYe3w&utm_campaign=yelp_api_v3&utm_medium=api_v3_business_search&utm_source=gBcvfFpabk3CnzmXKdYe3w", "phone": "+12066228717", "coordinates": {"longitude": -122.33167, "latitude": 47.60248}, "categories": [{"alias": "bbq", "title": "Barbeque"}], "review_count": 203, "location": {"city": "Seattle", "address1": "215 James St", "address3": "", "address2": "", "zip_code": "98104", "country": "US", "display_address": ["215 James St", "Seattle, WA 98104"], "state": "WA"}, "price": "$", "transactions": [], "display_phone": "(206) 622-8717"}, {"rating": 4.5, "is_closed": false, "distance": 1714.7783241099999, "name": "Comet Dogs", "id": "comet-dogs-seattle-2", "image_url": "https://s3-media3.fl.yelpcdn.com/bphoto/I5flNU1N1gR-CXkLIpu2Bg/o.jpg", "url": "https://www.yelp.com/biz/comet-dogs-seattle-2?adjust_creative=gBcvfFpabk3CnzmXKdYe3w&utm_campaign=yelp_api_v3&utm_medium=api_v3_business_search&utm_source=gBcvfFpabk3CnzmXKdYe3w", "phone": "", "coordinates": {"longitude": -122.31959, "latitude": 47.61422}, "categories": [{"alias": "hotdog", "title": "Hot Dogs"}, {"alias": "foodstands", "title": "Food Stands"}], "review_count": 41, "location": {"city": "Seattle", "address1": "922 E Pike St", "address3": "", "address2": "", "zip_code": "98122", "country": "US", "display_address": ["922 E Pike St", "Seattle, WA 98122"], "state": "WA"}, "price": "$", "transactions": [], "display_phone": ""}, {"rating": 4.0, "is_closed": false, "distance": 1081.541819204, "name": "Montana", "id": "montana-seattle", "image_url": "https://s3-media1.fl.yelpcdn.com/bphoto/6Exmw18IShFNBwYqpBEauQ/o.jpg", "url": "https://www.yelp.com/biz/montana-seattle?adjust_creative=gBcvfFpabk3CnzmXKdYe3w&utm_campaign=yelp_api_v3&utm_medium=api_v3_business_search&utm_source=gBcvfFpabk3CnzmXKdYe3w", "phone": "+12063279362", "coordinates": {"longitude": -122.3262903, "latitude": 47.6179347}, "categories": [{"alias": "divebars", "title": "Dive Bars"}, {"alias": "cocktailbars", "title": "Cocktail Bars"}], "review_count": 142, "location": {"city": "Seattle", "address1": "1506 E Olive Way", "address3": "", "address2": "", "zip_code": "98122", "country": "US", "display_address": ["1506 E Olive Way", "Seattle, WA 98122"], "state": "WA"}, "price": "$", "transactions": [], "display_phone": "(206) 327-9362"}, {"rating": 4.0, "is_closed": false, "distance": 1966.285013706, "name": "Mighty-O Donuts", "id": "mighty-o-donuts-seattle-4", "image_url": "https://s3-media1.fl.yelpcdn.com/bphoto/m7lRsrg7fL7iq09SbotsQg/o.jpg", "url": "https://www.yelp.com/biz/mighty-o-donuts-seattle-4?adjust_creative=gBcvfFpabk3CnzmXKdYe3w&utm_campaign=yelp_api_v3&utm_medium=api_v3_business_search&utm_source=gBcvfFpabk3CnzmXKdYe3w", "phone": "+12065470335", "coordinates": {"longitude": -122.31658, "latitude": 47.6131}, "categories": [{"alias": "donuts", "title": "Donuts"}, {"alias": "coffee", "title": "Coffee & Tea"}, {"alias": "vegan", "title": "Vegan"}], "review_count": 63, "location": {"city": "Seattle", "address1": "1400 12th Ave", "address3": "", "address2": null, "zip_code": "98122", "country": "US", "display_address": ["1400 12th Ave", "Seattle, WA 98122"], "state": "WA"}, "price": "$", "transactions": [], "display_phone": "(206) 547-0335"}, {"rating": 4.0, "is_closed": false, "distance": 2498.925537628, "name": "Bakeman's Restaurant", "id": "bakemans-restaurant-seattle", "image_url": "https://s3-media2.fl.yelpcdn.com/bphoto/HdHMn6k2BCqany5wG_EPgw/o.jpg", "url": "https://www.yelp.com/biz/bakemans-restaurant-seattle?adjust_creative=gBcvfFpabk3CnzmXKdYe3w&utm_campaign=yelp_api_v3&utm_medium=api_v3_business_search&utm_source=gBcvfFpabk3CnzmXKdYe3w", "phone": "+12066223375", "coordinates": {"longitude": -122.33356, "latitude": 47.60299}, "categories": [{"alias": "tradamerican", "title": "American (Traditional)"}, {"alias": "soup", "title": "Soup"}, {"alias": "sandwiches", "title": "Sandwiches"}], "review_count": 240, "location": {"city": "Seattle", "address1": "122 Cherry St", "address3": "", "address2": "", "zip_code": "98104", "country": "US", "display_address": ["122 Cherry St", "Seattle, WA 98104"], "state": "WA"}, "price": "$", "transactions": [], "display_phone": "(206) 622-3375"}, {"rating": 4.0, "is_closed": false, "distance": 1704.0915018399999, "name": "Liberty", "id": "liberty-seattle", "image_url": "https://s3-media3.fl.yelpcdn.com/bphoto/NI3WQPuhj6o55poGIQ66WA/o.jpg", "url": "https://www.yelp.com/biz/liberty-seattle?adjust_creative=gBcvfFpabk3CnzmXKdYe3w&utm_campaign=yelp_api_v3&utm_medium=api_v3_business_search&utm_source=gBcvfFpabk3CnzmXKdYe3w", "phone": "+12063239898", "coordinates": {"longitude": -122.312936, "latitude": 47.623588}, "categories": [{"alias": "coffee", "title": "Coffee & Tea"}, {"alias": "sushi", "title": "Sushi Bars"}, {"alias": "cocktailbars", "title": "Cocktail Bars"}], "review_count": 467, "location": {"city": "Seattle", "address1": "517 15th Ave E", "address3": "", "address2": "", "zip_code": "98112", "country": "US", "display_address": ["517 15th Ave E", "Seattle, WA 98112"], "state": "WA"}, "price": "$$", "transactions": [], "display_phone": "(206) 323-9898"}, {"rating": 4.0, "is_closed": false, "distance": 1723.6568919559998, "name": "Voxx Coffee", "id": "voxx-coffee-seattle", "image_url": "https://s3-media1.fl.yelpcdn.com/bphoto/2ZMdVQRpYqTy8DEh9j1pfA/o.jpg", "url": "https://www.yelp.com/biz/voxx-coffee-seattle?adjust_creative=gBcvfFpabk3CnzmXKdYe3w&utm_campaign=yelp_api_v3&utm_medium=api_v3_business_search&utm_source=gBcvfFpabk3CnzmXKdYe3w", "phone": "+12063242778", "coordinates": {"longitude": -122.32617, "latitude": 47.63959}, "categories": [{"alias": "coffee", "title": "Coffee & Tea"}], "review_count": 158, "location": {"city": "Seattle", "address1": "2245 Eastlake Ave E", "address3": "", "address2": "", "zip_code": "98102", "country": "US", "display_address": ["2245 Eastlake Ave E", "Seattle, WA 98102"], "state": "WA"}, "price": "$", "transactions": [], "display_phone": "(206) 324-2778"}, {"rating": 4.0, "is_closed": false, "distance": 1332.752068372, "name": "The Carlile Room", "id": "the-carlile-room-seattle", "image_url": "https://s3-media2.fl.yelpcdn.com/bphoto/vPApKoVICn44rsc5PL3h6g/o.jpg", "url": "https://www.yelp.com/biz/the-carlile-room-seattle?adjust_creative=gBcvfFpabk3CnzmXKdYe3w&utm_campaign=yelp_api_v3&utm_medium=api_v3_business_search&utm_source=gBcvfFpabk3CnzmXKdYe3w", "phone": "+12069469720", "coordinates": {"longitude": -122.3328506, "latitude": 47.6133323}, "categories": [{"alias": "newamerican", "title": "American (New)"}, {"alias": "bars", "title": "Bars"}, {"alias": "vegetarian", "title": "Vegetarian"}], "review_count": 236, "location": {"city": "Seattle", "address1": "820 Pine St", "address3": "", "address2": "", "zip_code": "98101", "country": "US", "display_address": ["820 Pine St", "Seattle, WA 98101"], "state": "WA"}, "price": "$$", "transactions": [], "display_phone": "(206) 946-9720"}, {"rating": 4.0, "is_closed": false, "distance": 3286.191330198, "name": "Pho Bac", "id": "pho-bac-seattle", "image_url": "https://s3-media3.fl.yelpcdn.com/bphoto/-mNov4TQJTRbSJKccPsCyQ/o.jpg", "url": "https://www.yelp.com/biz/pho-bac-seattle?adjust_creative=gBcvfFpabk3CnzmXKdYe3w&utm_campaign=yelp_api_v3&utm_medium=api_v3_business_search&utm_source=gBcvfFpabk3CnzmXKdYe3w", "phone": "+12063234387", "coordinates": {"longitude": -122.3148, "latitude": 47.5993799}, "categories": [{"alias": "vietnamese", "title": "Vietnamese"}, {"alias": "soup", "title": "Soup"}, {"alias": "noodles", "title": "Noodles"}], "review_count": 324, "location": {"city": "Seattle", "address1": "1314 S Jackson St", "address3": "", "address2": "", "zip_code": "98144", "country": "US", "display_address": ["1314 S Jackson St", "Seattle, WA 98144"], "state": "WA"}, "price": "$", "transactions": [], "display_phone": "(206) 323-4387"}, {"rating": 4.0, "is_closed": false, "distance": 783.9288260799999, "name": "Citizen", "id": "citizen-seattle", "image_url": "https://s3-media1.fl.yelpcdn.com/bphoto/6sRHsY5k4gOCoq-w3pgkxQ/o.jpg", "url": "https://www.yelp.com/biz/citizen-seattle?adjust_creative=gBcvfFpabk3CnzmXKdYe3w&utm_campaign=yelp_api_v3&utm_medium=api_v3_business_search&utm_source=gBcvfFpabk3CnzmXKdYe3w", "phone": "+12062841015", "coordinates": {"longitude": -122.34588, "latitude": 47.6257499}, "categories": [{"alias": "creperies", "title": "Creperies"}, {"alias": "coffee", "title": "Coffee & Tea"}], "review_count": 690, "location": {"city": "Seattle", "address1": "706 Taylor Ave N", "address3": "", "address2": "", "zip_code": "98109", "country": "US", "display_address": ["706 Taylor Ave N", "Seattle, WA 98109"], "state": "WA"}, "price": "$$", "transactions": [], "display_phone": "(206) 284-1015"}, {"rating": 4.0, "is_closed": false, "distance": 1362.5174071278, "name": "Mamnoon", "id": "mamnoon-seattle", "image_url": "https://s3-media3.fl.yelpcdn.com/bphoto/erNFzrPWke1d_W1e9gP_iA/o.jpg", "url": "https://www.yelp.com/biz/mamnoon-seattle?adjust_creative=gBcvfFpabk3CnzmXKdYe3w&utm_campaign=yelp_api_v3&utm_medium=api_v3_business_search&utm_source=gBcvfFpabk3CnzmXKdYe3w", "phone": "+12069069606", "coordinates": {"longitude": -122.3276, "latitude": 47.61435}, "categories": [{"alias": "mideastern", "title": "Middle Eastern"}, {"alias": "syrian", "title": "Syrian"}, {"alias": "mediterranean", "title": "Mediterranean"}], "review_count": 612, "location": {"city": "Seattle", "address1": "1508 Melrose Ave", "address3": "", "address2": null, "zip_code": "98122", "country": "US", "display_address": ["1508 Melrose Ave", "Seattle, WA 98122"], "state": "WA"}, "price": "$$", "transactions": [], "display_phone": "(206) 906-9606"}, {"rating": 4.5, "is_closed": false, "distance": 4279.545018884, "name": "Shawarma King", "id": "shawarma-king-seattle-7", "image_url": "https://s3-media4.fl.yelpcdn.com/bphoto/MFP27TFdXKdp_Z8xIGwKzQ/o.jpg", "url": "https://www.yelp.com/biz/shawarma-king-seattle-7?adjust_creative=gBcvfFpabk3CnzmXKdYe3w&utm_campaign=yelp_api_v3&utm_medium=api_v3_business_search&utm_source=gBcvfFpabk3CnzmXKdYe3w", "phone": "+12064201484", "coordinates": {"longitude": -122.31359, "latitude": 47.66093}, "categories": [{"alias": "mediterranean", "title": "Mediterranean"}, {"alias": "egyptian", "title": "Egyptian"}, {"alias": "halal", "title": "Halal"}], "review_count": 101, "location": {"city": "Seattle", "address1": "4337 University Way NE", "address3": null, "address2": null, "zip_code": "98105", "country": "US", "display_address": ["4337 University Way NE", "Seattle, WA 98105"], "state": "WA"}, "price": "$", "transactions": ["pickup"], "display_phone": "(206) 420-1484"}, {"rating": 4.0, "is_closed": false, "distance": 1252.248294953, "name": "Palace Kitchen", "id": "palace-kitchen-seattle", "image_url": "https://s3-media2.fl.yelpcdn.com/bphoto/Q-jDlhkObGgdBgjSHUSavw/o.jpg", "url": "https://www.yelp.com/biz/palace-kitchen-seattle?adjust_creative=gBcvfFpabk3CnzmXKdYe3w&utm_campaign=yelp_api_v3&utm_medium=api_v3_business_search&utm_source=gBcvfFpabk3CnzmXKdYe3w", "phone": "+12064482001", "coordinates": {"longitude": -122.340019226074, "latitude": 47.6145858764648}, "categories": [{"alias": "newamerican", "title": "American (New)"}, {"alias": "bars", "title": "Bars"}, {"alias": "desserts", "title": "Desserts"}], "review_count": 943, "location": {"city": "Seattle", "address1": "2030 5th Ave", "address3": "", "address2": "", "zip_code": "98121", "country": "US", "display_address": ["2030 5th Ave", "Seattle, WA 98121"], "state": "WA"}, "price": "$$", "transactions": [], "display_phone": "(206) 448-2001"}, {"rating": 4.0, "is_closed": false, "distance": 4015.0179640179995, "name": "Jhanjay Vegetarian Thai Cuisine", "id": "jhanjay-vegetarian-thai-cuisine-seattle", "image_url": "https://s3-media2.fl.yelpcdn.com/bphoto/zzo-4OYg9RcfP9BRcYYQig/o.jpg", "url": "https://www.yelp.com/biz/jhanjay-vegetarian-thai-cuisine-seattle?adjust_creative=gBcvfFpabk3CnzmXKdYe3w&utm_campaign=yelp_api_v3&utm_medium=api_v3_business_search&utm_source=gBcvfFpabk3CnzmXKdYe3w", "phone": "+12066321484", "coordinates": {"longitude": -122.33665, "latitude": 47.66152}, "categories": [{"alias": "thai", "title": "Thai"}, {"alias": "vegetarian", "title": "Vegetarian"}], "review_count": 348, "location": {"city": "Seattle", "address1": "1718 N 45th St", "address3": "", "address2": "", "zip_code": "98103", "country": "US", "display_address": ["1718 N 45th St", "Seattle, WA 98103"], "state": "WA"}, "price": "$$", "transactions": [], "display_phone": "(206) 632-1484"}, {"rating": 4.5, "is_closed": false, "distance": 3209.844401532, "name": "Spring Roll House-Deli", "id": "spring-roll-house-deli-seattle", "image_url": "https://s3-media1.fl.yelpcdn.com/bphoto/hmtkq3DaDB29t6QmNd_MjQ/o.jpg", "url": "https://www.yelp.com/biz/spring-roll-house-deli-seattle?adjust_creative=gBcvfFpabk3CnzmXKdYe3w&utm_campaign=yelp_api_v3&utm_medium=api_v3_business_search&utm_source=gBcvfFpabk3CnzmXKdYe3w", "phone": "+12067261628", "coordinates": {"longitude": -122.316123962402, "latitude": 47.5997543334961}, "categories": [{"alias": "vietnamese", "title": "Vietnamese"}, {"alias": "chinese", "title": "Chinese"}, {"alias": "noodles", "title": "Noodles"}], "review_count": 34, "location": {"city": "Seattle", "address1": "1221 Main St", "address3": "", "address2": "Ste 104", "zip_code": "98144", "country": "US", "display_address": ["1221 Main St", "Ste 104", "Seattle, WA 98144"], "state": "WA"}, "price": "$", "transactions": [], "display_phone": "(206) 726-1628"}, {"rating": 4.0, "is_closed": false, "distance": 1523.8316941698, "name": "The Upstairs", "id": "the-upstairs-seattle", "image_url": "https://s3-media3.fl.yelpcdn.com/bphoto/GjxAdEAbcEpFLRfQA8hC4w/o.jpg", "url": "https://www.yelp.com/biz/the-upstairs-seattle?adjust_creative=gBcvfFpabk3CnzmXKdYe3w&utm_campaign=yelp_api_v3&utm_medium=api_v3_business_search&utm_source=gBcvfFpabk3CnzmXKdYe3w", "phone": "+12064414013", "coordinates": {"longitude": -122.345024108887, "latitude": 47.6133041381836}, "categories": [{"alias": "lounges", "title": "Lounges"}, {"alias": "cocktailbars", "title": "Cocktail Bars"}], "review_count": 158, "location": {"city": "Seattle", "address1": "2209 2nd Ave", "address3": "", "address2": "", "zip_code": "98121", "country": "US", "display_address": ["2209 2nd Ave", "Seattle, WA 98121"], "state": "WA"}, "price": "$$", "transactions": [], "display_phone": "(206) 441-4013"}, {"rating": 4.0, "is_closed": false, "distance": 4229.3535667, "name": "Palisade", "id": "palisade-seattle", "image_url": "https://s3-media4.fl.yelpcdn.com/bphoto/Ps8n_cRcoA7YPEh0i2TyPA/o.jpg", "url": "https://www.yelp.com/biz/palisade-seattle?adjust_creative=gBcvfFpabk3CnzmXKdYe3w&utm_campaign=yelp_api_v3&utm_medium=api_v3_business_search&utm_source=gBcvfFpabk3CnzmXKdYe3w", "phone": "+12062851000", "coordinates": {"longitude": -122.391484938562, "latitude": 47.6302682978454}, "categories": [{"alias": "seafood", "title": "Seafood"}, {"alias": "steak", "title": "Steakhouses"}, {"alias": "asianfusion", "title": "Asian Fusion"}], "review_count": 1024, "location": {"city": "Seattle", "address1": "2601 W Marina Pl", "address3": "Elliott Bay Marina", "address2": "", "zip_code": "98199", "country": "US", "display_address": ["2601 W Marina Pl", "Elliott Bay Marina", "Seattle, WA 98199"], "state": "WA"}, "price": "$$$", "transactions": [], "display_phone": "(206) 285-1000"}, {"rating": 4.5, "is_closed": false, "distance": 5190.3999158199995, "name": "Java Jahn", "id": "java-jahn-seattle-2", "image_url": "https://s3-media4.fl.yelpcdn.com/bphoto/D899qQkXVOt6boGDg6u5yA/o.jpg", "url": "https://www.yelp.com/biz/java-jahn-seattle-2?adjust_creative=gBcvfFpabk3CnzmXKdYe3w&utm_campaign=yelp_api_v3&utm_medium=api_v3_business_search&utm_source=gBcvfFpabk3CnzmXKdYe3w", "phone": "+12067899441", "coordinates": {"longitude": -122.37491, "latitude": 47.66391}, "categories": [{"alias": "coffee", "title": "Coffee & Tea"}, {"alias": "bagels", "title": "Bagels"}, {"alias": "sandwiches", "title": "Sandwiches"}], "review_count": 50, "location": {"city": "Seattle", "address1": "1428 NW Leary Way", "address3": "", "address2": "", "zip_code": "98107", "country": "US", "display_address": ["1428 NW Leary Way", "Seattle, WA 98107"], "state": "WA"}, "price": "$", "transactions": [], "display_phone": "(206) 789-9441"}, {"rating": 4.0, "is_closed": false, "distance": 1198.775478976, "name": "Mamnoon Street", "id": "mamnoon-street-seattle", "image_url": "https://s3-media2.fl.yelpcdn.com/bphoto/rDBAnADO52SlFI_pa5NOzQ/o.jpg", "url": "https://www.yelp.com/biz/mamnoon-street-seattle?adjust_creative=gBcvfFpabk3CnzmXKdYe3w&utm_campaign=yelp_api_v3&utm_medium=api_v3_business_search&utm_source=gBcvfFpabk3CnzmXKdYe3w", "phone": "+12063279121", "coordinates": {"longitude": -122.33838, "latitude": 47.61484}, "categories": [{"alias": "mideastern", "title": "Middle Eastern"}], "review_count": 96, "location": {"city": "Seattle", "address1": "2020 6th Ave", "address3": "", "address2": "", "zip_code": "98121", "country": "US", "display_address": ["2020 6th Ave", "Seattle, WA 98121"], "state": "WA"}, "price": "$$", "transactions": [], "display_phone": "(206) 327-9121"}, {"rating": 4.0, "is_closed": false, "distance": 3933.8780989639995, "name": "Uneeda Burger", "id": "uneeda-burger-seattle", "image_url": "https://s3-media3.fl.yelpcdn.com/bphoto/Rr4Da0jidpWyZ7ML3JyH2g/o.jpg", "url": "https://www.yelp.com/biz/uneeda-burger-seattle?adjust_creative=gBcvfFpabk3CnzmXKdYe3w&utm_campaign=yelp_api_v3&utm_medium=api_v3_business_search&utm_source=gBcvfFpabk3CnzmXKdYe3w", "phone": "+12065472600", "coordinates": {"longitude": -122.34976, "latitude": 47.65952}, "categories": [{"alias": "burgers", "title": "Burgers"}, {"alias": "sandwiches", "title": "Sandwiches"}], "review_count": 940, "location": {"city": "Seattle", "address1": "4302 Fremont Ave N", "address3": "", "address2": "", "zip_code": "98103", "country": "US", "display_address": ["4302 Fremont Ave N", "Seattle, WA 98103"], "state": "WA"}, "price": "$$", "transactions": [], "display_phone": "(206) 547-2600"}, {"rating": 4.5, "is_closed": false, "distance": 4686.397597198, "name": "Rose Garden at Woodland Park Zoo", "id": "rose-garden-at-woodland-park-zoo-seattle", "image_url": "https://s3-media2.fl.yelpcdn.com/bphoto/8t-el5ZHXuwwTY6z8tRuZg/o.jpg", "url": "https://www.yelp.com/biz/rose-garden-at-woodland-park-zoo-seattle?adjust_creative=gBcvfFpabk3CnzmXKdYe3w&utm_campaign=yelp_api_v3&utm_medium=api_v3_business_search&utm_source=gBcvfFpabk3CnzmXKdYe3w", "phone": "+12062337272", "coordinates": {"longitude": -122.3493104, "latitude": 47.665177}, "categories": [{"alias": "parks", "title": "Parks"}, {"alias": "gardens", "title": "Botanical Gardens"}], "review_count": 38, "location": {"city": "Seattle", "address1": "750 N 50th St", "address3": "", "address2": "", "zip_code": "98103", "country": "US", "display_address": ["750 N 50th St", "Seattle, WA 98103"], "state": "WA"}, "transactions": [], "display_phone": "(206) 233-7272"}, {"rating": 5.0, "is_closed": false, "distance": 4295.347772079999, "name": "Meridian Playground", "id": "meridian-playground-seattle", "image_url": "https://s3-media1.fl.yelpcdn.com/bphoto/0TL8e0-01ePkPZ7I3Fi-pQ/o.jpg", "url": "https://www.yelp.com/biz/meridian-playground-seattle?adjust_creative=gBcvfFpabk3CnzmXKdYe3w&utm_campaign=yelp_api_v3&utm_medium=api_v3_business_search&utm_source=gBcvfFpabk3CnzmXKdYe3w", "phone": "+12066844075", "coordinates": {"longitude": -122.33152, "latitude": 47.6634699}, "categories": [{"alias": "parks", "title": "Parks"}, {"alias": "playgrounds", "title": "Playgrounds"}], "review_count": 25, "location": {"city": "Seattle", "address1": "4649 Sunnyside Ave N", "address3": "", "address2": "", "zip_code": "98103", "country": "US", "display_address": ["4649 Sunnyside Ave N", "Seattle, WA 98103"], "state": "WA"}, "transactions": [], "display_phone": "(206) 684-4075"}, {"rating": 4.0, "is_closed": false, "distance": 4051.525198182, "name": "Kate's Pub", "id": "kates-pub-seattle", "image_url": "https://s3-media1.fl.yelpcdn.com/bphoto/4Mey5ox1rRF5aBD7zrWAew/o.jpg", "url": "https://www.yelp.com/biz/kates-pub-seattle?adjust_creative=gBcvfFpabk3CnzmXKdYe3w&utm_campaign=yelp_api_v3&utm_medium=api_v3_business_search&utm_source=gBcvfFpabk3CnzmXKdYe3w", "phone": "+12065476832", "coordinates": {"longitude": -122.324615478516, "latitude": 47.6611099243164}, "categories": [{"alias": "pubs", "title": "Pubs"}, {"alias": "tradamerican", "title": "American (Traditional)"}], "review_count": 259, "location": {"city": "Seattle", "address1": "309 NE 45th St", "address3": "", "address2": null, "zip_code": "98105", "country": "US", "display_address": ["309 NE 45th St", "Seattle, WA 98105"], "state": "WA"}, "price": "$", "transactions": [], "display_phone": "(206) 547-6832"}]}