{"region": {"center": {"latitude": 47.62541904760501, "longitude": -122.33551025390625}}, "businesses": [{"transactions": ["pickup"], "distance": 1286.124580085, "price": "$$", "display_phone": "(206) 457-4148", "phone": "+12064574148", "url": "https://www.yelp.com/biz/lil-woodys-seattle?adjust_creative=gBcvfFpabk3CnzmXKdYe3w&utm_campaign=yelp_api_v3&utm_medium=api_v3_business_search&utm_source=gBcvfFpabk3CnzmXKdYe3w", "name": "Li'l Woody's", "location": {"display_address": ["1211 Pine St", "Seattle, WA 98101"], "country": "US", "state": "WA", "address3": "", "address2": null, "address1": "1211 Pine St", "city": "Seattle", "zip_code": "98101"}, "is_closed": false, "review_count": 659, "coordinates": {"latitude": 47.6149483, "longitude": -122.3281784}, "id": "lil-woodys-seattle", "image_url": "https://s3-media1.fl.yelpcdn.com/bphoto/fpd_BW1_9BVX4AySO6gUdw/o.jpg", "categories": [{"alias": "burgers", "title": "Burgers"}], "rating": 4.0}, {"transactions": [], "distance": 4369.096743184, "price": "$", "display_phone": "(206) 453-3788", "phone": "+12064533788", "url": "https://www.yelp.com/biz/u-don-seattle-4?adjust_creative=gBcvfFpabk3CnzmXKdYe3w&utm_campaign=yelp_api_v3&utm_medium=api_v3_business_search&utm_source=gBcvfFpabk3CnzmXKdYe3w", "name": "U:Don", "location": {"display_address": ["4515 University Way NE", "Seattle, WA 98105"], "country": "US", "state": "WA", "address3": "", "address2": null, "address1": "4515 University Way NE", "city": "Seattle", "zip_code": "98105"}, "is_closed": false, "review_count": 502, "coordinates": {"latitude": 47.6617467, "longitude": -122.3132848}, "id": "u-don-seattle-4", "image_url": "https://s3-media3.fl.yelpcdn.com/bphoto/5gaWz1UDwXo3K-Y72pVOnQ/o.jpg", "categories": [{"alias": "japanese", "title": "Japanese"}, {"alias": "noodles", "title": "Noodles"}], "rating": 4.0}, {"transactions": [], "distance": 4329.91961396, "price": "$$", "display_phone": "(206) 682-7955", "phone": "+12066827955", "url": "https://www.yelp.com/biz/zinnia-bistro-seattle?adjust_creative=gBcvfFpabk3CnzmXKdYe3w&utm_campaign=yelp_api_v3&utm_medium=api_v3_business_search&utm_source=gBcvfFpabk3CnzmXKdYe3w", "name": "Zinnia Bistro", "location": {"display_address": ["1759 1st Ave S", "Seattle, WA 98134"], "country": "US", "state": "WA", "address3": "", "address2": "", "address1": "1759 1st Ave S", "city": "Seattle", "zip_code": "98134"}, "is_closed": false, "review_count": 33, "coordinates": {"latitude": 47.5864296, "longitude": -122.334938}, "id": "zinnia-bistro-seattle", "image_url": "https://s3-media1.fl.yelpcdn.com/bphoto/966qJ3DmLytMJAcZMrz_tQ/o.jpg", "categories": [{"alias": "newamerican", "title": "American (New)"}, {"alias": "sandwiches", "title": "Sandwiches"}], "rating": 4.5}, {"transactions": [], "distance": 3145.96840946, "price": "$", "display_phone": "(206) 623-4198", "phone": "+12066234198", "url": "https://www.yelp.com/biz/szechuan-noodle-bowl-seattle?adjust_creative=gBcvfFpabk3CnzmXKdYe3w&utm_campaign=yelp_api_v3&utm_medium=api_v3_business_search&utm_source=gBcvfFpabk3CnzmXKdYe3w", "name": "Szechuan Noodle Bowl", "location": {"display_address": ["420 8th Ave S", "Seattle, WA 98104"], "country": "US", "state": "WA", "address3": "", "address2": "", "address1": "420 8th Ave S", "city": "Seattle", "zip_code": "98104"}, "is_closed": false, "review_count": 272, "coordinates": {"latitude": 47.5985680878656, "longitude": -122.322288304567}, "id": "szechuan-noodle-bowl-seattle", "image_url": "https://s3-media4.fl.yelpcdn.com/bphoto/p10txxVfYHvob8dZIXNQSA/o.jpg", "categories": [{"alias": "szechuan", "title": "Szechuan"}, {"alias": "noodles", "title": "Noodles"}], "rating": 4.0}, {"transactions": [], "distance": 2893.298971714, "price": "$$", "display_phone": "(206) 717-2147", "phone": "+12067172147", "url": "https://www.yelp.com/biz/coffeemind-seattle?adjust_creative=gBcvfFpabk3CnzmXKdYe3w&utm_campaign=yelp_api_v3&utm_medium=api_v3_business_search&utm_source=gBcvfFpabk3CnzmXKdYe3w", "name": "Coffeemind", "location": {"display_address": ["1907 10th Ave W", "Seattle, WA 98119"], "country": "US", "state": "WA", "address3": "", "address2": null, "address1": "1907 10th Ave W", "city": "Seattle", "zip_code": "98119"}, "is_closed": false, "review_count": 19, "coordinates": {"latitude": 47.63622, "longitude": -122.37064}, "id": "coffeemind-seattle", "image_url": "https://s3-media4.fl.yelpcdn.com/bphoto/0rJnNy62E_kpWaFe45gN0Q/o.jpg", "categories": [{"alias": "coffee", "title": "Coffee & Tea"}, {"alias": "homedecor", "title": "Home Decor"}, {"alias": "bakeries", "title": "Bakeries"}], "rating": 4.5}, {"transactions": [], "distance": 1470.5883378899998, "price": "$$", "display_phone": "(206) 441-4618", "phone": "+12064414618", "url": "https://www.yelp.com/biz/the-crocodile-seattle?adjust_creative=gBcvfFpabk3CnzmXKdYe3w&utm_campaign=yelp_api_v3&utm_medium=api_v3_business_search&utm_source=gBcvfFpabk3CnzmXKdYe3w", "name": "The Crocodile", "location": {"display_address": ["2200 2nd Ave", "Seattle, WA 98121"], "country": "US", "state": "WA", "address3": "", "address2": "", "address1": "2200 2nd Ave", "city": "Seattle", "zip_code": "98121"}, "is_closed": false, "review_count": 305, "coordinates": {"latitude": 47.6135902404785, "longitude": -122.344284057617}, "id": "the-crocodile-seattle", "image_url": "https://s3-media3.fl.yelpcdn.com/bphoto/hNaGjtDq3ofCFS2oA-PLyg/o.jpg", "categories": [{"alias": "musicvenues", "title": "Music Venues"}, {"alias": "bars", "title": "Bars"}], "rating": 4.0}, {"transactions": [], "distance": 6120.9074291, "price": "$$", "display_phone": "(206) 535-8489", "phone": "+12065358489", "url": "https://www.yelp.com/biz/pie-bar-ballard-seattle?adjust_creative=gBcvfFpabk3CnzmXKdYe3w&utm_campaign=yelp_api_v3&utm_medium=api_v3_business_search&utm_source=gBcvfFpabk3CnzmXKdYe3w", "name": "Pie Bar Ballard", "location": {"display_address": ["2218 NW Market St", "Seattle, WA 98107"], "country": "US", "state": "WA", "address3": "", "address2": null, "address1": "2218 NW Market St", "city": "Seattle", "zip_code": "98107"}, "is_closed": false, "review_count": 228, "coordinates": {"latitude": 47.66882, "longitude": -122.38557}, "id": "pie-bar-ballard-seattle", "image_url": "https://s3-media3.fl.yelpcdn.com/bphoto/hv3Z166n_pk0ZfJYPrNobg/o.jpg", "categories": [{"alias": "desserts", "title": "Desserts"}, {"alias": "cocktailbars", "title": "Cocktail Bars"}], "rating": 4.5}, {"transactions": [], "distance": 1265.0649016856, "price": "$", "display_phone": "(206) 403-1916", "phone": "+12064031916", "url": "https://www.yelp.com/biz/cafe-solstice-seattle-3?adjust_creative=gBcvfFpabk3CnzmXKdYe3w&utm_campaign=yelp_api_v3&utm_medium=api_v3_business_search&utm_source=gBcvfFpabk3CnzmXKdYe3w", "name": "Cafe Solstice", "location": {"display_address": ["925 E Thomas St", "Seattle, WA 98102"], "country": "US", "state": "WA", "address3": "", "address2": "", "address1": "925 E Thomas St", "city": "Seattle", "zip_code": "98102"}, "is_closed": false, "review_count": 131, "coordinates": {"latitude": 47.6209789842779, "longitude": -122.31996882087}, "id": "cafe-solstice-seattle-3", "image_url": "https://s3-media2.fl.yelpcdn.com/bphoto/Bd2mA3U0jBMp312pRoTmRQ/o.jpg", "categories": [{"alias": "cafes", "title": "Cafes"}, {"alias": "coffee", "title": "Coffee & Tea"}], "rating": 4.0}, {"transactions": ["pickup"], "distance": 4113.892434003999, "price": "$", "display_phone": "(206) 633-7867", "phone": "+12066337867", "url": "https://www.yelp.com/biz/thanh-vi-seattle-2?adjust_creative=gBcvfFpabk3CnzmXKdYe3w&utm_campaign=yelp_api_v3&utm_medium=api_v3_business_search&utm_source=gBcvfFpabk3CnzmXKdYe3w", "name": "Thanh Vi", "location": {"display_address": ["4226 University Way NE", "Seattle, WA 98105"], "country": "US", "state": "WA", "address3": "", "address2": "", "address1": "4226 University Way NE", "city": "Seattle", "zip_code": "98105"}, "is_closed": false, "review_count": 375, "coordinates": {"latitude": 47.65919, "longitude": -122.31296}, "id": "thanh-vi-seattle-2", "image_url": "https://s3-media2.fl.yelpcdn.com/bphoto/2FR15heyj2UDB7zWIa_46g/o.jpg", "categories": [{"alias": "vietnamese", "title": "Vietnamese"}, {"alias": "sandwiches", "title": "Sandwiches"}], "rating": 4.0}, {"transactions": [], "distance": 389.46229167499996, "price": "$$", "display_phone": "(206) 257-1888", "phone": "+12062571888", "url": "https://www.yelp.com/biz/local-public-eatery-seattle?adjust_creative=gBcvfFpabk3CnzmXKdYe3w&utm_campaign=yelp_api_v3&utm_medium=api_v3_business_search&utm_source=gBcvfFpabk3CnzmXKdYe3w", "name": "LOCAL Public Eatery", "location": {"display_address": ["404 Terry Ave N", "Seattle, WA 98109"], "country": "US", "state": "WA", "address3": "", "address2": null, "address1": "404 Terry Ave N", "city": "Seattle", "zip_code": "98109"}, "is_closed": false, "review_count": 135, "coordinates": {"latitude": 47.622183188796, "longitude": -122.33707331121}, "id": "local-public-eatery-seattle", "image_url": "https://s3-media2.fl.yelpcdn.com/bphoto/7dEWcyvCQXvdJlMHX-q9mg/o.jpg", "categories": [{"alias": "burgers", "title": "Burgers"}, {"alias": "pubs", "title": "Pubs"}], "rating": 4.0}, {"transactions": [], "distance": 5430.556413198, "display_phone": "(206) 684-4075", "phone": "+12066844075", "url": "https://www.yelp.com/biz/ravenna-park-seattle?adjust_creative=gBcvfFpabk3CnzmXKdYe3w&utm_campaign=yelp_api_v3&utm_medium=api_v3_business_search&utm_source=gBcvfFpabk3CnzmXKdYe3w", "name": "Ravenna Park", "location": {"display_address": ["5520 Ravenna Ave NE", "Seattle, WA 98105"], "country": "US", "state": "WA", "address3": "", "address2": "", "address1": "5520 Ravenna Ave NE", "city": "Seattle", "zip_code": "98105"}, "is_closed": false, "review_count": 37, "coordinates": {"latitude": 47.66885, "longitude": -122.3037551}, "id": "ravenna-park-seattle", "image_url": "https://s3-media2.fl.yelpcdn.com/bphoto/6UT26WQ2ebcPTp0ESYwaAg/o.jpg", "categories": [{"alias": "parks", "title": "Parks"}, {"alias": "playgrounds", "title": "Playgrounds"}], "rating": 4.5}, {"transactions": [], "distance": 1792.299105372, "price": "$$", "display_phone": "(206) 709-1900", "phone": "+12067091900", "url": "https://www.yelp.com/biz/smith-seattle?adjust_creative=gBcvfFpabk3CnzmXKdYe3w&utm_campaign=yelp_api_v3&utm_medium=api_v3_business_search&utm_source=gBcvfFpabk3CnzmXKdYe3w", "name": "Smith", "location": {"display_address": ["332 15th Ave E", "Seattle, WA 98112"], "country": "US", "state": "WA", "address3": "", "address2": "", "address1": "332 15th Ave E", "city": "Seattle", "zip_code": "98112"}, "is_closed": false, "review_count": 683, "coordinates": {"latitude": 47.6214889, "longitude": -122.312315}, "id": "smith-seattle", "image_url": "https://s3-media3.fl.yelpcdn.com/bphoto/rUEwUef88SQeLylRKAFsuQ/o.jpg", "categories": [{"alias": "bars", "title": "Bars"}, {"alias": "newamerican", "title": "American (New)"}, {"alias": "breakfast_brunch", "title": "Breakfast & Brunch"}], "rating": 3.5}, {"transactions": [], "distance": 799.226890252, "price": "$$", "display_phone": "(206) 624-4422", "phone": "+12066244422", "url": "https://www.yelp.com/biz/tutta-bella-neapolitan-pizzeria-south-lake-union-seattle?adjust_creative=gBcvfFpabk3CnzmXKdYe3w&utm_campaign=yelp_api_v3&utm_medium=api_v3_business_search&utm_source=gBcvfFpabk3CnzmXKdYe3w", "name": "Tutta Bella Neapolitan Pizzeria - South Lake Union", "location": {"display_address": ["2200 Westlake Ave", "Ste 112", "Seattle, WA 98121"], "country": "US", "state": "WA", "address3": "", "address2": "Ste 112", "address1": "2200 Westlake Ave", "city": "Seattle", "zip_code": "98121"}, "is_closed": false, "review_count": 367, "coordinates": {"latitude": 47.617938, "longitude": -122.337387}, "id": "tutta-bella-neapolitan-pizzeria-south-lake-union-seattle", "image_url": "https://s3-media2.fl.yelpcdn.com/bphoto/R-ypw0avz0ov8lTuDvUuUg/o.jpg", "categories": [{"alias": "pizza", "title": "Pizza"}, {"alias": "italian", "title": "Italian"}], "rating": 4.0}, {"transactions": [], "distance": 2714.57114307, "price": "$", "display_phone": "(206) 340-8859", "phone": "+12063408859", "url": "https://www.yelp.com/biz/planet-java-diner-seattle-2?adjust_creative=gBcvfFpabk3CnzmXKdYe3w&utm_campaign=yelp_api_v3&utm_medium=api_v3_business_search&utm_source=gBcvfFpabk3CnzmXKdYe3w", "name": "Planet Java Diner", "location": {"display_address": ["72 S Washington St", "Seattle, WA 98104"], "country": "US", "state": "WA", "address3": "", "address2": "", "address1": "72 S Washington St", "city": "Seattle", "zip_code": "98104"}, "is_closed": false, "review_count": 255, "coordinates": {"latitude": 47.6010599, "longitude": -122.33518}, "id": "planet-java-diner-seattle-2", "image_url": "https://s3-media1.fl.yelpcdn.com/bphoto/cYhyJOSjLLA-i--OAeknKA/o.jpg", "categories": [{"alias": "diners", "title": "Diners"}, {"alias": "tradamerican", "title": "American (Traditional)"}, {"alias": "breakfast_brunch", "title": "Breakfast & Brunch"}], "rating": 4.0}, {"transactions": [], "distance": 1545.522266036, "price": "$$", "display_phone": "(206) 995-8588", "phone": "+12069958588", "url": "https://www.yelp.com/biz/taqueria-cantina-seattle?adjust_creative=gBcvfFpabk3CnzmXKdYe3w&utm_campaign=yelp_api_v3&utm_medium=api_v3_business_search&utm_source=gBcvfFpabk3CnzmXKdYe3w", "name": "Taqueria Cantina", "location": {"display_address": ["2630 1st Ave", "Seattle, WA 98121"], "country": "US", "state": "WA", "address3": null, "address2": "", "address1": "2630 1st Ave", "city": "Seattle", "zip_code": "98121"}, "is_closed": false, "review_count": 78, "coordinates": {"latitude": 47.6157964442644, "longitude": -122.35038779676}, "id": "taqueria-cantina-seattle", "image_url": "https://s3-media2.fl.yelpcdn.com/bphoto/hta2D5mA9r7JfZBCpWtpAg/o.jpg", "categories": [{"alias": "mexican", "title": "Mexican"}, {"alias": "cocktailbars", "title": "Cocktail Bars"}], "rating": 4.0}, {"transactions": [], "distance": 1584.065234833, "price": "$$", "display_phone": "(206) 284-3868", "phone": "+12062843868", "url": "https://www.yelp.com/biz/athina-grill-seattle?adjust_creative=gBcvfFpabk3CnzmXKdYe3w&utm_campaign=yelp_api_v3&utm_medium=api_v3_business_search&utm_source=gBcvfFpabk3CnzmXKdYe3w", "name": "Athina Grill", "location": {"display_address": ["528 Queen Anne Ave N", "Seattle, WA 98109"], "country": "US", "state": "WA", "address3": "", "address2": "", "address1": "528 Queen Anne Ave N", "city": "Seattle", "zip_code": "98109"}, "is_closed": false, "review_count": 247, "coordinates": {"latitude": 47.624183, "longitude": -122.356566}, "id": "athina-grill-seattle", "image_url": "https://s3-media4.fl.yelpcdn.com/bphoto/gko-uLcVg7i4DBIUwdk87w/o.jpg", "categories": [{"alias": "greek", "title": "Greek"}], "rating": 4.0}, {"transactions": [], "distance": 2938.9693050359997, "price": "$$$", "display_phone": "(206) 632-1000", "phone": "+12066321000", "url": "https://www.yelp.com/biz/cantinetta-seattle?adjust_creative=gBcvfFpabk3CnzmXKdYe3w&utm_campaign=yelp_api_v3&utm_medium=api_v3_business_search&utm_source=gBcvfFpabk3CnzmXKdYe3w", "name": "Cantinetta", "location": {"display_address": ["3650 Wallingford Ave", "Seattle, WA 98103"], "country": "US", "state": "WA", "address3": "", "address2": "", "address1": "3650 Wallingford Ave", "city": "Seattle", "zip_code": "98103"}, "is_closed": false, "review_count": 305, "coordinates": {"latitude": 47.65186, "longitude": -122.33614}, "id": "cantinetta-seattle", "image_url": "https://s3-media1.fl.yelpcdn.com/bphoto/mLWkf1BvkDdXxf4iOsVDoA/o.jpg", "categories": [{"alias": "tuscan", "title": "Tuscan"}], "rating": 4.0}, {"transactions": [], "distance": 1575.22521068, "price": "$", "display_phone": "(206) 285-9728", "phone": "+12062859728", "url": "https://www.yelp.com/biz/mecca-cafe-seattle?adjust_creative=gBcvfFpabk3CnzmXKdYe3w&utm_campaign=yelp_api_v3&utm_medium=api_v3_business_search&utm_source=gBcvfFpabk3CnzmXKdYe3w", "name": "Mecca Cafe", "location": {"display_address": ["526 Queen Anne Ave N", "Seattle, WA 98109"], "country": "US", "state": "WA", "address3": "", "address2": "", "address1": "526 Queen Anne Ave N", "city": "Seattle", "zip_code": "98109"}, "is_closed": false, "review_count": 494, "coordinates": {"latitude": 47.62412, "longitude": -122.35637}, "id": "mecca-cafe-seattle", "image_url": "https://s3-media4.fl.yelpcdn.com/bphoto/KcdA3k3Y2laSgSYDxgJPZQ/o.jpg", "categories": [{"alias": "tradamerican", "title": "American (Traditional)"}, {"alias": "divebars", "title": "Dive Bars"}, {"alias": "breakfast_brunch", "title": "Breakfast & Brunch"}], "rating": 4.0}, {"transactions": ["pickup"], "distance": 4286.276888104, "price": "$$", "display_phone": "(206) 539-9731", "phone": "+12065399731", "url": "https://www.yelp.com/biz/el-legendario-mexican-restaurant-seattle?adjust_creative=gBcvfFpabk3CnzmXKdYe3w&utm_campaign=yelp_api_v3&utm_medium=api_v3_business_search&utm_source=gBcvfFpabk3CnzmXKdYe3w", "name": "El Legendario Mexican Restaurant", "location": {"display_address": ["4705 Aurora Ave N", "Seattle, WA 98103"], "country": "US", "state": "WA", "address3": "", "address2": "", "address1": "4705 Aurora Ave N", "city": "Seattle", "zip_code": "98103"}, "is_closed": false, "review_count": 59, "coordinates": {"latitude": 47.6630959404654, "longitude": -122.347594946623}, "id": "el-legendario-mexican-restaurant-seattle", "image_url": "https://s3-media2.fl.yelpcdn.com/bphoto/vTuXMty0DK1oopuPD_2Bfw/o.jpg", "categories": [{"alias": "mexican", "title": "Mexican"}], "rating": 4.0}, {"transactions": [], "distance": 1459.901837488, "price": "$$", "display_phone": "(206) 628-1610", "phone": "+12066281610", "url": "https://www.yelp.com/biz/cafe-nordstrom-seattle-5?adjust_creative=gBcvfFpabk3CnzmXKdYe3w&utm_campaign=yelp_api_v3&utm_medium=api_v3_business_search&utm_source=gBcvfFpabk3CnzmXKdYe3w", "name": "Cafe Nordstrom", "location": {"display_address": ["Nordstrom", "500 Pine St", "Seattle, WA 98101"], "country": "US", "state": "WA", "address3": "", "address2": "500 Pine St", "address1": "Nordstrom", "city": "Seattle", "zip_code": "98101"}, "is_closed": false, "review_count": 154, "coordinates": {"latitude": 47.61229, "longitude": -122.33628}, "id": "cafe-nordstrom-seattle-5", "image_url": "https://s3-media4.fl.yelpcdn.com/bphoto/NC0ivOQBWYeCDznAwY8Bxg/o.jpg", "categories": [{"alias": "newamerican", "title": "American (New)"}, {"alias": "cafes", "title": "Cafes"}, {"alias": "diners", "title": "Diners"}], "rating": 4.0}, {"transactions": [], "distance": 1518.6293416858, "price": "$", "display_phone": "(206) 682-7011", "phone": "+12066827011", "url": "https://www.yelp.com/biz/nyc-deli-market-seattle-2?adjust_creative=gBcvfFpabk3CnzmXKdYe3w&utm_campaign=yelp_api_v3&utm_medium=api_v3_business_search&utm_source=gBcvfFpabk3CnzmXKdYe3w", "name": "NYC Deli Market", "location": {"display_address": ["1520 7th Ave", "Seattle, WA 98101"], "country": "US", "state": "WA", "address3": "", "address2": "", "address1": "1520 7th Ave", "city": "Seattle", "zip_code": "98101"}, "is_closed": false, "review_count": 115, "coordinates": {"latitude": 47.6118828356266, "longitude": -122.333593145013}, "id": "nyc-deli-market-seattle-2", "image_url": "https://s3-media2.fl.yelpcdn.com/bphoto/AkkeFziZLwNTrDd5b6bmYQ/o.jpg", "categories": [{"alias": "delis", "title": "Delis"}, {"alias": "salad", "title": "Salad"}, {"alias": "breakfast_brunch", "title": "Breakfast & Brunch"}], "rating": 4.0}, {"transactions": [], "distance": 3094.5017162599997, "price": "$", "display_phone": "(206) 682-4006", "phone": "+12066824006", "url": "https://www.yelp.com/biz/kau-kau-barbeque-seattle?adjust_creative=gBcvfFpabk3CnzmXKdYe3w&utm_campaign=yelp_api_v3&utm_medium=api_v3_business_search&utm_source=gBcvfFpabk3CnzmXKdYe3w", "name": "Kau Kau Barbeque", "location": {"display_address": ["656 S King St", "Seattle, WA 98104"], "country": "US", "state": "WA", "address3": "", "address2": null, "address1": "656 S King St", "city": "Seattle", "zip_code": "98104"}, "is_closed": false, "review_count": 715, "coordinates": {"latitude": 47.59847, "longitude": -122.32471}, "id": "kau-kau-barbeque-seattle", "image_url": "https://s3-media2.fl.yelpcdn.com/bphoto/b8XDA9R94wzD19vlWJzjEw/o.jpg", "categories": [{"alias": "bbq", "title": "Barbeque"}, {"alias": "seafood", "title": "Seafood"}, {"alias": "cantonese", "title": "Cantonese"}], "rating": 4.0}, {"transactions": ["pickup"], "distance": 3237.5789624219997, "price": "$$", "display_phone": "(206) 299-2219", "phone": "+12062992219", "url": "https://www.yelp.com/biz/loving-hut-seattle?adjust_creative=gBcvfFpabk3CnzmXKdYe3w&utm_campaign=yelp_api_v3&utm_medium=api_v3_business_search&utm_source=gBcvfFpabk3CnzmXKdYe3w", "name": "Loving Hut", "location": {"display_address": ["1226 S Jackson St", "Seattle, WA 98144"], "country": "US", "state": "WA", "address3": "", "address2": "", "address1": "1226 S Jackson St", "city": "Seattle", "zip_code": "98144"}, "is_closed": false, "review_count": 199, "coordinates": {"latitude": 47.5993799, "longitude": -122.31609}, "id": "loving-hut-seattle", "image_url": "https://s3-media4.fl.yelpcdn.com/bphoto/Db-bTl5XCExmTL7yC-Sfiw/o.jpg", "categories": [{"alias": "vegan", "title": "Vegan"}, {"alias": "asianfusion", "title": "Asian Fusion"}], "rating": 4.0}, {"transactions": [], "distance": 1883.218607738, "price": "$", "display_phone": "(206) 282-8155", "phone": "+12062828155", "url": "https://www.yelp.com/biz/espresso-elegance-seattle?adjust_creative=gBcvfFpabk3CnzmXKdYe3w&utm_campaign=yelp_api_v3&utm_medium=api_v3_business_search&utm_source=gBcvfFpabk3CnzmXKdYe3w", "name": "Espresso Elegance", "location": {"display_address": ["122 Elliott Ave W", "Seattle, WA 98119"], "country": "US", "state": "WA", "address3": "", "address2": "", "address1": "122 Elliott Ave W", "city": "Seattle", "zip_code": "98119"}, "is_closed": false, "review_count": 34, "coordinates": {"latitude": 47.61907, "longitude": -122.35879}, "id": "espresso-elegance-seattle", "image_url": "https://s3-media3.fl.yelpcdn.com/bphoto/6DzowD6Gx303iDaHNgnkIA/o.jpg", "categories": [{"alias": "coffee", "title": "Coffee & Tea"}], "rating": 4.5}, {"transactions": ["delivery", "pickup"], "distance": 964.7854253024, "price": "$$", "display_phone": "(206) 283-0444", "phone": "+12062830444", "url": "https://www.yelp.com/biz/bahn-thai-restaurant-seattle?adjust_creative=gBcvfFpabk3CnzmXKdYe3w&utm_campaign=yelp_api_v3&utm_medium=api_v3_business_search&utm_source=gBcvfFpabk3CnzmXKdYe3w", "name": "Bahn Thai Restaurant", "location": {"display_address": ["409 Roy St", "Seattle, WA 98109"], "country": "US", "state": "WA", "address3": "", "address2": "", "address1": "409 Roy St", "city": "Seattle", "zip_code": "98109"}, "is_closed": false, "review_count": 289, "coordinates": {"latitude": 47.62526, "longitude": -122.34836}, "id": "bahn-thai-restaurant-seattle", "image_url": "https://s3-media1.fl.yelpcdn.com/bphoto/mQHQfXT4K_6CBKm7EgLqsQ/o.jpg", "categories": [{"alias": "thai", "title": "Thai"}], "rating": 4.0}, {"transactions": [], "distance": 1762.9439391019998, "price": "$$", "display_phone": "(206) 281-8833", "phone": "+12062818833", "url": "https://www.yelp.com/biz/tup-tim-thai-seattle?adjust_creative=gBcvfFpabk3CnzmXKdYe3w&utm_campaign=yelp_api_v3&utm_medium=api_v3_business_search&utm_source=gBcvfFpabk3CnzmXKdYe3w", "name": "Tup Tim Thai", "location": {"display_address": ["118 W Mercer St", "Seattle, WA 98119"], "country": "US", "state": "WA", "address3": "", "address2": "", "address1": "118 W Mercer St", "city": "Seattle", "zip_code": "98119"}, "is_closed": false, "review_count": 354, "coordinates": {"latitude": 47.624835, "longitude": -122.359054}, "id": "tup-tim-thai-seattle", "image_url": "https://s3-media2.fl.yelpcdn.com/bphoto/TR97g01kM1KlKEn7ULVfGw/o.jpg", "categories": [{"alias": "thai", "title": "Thai"}], "rating": 4.0}, {"transactions": [], "distance": 2838.163466116, "price": "$$", "display_phone": "(206) 624-1374", "phone": "+12066241374", "url": "https://www.yelp.com/biz/the-london-plane-seattle-3?adjust_creative=gBcvfFpabk3CnzmXKdYe3w&utm_campaign=yelp_api_v3&utm_medium=api_v3_business_search&utm_source=gBcvfFpabk3CnzmXKdYe3w", "name": "The London Plane", "location": {"display_address": ["300 Occidental Ave S", "Seattle, WA 98104"], "country": "US", "state": "WA", "address3": "", "address2": "", "address1": "300 Occidental Ave S", "city": "Seattle", "zip_code": "98104"}, "is_closed": false, "review_count": 311, "coordinates": {"latitude": 47.5999034196138, "longitude": -122.332821339369}, "id": "the-london-plane-seattle-3", "image_url": "https://s3-media2.fl.yelpcdn.com/bphoto/nJSJMxR37K4IyRqZsSQxmg/o.jpg", "categories": [{"alias": "cafes", "title": "Cafes"}, {"alias": "grocery", "title": "Grocery"}, {"alias": "florists", "title": "Florists"}], "rating": 4.0}, {"transactions": [], "distance": 1709.1713835499997, "price": "$$", "display_phone": "(206) 323-4255", "phone": "+12063234255", "url": "https://www.yelp.com/biz/jamjuree-thai-cuisine-seattle?adjust_creative=gBcvfFpabk3CnzmXKdYe3w&utm_campaign=yelp_api_v3&utm_medium=api_v3_business_search&utm_source=gBcvfFpabk3CnzmXKdYe3w", "name": "Jamjuree Thai Cuisine", "location": {"display_address": ["509 15th Ave E", "Seattle, WA 98112"], "country": "US", "state": "WA", "address3": "", "address2": "", "address1": "509 15th Ave E", "city": "Seattle", "zip_code": "98112"}, "is_closed": false, "review_count": 494, "coordinates": {"latitude": 47.62346, "longitude": -122.31293}, "id": "jamjuree-thai-cuisine-seattle", "image_url": "https://s3-media4.fl.yelpcdn.com/bphoto/jkFPC_WvAHt8obhPnKuqIA/o.jpg", "categories": [{"alias": "thai", "title": "Thai"}], "rating": 4.0}, {"transactions": [], "distance": 1926.3840033499998, "price": "$$", "display_phone": "(206) 588-8105", "phone": "+12065888105", "url": "https://www.yelp.com/biz/barrio-mexican-kitchen-and-bar-seattle?adjust_creative=gBcvfFpabk3CnzmXKdYe3w&utm_campaign=yelp_api_v3&utm_medium=api_v3_business_search&utm_source=gBcvfFpabk3CnzmXKdYe3w", "name": "Barrio Mexican Kitchen & Bar", "location": {"display_address": ["1420 12th Ave", "Seattle, WA 98122"], "country": "US", "state": "WA", "address3": "", "address2": "", "address1": "1420 12th Ave", "city": "Seattle", "zip_code": "98122"}, "is_closed": false, "review_count": 935, "coordinates": {"latitude": 47.6136667159702, "longitude": -122.31662850827}, "id": "barrio-mexican-kitchen-and-bar-seattle", "image_url": "https://s3-media2.fl.yelpcdn.com/bphoto/odPLad1H7FYFjT20HgvrYg/o.jpg", "categories": [{"alias": "mexican", "title": "Mexican"}, {"alias": "bars", "title": "Bars"}], "rating": 3.5}, {"transactions": [], "distance": 377.7847757944, "price": "$$", "display_phone": "(206) 467-5300", "phone": "+12064675300", "url": "https://www.yelp.com/biz/re-public-seattle-2?adjust_creative=gBcvfFpabk3CnzmXKdYe3w&utm_campaign=yelp_api_v3&utm_medium=api_v3_business_search&utm_source=gBcvfFpabk3CnzmXKdYe3w", "name": "re:public", "location": {"display_address": ["429 Westlake Ave N", "Seattle, WA 98109"], "country": "US", "state": "WA", "address3": "", "address2": "", "address1": "429 Westlake Ave N", "city": "Seattle", "zip_code": "98109"}, "is_closed": false, "review_count": 398, "coordinates": {"latitude": 47.62289, "longitude": -122.33876}, "id": "re-public-seattle-2", "image_url": "https://s3-media4.fl.yelpcdn.com/bphoto/goAcPgKBGoWkm6ZYV4StuQ/o.jpg", "categories": [{"alias": "newamerican", "title": "American (New)"}, {"alias": "bars", "title": "Bars"}, {"alias": "breakfast_brunch", "title": "Breakfast & Brunch"}], "rating": 4.0}, {"transactions": [], "distance": 7643.841964499999, "price": "$", "display_phone": "(206) 937-6036", "phone": "+12069376036", "url": "https://www.yelp.com/biz/pearls-tea-and-cafe-seattle?adjust_creative=gBcvfFpabk3CnzmXKdYe3w&utm_campaign=yelp_api_v3&utm_medium=api_v3_business_search&utm_source=gBcvfFpabk3CnzmXKdYe3w", "name": "Pearls Tea & Cafe", "location": {"display_address": ["4800 Delridge Way SW", "Seattle, WA 98106"], "country": "US", "state": "WA", "address3": "", "address2": "", "address1": "4800 Delridge Way SW", "city": "Seattle", "zip_code": "98106"}, "is_closed": false, "review_count": 157, "coordinates": {"latitude": 47.5591430664062, "longitude": -122.362632751465}, "id": "pearls-tea-and-cafe-seattle", "image_url": "https://s3-media1.fl.yelpcdn.com/bphoto/FSWus7W_hqT-_4k4ioi6Bw/o.jpg", "categories": [{"alias": "coffee", "title": "Coffee & Tea"}, {"alias": "sandwiches", "title": "Sandwiches"}, {"alias": "creperies", "title": "Creperies"}], "rating": 4.5}, {"transactions": [], "distance": 2942.181225808, "price": "$", "display_phone": "(206) 550-3402", "phone": "+12065503402", "url": "https://www.yelp.com/biz/union-coffee-seattle?adjust_creative=gBcvfFpabk3CnzmXKdYe3w&utm_campaign=yelp_api_v3&utm_medium=api_v3_business_search&utm_source=gBcvfFpabk3CnzmXKdYe3w", "name": "Union Coffee", "location": {"display_address": ["2407 E Union St", "Ste B", "Seattle, WA 98122"], "country": "US", "state": "WA", "address3": null, "address2": "Ste B", "address1": "2407 E Union St", "city": "Seattle", "zip_code": "98122"}, "is_closed": false, "review_count": 19, "coordinates": {"latitude": 47.6126556396484, "longitude": -122.30094909668}, "id": "union-coffee-seattle", "image_url": "https://s3-media2.fl.yelpcdn.com/bphoto/99K9k7mqUWBoCPCLIzTvJQ/o.jpg", "categories": [{"alias": "coffee", "title": "Coffee & Tea"}], "rating": 4.5}, {"transactions": [], "distance": 1268.973763238, "price": "$$", "display_phone": "(206) 588-0375", "phone": "+12065880375", "url": "https://www.yelp.com/biz/the-pine-box-seattle?adjust_creative=gBcvfFpabk3CnzmXKdYe3w&utm_campaign=yelp_api_v3&utm_medium=api_v3_business_search&utm_source=gBcvfFpabk3CnzmXKdYe3w", "name": "The Pine Box", "location": {"display_address": ["1600 Melrose Ave", "Seattle, WA 98122"], "country": "US", "state": "WA", "address3": "", "address2": "", "address1": "1600 Melrose Ave", "city": "Seattle", "zip_code": "98122"}, "is_closed": false, "review_count": 372, "coordinates": {"latitude": 47.6153375208378, "longitude": -122.327823713422}, "id": "the-pine-box-seattle", "image_url": "https://s3-media2.fl.yelpcdn.com/bphoto/u3nKoM1oqDhj0FlNHVv4og/o.jpg", "categories": [{"alias": "pubs", "title": "Pubs"}, {"alias": "newamerican", "title": "American (New)"}], "rating": 4.0}, {"transactions": ["delivery", "pickup"], "distance": 3470.8304255959997, "price": "$$", "display_phone": "(206) 322-9895", "phone": "+12063229895", "url": "https://www.yelp.com/biz/cheeky-cafe-seattle?adjust_creative=gBcvfFpabk3CnzmXKdYe3w&utm_campaign=yelp_api_v3&utm_medium=api_v3_business_search&utm_source=gBcvfFpabk3CnzmXKdYe3w", "name": "Cheeky Cafe", "location": {"display_address": ["1700 S Jackson St", "Seattle, WA 98144"], "country": "US", "state": "WA", "address3": "", "address2": "", "address1": "1700 S Jackson St", "city": "Seattle", "zip_code": "98144"}, "is_closed": false, "review_count": 286, "coordinates": {"latitude": 47.5994529724121, "longitude": -122.309623718262}, "id": "cheeky-cafe-seattle", "image_url": "https://s3-media3.fl.yelpcdn.com/bphoto/DMiqPOLzJaOn0X4I8E1bog/o.jpg", "categories": [{"alias": "asianfusion", "title": "Asian Fusion"}, {"alias": "comfortfood", "title": "Comfort Food"}, {"alias": "breakfast_brunch", "title": "Breakfast & Brunch"}], "rating": 4.0}, {"transactions": [], "distance": 2752.946981908, "price": "$$", "display_phone": "(206) 283-5900", "phone": "+12062835900", "url": "https://www.yelp.com/biz/macrina-bakery-and-cafe-seattle?adjust_creative=gBcvfFpabk3CnzmXKdYe3w&utm_campaign=yelp_api_v3&utm_medium=api_v3_business_search&utm_source=gBcvfFpabk3CnzmXKdYe3w", "name": "Macrina Bakery & Cafe", "location": {"display_address": ["615 W McGraw St", "Seattle, WA 98119"], "country": "US", "state": "WA", "address3": "", "address2": "", "address1": "615 W McGraw St", "city": "Seattle", "zip_code": "98119"}, "is_closed": false, "review_count": 207, "coordinates": {"latitude": 47.63941, "longitude": -122.36589}, "id": "macrina-bakery-and-cafe-seattle", "image_url": "https://s3-media4.fl.yelpcdn.com/bphoto/c6fmdw06KPAsPxzvwyRBAA/o.jpg", "categories": [{"alias": "bakeries", "title": "Bakeries"}, {"alias": "cafes", "title": "Cafes"}, {"alias": "cakeshop", "title": "Patisserie/Cake Shop"}], "rating": 4.0}, {"transactions": [], "distance": 6178.905789623999, "price": "$$$$", "display_phone": "(206) 525-2073", "phone": "+12065252073", "url": "https://www.yelp.com/biz/wataru-seattle?adjust_creative=gBcvfFpabk3CnzmXKdYe3w&utm_campaign=yelp_api_v3&utm_medium=api_v3_business_search&utm_source=gBcvfFpabk3CnzmXKdYe3w", "name": "Wataru", "location": {"display_address": ["2400 NE 65th St", "Seattle, WA 98115"], "country": "US", "state": "WA", "address3": "", "address2": "", "address1": "2400 NE 65th St", "city": "Seattle", "zip_code": "98115"}, "is_closed": false, "review_count": 90, "coordinates": {"latitude": 47.67595, "longitude": -122.3015}, "id": "wataru-seattle", "image_url": "https://s3-media3.fl.yelpcdn.com/bphoto/pvhVbBY0Vjizy1jpRSlb4w/o.jpg", "categories": [{"alias": "sushi", "title": "Sushi Bars"}, {"alias": "japanese", "title": "Japanese"}], "rating": 4.5}, {"transactions": [], "distance": 3231.967354776, "price": "$", "display_phone": "(206) 324-4141", "phone": "+12063244141", "url": "https://www.yelp.com/biz/ezells-famous-chicken-seattle-3?adjust_creative=gBcvfFpabk3CnzmXKdYe3w&utm_campaign=yelp_api_v3&utm_medium=api_v3_business_search&utm_source=gBcvfFpabk3CnzmXKdYe3w", "name": "Ezell's Famous Chicken", "location": {"display_address": ["501 23rd Ave", "Seattle, WA 98122"], "country": "US", "state": "WA", "address3": "", "address2": "", "address1": "501 23rd Ave", "city": "Seattle", "zip_code": "98122"}, "is_closed": false, "review_count": 609, "coordinates": {"latitude": 47.60632, "longitude": -122.303011}, "id": "ezells-famous-chicken-seattle-3", "image_url": "https://s3-media3.fl.yelpcdn.com/bphoto/plTd2dYeEY6NiUyQHAQF3Q/o.jpg", "categories": [{"alias": "hotdogs", "title": "Fast Food"}, {"alias": "chickenshop", "title": "Chicken Shop"}], "rating": 4.0}, {"transactions": [], "distance": 6366.8387212, "price": "$$", "display_phone": "(206) 721-7537", "phone": "+12067217537", "url": "https://www.yelp.com/biz/cafe-ibex-seattle?adjust_creative=gBcvfFpabk3CnzmXKdYe3w&utm_campaign=yelp_api_v3&utm_medium=api_v3_business_search&utm_source=gBcvfFpabk3CnzmXKdYe3w", "name": "Cafe Ibex", "location": {"display_address": ["3219 Martin Luther King Jr Way S", "Seattle, WA 98144"], "country": "US", "state": "WA", "address3": "", "address2": "", "address1": "3219 Martin Luther King Jr Way S", "city": "Seattle", "zip_code": "98144"}, "is_closed": false, "review_count": 75, "coordinates": {"latitude": 47.574278289178, "longitude": -122.29732096801}, "id": "cafe-ibex-seattle", "image_url": "https://s3-media1.fl.yelpcdn.com/bphoto/LSV0Ez04XXk5KoPDeDwS8Q/o.jpg", "categories": [{"alias": "ethiopian", "title": "Ethiopian"}], "rating": 4.5}, {"transactions": [], "distance": 3111.3936707679995, "price": "$", "display_phone": "(206) 748-9168", "phone": "+12067489168", "url": "https://www.yelp.com/biz/king-noodle-seattle?adjust_creative=gBcvfFpabk3CnzmXKdYe3w&utm_campaign=yelp_api_v3&utm_medium=api_v3_business_search&utm_source=gBcvfFpabk3CnzmXKdYe3w", "name": "King Noodle", "location": {"display_address": ["615 S King St", "Seattle, WA 98104"], "country": "US", "state": "WA", "address3": "", "address2": "", "address1": "615 S King St", "city": "Seattle", "zip_code": "98104"}, "is_closed": false, "review_count": 345, "coordinates": {"latitude": 47.5982018, "longitude": -122.3255081}, "id": "king-noodle-seattle", "image_url": "https://s3-media4.fl.yelpcdn.com/bphoto/Rwfz8z9wfm6Xpimj1-SJbg/o.jpg", "categories": [{"alias": "chinese", "title": "Chinese"}, {"alias": "noodles", "title": "Noodles"}], "rating": 4.0}, {"transactions": [], "distance": 2903.387280438, "price": "$$", "display_phone": "(206) 682-3242", "phone": "+12066823242", "url": "https://www.yelp.com/biz/temple-billiards-seattle-2?adjust_creative=gBcvfFpabk3CnzmXKdYe3w&utm_campaign=yelp_api_v3&utm_medium=api_v3_business_search&utm_source=gBcvfFpabk3CnzmXKdYe3w", "name": "Temple Billiards", "location": {"display_address": ["126 S Jackson St", "Seattle, WA 98104"], "country": "US", "state": "WA", "address3": "", "address2": "", "address1": "126 S Jackson St", "city": "Seattle", "zip_code": "98104"}, "is_closed": false, "review_count": 94, "coordinates": {"latitude": 47.5993799, "longitude": -122.33328}, "id": "temple-billiards-seattle-2", "image_url": "https://s3-media1.fl.yelpcdn.com/bphoto/wrbWZcRsiEumDIEHgJtRsw/o.jpg", "categories": [{"alias": "poolhalls", "title": "Pool Halls"}, {"alias": "cocktailbars", "title": "Cocktail Bars"}], "rating": 4.0}, {"transactions": [], "distance": 1814.9990070059998, "price": "$$", "display_phone": "(206) 625-0129", "phone": "+12066250129", "url": "https://www.yelp.com/biz/steelhead-diner-seattle?adjust_creative=gBcvfFpabk3CnzmXKdYe3w&utm_campaign=yelp_api_v3&utm_medium=api_v3_business_search&utm_source=gBcvfFpabk3CnzmXKdYe3w", "name": "Steelhead Diner", "location": {"display_address": ["95 Pine St", "Pike Place Market", "Seattle, WA 98101"], "country": "US", "state": "WA", "address3": "Pike Place Market", "address2": "", "address1": "95 Pine St", "city": "Seattle", "zip_code": "98101"}, "is_closed": false, "review_count": 1191, "coordinates": {"latitude": 47.60956, "longitude": -122.34105}, "id": "steelhead-diner-seattle", "image_url": "https://s3-media1.fl.yelpcdn.com/bphoto/dLZySl0WWgc83xqOfgJQBQ/o.jpg", "categories": [{"alias": "diners", "title": "Diners"}, {"alias": "seafood", "title": "Seafood"}], "rating": 3.5}, {"transactions": [], "distance": 4085.0575673559997, "price": "$", "display_phone": "(206) 284-6363", "phone": "+12062846363", "url": "https://www.yelp.com/biz/red-mill-burgers-seattle-3?adjust_creative=gBcvfFpabk3CnzmXKdYe3w&utm_campaign=yelp_api_v3&utm_medium=api_v3_business_search&utm_source=gBcvfFpabk3CnzmXKdYe3w", "name": "Red Mill Burgers", "location": {"display_address": ["1613 W Dravus St", "Seattle, WA 98119"], "country": "US", "state": "WA", "address3": "", "address2": "", "address1": "1613 W Dravus St", "city": "Seattle", "zip_code": "98119"}, "is_closed": false, "review_count": 731, "coordinates": {"latitude": 47.6481895446777, "longitude": -122.378303527832}, "id": "red-mill-burgers-seattle-3", "image_url": "https://s3-media2.fl.yelpcdn.com/bphoto/mYfUF5WtVTJVHuF5U8DMGA/o.jpg", "categories": [{"alias": "burgers", "title": "Burgers"}], "rating": 4.0}, {"transactions": [], "distance": 3705.70410349, "price": "$$$", "display_phone": "(206) 454-7932", "phone": "+12064547932", "url": "https://www.yelp.com/biz/red-cow-seattle?adjust_creative=gBcvfFpabk3CnzmXKdYe3w&utm_campaign=yelp_api_v3&utm_medium=api_v3_business_search&utm_source=gBcvfFpabk3CnzmXKdYe3w", "name": "Red Cow", "location": {"display_address": ["1423 34th Ave", "Seattle, WA 98122"], "country": "US", "state": "WA", "address3": "", "address2": "", "address1": "1423 34th Ave", "city": "Seattle", "zip_code": "98122"}, "is_closed": false, "review_count": 194, "coordinates": {"latitude": 47.6135963, "longitude": -122.2892844}, "id": "red-cow-seattle", "image_url": "https://s3-media4.fl.yelpcdn.com/bphoto/ov-IpgKa-_SAioBAHqd1uw/o.jpg", "categories": [{"alias": "french", "title": "French"}, {"alias": "steak", "title": "Steakhouses"}], "rating": 4.0}, {"transactions": [], "distance": 8453.59426022, "price": "$", "display_phone": "(425) 780-9681", "phone": "+14257809681", "url": "https://www.yelp.com/biz/el-chito-seattle?adjust_creative=gBcvfFpabk3CnzmXKdYe3w&utm_campaign=yelp_api_v3&utm_medium=api_v3_business_search&utm_source=gBcvfFpabk3CnzmXKdYe3w", "name": "El Chito", "location": {"display_address": ["5604 Delridge Way SW", "Seattle, WA 98106"], "country": "US", "state": "WA", "address3": "", "address2": "", "address1": "5604 Delridge Way SW", "city": "Seattle", "zip_code": "98106"}, "is_closed": false, "review_count": 28, "coordinates": {"latitude": 47.5516325151607, "longitude": -122.362658150936}, "id": "el-chito-seattle", "image_url": "https://s3-media4.fl.yelpcdn.com/bphoto/RZacLH_z5vJPBNJNnqySfQ/o.jpg", "categories": [{"alias": "streetvendors", "title": "Street Vendors"}, {"alias": "mexican", "title": "Mexican"}], "rating": 5.0}, {"transactions": [], "distance": 8949.21143464, "price": "$$", "display_phone": "(206) 420-7693", "phone": "+12064207693", "url": "https://www.yelp.com/biz/la-caba%C3%B1a-seattle?adjust_creative=gBcvfFpabk3CnzmXKdYe3w&utm_campaign=yelp_api_v3&utm_medium=api_v3_business_search&utm_source=gBcvfFpabk3CnzmXKdYe3w", "name": "La Caba\u00f1a", "location": {"display_address": ["606 N 105th St", "Seattle, WA 98133"], "country": "US", "state": "WA", "address3": "", "address2": "", "address1": "606 N 105th St", "city": "Seattle", "zip_code": "98133"}, "is_closed": false, "review_count": 99, "coordinates": {"latitude": 47.7052, "longitude": -122.35088}, "id": "la-caba\u00f1a-seattle", "image_url": "https://s3-media3.fl.yelpcdn.com/bphoto/N-rvX7bqJT1jWR-uGz3LLQ/o.jpg", "categories": [{"alias": "breakfast_brunch", "title": "Breakfast & Brunch"}, {"alias": "latin", "title": "Latin American"}, {"alias": "dinnertheater", "title": "Dinner Theater"}], "rating": 4.5}, {"transactions": ["pickup"], "distance": 6021.06156149, "price": "$", "display_phone": "(206) 782-7777", "phone": "+12067827777", "url": "https://www.yelp.com/biz/mr-gyros-seattle-2?adjust_creative=gBcvfFpabk3CnzmXKdYe3w&utm_campaign=yelp_api_v3&utm_medium=api_v3_business_search&utm_source=gBcvfFpabk3CnzmXKdYe3w", "name": "Mr. Gyros", "location": {"display_address": ["5522 20th Ave NW", "Seattle, WA 98107"], "country": "US", "state": "WA", "address3": "", "address2": "", "address1": "5522 20th Ave NW", "city": "Seattle", "zip_code": "98107"}, "is_closed": false, "review_count": 278, "coordinates": {"latitude": 47.6695873953204, "longitude": -122.382009446032}, "id": "mr-gyros-seattle-2", "image_url": "https://s3-media1.fl.yelpcdn.com/bphoto/tfPD7C5dvNpc3d8IiKqNEw/o.jpg", "categories": [{"alias": "greek", "title": "Greek"}, {"alias": "mideastern", "title": "Middle Eastern"}, {"alias": "mediterranean", "title": "Mediterranean"}], "rating": 4.0}, {"transactions": [], "distance": 3117.096367058, "price": "$$", "display_phone": "(206) 799-9560", "phone": "+12067999560", "url": "https://www.yelp.com/biz/gopok%C3%A9-seattle-5?adjust_creative=gBcvfFpabk3CnzmXKdYe3w&utm_campaign=yelp_api_v3&utm_medium=api_v3_business_search&utm_source=gBcvfFpabk3CnzmXKdYe3w", "name": "goPok\u00e9", "location": {"display_address": ["625 S King St", "Seattle, WA 98104"], "country": "US", "state": "WA", "address3": null, "address2": "", "address1": "625 S King St", "city": "Seattle", "zip_code": "98104"}, "is_closed": false, "review_count": 180, "coordinates": {"latitude": 47.5982, "longitude": -122.32528}, "id": "gopok\u00e9-seattle-5", "image_url": "https://s3-media4.fl.yelpcdn.com/bphoto/-xcxOQcHIqtJlLmbcS7Lmw/o.jpg", "categories": [{"alias": "poke", "title": "Poke"}, {"alias": "hawaiian", "title": "Hawaiian"}, {"alias": "desserts", "title": "Desserts"}], "rating": 4.5}, {"transactions": [], "distance": 9518.0632351, "price": "$$", "display_phone": "(206) 762-1777", "phone": "+12067621777", "url": "https://www.yelp.com/biz/calozzis-cheesesteaks-seattle-3?adjust_creative=gBcvfFpabk3CnzmXKdYe3w&utm_campaign=yelp_api_v3&utm_medium=api_v3_business_search&utm_source=gBcvfFpabk3CnzmXKdYe3w", "name": "Calozzi's Cheesesteaks", "location": {"display_address": ["7016 E Marginal Way S", "Seattle, WA 98108"], "country": "US", "state": "WA", "address3": "", "address2": "", "address1": "7016 E Marginal Way S", "city": "Seattle", "zip_code": "98108"}, "is_closed": false, "review_count": 176, "coordinates": {"latitude": 47.540249, "longitude": -122.3228454}, "id": "calozzis-cheesesteaks-seattle-3", "image_url": "https://s3-media3.fl.yelpcdn.com/bphoto/veVP8edxLhmGBmdBS6fFiQ/o.jpg", "categories": [{"alias": "cheesesteaks", "title": "Cheesesteaks"}, {"alias": "sandwiches", "title": "Sandwiches"}], "rating": 4.5}, {"transactions": ["pickup"], "distance": 5645.81738638, "price": "$", "display_phone": "(206) 467-0306", "phone": "+12064670306", "url": "https://www.yelp.com/biz/sodo-deli-seattle?adjust_creative=gBcvfFpabk3CnzmXKdYe3w&utm_campaign=yelp_api_v3&utm_medium=api_v3_business_search&utm_source=gBcvfFpabk3CnzmXKdYe3w", "name": "SODO Deli", "location": {"display_address": ["3228 1st Ave S", "Seattle, WA 98134"], "country": "US", "state": "WA", "address3": "", "address2": "", "address1": "3228 1st Ave S", "city": "Seattle", "zip_code": "98134"}, "is_closed": false, "review_count": 123, "coordinates": {"latitude": 47.57458, "longitude": -122.3337}, "id": "sodo-deli-seattle", "image_url": "https://s3-media2.fl.yelpcdn.com/bphoto/pjb6IW3PwuWw1pVsaH_Xww/o.jpg", "categories": [{"alias": "delis", "title": "Delis"}, {"alias": "sandwiches", "title": "Sandwiches"}, {"alias": "salad", "title": "Salad"}], "rating": 4.5}, {"transactions": [], "distance": 406.2142657898, "price": "$", "display_phone": "(206) 432-1118", "phone": "+12064321118", "url": "https://www.yelp.com/biz/kakao-seattle-2?adjust_creative=gBcvfFpabk3CnzmXKdYe3w&utm_campaign=yelp_api_v3&utm_medium=api_v3_business_search&utm_source=gBcvfFpabk3CnzmXKdYe3w", "name": "Kakao", "location": {"display_address": ["415 Westlake Ave N", "Seattle, WA 98109"], "country": "US", "state": "WA", "address3": "", "address2": "", "address1": "415 Westlake Ave N", "city": "Seattle", "zip_code": "98109"}, "is_closed": false, "review_count": 100, "coordinates": {"latitude": 47.622627, "longitude": -122.338851}, "id": "kakao-seattle-2", "image_url": "https://s3-media2.fl.yelpcdn.com/bphoto/2s7-HNJIvqZSsfaZdfuBfQ/o.jpg", "categories": [{"alias": "coffee", "title": "Coffee & Tea"}, {"alias": "chocolate", "title": "Chocolatiers & Shops"}], "rating": 4.0}], "total": 36024}